[
  {
    "title": "Purito",
    "description": "Sourced from predicthq.com",
    "category": "sports",
    "start": "2024-08-10T22:00:00Z",
    "geo": {
      "geometry": { "coordinates": [1.5218355, 42.5063174], "type": "Point" },
      "placekey": "@7f8-68f-fs5",
      "address": {
        "country_code": "AD",
        "formatted_address": "Carrer Prat de la Creu, AD500 Andorra la Vella, Andorra",
        "locality": "Andorra la Vella",
        "postcode": "AD500",
        "region": "Andorra la Vella"
      }
    },
    "labels": ["outdoor-sports", "running", "sport"],
    "duration": 86399,
    "start_local": "2024-08-11T00:00:00",
    "end": "2024-08-11T21:59:59Z",
    "end_local": "2024-08-11T23:59:59",
    "updated": "2024-06-11T00:32:50Z"
  },
  {
    "title": "Mountain Festival Comapedrosa",
    "description": "Sourced from predicthq.com",
    "category": "sports",
    "start": "2024-07-20T07:00:00Z",
    "geo": {
      "geometry": { "coordinates": [1.4818113, 42.574856], "type": "Point" },
      "placekey": "@7f8-6pz-rff",
      "address": {
        "country_code": "AD",
        "formatted_address": "AD400 Arinsal, Andorra",
        "locality": "Arinsal",
        "postcode": "AD400",
        "region": "La Massana"
      }
    },
    "labels": ["festival", "outdoor-sports", "running", "sport"],
    "duration": 0,
    "start_local": "2024-07-20T09:00:00",
    "end": "2024-07-20T07:00:00Z",
    "end_local": "2024-07-20T09:00:00",
    "updated": "2024-06-04T01:48:41Z"
  },
  {
    "title": "UEFA Conference League - 1st Qualifying Round - Inter Club d'Escaldes vs Velež",
    "description": "Sourced from predicthq.com",
    "category": "sports",
    "start": "2024-07-18T16:00:00Z",
    "geo": {
      "geometry": { "coordinates": [1.5174616, 42.5046893], "type": "Point" },
      "placekey": "@7f8-6wx-5fz",
      "address": {
        "country_code": "AD",
        "formatted_address": "Baixada del Molí, 31-35, AD500 Andorra la Vella, Andorra",
        "postcode": "AD500",
        "locality": "Andorra la Vella",
        "region": "Andorra la Vella"
      }
    },
    "labels": ["soccer", "sport"],
    "duration": 0,
    "start_local": "2024-07-18T18:00:00",
    "end": "2024-07-18T16:00:00Z",
    "end_local": "2024-07-18T18:00:00",
    "updated": "2024-06-24T17:55:11Z"
  },
  {
    "title": "UEFA Conference League - 1st Qualifying Round - Atlètic Club d'Escaldes vs F91 Dudelange",
    "description": "Sourced from predicthq.com",
    "category": "sports",
    "start": "2024-07-11T16:30:00Z",
    "geo": {
      "geometry": { "coordinates": [1.5174616, 42.5046893], "type": "Point" },
      "placekey": "@7f8-6wx-5fz",
      "address": {
        "country_code": "AD",
        "formatted_address": "Baixada del Molí, 31-35, AD500 Andorra la Vella, Andorra",
        "postcode": "AD500",
        "locality": "Andorra la Vella",
        "region": "Andorra la Vella"
      }
    },
    "labels": ["soccer", "sport"],
    "duration": 0,
    "start_local": "2024-07-11T18:30:00",
    "end": "2024-07-11T16:30:00Z",
    "end_local": "2024-07-11T18:30:00",
    "updated": "2024-06-24T18:41:57Z"
  },
  {
    "title": "Mando Diao",
    "description": "Sourced from predicthq.com",
    "category": "concerts",
    "start": "2024-07-10T17:00:00Z",
    "geo": {
      "geometry": { "coordinates": [1.5326615, 42.5078282], "type": "Point" },
      "placekey": "@7f8-68f-2tv",
      "address": {
        "country_code": "AD",
        "formatted_address": "Carrer de la Borda, 5, AD500 Andorra la Vella, Andorra",
        "postcode": "AD500",
        "locality": "Andorra la Vella",
        "region": "Andorra la Vella"
      }
    },
    "labels": ["concert", "music"],
    "duration": 0,
    "start_local": "2024-07-10T19:00:00",
    "end": "2024-07-10T17:00:00Z",
    "end_local": "2024-07-10T19:00:00",
    "updated": "2024-06-11T06:42:56Z"
  },
  {
    "title": "UEFA Champions League - 1st Qualifying Round - UE Santa Coloma vs Ballkani",
    "description": "Sourced from predicthq.com",
    "category": "sports",
    "start": "2024-07-09T18:00:00Z",
    "geo": {
      "geometry": { "coordinates": [1.5174616, 42.5046893], "type": "Point" },
      "placekey": "@7f8-6wx-5fz",
      "address": {
        "country_code": "AD",
        "formatted_address": "Baixada del Molí, 31-35, AD500 Andorra la Vella, Andorra",
        "postcode": "AD500",
        "locality": "Andorra la Vella",
        "region": "Andorra la Vella"
      }
    },
    "labels": ["soccer", "sport"],
    "duration": 0,
    "start_local": "2024-07-09T20:00:00",
    "end": "2024-07-09T18:00:00Z",
    "end_local": "2024-07-09T20:00:00",
    "updated": "2024-06-24T17:53:01Z"
  },
  {
    "title": "Longevity and Biohacking Convention",
    "description": "Sourced from predicthq.com",
    "category": "conferences",
    "start": "2024-07-04T22:00:00Z",
    "geo": {
      "geometry": { "coordinates": [1.522502, 42.506945], "type": "Point" },
      "placekey": "@7f8-68g-5vf",
      "address": {
        "country_code": "AD",
        "formatted_address": "Plaça del Poble\ns/n\nAD500 Andorra la Vella\nAndorra",
        "locality": "Andorra"
      }
    },
    "labels": ["conference"],
    "duration": 259199,
    "start_local": "2024-07-05T00:00:00",
    "end": "2024-07-07T21:59:59Z",
    "end_local": "2024-07-07T23:59:59",
    "updated": "2024-07-03T23:30:58Z"
  },
  {
    "title": "Andorra MTB Classic - Pyrenees",
    "description": "Sourced from predicthq.com",
    "category": "sports",
    "start": "2024-07-02T22:00:00Z",
    "geo": {
      "geometry": { "coordinates": [1.5147392, 42.545625], "type": "Point" },
      "placekey": "@7f8-68k-5s5",
      "address": {
        "country_code": "AD",
        "formatted_address": "Avinguda de Sant Antoni, AD400 La Massana, Andorra",
        "locality": "La Massana",
        "postcode": "AD400",
        "region": "La Massana"
      }
    },
    "labels": ["outdoor-sports", "running", "sport"],
    "duration": 345599,
    "start_local": "2024-07-03T00:00:00",
    "end": "2024-07-06T21:59:59Z",
    "end_local": "2024-07-06T23:59:59",
    "updated": "2024-06-04T07:40:02Z"
  },
  {
    "title": "Eurobasket Small Countries - Final - Andorra vs Malta",
    "description": "Sourced from predicthq.com",
    "category": "sports",
    "start": "2024-06-30T17:30:00Z",
    "geo": {
      "geometry": { "coordinates": [1.5166323, 42.5048869], "type": "Point" },
      "placekey": "@7f8-6wx-5xq",
      "address": {
        "country_code": "AD",
        "formatted_address": "Baixada del Molí, AD500 Andorra la Vella, Andorra",
        "postcode": "AD500",
        "locality": "Andorra la Vella",
        "region": "Andorra la Vella"
      }
    },
    "labels": ["basketball", "sport"],
    "duration": 0,
    "start_local": "2024-06-30T19:30:00",
    "end": "2024-06-30T17:30:00Z",
    "end_local": "2024-06-30T19:30:00",
    "updated": "2024-06-30T03:47:54Z"
  },
  {
    "title": "David Guetta - Andorra Mountain Music 24",
    "description": "Sourced from predicthq.com",
    "category": "concerts",
    "start": "2024-06-30T15:00:00Z",
    "geo": {
      "geometry": { "coordinates": [1.6480405, 42.5789207], "type": "Point" },
      "placekey": "@7f8-684-qmk",
      "address": {
        "country_code": "AD",
        "formatted_address": "Camí Pont del Tarter, AD100, Andorra",
        "postcode": "AD100",
        "region": "Canillo"
      }
    },
    "labels": ["concert", "music"],
    "duration": 0,
    "start_local": "2024-06-30T17:00:00",
    "end": "2024-06-30T15:00:00Z",
    "end_local": "2024-06-30T17:00:00",
    "updated": "2024-07-05T18:22:13Z"
  },
  {
    "title": "Eurobasket Small Countries - 3rd Place Final - San Marino vs Gibraltar",
    "description": "Sourced from predicthq.com",
    "category": "sports",
    "start": "2024-06-30T15:00:00Z",
    "geo": {
      "geometry": { "coordinates": [1.5166323, 42.5048869], "type": "Point" },
      "placekey": "@7f8-6wx-5xq",
      "address": {
        "country_code": "AD",
        "formatted_address": "Baixada del Molí, AD500 Andorra la Vella, Andorra",
        "postcode": "AD500",
        "locality": "Andorra la Vella",
        "region": "Andorra la Vella"
      }
    },
    "labels": ["basketball", "sport"],
    "duration": 0,
    "start_local": "2024-06-30T17:00:00",
    "end": "2024-06-30T15:00:00Z",
    "end_local": "2024-06-30T17:00:00",
    "updated": "2024-06-30T03:45:36Z"
  },
  {
    "title": "Eurobasket Small Countries - Semi-finals - Andorra vs San Marino",
    "description": "Sourced from predicthq.com",
    "category": "sports",
    "start": "2024-06-29T17:30:00Z",
    "geo": {
      "geometry": { "coordinates": [1.5166323, 42.5048869], "type": "Point" },
      "placekey": "@7f8-6wx-5xq",
      "address": {
        "country_code": "AD",
        "formatted_address": "Baixada del Molí, AD500 Andorra la Vella, Andorra",
        "postcode": "AD500",
        "locality": "Andorra la Vella",
        "region": "Andorra la Vella"
      }
    },
    "labels": ["basketball", "sport"],
    "duration": 0,
    "start_local": "2024-06-29T19:30:00",
    "end": "2024-06-29T17:30:00Z",
    "end_local": "2024-06-29T19:30:00",
    "updated": "2024-06-27T21:03:16Z"
  },
  {
    "title": "Molan los 90 XXL - Andorra Mountain Music 24",
    "description": "Sourced from predicthq.com",
    "category": "concerts",
    "start": "2024-06-29T16:00:00Z",
    "geo": {
      "geometry": { "coordinates": [1.6480405, 42.5789207], "type": "Point" },
      "placekey": "@7f8-684-qmk",
      "address": {
        "country_code": "AD",
        "formatted_address": "Camí Pont del Tarter, AD100, Andorra",
        "postcode": "AD100",
        "region": "Canillo"
      }
    },
    "labels": ["concert", "music"],
    "duration": 0,
    "start_local": "2024-06-29T18:00:00",
    "end": "2024-06-29T16:00:00Z",
    "end_local": "2024-06-29T18:00:00",
    "updated": "2024-06-29T17:02:22Z"
  },
  {
    "title": "Eurobasket Small Countries - Semi-finals - Gibraltar vs Malta",
    "description": "Sourced from predicthq.com",
    "category": "sports",
    "start": "2024-06-29T15:00:00Z",
    "geo": {
      "geometry": { "coordinates": [1.5166323, 42.5048869], "type": "Point" },
      "placekey": "@7f8-6wx-5xq",
      "address": {
        "country_code": "AD",
        "formatted_address": "Baixada del Molí, AD500 Andorra la Vella, Andorra",
        "postcode": "AD500",
        "locality": "Andorra la Vella",
        "region": "Andorra la Vella"
      }
    },
    "labels": ["basketball", "sport"],
    "duration": 0,
    "start_local": "2024-06-29T17:00:00",
    "end": "2024-06-29T15:00:00Z",
    "end_local": "2024-06-29T17:00:00",
    "updated": "2024-06-28T09:35:41Z"
  },
  {
    "title": "Eurobasket Small Countries - Group Stage - Andorra vs Malta",
    "description": "Sourced from predicthq.com",
    "category": "sports",
    "start": "2024-06-27T17:30:00Z",
    "geo": {
      "geometry": { "coordinates": [1.5166323, 42.5048869], "type": "Point" },
      "placekey": "@7f8-6wx-5xq",
      "address": {
        "country_code": "AD",
        "formatted_address": "Baixada del Molí, AD500 Andorra la Vella, Andorra",
        "postcode": "AD500",
        "locality": "Andorra la Vella",
        "region": "Andorra la Vella"
      }
    },
    "labels": ["basketball", "sport"],
    "duration": 0,
    "start_local": "2024-06-27T19:30:00",
    "end": "2024-06-27T17:30:00Z",
    "end_local": "2024-06-27T19:30:00",
    "updated": "2024-06-11T02:31:13Z"
  },
  {
    "title": "Eurobasket Small Countries - Group Stage - Gibraltar vs San Marino",
    "description": "Sourced from predicthq.com",
    "category": "sports",
    "start": "2024-06-27T15:00:00Z",
    "geo": {
      "geometry": { "coordinates": [1.5166323, 42.5048869], "type": "Point" },
      "placekey": "@7f8-6wx-5xq",
      "address": {
        "country_code": "AD",
        "formatted_address": "Baixada del Molí, AD500 Andorra la Vella, Andorra",
        "postcode": "AD500",
        "locality": "Andorra la Vella",
        "region": "Andorra la Vella"
      }
    },
    "labels": ["basketball", "sport"],
    "duration": 0,
    "start_local": "2024-06-27T17:00:00",
    "end": "2024-06-27T15:00:00Z",
    "end_local": "2024-06-27T17:00:00",
    "updated": "2024-06-11T06:38:01Z"
  },
  {
    "title": "Eurobasket Small Countries - Group Stage - Andorra vs Gibraltar",
    "description": "Sourced from predicthq.com",
    "category": "sports",
    "start": "2024-06-26T17:30:00Z",
    "geo": {
      "geometry": { "coordinates": [1.5166323, 42.5048869], "type": "Point" },
      "placekey": "@7f8-6wx-5xq",
      "address": {
        "country_code": "AD",
        "formatted_address": "Baixada del Molí, AD500 Andorra la Vella, Andorra",
        "postcode": "AD500",
        "locality": "Andorra la Vella",
        "region": "Andorra la Vella"
      }
    },
    "labels": ["basketball", "sport"],
    "duration": 0,
    "start_local": "2024-06-26T19:30:00",
    "end": "2024-06-26T17:30:00Z",
    "end_local": "2024-06-26T19:30:00",
    "updated": "2024-06-10T23:55:07Z"
  },
  {
    "title": "Eurobasket Small Countries - Group Stage - Malta vs San Marino",
    "description": "Sourced from predicthq.com",
    "category": "sports",
    "start": "2024-06-26T15:00:00Z",
    "geo": {
      "geometry": { "coordinates": [1.5166323, 42.5048869], "type": "Point" },
      "placekey": "@7f8-6wx-5xq",
      "address": {
        "country_code": "AD",
        "formatted_address": "Baixada del Molí, AD500 Andorra la Vella, Andorra",
        "postcode": "AD500",
        "locality": "Andorra la Vella",
        "region": "Andorra la Vella"
      }
    },
    "labels": ["basketball", "sport"],
    "duration": 0,
    "start_local": "2024-06-26T17:00:00",
    "end": "2024-06-26T15:00:00Z",
    "end_local": "2024-06-26T17:00:00",
    "updated": "2024-06-11T08:48:35Z"
  },
  {
    "title": "Eurobasket Small Countries - Group Stage - San Marino vs Andorra",
    "description": "Sourced from predicthq.com",
    "category": "sports",
    "start": "2024-06-25T17:30:00Z",
    "geo": {
      "geometry": { "coordinates": [1.5166323, 42.5048869], "type": "Point" },
      "placekey": "@7f8-6wx-5xq",
      "address": {
        "country_code": "AD",
        "formatted_address": "Baixada del Molí, AD500 Andorra la Vella, Andorra",
        "postcode": "AD500",
        "locality": "Andorra la Vella",
        "region": "Andorra la Vella"
      }
    },
    "labels": ["basketball", "sport"],
    "duration": 0,
    "start_local": "2024-06-25T19:30:00",
    "end": "2024-06-25T17:30:00Z",
    "end_local": "2024-06-25T19:30:00",
    "updated": "2024-06-11T04:39:30Z"
  },
  {
    "title": "Eurobasket Small Countries - Group Stage - Gibraltar vs Malta",
    "description": "Sourced from predicthq.com",
    "category": "sports",
    "start": "2024-06-25T15:00:00Z",
    "geo": {
      "geometry": { "coordinates": [1.5166323, 42.5048869], "type": "Point" },
      "placekey": "@7f8-6wx-5xq",
      "address": {
        "country_code": "AD",
        "formatted_address": "Baixada del Molí, AD500 Andorra la Vella, Andorra",
        "postcode": "AD500",
        "locality": "Andorra la Vella",
        "region": "Andorra la Vella"
      }
    },
    "labels": ["basketball", "sport"],
    "duration": 0,
    "start_local": "2024-06-25T17:00:00",
    "end": "2024-06-25T15:00:00Z",
    "end_local": "2024-06-25T17:00:00",
    "updated": "2024-06-11T08:12:16Z"
  },
  {
    "title": "El Telar Dorado #9: Joan Planes",
    "description": "Sourced from predicthq.com - Conoce la experiencia de Joan Planes que consiguió transformar una empresa familiar en una multinacional del IBEX-35.",
    "category": "conferences",
    "start": "2024-06-19T17:30:00Z",
    "geo": {
      "geometry": { "coordinates": [1.5393217, 42.5092686], "type": "Point" },
      "placekey": "@7f8-68f-9xq",
      "address": {
        "country_code": "AD",
        "formatted_address": "Plaça Coprínceps, AD700 Escaldes-Engordany, Andorra",
        "locality": "Escaldes-Engordany",
        "postcode": "AD700",
        "region": "Escaldes-Engordany"
      }
    },
    "labels": ["business", "conference"],
    "duration": 5400,
    "start_local": "2024-06-19T19:30:00",
    "end": "2024-06-19T19:00:00Z",
    "end_local": "2024-06-19T21:00:00",
    "updated": "2024-06-06T05:31:36Z"
  },
  {
    "title": "DIGITAL MINDSET:  PENSAR, ACTUAR I SER DIGITAL",
    "description": "Sourced from predicthq.com - Una xerrada per a aprendre a pensar, actuar i ser digital en el món actual. No t'ho perdis!",
    "category": "conferences",
    "start": "2024-06-19T17:00:00Z",
    "geo": {
      "geometry": {
        "coordinates": [1.5296565, 42.50914469999999],
        "type": "Point"
      },
      "placekey": "@7f8-68f-4d9",
      "address": {
        "country_code": "AD",
        "formatted_address": "Avinguda Doctor Mitjavila, AD500 Andorra la Vella, Andorra",
        "locality": "Andorra la Vella",
        "postcode": "AD500",
        "region": "Andorra la Vella"
      }
    },
    "labels": ["conference", "science", "technology"],
    "duration": 5400,
    "start_local": "2024-06-19T19:00:00",
    "end": "2024-06-19T18:30:00Z",
    "end_local": "2024-06-19T20:30:00",
    "updated": "2024-06-13T17:43:36Z"
  },
  {
    "title": "Segunda División - FC Andorra vs Racing Ferrol",
    "description": "Sourced from predicthq.com",
    "category": "sports",
    "start": "2024-06-02T14:15:00Z",
    "geo": {
      "geometry": { "coordinates": [1.5174616, 42.5046893], "type": "Point" },
      "placekey": "@7f8-6wx-5fz",
      "address": {
        "country_code": "AD",
        "formatted_address": "Baixada del Molí, 31-35, AD500 Andorra la Vella, Andorra",
        "postcode": "AD500",
        "locality": "Andorra la Vella",
        "region": "Andorra la Vella"
      }
    },
    "labels": ["soccer", "sport"],
    "duration": 6806,
    "start_local": "2024-06-02T16:15:00",
    "end": "2024-06-02T16:08:26Z",
    "end_local": "2024-06-02T18:08:26",
    "updated": "2024-06-06T13:08:24Z"
  },
  {
    "title": "AZURE EN ACCIÓ: CASOS D'ÈXIT AL NÚVOL",
    "description": "Sourced from predicthq.com - Explorem diversos casos d'èxit que destaquen les capacitats d'Azure amb Aritz Rechi",
    "category": "conferences",
    "start": "2024-05-29T17:00:00Z",
    "geo": {
      "geometry": {
        "coordinates": [1.5296565, 42.50914469999999],
        "type": "Point"
      },
      "placekey": "@7f8-68f-4d9",
      "address": {
        "country_code": "AD",
        "formatted_address": "Avinguda Doctor Mitjavila, AD500 Andorra la Vella, Andorra",
        "locality": "Andorra la Vella",
        "postcode": "AD500",
        "region": "Andorra la Vella"
      }
    },
    "labels": ["conference", "science", "technology"],
    "duration": 9000,
    "start_local": "2024-05-29T19:00:00",
    "end": "2024-05-29T19:30:00Z",
    "end_local": "2024-05-29T21:30:00",
    "updated": "2024-06-04T22:53:25Z"
  },
  {
    "title": "Ginestà",
    "description": "Sourced from predicthq.com",
    "category": "concerts",
    "start": "2024-05-23T19:30:00Z",
    "geo": {
      "geometry": { "coordinates": [1.536996, 42.5572235], "type": "Point" },
      "placekey": "@7f8-6pv-ct9",
      "address": {
        "country_code": "AD",
        "formatted_address": "Carretera de Segudet, S/N Ordino, Ordino, Andorra",
        "locality": "Ordino"
      }
    },
    "labels": ["concert", "music"],
    "duration": 0,
    "start_local": "2024-05-23T21:30:00",
    "end": "2024-05-23T19:30:00Z",
    "end_local": "2024-05-23T21:30:00",
    "updated": "2024-06-12T01:20:48Z"
  },
  {
    "title": "ACTINN I L’IMPULS DE LA INNOVACIÓ I LES NOVES TECNOLOGIES A ANDORRA",
    "description": "Sourced from predicthq.com - En aquesta sessió Ignasi Martín presentarà què és, qui el conforma i què fa el clúster de les noves tecnologies i de la innovació d’Andorra.",
    "category": "conferences",
    "start": "2024-05-22T17:00:00Z",
    "geo": {
      "geometry": {
        "coordinates": [1.5296565, 42.50914469999999],
        "type": "Point"
      },
      "placekey": "@7f8-68f-4d9",
      "address": {
        "country_code": "AD",
        "formatted_address": "Avinguda Doctor Mitjavila, AD500 Andorra la Vella, Andorra",
        "locality": "Andorra la Vella",
        "postcode": "AD500",
        "region": "Andorra la Vella"
      }
    },
    "labels": ["conference", "science", "technology"],
    "duration": 9000,
    "start_local": "2024-05-22T19:00:00",
    "end": "2024-05-22T19:30:00Z",
    "end_local": "2024-05-22T21:30:00",
    "updated": "2024-06-05T01:13:24Z"
  },
  {
    "title": "Segunda División - FC Andorra vs Burgos",
    "description": "Sourced from predicthq.com",
    "category": "sports",
    "start": "2024-05-18T12:00:00Z",
    "geo": {
      "geometry": { "coordinates": [1.5174616, 42.5046893], "type": "Point" },
      "placekey": "@7f8-6wx-5fz",
      "address": {
        "country_code": "AD",
        "formatted_address": "Baixada del Molí, 31-35, AD500 Andorra la Vella, Andorra",
        "postcode": "AD500",
        "locality": "Andorra la Vella",
        "region": "Andorra la Vella"
      }
    },
    "labels": ["soccer", "sport"],
    "duration": 6930,
    "start_local": "2024-05-18T14:00:00",
    "end": "2024-05-18T13:55:30Z",
    "end_local": "2024-05-18T15:55:30",
    "updated": "2024-06-05T18:23:35Z"
  },
  {
    "title": "El Telar Dorado #8: Fran Monaj",
    "description": "Sourced from predicthq.com - Transformar un negocio físico en digital. Conoce las claves que han llevado al éxito el proyecto de Fran y Carlos Monaj (YouTalk).",
    "category": "conferences",
    "start": "2024-05-15T17:30:00Z",
    "geo": {
      "geometry": { "coordinates": [1.5393217, 42.5092686], "type": "Point" },
      "placekey": "@7f8-68f-9xq",
      "address": {
        "country_code": "AD",
        "formatted_address": "Plaça Coprínceps, AD700 Escaldes-Engordany, Andorra",
        "locality": "Escaldes-Engordany",
        "postcode": "AD700",
        "region": "Escaldes-Engordany"
      }
    },
    "labels": ["business", "conference"],
    "duration": 3600,
    "start_local": "2024-05-15T19:30:00",
    "end": "2024-05-15T18:30:00Z",
    "end_local": "2024-05-15T20:30:00",
    "updated": "2024-06-05T18:51:19Z"
  },
  {
    "title": "Valencia Basket vs BC Andorra",
    "description": "Sourced from predicthq.com",
    "category": "sports",
    "start": "2024-05-12T16:30:00Z",
    "geo": {
      "geometry": { "coordinates": [1.5166323, 42.5048869], "type": "Point" },
      "placekey": "@7f8-6wx-5xq",
      "address": {
        "country_code": "AD",
        "formatted_address": "Baixada del Molí, AD500 Andorra la Vella, Andorra",
        "postcode": "AD500",
        "locality": "Andorra la Vella",
        "region": "Andorra la Vella"
      }
    },
    "labels": ["basketball", "sport"],
    "duration": 6511,
    "start_local": "2024-05-12T18:30:00",
    "end": "2024-05-12T18:18:31Z",
    "end_local": "2024-05-12T20:18:31",
    "updated": "2024-06-05T16:44:37Z"
  },
  {
    "title": "Odoo Roadshow Andorra",
    "description": "Sourced from predicthq.com - ¡Simplifiquemos todo con Odoo, el software integrado todo en uno!",
    "category": "conferences",
    "start": "2024-05-07T16:00:00Z",
    "geo": {
      "geometry": { "coordinates": [1.5402787, 42.5094988], "type": "Point" },
      "placekey": "@7f8-68f-649",
      "address": {
        "country_code": "AD",
        "formatted_address": "Carrer del Prat Gran, AD700 Escaldes-Engordany, Andorra",
        "locality": "Escaldes-Engordany",
        "postcode": "AD700",
        "region": "Escaldes-Engordany"
      }
    },
    "labels": ["conference", "science", "technology"],
    "duration": 10800,
    "start_local": "2024-05-07T18:00:00",
    "end": "2024-05-07T19:00:00Z",
    "end_local": "2024-05-07T21:00:00",
    "updated": "2024-06-05T00:34:01Z"
  },
  {
    "title": "Segunda División - FC Andorra vs Albacete",
    "description": "Sourced from predicthq.com",
    "category": "sports",
    "start": "2024-05-05T14:15:00Z",
    "geo": {
      "geometry": { "coordinates": [1.5174616, 42.5046893], "type": "Point" },
      "placekey": "@7f8-6wx-5fz",
      "address": {
        "country_code": "AD",
        "formatted_address": "Baixada del Molí, 31-35, AD500 Andorra la Vella, Andorra",
        "postcode": "AD500",
        "locality": "Andorra la Vella",
        "region": "Andorra la Vella"
      }
    },
    "labels": ["soccer", "sport"],
    "duration": 6906,
    "start_local": "2024-05-05T16:15:00",
    "end": "2024-05-05T16:10:06Z",
    "end_local": "2024-05-05T18:10:06",
    "updated": "2024-06-04T23:10:17Z"
  },
  {
    "title": "Jornades Holístiques",
    "description": "Sourced from predicthq.com - Concert aromàtic, gongs, trementinaires, sonoterapia, tallers, Chikung i molt més durant dos dies intensos aprenent dels millors.",
    "category": "conferences",
    "start": "2024-05-03T17:00:00Z",
    "geo": {
      "geometry": { "coordinates": [1.5240154, 42.5318577], "type": "Point" },
      "placekey": "@7f8-68n-whq",
      "address": {
        "country_code": "AD",
        "formatted_address": "Carretera d'Anyós, AD400 La Massana, Andorra",
        "locality": "La Massana",
        "postcode": "AD400",
        "region": "La Massana"
      }
    },
    "labels": ["conference", "health"],
    "duration": 10800,
    "start_local": "2024-05-03T19:00:00",
    "end": "2024-05-03T20:00:00Z",
    "end_local": "2024-05-03T22:00:00",
    "updated": "2024-06-05T05:44:50Z"
  },
  {
    "title": "FC Barcelona vs BC Andorra",
    "description": "Sourced from predicthq.com",
    "category": "sports",
    "start": "2024-04-28T16:30:00Z",
    "geo": {
      "geometry": { "coordinates": [1.5166323, 42.5048869], "type": "Point" },
      "placekey": "@7f8-6wx-5xq",
      "address": {
        "country_code": "AD",
        "formatted_address": "Baixada del Molí, AD500 Andorra la Vella, Andorra",
        "postcode": "AD500",
        "locality": "Andorra la Vella",
        "region": "Andorra la Vella"
      }
    },
    "labels": ["basketball", "sport"],
    "duration": 7598,
    "start_local": "2024-04-28T18:30:00",
    "end": "2024-04-28T18:36:38Z",
    "end_local": "2024-04-28T20:36:38",
    "updated": "2024-06-05T10:35:14Z"
  },
  {
    "title": "Segunda División - FC Andorra vs Racing Santander",
    "description": "Sourced from predicthq.com",
    "category": "sports",
    "start": "2024-04-26T18:30:00Z",
    "geo": {
      "geometry": { "coordinates": [1.5174616, 42.5046893], "type": "Point" },
      "placekey": "@7f8-6wx-5fz",
      "address": {
        "country_code": "AD",
        "formatted_address": "Baixada del Molí, 31-35, AD500 Andorra la Vella, Andorra",
        "postcode": "AD500",
        "locality": "Andorra la Vella",
        "region": "Andorra la Vella"
      }
    },
    "labels": ["soccer", "sport"],
    "duration": 7274,
    "start_local": "2024-04-26T20:30:00",
    "end": "2024-04-26T20:31:14Z",
    "end_local": "2024-04-26T22:31:14",
    "updated": "2024-06-05T03:41:38Z"
  },
  {
    "title": "Presentación del libro Bitcoin con Rigor",
    "description": "Sourced from predicthq.com - Acompáñanos en la presentación del libro \"Bitcoin con Rigor\" para aprender  qué diferencia a Bitcoin :)",
    "category": "conferences",
    "start": "2024-04-22T16:00:00Z",
    "geo": {
      "geometry": { "coordinates": [1.5308601, 42.5081728], "type": "Point" },
      "placekey": "@7f8-68f-249",
      "address": {
        "country_code": "AD",
        "formatted_address": "Avinguda Meritxell, AD500 Andorra la Vella, Andorra",
        "locality": "Andorra la Vella",
        "postcode": "AD500",
        "region": "Andorra la Vella"
      }
    },
    "labels": ["conference", "science", "technology"],
    "duration": 9000,
    "start_local": "2024-04-22T18:00:00",
    "end": "2024-04-22T18:30:00Z",
    "end_local": "2024-04-22T20:30:00",
    "updated": "2024-06-05T17:29:41Z"
  },
  {
    "title": "Xavi Malacara",
    "description": "Sourced from predicthq.com",
    "category": "concerts",
    "start": "2024-04-19T18:00:00Z",
    "geo": {
      "geometry": { "coordinates": [1.5319981, 42.5076991], "type": "Point" },
      "placekey": "@7f8-68f-2tv",
      "address": {
        "country_code": "AD",
        "formatted_address": "Carrer Bonaventura Riberaygua, 4, AD500 Andorra la Vella, Andorra",
        "postcode": "AD500",
        "locality": "Andorra la Vella",
        "region": "Andorra la Vella"
      }
    },
    "labels": ["concert", "music"],
    "duration": 0,
    "start_local": "2024-04-19T20:00:00",
    "end": "2024-04-19T18:00:00Z",
    "end_local": "2024-04-19T20:00:00",
    "updated": "2024-06-12T13:06:32Z"
  },
  {
    "title": "El Teler Daurat, amb Judit Hidalgo d'Andorra Business by Aumentium",
    "description": "Sourced from predicthq.com - Vine a gaudir d'El Teler Daurat i aprendre noves vies per fer crèixer el teu projecte a Andorra, no t'ho pots pedre!",
    "category": "conferences",
    "start": "2024-04-17T17:30:00Z",
    "geo": {
      "geometry": {
        "coordinates": [1.5296565, 42.50914469999999],
        "type": "Point"
      },
      "placekey": "@7f8-68f-4d9",
      "address": {
        "country_code": "AD",
        "formatted_address": "Avinguda Doctor Mitjavila, AD500 Andorra la Vella, Andorra",
        "locality": "Andorra la Vella",
        "postcode": "AD500",
        "region": "Andorra la Vella"
      }
    },
    "labels": ["business", "conference"],
    "duration": 3600,
    "start_local": "2024-04-17T19:30:00",
    "end": "2024-04-17T18:30:00Z",
    "end_local": "2024-04-17T20:30:00",
    "updated": "2024-06-05T10:05:08Z"
  },
  {
    "title": "Segunda División - FC Andorra vs Eibar",
    "description": "Sourced from predicthq.com",
    "category": "sports",
    "start": "2024-04-14T14:15:00Z",
    "geo": {
      "geometry": { "coordinates": [1.5174616, 42.5046893], "type": "Point" },
      "placekey": "@7f8-6wx-5fz",
      "address": {
        "country_code": "AD",
        "formatted_address": "Baixada del Molí, 31-35, AD500 Andorra la Vella, Andorra",
        "postcode": "AD500",
        "locality": "Andorra la Vella",
        "region": "Andorra la Vella"
      }
    },
    "labels": ["soccer", "sport"],
    "duration": 7127,
    "start_local": "2024-04-14T16:15:00",
    "end": "2024-04-14T16:13:47Z",
    "end_local": "2024-04-14T18:13:47",
    "updated": "2024-06-05T06:38:14Z"
  },
  {
    "title": "World Championship Division IIA (W) - Group Stage - Kazakhstan vs Spain",
    "description": "Sourced from predicthq.com",
    "category": "sports",
    "start": "2024-04-13T18:00:00Z",
    "geo": {
      "geometry": {
        "coordinates": [1.5980087232840967, 42.566328247687686],
        "type": "Point"
      },
      "placekey": "@7f8-67g-qxq",
      "address": {
        "country_code": "AD",
        "formatted_address": "Sant Joan de Caselles, Carretera General, AD100 Canillo, Andorra",
        "postcode": "AD100",
        "locality": "Canillo",
        "region": "Canillo"
      }
    },
    "labels": ["ice-hockey", "sport"],
    "duration": 0,
    "start_local": "2024-04-13T20:00:00",
    "end": "2024-04-13T18:00:00Z",
    "end_local": "2024-04-13T20:00:00",
    "updated": "2024-06-12T02:33:17Z"
  },
  {
    "title": "World Championship Division IIA (W) - Group Stage - Chinese Taipei vs Iceland",
    "description": "Sourced from predicthq.com",
    "category": "sports",
    "start": "2024-04-13T14:30:00Z",
    "geo": {
      "geometry": {
        "coordinates": [1.5980087232840967, 42.566328247687686],
        "type": "Point"
      },
      "placekey": "@7f8-67g-qxq",
      "address": {
        "country_code": "AD",
        "formatted_address": "Sant Joan de Caselles, Carretera General, AD100 Canillo, Andorra",
        "postcode": "AD100",
        "locality": "Canillo",
        "region": "Canillo"
      }
    },
    "labels": ["ice-hockey", "sport"],
    "duration": 0,
    "start_local": "2024-04-13T16:30:00",
    "end": "2024-04-13T14:30:00Z",
    "end_local": "2024-04-13T16:30:00",
    "updated": "2024-06-12T04:03:54Z"
  },
  {
    "title": "World Championship Division IIA (W) - Group Stage - Mexico vs Belgium",
    "description": "Sourced from predicthq.com",
    "category": "sports",
    "start": "2024-04-13T11:00:00Z",
    "geo": {
      "geometry": {
        "coordinates": [1.5980087232840967, 42.566328247687686],
        "type": "Point"
      },
      "placekey": "@7f8-67g-qxq",
      "address": {
        "country_code": "AD",
        "formatted_address": "Sant Joan de Caselles, Carretera General, AD100 Canillo, Andorra",
        "postcode": "AD100",
        "locality": "Canillo",
        "region": "Canillo"
      }
    },
    "labels": ["ice-hockey", "sport"],
    "duration": 0,
    "start_local": "2024-04-13T13:00:00",
    "end": "2024-04-13T11:00:00Z",
    "end_local": "2024-04-13T13:00:00",
    "updated": "2024-06-12T14:20:24Z"
  },
  {
    "title": "World Championship Division IIA (W) - Group Stage - Chinese Taipei vs Spain",
    "description": "Sourced from predicthq.com",
    "category": "sports",
    "start": "2024-04-11T18:00:00Z",
    "geo": {
      "geometry": {
        "coordinates": [1.5980087232840967, 42.566328247687686],
        "type": "Point"
      },
      "placekey": "@7f8-67g-qxq",
      "address": {
        "country_code": "AD",
        "formatted_address": "Sant Joan de Caselles, Carretera General, AD100 Canillo, Andorra",
        "postcode": "AD100",
        "locality": "Canillo",
        "region": "Canillo"
      }
    },
    "labels": ["ice-hockey", "sport"],
    "duration": 0,
    "start_local": "2024-04-11T20:00:00",
    "end": "2024-04-11T18:00:00Z",
    "end_local": "2024-04-11T20:00:00",
    "updated": "2024-06-12T19:03:34Z"
  },
  {
    "title": "World Championship Division IIA (W) - Group Stage - Belgium vs Kazakhstan",
    "description": "Sourced from predicthq.com",
    "category": "sports",
    "start": "2024-04-11T14:30:00Z",
    "geo": {
      "geometry": {
        "coordinates": [1.5980087232840967, 42.566328247687686],
        "type": "Point"
      },
      "placekey": "@7f8-67g-qxq",
      "address": {
        "country_code": "AD",
        "formatted_address": "Sant Joan de Caselles, Carretera General, AD100 Canillo, Andorra",
        "postcode": "AD100",
        "locality": "Canillo",
        "region": "Canillo"
      }
    },
    "labels": ["ice-hockey", "sport"],
    "duration": 0,
    "start_local": "2024-04-11T16:30:00",
    "end": "2024-04-11T14:30:00Z",
    "end_local": "2024-04-11T16:30:00",
    "updated": "2024-06-11T23:19:36Z"
  },
  {
    "title": "World Championship Division IIA (W) - Group Stage - Iceland vs Mexico",
    "description": "Sourced from predicthq.com",
    "category": "sports",
    "start": "2024-04-11T11:00:00Z",
    "geo": {
      "geometry": {
        "coordinates": [1.5980087232840967, 42.566328247687686],
        "type": "Point"
      },
      "placekey": "@7f8-67g-qxq",
      "address": {
        "country_code": "AD",
        "formatted_address": "Sant Joan de Caselles, Carretera General, AD100 Canillo, Andorra",
        "postcode": "AD100",
        "locality": "Canillo",
        "region": "Canillo"
      }
    },
    "labels": ["ice-hockey", "sport"],
    "duration": 0,
    "start_local": "2024-04-11T13:00:00",
    "end": "2024-04-11T11:00:00Z",
    "end_local": "2024-04-11T13:00:00",
    "updated": "2024-06-12T02:07:51Z"
  },
  {
    "title": "World Championship Division IIA (W) - Group Stage - Spain vs Belgium",
    "description": "Sourced from predicthq.com",
    "category": "sports",
    "start": "2024-04-10T18:00:00Z",
    "geo": {
      "geometry": {
        "coordinates": [1.5980087232840967, 42.566328247687686],
        "type": "Point"
      },
      "placekey": "@7f8-67g-qxq",
      "address": {
        "country_code": "AD",
        "formatted_address": "Sant Joan de Caselles, Carretera General, AD100 Canillo, Andorra",
        "postcode": "AD100",
        "locality": "Canillo",
        "region": "Canillo"
      }
    },
    "labels": ["ice-hockey", "sport"],
    "duration": 0,
    "start_local": "2024-04-10T20:00:00",
    "end": "2024-04-10T18:00:00Z",
    "end_local": "2024-04-10T20:00:00",
    "updated": "2024-06-11T21:36:07Z"
  },
  {
    "title": "World Championship Division IIA (W) - Group Stage - Mexico vs Chinese Taipei",
    "description": "Sourced from predicthq.com",
    "category": "sports",
    "start": "2024-04-10T14:30:00Z",
    "geo": {
      "geometry": {
        "coordinates": [1.5980087232840967, 42.566328247687686],
        "type": "Point"
      },
      "placekey": "@7f8-67g-qxq",
      "address": {
        "country_code": "AD",
        "formatted_address": "Sant Joan de Caselles, Carretera General, AD100 Canillo, Andorra",
        "postcode": "AD100",
        "locality": "Canillo",
        "region": "Canillo"
      }
    },
    "labels": ["ice-hockey", "sport"],
    "duration": 0,
    "start_local": "2024-04-10T16:30:00",
    "end": "2024-04-10T14:30:00Z",
    "end_local": "2024-04-10T16:30:00",
    "updated": "2024-06-11T21:38:17Z"
  },
  {
    "title": "World Championship Division IIA (W) - Group Stage - Kazakhstan vs Iceland",
    "description": "Sourced from predicthq.com",
    "category": "sports",
    "start": "2024-04-10T11:00:00Z",
    "geo": {
      "geometry": {
        "coordinates": [1.5980087232840967, 42.566328247687686],
        "type": "Point"
      },
      "placekey": "@7f8-67g-qxq",
      "address": {
        "country_code": "AD",
        "formatted_address": "Sant Joan de Caselles, Carretera General, AD100 Canillo, Andorra",
        "postcode": "AD100",
        "locality": "Canillo",
        "region": "Canillo"
      }
    },
    "labels": ["ice-hockey", "sport"],
    "duration": 0,
    "start_local": "2024-04-10T13:00:00",
    "end": "2024-04-10T11:00:00Z",
    "end_local": "2024-04-10T13:00:00",
    "updated": "2024-06-11T21:34:52Z"
  },
  {
    "title": "World Championship Division IIA (W) - Group Stage - Spain vs Mexico",
    "description": "Sourced from predicthq.com",
    "category": "sports",
    "start": "2024-04-08T18:00:00Z",
    "geo": {
      "geometry": {
        "coordinates": [1.5980087232840967, 42.566328247687686],
        "type": "Point"
      },
      "placekey": "@7f8-67g-qxq",
      "address": {
        "country_code": "AD",
        "formatted_address": "Sant Joan de Caselles, Carretera General, AD100 Canillo, Andorra",
        "postcode": "AD100",
        "locality": "Canillo",
        "region": "Canillo"
      }
    },
    "labels": ["ice-hockey", "sport"],
    "duration": 0,
    "start_local": "2024-04-08T20:00:00",
    "end": "2024-04-08T18:00:00Z",
    "end_local": "2024-04-08T20:00:00",
    "updated": "2024-06-12T03:13:48Z"
  },
  {
    "title": "World Championship Division IIA (W) - Group Stage - Iceland vs Belgium",
    "description": "Sourced from predicthq.com",
    "category": "sports",
    "start": "2024-04-08T14:30:00Z",
    "geo": {
      "geometry": {
        "coordinates": [1.5980087232840967, 42.566328247687686],
        "type": "Point"
      },
      "placekey": "@7f8-67g-qxq",
      "address": {
        "country_code": "AD",
        "formatted_address": "Sant Joan de Caselles, Carretera General, AD100 Canillo, Andorra",
        "postcode": "AD100",
        "locality": "Canillo",
        "region": "Canillo"
      }
    },
    "labels": ["ice-hockey", "sport"],
    "duration": 0,
    "start_local": "2024-04-08T16:30:00",
    "end": "2024-04-08T14:30:00Z",
    "end_local": "2024-04-08T16:30:00",
    "updated": "2024-06-12T13:13:25Z"
  },
  {
    "title": "World Championship Division IIA (W) - Group Stage - Kazakhstan vs Chinese Taipei",
    "description": "Sourced from predicthq.com",
    "category": "sports",
    "start": "2024-04-08T11:00:00Z",
    "geo": {
      "geometry": {
        "coordinates": [1.5980087232840967, 42.566328247687686],
        "type": "Point"
      },
      "placekey": "@7f8-67g-qxq",
      "address": {
        "country_code": "AD",
        "formatted_address": "Sant Joan de Caselles, Carretera General, AD100 Canillo, Andorra",
        "postcode": "AD100",
        "locality": "Canillo",
        "region": "Canillo"
      }
    },
    "labels": ["ice-hockey", "sport"],
    "duration": 0,
    "start_local": "2024-04-08T13:00:00",
    "end": "2024-04-08T11:00:00Z",
    "end_local": "2024-04-08T13:00:00",
    "updated": "2024-06-11T22:38:57Z"
  },
  {
    "title": "World Championship Division IIA (W) - Group Stage - Spain vs Iceland",
    "description": "Sourced from predicthq.com",
    "category": "sports",
    "start": "2024-04-07T18:00:00Z",
    "geo": {
      "geometry": {
        "coordinates": [1.5980087232840967, 42.566328247687686],
        "type": "Point"
      },
      "placekey": "@7f8-67g-qxq",
      "address": {
        "country_code": "AD",
        "formatted_address": "Sant Joan de Caselles, Carretera General, AD100 Canillo, Andorra",
        "postcode": "AD100",
        "locality": "Canillo",
        "region": "Canillo"
      }
    },
    "labels": ["ice-hockey", "sport"],
    "duration": 0,
    "start_local": "2024-04-07T20:00:00",
    "end": "2024-04-07T18:00:00Z",
    "end_local": "2024-04-07T20:00:00",
    "updated": "2024-06-12T19:12:23Z"
  },
  {
    "title": "GRANADA vs BC Andorra",
    "description": "Sourced from predicthq.com",
    "category": "sports",
    "start": "2024-04-07T15:00:00Z",
    "geo": {
      "geometry": { "coordinates": [1.5166323, 42.5048869], "type": "Point" },
      "placekey": "@7f8-6wx-5xq",
      "address": {
        "country_code": "AD",
        "formatted_address": "Baixada del Molí, AD500 Andorra la Vella, Andorra",
        "postcode": "AD500",
        "locality": "Andorra la Vella",
        "region": "Andorra la Vella"
      }
    },
    "labels": ["basketball", "sport"],
    "duration": 6069,
    "start_local": "2024-04-07T17:00:00",
    "end": "2024-04-07T16:41:09Z",
    "end_local": "2024-04-07T18:41:09",
    "updated": "2024-06-05T07:11:38Z"
  },
  {
    "title": "World Championship Division IIA (W) - Group Stage - Mexico vs Kazakhstan",
    "description": "Sourced from predicthq.com",
    "category": "sports",
    "start": "2024-04-07T14:30:00Z",
    "geo": {
      "geometry": {
        "coordinates": [1.5980087232840967, 42.566328247687686],
        "type": "Point"
      },
      "placekey": "@7f8-67g-qxq",
      "address": {
        "country_code": "AD",
        "formatted_address": "Sant Joan de Caselles, Carretera General, AD100 Canillo, Andorra",
        "postcode": "AD100",
        "locality": "Canillo",
        "region": "Canillo"
      }
    },
    "labels": ["ice-hockey", "sport"],
    "duration": 0,
    "start_local": "2024-04-07T16:30:00",
    "end": "2024-04-07T14:30:00Z",
    "end_local": "2024-04-07T16:30:00",
    "updated": "2024-06-12T02:39:43Z"
  },
  {
    "title": "World Championship Division IIA (W) - Group Stage - Belgium vs Chinese Taipei",
    "description": "Sourced from predicthq.com",
    "category": "sports",
    "start": "2024-04-07T11:00:00Z",
    "geo": {
      "geometry": {
        "coordinates": [1.5980087232840967, 42.566328247687686],
        "type": "Point"
      },
      "placekey": "@7f8-67g-qxq",
      "address": {
        "country_code": "AD",
        "formatted_address": "Sant Joan de Caselles, Carretera General, AD100 Canillo, Andorra",
        "postcode": "AD100",
        "locality": "Canillo",
        "region": "Canillo"
      }
    },
    "labels": ["ice-hockey", "sport"],
    "duration": 0,
    "start_local": "2024-04-07T13:00:00",
    "end": "2024-04-07T11:00:00Z",
    "end_local": "2024-04-07T13:00:00",
    "updated": "2024-06-12T07:13:37Z"
  }
]
