[{"title":"Schools in Afghanistan","description":"Sourced from predicthq.com - Join us for a discussion on the challenges facing schools in Afghanistan!","category":"conferences","start":"2024-07-24T02:19:00Z","geo":{"geometry":{"coordinates":[69.17146939999999,34.5289048],"type":"Point"},"placekey":"@562-h9x-ct9","address":{"country_code":"AF","formatted_address":"Kabul, Afghanistan","locality":"Kabul","region":"Kabul"}},"labels":["community","conference"],"duration":18660,"start_local":"2024-07-24T06:49:00","end":"2024-07-24T07:30:00Z","end_local":"2024-07-24T12:00:00","updated":"2024-06-27T02:11:08Z"},{"title":"Mis-E-Ainak Knights vs Amo Sharks","description":"Sourced from predicthq.com","category":"sports","start":"2024-05-11T09:30:00Z","geo":{"geometry":{"coordinates":[69.865537,33.340763],"type":"Point"},"placekey":"@563-3bm-tsq","address":{"country_code":"AF","formatted_address":"Khost, Afghanistan","locality":"Khost"}},"labels":["cricket","sport"],"duration":0,"start_local":"2024-05-11T14:00:00","end":"2024-05-11T09:30:00Z","end_local":"2024-05-11T14:00:00","updated":"2024-06-05T02:18:15Z"},{"title":"Speen Ghar Tigers vs Mis-E-Ainak Knights","description":"Sourced from predicthq.com","category":"sports","start":"2024-05-09T04:30:00Z","geo":{"geometry":{"coordinates":[70.653182,34.2831],"type":"Point"},"placekey":"@563-8pk-2zf","address":{"country_code":"AF","formatted_address":"Ghazi Amanullah Khan, Afghanistan","locality":"Ghazi Amanullah Khan"}},"labels":["cricket","sport"],"duration":0,"start_local":"2024-05-09T09:00:00","end":"2024-05-09T04:30:00Z","end_local":"2024-05-09T09:00:00","updated":"2024-06-05T12:24:54Z"},{"title":"Boost Defenders vs Amo Sharks","description":"Sourced from predicthq.com","category":"sports","start":"2024-05-08T09:30:00Z","geo":{"geometry":{"coordinates":[65.761857,31.640323],"type":"Point"},"placekey":"@8bn-cph-789","address":{"country_code":"AF","formatted_address":"Aino Maina, Kandahar, Afghanistan","locality":"Kandahar","region":"Kandahar"}},"labels":["cricket","sport"],"duration":0,"start_local":"2024-05-08T14:00:00","end":"2024-05-08T09:30:00Z","end_local":"2024-05-08T14:00:00","updated":"2024-06-05T09:31:00Z"},{"title":"Mis-E-Ainak Knights vs Boost Defenders","description":"Sourced from predicthq.com","category":"sports","start":"2024-05-07T04:30:00Z","geo":{"geometry":{"coordinates":[69.865537,33.340763],"type":"Point"},"placekey":"@563-3bm-tsq","address":{"country_code":"AF","formatted_address":"Khost, Afghanistan","locality":"Khost"}},"labels":["cricket","sport"],"duration":0,"start_local":"2024-05-07T09:00:00","end":"2024-05-07T04:30:00Z","end_local":"2024-05-07T09:00:00","updated":"2024-06-05T20:38:52Z"},{"title":"Mis-E-Ainak Knights vs Amo Sharks","description":"Sourced from predicthq.com","category":"sports","start":"2024-05-06T09:30:00Z","geo":{"geometry":{"coordinates":[69.865537,33.340763],"type":"Point"},"placekey":"@563-3bm-tsq","address":{"country_code":"AF","formatted_address":"Khost, Afghanistan","locality":"Khost"}},"labels":["cricket","sport"],"duration":0,"start_local":"2024-05-06T14:00:00","end":"2024-05-06T09:30:00Z","end_local":"2024-05-06T14:00:00","updated":"2024-06-05T01:25:33Z"},{"title":"Speen Ghar Tigers vs Boost Defenders","description":"Sourced from predicthq.com","category":"sports","start":"2024-05-06T04:30:00Z","geo":{"geometry":{"coordinates":[70.653182,34.2831],"type":"Point"},"placekey":"@563-8pk-2zf","address":{"country_code":"AF","formatted_address":"Ghazi Amanullah Khan, Afghanistan","locality":"Ghazi Amanullah Khan"}},"labels":["cricket","sport"],"duration":0,"start_local":"2024-05-06T09:00:00","end":"2024-05-06T04:30:00Z","end_local":"2024-05-06T09:00:00","updated":"2024-06-05T09:38:18Z"},{"title":"Mis-E-Ainak Knights vs Boost Defenders","description":"Sourced from predicthq.com","category":"sports","start":"2024-05-02T09:30:00Z","geo":{"geometry":{"coordinates":[69.865537,33.340763],"type":"Point"},"placekey":"@563-3bm-tsq","address":{"country_code":"AF","formatted_address":"Khost, Afghanistan","locality":"Khost"}},"labels":["cricket","sport"],"duration":0,"start_local":"2024-05-02T14:00:00","end":"2024-05-02T09:30:00Z","end_local":"2024-05-02T14:00:00","updated":"2024-06-05T01:51:18Z"}]