[{"title":"Antigua And Barbuda Falcons vs Trinbago Knight Riders","description":"Sourced from predicthq.com","category":"sports","start":"2024-09-05T23:00:00Z","geo":{"geometry":{"coordinates":[-61.7849314,17.1031401],"type":"Point"},"placekey":"@bsd-y8y-yn5","address":{"country_code":"AG","formatted_address":"4638+52H North Sound, North Sound, Antigua and Barbuda","region":"Saint George"}},"labels":["cricket","sport"],"duration":0,"start_local":"2024-09-05T19:00:00","end":"2024-09-05T23:00:00Z","end_local":"2024-09-05T19:00:00","updated":"2024-06-04T11:53:00Z"},{"title":"Antigua And Barbuda Falcons vs St. Lucia Kings","description":"Sourced from predicthq.com","category":"sports","start":"2024-09-03T23:00:00Z","geo":{"geometry":{"coordinates":[-61.7849314,17.1031401],"type":"Point"},"placekey":"@bsd-y8y-yn5","address":{"country_code":"AG","formatted_address":"4638+52H North Sound, North Sound, Antigua and Barbuda","region":"Saint George"}},"labels":["cricket","sport"],"duration":0,"start_local":"2024-09-03T19:00:00","end":"2024-09-03T23:00:00Z","end_local":"2024-09-03T19:00:00","updated":"2024-06-04T11:08:13Z"},{"title":"Antigua And Barbuda Falcons vs Barbados Royals","description":"Sourced from predicthq.com","category":"sports","start":"2024-09-01T14:00:00Z","geo":{"geometry":{"coordinates":[-61.7849314,17.1031401],"type":"Point"},"placekey":"@bsd-y8y-yn5","address":{"country_code":"AG","formatted_address":"4638+52H North Sound, North Sound, Antigua and Barbuda","region":"Saint George"}},"labels":["cricket","sport"],"duration":0,"start_local":"2024-09-01T10:00:00","end":"2024-09-01T14:00:00Z","end_local":"2024-09-01T10:00:00","updated":"2024-06-04T06:41:19Z"},{"title":"Antigua And Barbuda Falcons vs Guyana Amazon Warriors","description":"Sourced from predicthq.com","category":"sports","start":"2024-08-30T23:00:00Z","geo":{"geometry":{"coordinates":[-61.7849314,17.1031401],"type":"Point"},"placekey":"@bsd-y8y-yn5","address":{"country_code":"AG","formatted_address":"4638+52H North Sound, North Sound, Antigua and Barbuda","region":"Saint George"}},"labels":["cricket","sport"],"duration":0,"start_local":"2024-08-30T19:00:00","end":"2024-08-30T23:00:00Z","end_local":"2024-08-30T19:00:00","updated":"2024-06-04T05:12:37Z"},{"title":"Antigua And Barbuda Falcons vs St. Kitts and Nevis Patriots","description":"Sourced from predicthq.com","category":"sports","start":"2024-08-29T23:00:00Z","geo":{"geometry":{"coordinates":[-61.7849314,17.1031401],"type":"Point"},"placekey":"@bsd-y8y-yn5","address":{"country_code":"AG","formatted_address":"4638+52H North Sound, North Sound, Antigua and Barbuda","region":"Saint George"}},"labels":["cricket","sport"],"duration":0,"start_local":"2024-08-29T19:00:00","end":"2024-08-29T23:00:00Z","end_local":"2024-08-29T19:00:00","updated":"2024-06-04T01:09:49Z"},{"title":"AUA Rohrman Triathlon","description":"Sourced from predicthq.com","category":"sports","start":"2024-08-25T10:00:00Z","geo":{"geometry":{"coordinates":[-61.796428,17.060816],"type":"Point"},"placekey":"@bsd-ybt-mhq","address":{"country_code":"AG","formatted_address":"Saint Paul, Antigua and Barbuda","region":"Saint Paul"}},"labels":["bicycle","outdoor-sports","running","sport","triathlon"],"duration":0,"start_local":"2024-08-25T06:00:00","end":"2024-08-25T10:00:00Z","end_local":"2024-08-25T06:00:00","updated":"2024-07-01T02:41:35Z"},{"title":"West Indies vs South Africa","description":"Sourced from predicthq.com","category":"sports","start":"2024-06-24T00:30:00Z","geo":{"geometry":{"coordinates":[-61.7849314,17.1031401],"type":"Point"},"placekey":"@bsd-y8y-yn5","address":{"country_code":"AG","formatted_address":"4638+52H North Sound, North Sound, Antigua and Barbuda","region":"Saint George"}},"labels":["cricket","sport"],"duration":16077,"start_local":"2024-06-23T20:30:00","end":"2024-06-24T04:57:57Z","end_local":"2024-06-24T00:57:57","updated":"2024-06-25T02:26:42Z"},{"title":"ICC Mens T20 World Cup 2024 - C2 vs D1","description":"Sourced from predicthq.com","category":"sports","start":"2024-06-23T14:00:00Z","geo":{"geometry":{"coordinates":[-61.7849314,17.1031401],"type":"Point"},"placekey":"@bsd-y8y-yn5","address":{"country_code":"AG","formatted_address":"4638+52H North Sound, North Sound, Antigua and Barbuda","region":"Saint George"}},"labels":["cricket","sport"],"duration":0,"start_local":"2024-06-23T10:00:00","end":"2024-06-23T14:00:00Z","end_local":"2024-06-23T10:00:00","updated":"2024-06-04T07:34:53Z"},{"title":"India vs Bangladesh","description":"Sourced from predicthq.com","category":"sports","start":"2024-06-22T14:30:00Z","geo":{"geometry":{"coordinates":[-61.7849314,17.1031401],"type":"Point"},"placekey":"@bsd-y8y-yn5","address":{"country_code":"AG","formatted_address":"4638+52H North Sound, North Sound, Antigua and Barbuda","region":"Saint George"}},"labels":["cricket","sport"],"duration":11832,"start_local":"2024-06-22T10:30:00","end":"2024-06-22T17:47:12Z","end_local":"2024-06-22T13:47:12","updated":"2024-06-28T06:25:20Z"},{"title":"Australia vs Bangladesh","description":"Sourced from predicthq.com","category":"sports","start":"2024-06-21T00:30:00Z","geo":{"geometry":{"coordinates":[-61.7849314,17.1031401],"type":"Point"},"placekey":"@bsd-y8y-yn5","address":{"country_code":"AG","formatted_address":"4638+52H North Sound, North Sound, Antigua and Barbuda","region":"Saint George"}},"labels":["cricket","sport"],"duration":14768,"start_local":"2024-06-20T20:30:00","end":"2024-06-21T04:36:08Z","end_local":"2024-06-21T00:36:08","updated":"2024-06-22T01:03:10Z"},{"title":"USA vs South Africa","description":"Sourced from predicthq.com","category":"sports","start":"2024-06-19T14:30:00Z","geo":{"geometry":{"coordinates":[-61.7849314,17.1031401],"type":"Point"},"placekey":"@bsd-y8y-yn5","address":{"country_code":"AG","formatted_address":"4638+52H North Sound, North Sound, Antigua and Barbuda","region":"Saint George"}},"labels":["cricket","sport"],"duration":12037,"start_local":"2024-06-19T10:30:00","end":"2024-06-19T17:50:37Z","end_local":"2024-06-19T13:50:37","updated":"2024-06-28T06:18:17Z"},{"title":"Namibia vs England","description":"Sourced from predicthq.com","category":"sports","start":"2024-06-15T17:00:00Z","geo":{"geometry":{"coordinates":[-61.7849314,17.1031401],"type":"Point"},"placekey":"@bsd-y8y-yn5","address":{"country_code":"AG","formatted_address":"4638+52H North Sound, North Sound, Antigua and Barbuda","region":"Saint George"}},"labels":["cricket","sport"],"duration":17759,"start_local":"2024-06-15T13:00:00","end":"2024-06-15T21:55:59Z","end_local":"2024-06-15T17:55:59","updated":"2024-06-16T17:03:09Z"},{"title":"England vs Oman","description":"Sourced from predicthq.com","category":"sports","start":"2024-06-13T19:00:00Z","geo":{"geometry":{"coordinates":[-61.7849314,17.1031401],"type":"Point"},"placekey":"@bsd-y8y-yn5","address":{"country_code":"AG","formatted_address":"4638+52H North Sound, North Sound, Antigua and Barbuda","region":"Saint George"}},"labels":["cricket","sport"],"duration":6172,"start_local":"2024-06-13T15:00:00","end":"2024-06-13T20:42:52Z","end_local":"2024-06-13T16:42:52","updated":"2024-06-14T19:03:32Z"},{"title":"ICC Mens T20 World Cup 2024 - England vs Oman","description":"Sourced from predicthq.com","category":"sports","start":"2024-06-13T14:30:00Z","geo":{"geometry":{"coordinates":[-61.7849314,17.1031401],"type":"Point"},"placekey":"@bsd-y8y-yn5","address":{"country_code":"AG","formatted_address":"4638+52H North Sound, North Sound, Antigua and Barbuda","region":"Saint George"}},"labels":["cricket","sport"],"duration":0,"start_local":"2024-06-13T10:30:00","end":"2024-06-13T14:30:00Z","end_local":"2024-06-13T10:30:00","updated":"2024-06-04T00:57:02Z"},{"title":"Australia vs Namibia","description":"Sourced from predicthq.com","category":"sports","start":"2024-06-12T00:30:00Z","geo":{"geometry":{"coordinates":[-61.7849314,17.1031401],"type":"Point"},"placekey":"@bsd-y8y-yn5","address":{"country_code":"AG","formatted_address":"4638+52H North Sound, North Sound, Antigua and Barbuda","region":"Saint George"}},"labels":["cricket","sport"],"duration":51158,"start_local":"2024-06-11T20:30:00","end":"2024-06-12T14:42:38Z","end_local":"2024-06-12T10:42:38","updated":"2024-06-13T01:06:02Z"},{"title":"Oman vs Scotland","description":"Sourced from predicthq.com","category":"sports","start":"2024-06-09T17:00:00Z","geo":{"geometry":{"coordinates":[-61.7849314,17.1031401],"type":"Point"},"placekey":"@bsd-y8y-yn5","address":{"country_code":"AG","formatted_address":"4638+52H North Sound, North Sound, Antigua and Barbuda","region":"Saint George"}},"labels":["cricket","sport"],"duration":9918,"start_local":"2024-06-09T13:00:00","end":"2024-06-09T19:45:18Z","end_local":"2024-06-09T15:45:18","updated":"2024-06-10T17:02:46Z"},{"title":"Forging Global Faith-Based Partnership for Climate Resilience in SIDS","description":"Sourced from predicthq.com - An insightful panel discussion on fostering faith-led coalitions for sustainable climate resilience in Small Island Developing States.","category":"conferences","start":"2024-05-30T04:00:00Z","geo":{"geometry":{"coordinates":[-61.7975807,17.1561272],"type":"Point"},"placekey":"@bsd-y9j-gc5","address":{"country_code":"AG","formatted_address":"Jabberwock Road, Osbourn, Antigua and Barbuda","locality":"Osbourn","region":"Saint George"}},"labels":["conference","religion"],"duration":5400,"start_local":"2024-05-30T00:00:00","end":"2024-05-30T05:30:00Z","end_local":"2024-05-30T01:30:00","updated":"2024-06-05T15:40:52Z"},{"title":"Run in Paradise","description":"Sourced from predicthq.com","category":"sports","start":"2024-05-26T04:00:00Z","geo":{"geometry":{"coordinates":[-61.846772,17.1274104],"type":"Point"},"placekey":"@bsd-yh2-mc5","address":{"country_code":"AG","formatted_address":"Bell Street, Saint John's, Antigua and Barbuda","locality":"Saint John's","region":"Saint John"}},"labels":["marathon","outdoor-sports","running","sport"],"duration":86399,"start_local":"2024-05-26T00:00:00","end":"2024-05-27T03:59:59Z","end_local":"2024-05-26T23:59:59","updated":"2024-06-05T13:23:05Z"},{"title":"Premier Division - Grenades vs Ottos Rangers","description":"Sourced from predicthq.com","category":"sports","start":"2024-05-06T00:00:00Z","geo":{"geometry":{"coordinates":[-61.811245937,17.117951635],"type":"Point"},"placekey":"@bsd-y9n-ch5","address":{"country_code":"AG","formatted_address":"458Q+RQ9, Piggotts, Antigua and Barbuda","locality":"Piggotts","region":"Saint John"}},"labels":["soccer","sport"],"duration":0,"start_local":"2024-05-05T20:00:00","end":"2024-05-06T00:00:00Z","end_local":"2024-05-05T20:00:00","updated":"2024-07-01T03:47:57Z"},{"title":"Premier Division - All Saints United vs Garden Stars","description":"Sourced from predicthq.com","category":"sports","start":"2024-05-05T22:00:00Z","geo":{"geometry":{"coordinates":[-61.811245937,17.117951635],"type":"Point"},"placekey":"@bsd-y9n-ch5","address":{"country_code":"AG","formatted_address":"458Q+RQ9, Piggotts, Antigua and Barbuda","locality":"Piggotts","region":"Saint John"}},"labels":["soccer","sport"],"duration":0,"start_local":"2024-05-05T18:00:00","end":"2024-05-05T22:00:00Z","end_local":"2024-05-05T18:00:00","updated":"2024-07-01T02:06:30Z"},{"title":"Premier Division - SAP vs Swetes","description":"Sourced from predicthq.com","category":"sports","start":"2024-05-05T20:00:00Z","geo":{"geometry":{"coordinates":[-61.811245937,17.117951635],"type":"Point"},"placekey":"@bsd-y9n-ch5","address":{"country_code":"AG","formatted_address":"458Q+RQ9, Piggotts, Antigua and Barbuda","locality":"Piggotts","region":"Saint John"}},"labels":["soccer","sport"],"duration":0,"start_local":"2024-05-05T16:00:00","end":"2024-05-05T20:00:00Z","end_local":"2024-05-05T16:00:00","updated":"2024-06-12T18:33:03Z"},{"title":"Premier Division - Old Road vs Green City","description":"Sourced from predicthq.com","category":"sports","start":"2024-05-05T00:00:00Z","geo":{"geometry":{"coordinates":[-61.811245937,17.117951635],"type":"Point"},"placekey":"@bsd-y9n-ch5","address":{"country_code":"AG","formatted_address":"458Q+RQ9, Piggotts, Antigua and Barbuda","locality":"Piggotts","region":"Saint John"}},"labels":["soccer","sport"],"duration":0,"start_local":"2024-05-04T20:00:00","end":"2024-05-05T00:00:00Z","end_local":"2024-05-04T20:00:00","updated":"2024-06-12T00:42:38Z"},{"title":"Premier Division - John Hughes vs Parham","description":"Sourced from predicthq.com","category":"sports","start":"2024-05-04T22:00:00Z","geo":{"geometry":{"coordinates":[-61.811245937,17.117951635],"type":"Point"},"placekey":"@bsd-y9n-ch5","address":{"country_code":"AG","formatted_address":"458Q+RQ9, Piggotts, Antigua and Barbuda","locality":"Piggotts","region":"Saint John"}},"labels":["soccer","sport"],"duration":0,"start_local":"2024-05-04T18:00:00","end":"2024-05-04T22:00:00Z","end_local":"2024-05-04T18:00:00","updated":"2024-06-12T10:49:29Z"},{"title":"Premier Division - Willikies vs Empire","description":"Sourced from predicthq.com","category":"sports","start":"2024-05-04T20:00:00Z","geo":{"geometry":{"coordinates":[-61.811245937,17.117951635],"type":"Point"},"placekey":"@bsd-y9n-ch5","address":{"country_code":"AG","formatted_address":"458Q+RQ9, Piggotts, Antigua and Barbuda","locality":"Piggotts","region":"Saint John"}},"labels":["soccer","sport"],"duration":0,"start_local":"2024-05-04T16:00:00","end":"2024-05-04T20:00:00Z","end_local":"2024-05-04T16:00:00","updated":"2024-06-12T02:05:40Z"},{"title":"BENZ MR.GWADA","description":"Sourced from predicthq.com","category":"concerts","start":"2024-05-04T09:00:00Z","geo":{"geometry":{"coordinates":[-61.7999992,17.0499992],"type":"Point"},"placekey":"@bsd-ybq-5vf","address":{"country_code":"AG","formatted_address":"Fig Tree Drive, Swetes, Antigua and Barbuda","locality":"Swetes","region":"Saint Paul"}},"labels":["concert","music"],"duration":0,"start_local":"2024-05-04T05:00:00","end":"2024-05-04T09:00:00Z","end_local":"2024-05-04T05:00:00","updated":"2024-06-12T05:41:12Z"},{"title":"Premier Division - John Hughes vs Green City","description":"Sourced from predicthq.com","category":"sports","start":"2024-05-01T22:30:00Z","geo":{"geometry":{"coordinates":[-61.812136398,17.11802464],"type":"Point"},"placekey":"@bsd-y9n-bzf","address":{"country_code":"AG","formatted_address":"Piggotts, Antigua and Barbuda","locality":"Piggotts"}},"labels":["soccer","sport"],"duration":0,"start_local":"2024-05-01T18:30:00","end":"2024-05-01T22:30:00Z","end_local":"2024-05-01T18:30:00","updated":"2024-06-12T08:38:26Z"},{"title":"Premier Division - All Saints United vs Swetes","description":"Sourced from predicthq.com","category":"sports","start":"2024-04-29T00:00:00Z","geo":{"geometry":{"coordinates":[-61.811245937,17.117951635],"type":"Point"},"placekey":"@bsd-y9n-ch5","address":{"country_code":"AG","formatted_address":"458Q+RQ9, Piggotts, Antigua and Barbuda","locality":"Piggotts","region":"Saint John"}},"labels":["soccer","sport"],"duration":0,"start_local":"2024-04-28T20:00:00","end":"2024-04-29T00:00:00Z","end_local":"2024-04-28T20:00:00","updated":"2024-06-12T11:16:38Z"},{"title":"Premier Division - Old Road vs Hoppers","description":"Sourced from predicthq.com","category":"sports","start":"2024-04-28T22:00:00Z","geo":{"geometry":{"coordinates":[-61.811245937,17.117951635],"type":"Point"},"placekey":"@bsd-y9n-ch5","address":{"country_code":"AG","formatted_address":"458Q+RQ9, Piggotts, Antigua and Barbuda","locality":"Piggotts","region":"Saint John"}},"labels":["soccer","sport"],"duration":0,"start_local":"2024-04-28T18:00:00","end":"2024-04-28T22:00:00Z","end_local":"2024-04-28T18:00:00","updated":"2024-06-12T02:01:38Z"},{"title":"Premier Division - Garden Stars vs Pigotts Bullets","description":"Sourced from predicthq.com","category":"sports","start":"2024-04-28T20:00:00Z","geo":{"geometry":{"coordinates":[-61.811245937,17.117951635],"type":"Point"},"placekey":"@bsd-y9n-ch5","address":{"country_code":"AG","formatted_address":"458Q+RQ9, Piggotts, Antigua and Barbuda","locality":"Piggotts","region":"Saint John"}},"labels":["soccer","sport"],"duration":0,"start_local":"2024-04-28T16:00:00","end":"2024-04-28T20:00:00Z","end_local":"2024-04-28T16:00:00","updated":"2024-06-12T06:32:49Z"},{"title":"Premier Division - Grenades vs Aston Villa","description":"Sourced from predicthq.com","category":"sports","start":"2024-04-28T00:00:00Z","geo":{"geometry":{"coordinates":[-61.811245937,17.117951635],"type":"Point"},"placekey":"@bsd-y9n-ch5","address":{"country_code":"AG","formatted_address":"458Q+RQ9, Piggotts, Antigua and Barbuda","locality":"Piggotts","region":"Saint John"}},"labels":["soccer","sport"],"duration":0,"start_local":"2024-04-27T20:00:00","end":"2024-04-28T00:00:00Z","end_local":"2024-04-27T20:00:00","updated":"2024-06-12T14:51:45Z"},{"title":"Premier Division - Ottos Rangers vs Empire","description":"Sourced from predicthq.com","category":"sports","start":"2024-04-27T22:00:00Z","geo":{"geometry":{"coordinates":[-61.811245937,17.117951635],"type":"Point"},"placekey":"@bsd-y9n-ch5","address":{"country_code":"AG","formatted_address":"458Q+RQ9, Piggotts, Antigua and Barbuda","locality":"Piggotts","region":"Saint John"}},"labels":["soccer","sport"],"duration":0,"start_local":"2024-04-27T18:00:00","end":"2024-04-27T22:00:00Z","end_local":"2024-04-27T18:00:00","updated":"2024-06-12T08:59:29Z"},{"title":"Premier Division - Green City vs Parham","description":"Sourced from predicthq.com","category":"sports","start":"2024-04-27T20:00:00Z","geo":{"geometry":{"coordinates":[-61.811245937,17.117951635],"type":"Point"},"placekey":"@bsd-y9n-ch5","address":{"country_code":"AG","formatted_address":"458Q+RQ9, Piggotts, Antigua and Barbuda","locality":"Piggotts","region":"Saint John"}},"labels":["soccer","sport"],"duration":0,"start_local":"2024-04-27T16:00:00","end":"2024-04-27T20:00:00Z","end_local":"2024-04-27T16:00:00","updated":"2024-06-12T04:28:45Z"},{"title":"Premier Division - Willikies vs Ottos Rangers","description":"Sourced from predicthq.com","category":"sports","start":"2024-04-25T00:00:00Z","geo":{"geometry":{"coordinates":[-61.811245937,17.117951635],"type":"Point"},"placekey":"@bsd-y9n-ch5","address":{"country_code":"AG","formatted_address":"458Q+RQ9, Piggotts, Antigua and Barbuda","locality":"Piggotts","region":"Saint John"}},"labels":["soccer","sport"],"duration":0,"start_local":"2024-04-24T20:00:00","end":"2024-04-25T00:00:00Z","end_local":"2024-04-24T20:00:00","updated":"2024-06-12T03:01:31Z"},{"title":"Premier Division - Aston Villa vs Empire","description":"Sourced from predicthq.com","category":"sports","start":"2024-04-21T20:00:00Z","geo":{"geometry":{"coordinates":[-61.811245937,17.117951635],"type":"Point"},"placekey":"@bsd-y9n-ch5","address":{"country_code":"AG","formatted_address":"458Q+RQ9, Piggotts, Antigua and Barbuda","locality":"Piggotts","region":"Saint John"}},"labels":["soccer","sport"],"duration":0,"start_local":"2024-04-21T16:00:00","end":"2024-04-21T20:00:00Z","end_local":"2024-04-21T16:00:00","updated":"2024-06-12T08:03:57Z"},{"title":"Premier Division - Hoppers vs Parham","description":"Sourced from predicthq.com","category":"sports","start":"2024-04-21T00:00:00Z","geo":{"geometry":{"coordinates":[-61.811245937,17.117951635],"type":"Point"},"placekey":"@bsd-y9n-ch5","address":{"country_code":"AG","formatted_address":"458Q+RQ9, Piggotts, Antigua and Barbuda","locality":"Piggotts","region":"Saint John"}},"labels":["soccer","sport"],"duration":0,"start_local":"2024-04-20T20:00:00","end":"2024-04-21T00:00:00Z","end_local":"2024-04-20T20:00:00","updated":"2024-06-12T00:33:05Z"},{"title":"Premier Division - Garden Stars vs SAP","description":"Sourced from predicthq.com","category":"sports","start":"2024-04-20T22:00:00Z","geo":{"geometry":{"coordinates":[-61.811245937,17.117951635],"type":"Point"},"placekey":"@bsd-y9n-ch5","address":{"country_code":"AG","formatted_address":"458Q+RQ9, Piggotts, Antigua and Barbuda","locality":"Piggotts","region":"Saint John"}},"labels":["soccer","sport"],"duration":0,"start_local":"2024-04-20T18:00:00","end":"2024-04-20T22:00:00Z","end_local":"2024-04-20T18:00:00","updated":"2024-06-12T16:43:15Z"},{"title":"Premier Division - All Saints United vs Pigotts Bullets","description":"Sourced from predicthq.com","category":"sports","start":"2024-04-20T20:00:00Z","geo":{"geometry":{"coordinates":[-61.811245937,17.117951635],"type":"Point"},"placekey":"@bsd-y9n-ch5","address":{"country_code":"AG","formatted_address":"458Q+RQ9, Piggotts, Antigua and Barbuda","locality":"Piggotts","region":"Saint John"}},"labels":["soccer","sport"],"duration":0,"start_local":"2024-04-20T16:00:00","end":"2024-04-20T20:00:00Z","end_local":"2024-04-20T16:00:00","updated":"2024-06-12T11:42:29Z"},{"title":"Premier Division - Garden Stars vs Swetes","description":"Sourced from predicthq.com","category":"sports","start":"2024-04-15T00:00:00Z","geo":{"geometry":{"coordinates":[-61.811245937,17.117951635],"type":"Point"},"placekey":"@bsd-y9n-ch5","address":{"country_code":"AG","formatted_address":"458Q+RQ9, Piggotts, Antigua and Barbuda","locality":"Piggotts","region":"Saint John"}},"labels":["soccer","sport"],"duration":0,"start_local":"2024-04-14T20:00:00","end":"2024-04-15T00:00:00Z","end_local":"2024-04-14T20:00:00","updated":"2024-06-12T03:01:17Z"},{"title":"Premier Division - Grenades vs Willikies","description":"Sourced from predicthq.com","category":"sports","start":"2024-04-14T22:00:00Z","geo":{"geometry":{"coordinates":[-61.811245937,17.117951635],"type":"Point"},"placekey":"@bsd-y9n-ch5","address":{"country_code":"AG","formatted_address":"458Q+RQ9, Piggotts, Antigua and Barbuda","locality":"Piggotts","region":"Saint John"}},"labels":["soccer","sport"],"duration":0,"start_local":"2024-04-14T18:00:00","end":"2024-04-14T22:00:00Z","end_local":"2024-04-14T18:00:00","updated":"2024-06-12T02:03:39Z"},{"title":"Premier Division - Hoppers vs Green City","description":"Sourced from predicthq.com","category":"sports","start":"2024-04-14T20:00:00Z","geo":{"geometry":{"coordinates":[-61.811245937,17.117951635],"type":"Point"},"placekey":"@bsd-y9n-ch5","address":{"country_code":"AG","formatted_address":"458Q+RQ9, Piggotts, Antigua and Barbuda","locality":"Piggotts","region":"Saint John"}},"labels":["soccer","sport"],"duration":0,"start_local":"2024-04-14T16:00:00","end":"2024-04-14T20:00:00Z","end_local":"2024-04-14T16:00:00","updated":"2024-06-12T04:39:05Z"},{"title":"Premier Division - Pigotts Bullets vs SAP","description":"Sourced from predicthq.com","category":"sports","start":"2024-04-14T00:00:00Z","geo":{"geometry":{"coordinates":[-61.811245937,17.117951635],"type":"Point"},"placekey":"@bsd-y9n-ch5","address":{"country_code":"AG","formatted_address":"458Q+RQ9, Piggotts, Antigua and Barbuda","locality":"Piggotts","region":"Saint John"}},"labels":["soccer","sport"],"duration":0,"start_local":"2024-04-13T20:00:00","end":"2024-04-14T00:00:00Z","end_local":"2024-04-13T20:00:00","updated":"2024-06-12T04:11:29Z"},{"title":"Premier Division - Old Road vs John Hughes","description":"Sourced from predicthq.com","category":"sports","start":"2024-04-13T22:00:00Z","geo":{"geometry":{"coordinates":[-61.811245937,17.117951635],"type":"Point"},"placekey":"@bsd-y9n-ch5","address":{"country_code":"AG","formatted_address":"458Q+RQ9, Piggotts, Antigua and Barbuda","locality":"Piggotts","region":"Saint John"}},"labels":["soccer","sport"],"duration":0,"start_local":"2024-04-13T18:00:00","end":"2024-04-13T22:00:00Z","end_local":"2024-04-13T18:00:00","updated":"2024-06-11T23:54:06Z"},{"title":"Premier Division - Aston Villa vs Ottos Rangers","description":"Sourced from predicthq.com","category":"sports","start":"2024-04-13T20:00:00Z","geo":{"geometry":{"coordinates":[-61.811245937,17.117951635],"type":"Point"},"placekey":"@bsd-y9n-ch5","address":{"country_code":"AG","formatted_address":"458Q+RQ9, Piggotts, Antigua and Barbuda","locality":"Piggotts","region":"Saint John"}},"labels":["soccer","sport"],"duration":0,"start_local":"2024-04-13T16:00:00","end":"2024-04-13T20:00:00Z","end_local":"2024-04-13T16:00:00","updated":"2024-06-12T11:50:13Z"},{"title":"Premier Division - All Saints United vs SAP","description":"Sourced from predicthq.com","category":"sports","start":"2024-04-08T00:00:00Z","geo":{"geometry":{"coordinates":[-61.811245937,17.117951635],"type":"Point"},"placekey":"@bsd-y9n-ch5","address":{"country_code":"AG","formatted_address":"458Q+RQ9, Piggotts, Antigua and Barbuda","locality":"Piggotts","region":"Saint John"}},"labels":["soccer","sport"],"duration":0,"start_local":"2024-04-07T20:00:00","end":"2024-04-08T00:00:00Z","end_local":"2024-04-07T20:00:00","updated":"2024-06-12T10:49:40Z"},{"title":"Premier Division - Grenades vs Empire","description":"Sourced from predicthq.com","category":"sports","start":"2024-04-07T22:00:00Z","geo":{"geometry":{"coordinates":[-61.811245937,17.117951635],"type":"Point"},"placekey":"@bsd-y9n-ch5","address":{"country_code":"AG","formatted_address":"458Q+RQ9, Piggotts, Antigua and Barbuda","locality":"Piggotts","region":"Saint John"}},"labels":["soccer","sport"],"duration":0,"start_local":"2024-04-07T18:00:00","end":"2024-04-07T22:00:00Z","end_local":"2024-04-07T18:00:00","updated":"2024-06-12T08:10:08Z"},{"title":"Premier Division - Old Road vs Parham","description":"Sourced from predicthq.com","category":"sports","start":"2024-04-07T20:00:00Z","geo":{"geometry":{"coordinates":[-61.811245937,17.117951635],"type":"Point"},"placekey":"@bsd-y9n-ch5","address":{"country_code":"AG","formatted_address":"458Q+RQ9, Piggotts, Antigua and Barbuda","locality":"Piggotts","region":"Saint John"}},"labels":["soccer","sport"],"duration":0,"start_local":"2024-04-07T16:00:00","end":"2024-04-07T20:00:00Z","end_local":"2024-04-07T16:00:00","updated":"2024-06-12T14:44:55Z"},{"title":"Premier Division - Aston Villa vs Willikies","description":"Sourced from predicthq.com","category":"sports","start":"2024-04-07T00:00:00Z","geo":{"geometry":{"coordinates":[-61.811245937,17.117951635],"type":"Point"},"placekey":"@bsd-y9n-ch5","address":{"country_code":"AG","formatted_address":"458Q+RQ9, Piggotts, Antigua and Barbuda","locality":"Piggotts","region":"Saint John"}},"labels":["soccer","sport"],"duration":0,"start_local":"2024-04-06T20:00:00","end":"2024-04-07T00:00:00Z","end_local":"2024-04-06T20:00:00","updated":"2024-07-01T02:33:29Z"},{"title":"Premier Division - Hoppers vs John Hughes","description":"Sourced from predicthq.com","category":"sports","start":"2024-04-06T22:00:00Z","geo":{"geometry":{"coordinates":[-61.811245937,17.117951635],"type":"Point"},"placekey":"@bsd-y9n-ch5","address":{"country_code":"AG","formatted_address":"458Q+RQ9, Piggotts, Antigua and Barbuda","locality":"Piggotts","region":"Saint John"}},"labels":["soccer","sport"],"duration":0,"start_local":"2024-04-06T18:00:00","end":"2024-04-06T22:00:00Z","end_local":"2024-04-06T18:00:00","updated":"2024-07-01T02:18:24Z"},{"title":"Premier Division - Pigotts Bullets vs Swetes","description":"Sourced from predicthq.com","category":"sports","start":"2024-04-06T20:00:00Z","geo":{"geometry":{"coordinates":[-61.811245937,17.117951635],"type":"Point"},"placekey":"@bsd-y9n-ch5","address":{"country_code":"AG","formatted_address":"458Q+RQ9, Piggotts, Antigua and Barbuda","locality":"Piggotts","region":"Saint John"}},"labels":["soccer","sport"],"duration":0,"start_local":"2024-04-06T16:00:00","end":"2024-04-06T20:00:00Z","end_local":"2024-04-06T16:00:00","updated":"2024-06-12T02:25:36Z"}]