[{"title":"ProFeedback Participation in Evaluation - Participatory Evaluation Practices Conference","description":"Sourced from predicthq.com","category":"conferences","start":"2024-10-01T07:00:00Z","geo":{"geometry":{"coordinates":[19.803818,41.326502],"type":"Point"},"placekey":"@4zm-qzt-zzz","address":{"country_code":"AL","formatted_address":"Rruga e Kavajës, Tiranë, Albania","locality":"Tiranë","region":"Qarku i Tiranës"}},"labels":["conference"],"duration":32400,"start_local":"2024-10-01T09:00:00","end":"2024-10-01T16:00:00Z","end_local":"2024-10-01T18:00:00","updated":"2024-07-02T11:49:12Z"},{"title":"UEFA Nations League - League B - Albania vs Georgia","description":"Sourced from predicthq.com","category":"sports","start":"2024-09-10T18:45:00Z","geo":{"geometry":{"coordinates":[19.8238789,41.3183605],"type":"Point"},"placekey":"@4zm-qxg-8y9","address":{"country_code":"AL","formatted_address":"Tirana, Albania","locality":"Tirana"}},"labels":["soccer","sport"],"duration":0,"start_local":"2024-09-10T20:45:00","end":"2024-09-10T18:45:00Z","end_local":"2024-09-10T20:45:00","updated":"2024-06-11T00:30:54Z"},{"title":"Globetrotter di Andrea Paone | Italian Comedy Night","description":"Sourced from predicthq.com - Una serata di comicità italiana con il nuovo show di Andrea Paone \"Globetrotter\".","category":"performing-arts","start":"2024-09-07T19:30:00Z","geo":{"geometry":{"coordinates":[19.8159125,41.3261014],"type":"Point"},"placekey":"@4zm-qz2-gp9","address":{"country_code":"AL","formatted_address":"Rruga Reshit Çollaku, Tirana, Albania","locality":"Tirana","region":"Tirana County"}},"labels":["concert","music","performing-arts"],"duration":5400,"start_local":"2024-09-07T21:30:00","end":"2024-09-07T21:00:00Z","end_local":"2024-09-07T23:00:00","updated":"2024-05-30T03:19:24Z"},{"title":"International Conferences on Science and Technology","description":"Sourced from predicthq.com","category":"conferences","start":"2024-09-04T07:00:00Z","geo":{"geometry":{"coordinates":[19.457325,41.351658],"type":"Point"},"placekey":"@4zm-y7k-2kz","address":{"country_code":"AL","formatted_address":"Durrës, Durrës County, Albania","locality":"Durrës","region":"Durrës County"}},"labels":["conference"],"duration":205200,"start_local":"2024-09-04T09:00:00","end":"2024-09-06T16:00:00Z","end_local":"2024-09-06T18:00:00","updated":"2024-06-16T03:58:29Z"},{"title":"Odoo Roadshow Tirana","description":"Sourced from predicthq.com - Discover Odoo with our experts and partners in Tirana!","category":"conferences","start":"2024-08-20T16:00:00Z","geo":{"geometry":{"coordinates":[19.8186052,41.32989949999999],"type":"Point"},"placekey":"@4zm-qz2-hqz","address":{"country_code":"AL","formatted_address":"Rruga Urani Pano, Tiranë, Albania","locality":"Tiranë","region":"Qarku i Tiranës"}},"labels":["business","conference"],"duration":10800,"start_local":"2024-08-20T18:00:00","end":"2024-08-20T19:00:00Z","end_local":"2024-08-20T21:00:00","updated":"2024-06-06T03:21:56Z"},{"title":"Capital T","description":"Sourced from predicthq.com","category":"concerts","start":"2024-08-16T18:00:00Z","geo":{"geometry":{"coordinates":[19.8112464,41.318995],"type":"Point"},"placekey":"@4zm-qzv-7nq","address":{"country_code":"AL","formatted_address":"Rruga Sulejman Delvina, 1000-Tirana, Albania","postcode":"1000","locality":"Tirana","region":"Tirana County"}},"labels":["concert","music"],"duration":0,"start_local":"2024-08-16T20:00:00","end":"2024-08-16T18:00:00Z","end_local":"2024-08-16T20:00:00","updated":"2024-06-28T20:04:47Z"},{"title":"Pedrik","description":"Sourced from predicthq.com","category":"concerts","start":"2024-08-15T20:00:00Z","geo":{"geometry":{"coordinates":[19.8187,41.32755],"type":"Point"},"placekey":"@4zm-qz2-f2k","address":{"country_code":"AL","formatted_address":"Sheshi Skënderbej 1, Tirana, Albania","locality":"Tirana","region":"Tirana County"}},"labels":["concert","music"],"duration":0,"start_local":"2024-08-15T22:00:00","end":"2024-08-15T20:00:00Z","end_local":"2024-08-15T22:00:00","updated":"2024-06-11T03:40:50Z"},{"title":"Pedrik","description":"Sourced from predicthq.com","category":"concerts","start":"2024-08-02T20:00:00Z","geo":{"geometry":{"coordinates":[19.8187,41.32755],"type":"Point"},"placekey":"@4zm-qz2-f2k","address":{"country_code":"AL","formatted_address":"Sheshi Skënderbej 1, Tirana, Albania","locality":"Tirana","region":"Tirana County"}},"labels":["concert","music"],"duration":0,"start_local":"2024-08-02T22:00:00","end":"2024-08-02T20:00:00Z","end_local":"2024-08-02T22:00:00","updated":"2024-06-11T05:25:22Z"},{"title":"Eurobasket U18 C - Final - Winner Semi-final 1 vs Winner Semi-final 2","description":"Sourced from predicthq.com","category":"sports","start":"2024-07-28T19:00:00Z","geo":{"geometry":{"coordinates":[20.07865159644372,41.111252613312516],"type":"Point"},"placekey":"@4zm-sp6-4sq","address":{"country_code":"AL","formatted_address":"Rruga Janaq Kilica, Elbasan, Albania","locality":"Elbasan","region":"Elbasan County"}},"labels":["basketball","sport"],"duration":0,"start_local":"2024-07-28T21:00:00","end":"2024-07-28T19:00:00Z","end_local":"2024-07-28T21:00:00","updated":"2024-06-11T05:22:00Z"},{"title":"Nico de Andrea","description":"Sourced from predicthq.com","category":"concerts","start":"2024-07-28T17:00:00Z","geo":{"geometry":{"coordinates":[19.6416979,40.1409274],"type":"Point"},"placekey":"@4zn-bjs-fpv","address":{"country_code":"AL","formatted_address":"plazh, Dhërmi, Albania","locality":"Dhërmi","region":"Qarku i Vlorës"}},"labels":["concert","music"],"duration":0,"start_local":"2024-07-28T19:00:00","end":"2024-07-28T17:00:00Z","end_local":"2024-07-28T19:00:00","updated":"2024-07-05T11:24:37Z"},{"title":"Eurobasket U18 C - 3rd Place Final - Loser Semi final 1 vs Loser Semi final 2","description":"Sourced from predicthq.com","category":"sports","start":"2024-07-28T16:30:00Z","geo":{"geometry":{"coordinates":[20.07865159644372,41.111252613312516],"type":"Point"},"placekey":"@4zm-sp6-4sq","address":{"country_code":"AL","formatted_address":"Rruga Janaq Kilica, Elbasan, Albania","locality":"Elbasan","region":"Elbasan County"}},"labels":["basketball","sport"],"duration":0,"start_local":"2024-07-28T18:30:00","end":"2024-07-28T16:30:00Z","end_local":"2024-07-28T18:30:00","updated":"2024-06-11T10:19:47Z"},{"title":"Eurobasket U18 C - 5th Place Play-offs - 3rd Group B vs 3rd Group A","description":"Sourced from predicthq.com","category":"sports","start":"2024-07-28T14:00:00Z","geo":{"geometry":{"coordinates":[20.07865159644372,41.111252613312516],"type":"Point"},"placekey":"@4zm-sp6-4sq","address":{"country_code":"AL","formatted_address":"Rruga Janaq Kilica, Elbasan, Albania","locality":"Elbasan","region":"Elbasan County"}},"labels":["basketball","sport"],"duration":0,"start_local":"2024-07-28T16:00:00","end":"2024-07-28T14:00:00Z","end_local":"2024-07-28T16:00:00","updated":"2024-06-26T10:35:50Z"},{"title":"Night Half Marathon \"Enkelana\" in Pogradec","description":"Sourced from predicthq.com","category":"sports","start":"2024-07-27T17:00:00Z","geo":{"geometry":{"coordinates":[20.6556289,40.9015314],"type":"Point"},"placekey":"@4zk-sb8-xwk","address":{"country_code":"AL","formatted_address":"Pogradec, Korçë County, Albania","locality":"Pogradec","region":"Korçë County"}},"labels":["marathon","outdoor-sports","running","sport"],"duration":0,"start_local":"2024-07-27T19:00:00","end":"2024-07-27T17:00:00Z","end_local":"2024-07-27T19:00:00","updated":"2024-06-04T04:39:40Z"},{"title":"Eurobasket U18 C - 5th Place Play-offs - 4th Group A vs 3rd Group B","description":"Sourced from predicthq.com","category":"sports","start":"2024-07-27T14:00:00Z","geo":{"geometry":{"coordinates":[20.07865159644372,41.111252613312516],"type":"Point"},"placekey":"@4zm-sp6-4sq","address":{"country_code":"AL","formatted_address":"Rruga Janaq Kilica, Elbasan, Albania","locality":"Elbasan","region":"Elbasan County"}},"labels":["basketball","sport"],"duration":0,"start_local":"2024-07-27T16:00:00","end":"2024-07-27T14:00:00Z","end_local":"2024-07-27T16:00:00","updated":"2024-06-26T20:53:24Z"},{"title":"Eurobasket U18 C - Group Stage - Gibraltar U18 vs Luxembourg U18","description":"Sourced from predicthq.com","category":"sports","start":"2024-07-25T19:00:00Z","geo":{"geometry":{"coordinates":[20.07865159644372,41.111252613312516],"type":"Point"},"placekey":"@4zm-sp6-4sq","address":{"country_code":"AL","formatted_address":"Rruga Janaq Kilica, Elbasan, Albania","locality":"Elbasan","region":"Elbasan County"}},"labels":["basketball","sport"],"duration":0,"start_local":"2024-07-25T21:00:00","end":"2024-07-25T19:00:00Z","end_local":"2024-07-25T21:00:00","updated":"2024-06-11T01:18:12Z"},{"title":"Nouvelle Vague, Phoebe Killdeer, and Mélanie Pain","description":"Sourced from predicthq.com","category":"concerts","start":"2024-07-25T17:00:00Z","geo":{"geometry":{"coordinates":[19.8112464,41.318995],"type":"Point"},"placekey":"@4zm-qzv-7nq","address":{"country_code":"AL","formatted_address":"Rruga Sulejman Delvina, 1000-Tirana, Albania","postcode":"1000","locality":"Tirana","region":"Tirana County"}},"labels":["concert","music"],"duration":0,"start_local":"2024-07-25T19:00:00","end":"2024-07-25T17:00:00Z","end_local":"2024-07-25T19:00:00","updated":"2024-07-05T20:05:46Z"},{"title":"Eurobasket U18 C - Group Stage - Albania U18 vs San Marino U18","description":"Sourced from predicthq.com","category":"sports","start":"2024-07-25T16:30:00Z","geo":{"geometry":{"coordinates":[20.07865159644372,41.111252613312516],"type":"Point"},"placekey":"@4zm-sp6-4sq","address":{"country_code":"AL","formatted_address":"Rruga Janaq Kilica, Elbasan, Albania","locality":"Elbasan","region":"Elbasan County"}},"labels":["basketball","sport"],"duration":0,"start_local":"2024-07-25T18:30:00","end":"2024-07-25T16:30:00Z","end_local":"2024-07-25T18:30:00","updated":"2024-06-25T15:21:28Z"},{"title":"Eurobasket U18 C - Group Stage - Azerbaijan U18 vs Armenia U18","description":"Sourced from predicthq.com","category":"sports","start":"2024-07-25T14:00:00Z","geo":{"geometry":{"coordinates":[20.07865159644372,41.111252613312516],"type":"Point"},"placekey":"@4zm-sp6-4sq","address":{"country_code":"AL","formatted_address":"Rruga Janaq Kilica, Elbasan, Albania","locality":"Elbasan","region":"Elbasan County"}},"labels":["basketball","sport"],"duration":0,"start_local":"2024-07-25T16:00:00","end":"2024-07-25T14:00:00Z","end_local":"2024-07-25T16:00:00","updated":"2024-06-25T14:38:18Z"},{"title":"Eurobasket U18 C - Group Stage - San Marino U18 vs Luxembourg U18","description":"Sourced from predicthq.com","category":"sports","start":"2024-07-24T19:00:00Z","geo":{"geometry":{"coordinates":[20.07865159644372,41.111252613312516],"type":"Point"},"placekey":"@4zm-sp6-4sq","address":{"country_code":"AL","formatted_address":"Rruga Janaq Kilica, Elbasan, Albania","locality":"Elbasan","region":"Elbasan County"}},"labels":["basketball","sport"],"duration":0,"start_local":"2024-07-24T21:00:00","end":"2024-07-24T19:00:00Z","end_local":"2024-07-24T21:00:00","updated":"2024-06-11T04:09:10Z"},{"title":"Eurobasket U18 C - Group Stage - Albania U18 vs Gibraltar U18","description":"Sourced from predicthq.com","category":"sports","start":"2024-07-24T16:30:00Z","geo":{"geometry":{"coordinates":[20.07865159644372,41.111252613312516],"type":"Point"},"placekey":"@4zm-sp6-4sq","address":{"country_code":"AL","formatted_address":"Rruga Janaq Kilica, Elbasan, Albania","locality":"Elbasan","region":"Elbasan County"}},"labels":["basketball","sport"],"duration":0,"start_local":"2024-07-24T18:30:00","end":"2024-07-24T16:30:00Z","end_local":"2024-07-24T18:30:00","updated":"2024-06-10T23:46:30Z"},{"title":"Eurobasket U18 C - Group Stage - Moldova U18 vs Azerbaijan U18","description":"Sourced from predicthq.com","category":"sports","start":"2024-07-24T14:00:00Z","geo":{"geometry":{"coordinates":[20.07865159644372,41.111252613312516],"type":"Point"},"placekey":"@4zm-sp6-4sq","address":{"country_code":"AL","formatted_address":"Rruga Janaq Kilica, Elbasan, Albania","locality":"Elbasan","region":"Elbasan County"}},"labels":["basketball","sport"],"duration":0,"start_local":"2024-07-24T16:00:00","end":"2024-07-24T14:00:00Z","end_local":"2024-07-24T16:00:00","updated":"2024-06-25T14:32:14Z"},{"title":"Eurobasket U18 C - Group Stage - Gibraltar U18 vs San Marino U18","description":"Sourced from predicthq.com","category":"sports","start":"2024-07-23T19:00:00Z","geo":{"geometry":{"coordinates":[20.07865159644372,41.111252613312516],"type":"Point"},"placekey":"@4zm-sp6-4sq","address":{"country_code":"AL","formatted_address":"Rruga Janaq Kilica, Elbasan, Albania","locality":"Elbasan","region":"Elbasan County"}},"labels":["basketball","sport"],"duration":0,"start_local":"2024-07-23T21:00:00","end":"2024-07-23T19:00:00Z","end_local":"2024-07-23T21:00:00","updated":"2024-06-11T02:57:32Z"},{"title":"Eurobasket U18 C - Group Stage - Luxembourg U18 vs Albania U18","description":"Sourced from predicthq.com","category":"sports","start":"2024-07-23T16:30:00Z","geo":{"geometry":{"coordinates":[20.07865159644372,41.111252613312516],"type":"Point"},"placekey":"@4zm-sp6-4sq","address":{"country_code":"AL","formatted_address":"Rruga Janaq Kilica, Elbasan, Albania","locality":"Elbasan","region":"Elbasan County"}},"labels":["basketball","sport"],"duration":0,"start_local":"2024-07-23T18:30:00","end":"2024-07-23T16:30:00Z","end_local":"2024-07-23T18:30:00","updated":"2024-06-11T00:13:13Z"},{"title":"Eurobasket U18 C - Group Stage - Armenia U18 vs Moldova U18","description":"Sourced from predicthq.com","category":"sports","start":"2024-07-23T14:00:00Z","geo":{"geometry":{"coordinates":[20.07865159644372,41.111252613312516],"type":"Point"},"placekey":"@4zm-sp6-4sq","address":{"country_code":"AL","formatted_address":"Rruga Janaq Kilica, Elbasan, Albania","locality":"Elbasan","region":"Elbasan County"}},"labels":["basketball","sport"],"duration":0,"start_local":"2024-07-23T16:00:00","end":"2024-07-23T14:00:00Z","end_local":"2024-07-23T16:00:00","updated":"2024-06-25T14:49:48Z"},{"title":"UEFA Conference League - 1st Qualifying Round - Tirana vs Torpedo Kutaisi","description":"Sourced from predicthq.com","category":"sports","start":"2024-07-18T18:00:00Z","geo":{"geometry":{"coordinates":[19.8238789,41.3183605],"type":"Point"},"placekey":"@4zm-qxg-8y9","address":{"country_code":"AL","formatted_address":"Tirana, Albania","locality":"Tirana"}},"labels":["soccer","sport"],"duration":0,"start_local":"2024-07-18T20:00:00","end":"2024-07-18T18:00:00Z","end_local":"2024-07-18T20:00:00","updated":"2024-06-24T19:18:48Z"},{"title":"UEFA Conference League - 1st Qualifying Round - Vllaznia Shkodër vs Valur","description":"Sourced from predicthq.com","category":"sports","start":"2024-07-18T16:00:00Z","geo":{"geometry":{"coordinates":[19.5066279,42.0699975],"type":"Point"},"placekey":"@4zx-565-gx5","address":{"country_code":"AL","formatted_address":"Rruga Djepaxhijej 2, Shkodër 4001, Albania","postcode":"4001","locality":"Shkodër","region":"Shkodër County"}},"labels":["soccer","sport"],"duration":0,"start_local":"2024-07-18T18:00:00","end":"2024-07-18T16:00:00Z","end_local":"2024-07-18T18:00:00","updated":"2024-06-24T19:18:59Z"},{"title":"UEFA Champions League - 1st Qualifying Round - Egnatia Rrogozhinë vs Borac Banja Luka","description":"Sourced from predicthq.com","category":"sports","start":"2024-07-17T19:00:00Z","geo":{"geometry":{"coordinates":[20.092239,41.115568],"type":"Point"},"placekey":"@4zm-sp5-m49","address":{"country_code":"AL","formatted_address":"Sheshi Elbasan Arena 1, Elbasan, 438P+2QH, Rruga Kozma Naska, Elbasan 3001, Albania","postcode":"3001","locality":"Elbasan","region":"Elbasan County"}},"labels":["soccer","sport"],"duration":0,"start_local":"2024-07-17T21:00:00","end":"2024-07-17T19:00:00Z","end_local":"2024-07-17T21:00:00","updated":"2024-06-24T18:35:01Z"},{"title":"Eurobasket U16 C - Final - Winner Semi-final 1 vs Winner Semi-final 2","description":"Sourced from predicthq.com","category":"sports","start":"2024-07-14T17:30:00Z","geo":{"geometry":{"coordinates":[19.809497,41.312443],"type":"Point"},"placekey":"@4zm-qzt-kj9","address":{"country_code":"AL","formatted_address":"8R75+4G8, Tirana, Albania","locality":"Tirana","region":"Tirana County"}},"labels":["basketball","sport"],"duration":0,"start_local":"2024-07-14T19:30:00","end":"2024-07-14T17:30:00Z","end_local":"2024-07-14T19:30:00","updated":"2024-06-19T14:47:41Z"},{"title":"Eurobasket U16 C - 3rd Place Final - Loser Semi-final 1 vs Loser Semi-final 2","description":"Sourced from predicthq.com","category":"sports","start":"2024-07-14T15:00:00Z","geo":{"geometry":{"coordinates":[19.809497,41.312443],"type":"Point"},"placekey":"@4zm-qzt-kj9","address":{"country_code":"AL","formatted_address":"8R75+4G8, Tirana, Albania","locality":"Tirana","region":"Tirana County"}},"labels":["basketball","sport"],"duration":0,"start_local":"2024-07-14T17:00:00","end":"2024-07-14T15:00:00Z","end_local":"2024-07-14T17:00:00","updated":"2024-06-19T14:45:07Z"},{"title":"Eurobasket U16 C - 5th Place Final - Winner 5th-8th Place Play-off 1 vs Winner 5th-8th Place Play-off 2","description":"Sourced from predicthq.com","category":"sports","start":"2024-07-14T12:30:00Z","geo":{"geometry":{"coordinates":[19.809497,41.312443],"type":"Point"},"placekey":"@4zm-qzt-kj9","address":{"country_code":"AL","formatted_address":"8R75+4G8, Tirana, Albania","locality":"Tirana","region":"Tirana County"}},"labels":["basketball","sport"],"duration":0,"start_local":"2024-07-14T14:30:00","end":"2024-07-14T12:30:00Z","end_local":"2024-07-14T14:30:00","updated":"2024-06-19T14:45:50Z"},{"title":"Eurobasket U16 C - 7th Place Final - Loser 5th-8th Place Play-off 1 vs Loser 5th-8th Place Play-off 2","description":"Sourced from predicthq.com","category":"sports","start":"2024-07-14T10:00:00Z","geo":{"geometry":{"coordinates":[19.809497,41.312443],"type":"Point"},"placekey":"@4zm-qzt-kj9","address":{"country_code":"AL","formatted_address":"8R75+4G8, Tirana, Albania","locality":"Tirana","region":"Tirana County"}},"labels":["basketball","sport"],"duration":0,"start_local":"2024-07-14T12:00:00","end":"2024-07-14T10:00:00Z","end_local":"2024-07-14T12:00:00","updated":"2024-06-19T14:49:17Z"},{"title":"Tirana Inv","description":"Sourced from predicthq.com - Tirana Inv është një event i shkëlqyer ku mund të takosh njerëz të reja, të mrekullueshëm dhe të frymëzuar në një atmosferë të këndshme dhe","category":"conferences","start":"2024-07-12T08:00:00Z","geo":{"geometry":{"coordinates":[19.8186982,41.3275459],"type":"Point"},"placekey":"@4zm-qz2-f2k","address":{"country_code":"AL","formatted_address":"Sheshi Skënderbej, Tirana, Albania","locality":"Tirana","region":"Tirana County"}},"labels":["community","conference"],"duration":7200,"start_local":"2024-07-12T10:00:00","end":"2024-07-12T10:00:00Z","end_local":"2024-07-12T12:00:00","updated":"2024-06-06T03:23:01Z"},{"title":"UEFA Conference League - 1st Qualifying Round - Partizani Tirana vs Marsaxlokk","description":"Sourced from predicthq.com","category":"sports","start":"2024-07-11T18:00:00Z","geo":{"geometry":{"coordinates":[19.8238789,41.3183605],"type":"Point"},"placekey":"@4zm-qxg-8y9","address":{"country_code":"AL","formatted_address":"Tirana, Albania","locality":"Tirana"}},"labels":["soccer","sport"],"duration":0,"start_local":"2024-07-11T20:00:00","end":"2024-07-11T18:00:00Z","end_local":"2024-07-11T20:00:00","updated":"2024-06-24T18:34:35Z"},{"title":"Eurobasket U16 C - Group Stage - Moldova U16 vs Albania U16","description":"Sourced from predicthq.com","category":"sports","start":"2024-07-11T17:30:00Z","geo":{"geometry":{"coordinates":[19.809497,41.312443],"type":"Point"},"placekey":"@4zm-qzt-kj9","address":{"country_code":"AL","formatted_address":"8R75+4G8, Tirana, Albania","locality":"Tirana","region":"Tirana County"}},"labels":["basketball","sport"],"duration":0,"start_local":"2024-07-11T19:30:00","end":"2024-07-11T17:30:00Z","end_local":"2024-07-11T19:30:00","updated":"2024-06-19T14:48:50Z"},{"title":"Eurobasket U16 C - Group Stage - San Marino U16 vs Kosovo U16","description":"Sourced from predicthq.com","category":"sports","start":"2024-07-11T15:00:00Z","geo":{"geometry":{"coordinates":[19.809497,41.312443],"type":"Point"},"placekey":"@4zm-qzt-kj9","address":{"country_code":"AL","formatted_address":"8R75+4G8, Tirana, Albania","locality":"Tirana","region":"Tirana County"}},"labels":["basketball","sport"],"duration":0,"start_local":"2024-07-11T17:00:00","end":"2024-07-11T15:00:00Z","end_local":"2024-07-11T17:00:00","updated":"2024-06-19T14:46:36Z"},{"title":"Eurobasket U16 C - Group Stage - Azerbaijan U16 vs Malta U16","description":"Sourced from predicthq.com","category":"sports","start":"2024-07-11T12:30:00Z","geo":{"geometry":{"coordinates":[19.809497,41.312443],"type":"Point"},"placekey":"@4zm-qzt-kj9","address":{"country_code":"AL","formatted_address":"8R75+4G8, Tirana, Albania","locality":"Tirana","region":"Tirana County"}},"labels":["basketball","sport"],"duration":0,"start_local":"2024-07-11T14:30:00","end":"2024-07-11T12:30:00Z","end_local":"2024-07-11T14:30:00","updated":"2024-06-19T14:51:25Z"},{"title":"Eurobasket U16 C - Group Stage - Gibraltar U16 vs Armenia U16","description":"Sourced from predicthq.com","category":"sports","start":"2024-07-11T10:00:00Z","geo":{"geometry":{"coordinates":[19.809497,41.312443],"type":"Point"},"placekey":"@4zm-qzt-kj9","address":{"country_code":"AL","formatted_address":"8R75+4G8, Tirana, Albania","locality":"Tirana","region":"Tirana County"}},"labels":["basketball","sport"],"duration":0,"start_local":"2024-07-11T12:00:00","end":"2024-07-11T10:00:00Z","end_local":"2024-07-11T12:00:00","updated":"2024-06-19T14:48:50Z"},{"title":"Eurobasket U16 C - Group Stage - Malta U16 vs Albania U16","description":"Sourced from predicthq.com","category":"sports","start":"2024-07-10T17:30:00Z","geo":{"geometry":{"coordinates":[19.809497,41.312443],"type":"Point"},"placekey":"@4zm-qzt-kj9","address":{"country_code":"AL","formatted_address":"8R75+4G8, Tirana, Albania","locality":"Tirana","region":"Tirana County"}},"labels":["basketball","sport"],"duration":0,"start_local":"2024-07-10T19:30:00","end":"2024-07-10T17:30:00Z","end_local":"2024-07-10T19:30:00","updated":"2024-06-19T14:45:07Z"},{"title":"Eurobasket U16 C - Group Stage - Armenia U16 vs Kosovo U16","description":"Sourced from predicthq.com","category":"sports","start":"2024-07-10T15:00:00Z","geo":{"geometry":{"coordinates":[19.809497,41.312443],"type":"Point"},"placekey":"@4zm-qzt-kj9","address":{"country_code":"AL","formatted_address":"8R75+4G8, Tirana, Albania","locality":"Tirana","region":"Tirana County"}},"labels":["basketball","sport"],"duration":0,"start_local":"2024-07-10T17:00:00","end":"2024-07-10T15:00:00Z","end_local":"2024-07-10T17:00:00","updated":"2024-06-19T14:56:45Z"},{"title":"Eurobasket U16 C - Group Stage - Azerbaijan U16 vs Moldova U16","description":"Sourced from predicthq.com","category":"sports","start":"2024-07-10T12:30:00Z","geo":{"geometry":{"coordinates":[19.809497,41.312443],"type":"Point"},"placekey":"@4zm-qzt-kj9","address":{"country_code":"AL","formatted_address":"8R75+4G8, Tirana, Albania","locality":"Tirana","region":"Tirana County"}},"labels":["basketball","sport"],"duration":0,"start_local":"2024-07-10T14:30:00","end":"2024-07-10T12:30:00Z","end_local":"2024-07-10T14:30:00","updated":"2024-06-19T14:45:50Z"},{"title":"Eurobasket U16 C - Group Stage - Gibraltar U16 vs San Marino U16","description":"Sourced from predicthq.com","category":"sports","start":"2024-07-10T10:00:00Z","geo":{"geometry":{"coordinates":[19.809497,41.312443],"type":"Point"},"placekey":"@4zm-qzt-kj9","address":{"country_code":"AL","formatted_address":"8R75+4G8, Tirana, Albania","locality":"Tirana","region":"Tirana County"}},"labels":["basketball","sport"],"duration":0,"start_local":"2024-07-10T12:00:00","end":"2024-07-10T10:00:00Z","end_local":"2024-07-10T12:00:00","updated":"2024-06-19T14:45:50Z"},{"title":"Eurobasket U16 C - Group Stage - Albania U16 vs Azerbaijan U16","description":"Sourced from predicthq.com","category":"sports","start":"2024-07-09T17:30:00Z","geo":{"geometry":{"coordinates":[19.809497,41.312443],"type":"Point"},"placekey":"@4zm-qzt-kj9","address":{"country_code":"AL","formatted_address":"8R75+4G8, Tirana, Albania","locality":"Tirana","region":"Tirana County"}},"labels":["basketball","sport"],"duration":0,"start_local":"2024-07-09T19:30:00","end":"2024-07-09T17:30:00Z","end_local":"2024-07-09T19:30:00","updated":"2024-06-19T14:46:33Z"},{"title":"Eurobasket U16 C - Group Stage - San Marino U16 vs Armenia U16","description":"Sourced from predicthq.com","category":"sports","start":"2024-07-09T15:00:00Z","geo":{"geometry":{"coordinates":[19.809497,41.312443],"type":"Point"},"placekey":"@4zm-qzt-kj9","address":{"country_code":"AL","formatted_address":"8R75+4G8, Tirana, Albania","locality":"Tirana","region":"Tirana County"}},"labels":["basketball","sport"],"duration":0,"start_local":"2024-07-09T17:00:00","end":"2024-07-09T15:00:00Z","end_local":"2024-07-09T17:00:00","updated":"2024-07-01T03:00:04Z"},{"title":"Eurobasket U16 C - Group Stage - Kosovo U16 vs Gibraltar U16","description":"Sourced from predicthq.com","category":"sports","start":"2024-07-09T12:30:00Z","geo":{"geometry":{"coordinates":[19.809497,41.312443],"type":"Point"},"placekey":"@4zm-qzt-kj9","address":{"country_code":"AL","formatted_address":"8R75+4G8, Tirana, Albania","locality":"Tirana","region":"Tirana County"}},"labels":["basketball","sport"],"duration":0,"start_local":"2024-07-09T14:30:00","end":"2024-07-09T12:30:00Z","end_local":"2024-07-09T14:30:00","updated":"2024-07-01T04:13:24Z"},{"title":"Eurobasket U16 C - Group Stage - Moldova U16 vs Malta U16","description":"Sourced from predicthq.com","category":"sports","start":"2024-07-09T10:00:00Z","geo":{"geometry":{"coordinates":[19.809497,41.312443],"type":"Point"},"placekey":"@4zm-qzt-kj9","address":{"country_code":"AL","formatted_address":"8R75+4G8, Tirana, Albania","locality":"Tirana","region":"Tirana County"}},"labels":["basketball","sport"],"duration":0,"start_local":"2024-07-09T12:00:00","end":"2024-07-09T10:00:00Z","end_local":"2024-07-09T12:00:00","updated":"2024-07-01T03:03:23Z"},{"title":"Valeron","description":"Sourced from predicthq.com","category":"concerts","start":"2024-07-07T18:00:00Z","geo":{"geometry":{"coordinates":[19.6278644,40.1448626],"type":"Point"},"placekey":"@4zn-bjr-gff","address":{"country_code":"AL","formatted_address":"4JVH+W4X, Dhërmi, Albania","locality":"Dhërmi","region":"Vlorë County"}},"labels":["concert","music"],"duration":0,"start_local":"2024-07-07T20:00:00","end":"2024-07-07T18:00:00Z","end_local":"2024-07-07T20:00:00","updated":"2024-06-11T09:07:29Z"},{"title":"Muzikë Live","description":"Sourced from predicthq.com - Eventi live më i shumëpritur me të ftuar special Eugena Aliu të shoqëruar me DJ në plazhin pikturest Demi Beach, Bar Restorant Mockingbird.","category":"concerts","start":"2024-07-06T18:00:00Z","geo":{"geometry":{"coordinates":[19.6019329,41.77332150000001],"type":"Point"},"placekey":"@4zm-wn8-n89","address":{"country_code":"AL","formatted_address":"Lezhë District, Lezhë County, Albania","locality":"Lezhë District","region":"Lezhë County"}},"labels":["concert","music"],"duration":7200,"start_local":"2024-07-06T20:00:00","end":"2024-07-06T20:00:00Z","end_local":"2024-07-06T22:00:00","updated":"2024-06-27T01:19:44Z"},{"title":"BALKANOMICS The Conference","description":"Sourced from predicthq.com - Engage.Innovate. Transform. Get ready to dive into Balkan economics at BALKANOMICS The Conference!","category":"conferences","start":"2024-06-24T07:30:00Z","geo":{"geometry":{"coordinates":[19.8215419,41.3276779],"type":"Point"},"placekey":"@4zm-qz2-dy9","address":{"country_code":"AL","formatted_address":"Rruga Abdi Toptani, 1001-Tiranë, Albania","locality":"Tiranë","postcode":"1001","region":"Qarku i Tiranës"}},"labels":["business","conference"],"duration":109800,"start_local":"2024-06-24T09:30:00","end":"2024-06-25T14:00:00Z","end_local":"2024-06-25T16:00:00","updated":"2024-06-06T01:25:25Z"},{"title":"OneLife 2024 @Tirana","description":"Sourced from predicthq.com - This summer, get ready for the ultimate supercars spectacle as OneLife Rally kicks off its 2024 summer edition in Tirana!","category":"festivals","start":"2024-06-22T11:00:00Z","geo":{"geometry":{"coordinates":[19.8185122,41.3277299],"type":"Point"},"placekey":"@4zm-qz2-f2k","address":{"country_code":"AL","formatted_address":"Sheshi Skënderbej, Tirana, Albania","locality":"Tirana","region":"Tirana County"}},"labels":["festival","outdoor"],"duration":37800,"start_local":"2024-06-22T13:00:00","end":"2024-06-22T21:30:00Z","end_local":"2024-06-22T23:30:00","updated":"2024-05-30T01:17:50Z"},{"title":"Keiretsu Forum SEE Investor Pitch Day","description":"Sourced from predicthq.com - Prepare to connect with investors, showcase your ideas, and propel your startup forward.","category":"conferences","start":"2024-06-21T15:00:00Z","geo":{"geometry":{"coordinates":[19.8214465,41.3230276],"type":"Point"},"placekey":"@4zm-qxg-9pv","address":{"country_code":"AL","formatted_address":"Rruga Dervish Hima, Tirana, Albania","locality":"Tirana","region":"Tirana County"}},"labels":["business","conference"],"duration":7200,"start_local":"2024-06-21T17:00:00","end":"2024-06-21T17:00:00Z","end_local":"2024-06-21T19:00:00","updated":"2024-06-11T02:14:54Z"},{"title":"Demo Day","description":"Sourced from predicthq.com - Prezantimi i startup-eve nga programi \"Idea-to-Scale\" – Kohorta 2","category":"conferences","start":"2024-06-20T12:00:00Z","geo":{"geometry":{"coordinates":[20.7511693,42.22098709999999],"type":"Point"},"placekey":"@4zx-cv3-6x5","address":{"country_code":"AL","formatted_address":"Uke Bytyqi, ITP Prizren, 20000 Prizren, Albania","postcode":"20000","region":"Kosovo"}},"labels":["business","conference"],"duration":10800,"start_local":"2024-06-20T14:00:00","end":"2024-06-20T15:00:00Z","end_local":"2024-06-20T17:00:00","updated":"2024-06-20T09:07:23Z"},{"title":"New features: Dynamics 365 Business Central 2024 Release Wave 1","description":"Sourced from predicthq.com - Albanian D365 Business Central Community","category":"conferences","start":"2024-06-15T16:00:00Z","geo":{"geometry":{"coordinates":[19.8227389,41.3219115],"type":"Point"},"placekey":"@4zm-qxg-b49","address":{"country_code":"AL","formatted_address":"Rruga Papa Gjon Pali II, Tirana, Albania","locality":"Tirana","region":"Tirana County"}},"labels":["community","conference"],"duration":7200,"start_local":"2024-06-15T18:00:00","end":"2024-06-15T18:00:00Z","end_local":"2024-06-15T20:00:00","updated":"2024-06-11T02:30:22Z"},{"title":"Italian Comedy Night con i Tracataiz Live","description":"Sourced from predicthq.com - Vieni a divertirti con una serata di comicità italiana con i Tracataiz Live!","category":"performing-arts","start":"2024-06-14T19:00:00Z","geo":{"geometry":{"coordinates":[19.8159125,41.3261014],"type":"Point"},"placekey":"@4zm-qz2-gp9","address":{"country_code":"AL","formatted_address":"Rruga Reshit Çollaku, Tirana, Albania","locality":"Tirana","region":"Tirana County"}},"labels":["concert","music","performing-arts"],"duration":9000,"start_local":"2024-06-14T21:00:00","end":"2024-06-14T21:30:00Z","end_local":"2024-06-14T23:30:00","updated":"2024-06-13T23:30:02Z"},{"title":"Parra for Cuva","description":"Sourced from predicthq.com","category":"concerts","start":"2024-06-13T17:00:00Z","geo":{"geometry":{"coordinates":[19.6314301,40.144547],"type":"Point"},"placekey":"@4zn-bjq-rzf","address":{"country_code":"AL","formatted_address":"Unnamed Road, 4JVJ+RH7, Dhërmi, Albania","locality":"Dhërmi","region":"Qarku i Vlorës"}},"labels":["concert","music"],"duration":0,"start_local":"2024-06-13T19:00:00","end":"2024-06-13T17:00:00Z","end_local":"2024-06-13T19:00:00","updated":"2024-06-28T00:34:52Z"},{"title":"Anjunadeep pres. Explorations","description":"Sourced from predicthq.com","category":"festivals","start":"2024-06-12T22:00:00Z","geo":{"geometry":{"coordinates":[19.6346819,40.1470372],"type":"Point"},"placekey":"@4zn-bjt-3qz","address":{"country_code":"AL","formatted_address":"Vlorë, Albania","locality":"Vlorë"}},"labels":["festival","music"],"duration":518399,"start_local":"2024-06-13T00:00:00","end":"2024-06-18T21:59:59Z","end_local":"2024-06-18T23:59:59","updated":"2024-05-28T06:02:54Z"},{"title":"GLOBAL REAL eXtate FAIR","description":"Sourced from predicthq.com - Global Exhibition of Real Estate and Investments' Market","category":"expos","start":"2024-06-12T08:00:00Z","geo":{"geometry":{"coordinates":[19.8214465,41.3230276],"type":"Point"},"placekey":"@4zm-qxg-9pv","address":{"country_code":"AL","formatted_address":"Rruga Dervish Hima, Tirana, Albania","locality":"Tirana","region":"Tirana County"}},"labels":["business","expo"],"duration":169200,"start_local":"2024-06-12T10:00:00","end":"2024-06-14T07:00:00Z","end_local":"2024-06-14T09:00:00","updated":"2024-06-11T00:10:39Z"},{"title":"Kosovo Philharmonic X Derrick May","description":"Sourced from predicthq.com - Derrick May X Kosovo Philharmonic","category":"performing-arts","start":"2024-06-11T18:30:00Z","geo":{"geometry":{"coordinates":[21.1655028,42.6629138],"type":"Point"},"placekey":"@4zx-k69-ysq","address":{"country_code":"AL","formatted_address":"Luan Haradinaj, 10000 Prishtina, Albania","postcode":"10000","region":"Select"}},"labels":["concert","music","performing-arts"],"duration":7200,"start_local":"2024-06-11T20:30:00","end":"2024-06-11T20:30:00Z","end_local":"2024-06-11T22:30:00","updated":"2024-06-06T00:23:22Z"},{"title":"Chopin Piano FEST 14th Edition Closing Ceremony - Giovanni Bellucci","description":"Sourced from predicthq.com - Don't miss the chance to experience the magic of ChopinPianoFEST. The festival offers a wonderful program for classic music and piano lovers","category":"festivals","start":"2024-06-09T18:00:00Z","geo":{"geometry":{"coordinates":[21.1635638,42.6554158],"type":"Point"},"placekey":"@4zx-k74-x5z","address":{"country_code":"AL","formatted_address":"Eqrem Çabej 111, 10000 Prishtina, Albania","postcode":"10000","region":"Kosovo"}},"labels":["festival","music"],"duration":7200,"start_local":"2024-06-09T20:00:00","end":"2024-06-09T20:00:00Z","end_local":"2024-06-09T22:00:00","updated":"2024-06-04T02:21:55Z"},{"title":"Manda Moor, Sirus Hood, and Mood Child","description":"Sourced from predicthq.com","category":"concerts","start":"2024-06-08T17:00:00Z","geo":{"geometry":{"coordinates":[19.59768,41.80906],"type":"Point"},"placekey":"@4zm-wby-vzz","address":{"country_code":"AL","formatted_address":"RGRF+GR5, Shëngjin, Albania","locality":"Shëngjin","region":"Lezhë County"}},"labels":["concert","music"],"duration":0,"start_local":"2024-06-08T19:00:00","end":"2024-06-08T17:00:00Z","end_local":"2024-06-08T19:00:00","updated":"2024-06-22T17:04:33Z"},{"title":"Simultane e Shahut","description":"Sourced from predicthq.com - Social Hub do të zhvillojë për herë të parë një Simultane Shahu për të gjithë dashamirësit e këtij sporti.","category":"performing-arts","start":"2024-06-08T09:00:00Z","geo":{"geometry":{"coordinates":[19.8086559,41.3274622],"type":"Point"},"placekey":"@4zm-qz2-92k","address":{"country_code":"AL","formatted_address":"Rruga Skënderbeg, Tirana, Albania","locality":"Tirana","region":"Tirana County"}},"labels":["concert","music","performing-arts"],"duration":18000,"start_local":"2024-06-08T11:00:00","end":"2024-06-08T14:00:00Z","end_local":"2024-06-08T16:00:00","updated":"2024-05-30T01:07:58Z"},{"title":"Chopin Piano FEST 14th Edition - Ulpiana Aliaj, Peter Valentovic","description":"Sourced from predicthq.com - Don't miss the chance to experience the magic of ChopinPianoFEST. The festival offers a wonderful program for classic music and piano lovers","category":"festivals","start":"2024-06-07T18:00:00Z","geo":{"geometry":{"coordinates":[21.1635638,42.6554158],"type":"Point"},"placekey":"@4zx-k74-x5z","address":{"country_code":"AL","formatted_address":"Eqrem Çabej 111, 10000 Prishtina, Albania","postcode":"10000","region":"Kosovo"}},"labels":["festival","music"],"duration":7200,"start_local":"2024-06-07T20:00:00","end":"2024-06-07T20:00:00Z","end_local":"2024-06-07T22:00:00","updated":"2024-06-04T00:01:18Z"},{"title":"Manda Moor","description":"Sourced from predicthq.com","category":"concerts","start":"2024-06-07T17:00:00Z","geo":{"geometry":{"coordinates":[19.59768,41.80906],"type":"Point"},"placekey":"@4zm-wby-vzz","address":{"country_code":"AL","formatted_address":"RGRF+GR5, Shëngjin, Albania","locality":"Shëngjin","region":"Lezhë County"}},"labels":["concert","music"],"duration":0,"start_local":"2024-06-07T19:00:00","end":"2024-06-07T17:00:00Z","end_local":"2024-06-07T19:00:00","updated":"2024-06-21T17:53:37Z"},{"title":"Chopin Piano FEST 14th Kosovo Solist's Evening","description":"Sourced from predicthq.com - Don't miss the chance to experience the magic of ChopinPianoFEST. The festival offers a wonderful program for classic music and piano lovers","category":"festivals","start":"2024-06-06T18:00:00Z","geo":{"geometry":{"coordinates":[21.1635638,42.6554158],"type":"Point"},"placekey":"@4zx-k74-x5z","address":{"country_code":"AL","formatted_address":"Eqrem Çabej 111, 10000 Prishtina, Albania","postcode":"10000","region":"Kosovo"}},"labels":["festival","music"],"duration":7200,"start_local":"2024-06-06T20:00:00","end":"2024-06-06T20:00:00Z","end_local":"2024-06-06T22:00:00","updated":"2024-06-04T11:35:53Z"},{"title":"Chopin Piano FEST 14th Edition Eduweek - Skena Juvenis","description":"Sourced from predicthq.com - Don't miss the chance to experience the magic of ChopinPianoFEST. The festival offers a wonderful program for classic music and piano lovers","category":"festivals","start":"2024-06-04T18:00:00Z","geo":{"geometry":{"coordinates":[21.1635638,42.6554158],"type":"Point"},"placekey":"@4zx-k74-x5z","address":{"country_code":"AL","formatted_address":"Eqrem Çabej 111, 10000 Prishtina, Albania","postcode":"10000","region":"Kosovo"}},"labels":["festival","music"],"duration":7200,"start_local":"2024-06-04T20:00:00","end":"2024-06-04T20:00:00Z","end_local":"2024-06-04T22:00:00","updated":"2024-06-04T00:49:25Z"},{"title":"Chopin Piano FEST 14th Edition Eduweek - Piano Podium","description":"Sourced from predicthq.com - Don't miss the chance to experience the magic of ChopinPianoFEST. The festival offers a wonderful program for classic music and piano lovers","category":"festivals","start":"2024-06-03T18:00:00Z","geo":{"geometry":{"coordinates":[21.1635638,42.6554158],"type":"Point"},"placekey":"@4zx-k74-x5z","address":{"country_code":"AL","formatted_address":"Eqrem Çabej 111, 10000 Prishtina, Albania","postcode":"10000","region":"Kosovo"}},"labels":["festival","music"],"duration":7200,"start_local":"2024-06-03T20:00:00","end":"2024-06-03T20:00:00Z","end_local":"2024-06-03T22:00:00","updated":"2024-06-04T07:57:04Z"},{"title":"Chopin Piano FEST 14th Edition  Eduweek - Talent's Marathon","description":"Sourced from predicthq.com - Don't miss the chance to experience the magic of ChopinPianoFEST. The festival offers a wonderful program for classic music and piano lovers","category":"festivals","start":"2024-06-02T18:00:00Z","geo":{"geometry":{"coordinates":[21.1635638,42.6554158],"type":"Point"},"placekey":"@4zx-k74-x5z","address":{"country_code":"AL","formatted_address":"Eqrem Çabej 111, 10000 Prishtina, Albania","postcode":"10000","region":"Kosovo"}},"labels":["festival","music"],"duration":7200,"start_local":"2024-06-02T20:00:00","end":"2024-06-02T20:00:00Z","end_local":"2024-06-02T22:00:00","updated":"2024-06-04T02:25:16Z"},{"title":"Cloud Connect","description":"Sourced from predicthq.com - Cloud Connect is all about bringing together tech enthusiasts to explore the latest trends and innovations in cloud computing!","category":"conferences","start":"2024-06-01T08:00:00Z","geo":{"geometry":{"coordinates":[19.8186982,41.3275459],"type":"Point"},"placekey":"@4zm-qz2-f2k","address":{"country_code":"AL","formatted_address":"Sheshi Skënderbej, Tirana, Albania","locality":"Tirana","region":"Tirana County"}},"labels":["conference","science","technology"],"duration":7200,"start_local":"2024-06-01T10:00:00","end":"2024-06-01T10:00:00Z","end_local":"2024-06-01T12:00:00","updated":"2024-06-04T05:24:33Z"},{"title":"Sanfest 4th Edition","description":"Sourced from predicthq.com - Get ready for the 4th edition of Sanfest - it's gonna be lit with music, art, and fun activities!","category":"festivals","start":"2024-06-01T08:00:00Z","geo":{"geometry":{"coordinates":[19.4839187,41.8589887],"type":"Point"},"placekey":"@4zx-6zp-f75","address":{"country_code":"AL","formatted_address":"Rruga Baks Rrjoll, Baks-Rrjoll, Albania","locality":"Baks-Rrjoll","region":"Qarku i Shkodrës"}},"labels":["festival","performing-arts"],"duration":135000,"start_local":"2024-06-01T10:00:00","end":"2024-06-02T21:30:00Z","end_local":"2024-06-02T23:30:00","updated":"2024-06-04T02:37:52Z"},{"title":"Chopin Piano FEST 14th Edition - Sofya Gulyak","description":"Sourced from predicthq.com - Don't miss the chance to experience the magic of ChopinPianoFEST. The festival offers a wonderful program for classic music and piano lovers","category":"festivals","start":"2024-05-31T18:00:00Z","geo":{"geometry":{"coordinates":[21.1635638,42.6554158],"type":"Point"},"placekey":"@4zx-k74-x5z","address":{"country_code":"AL","formatted_address":"Eqrem Çabej 111, 10000 Prishtina, Albania","postcode":"10000","region":"Kosovo"}},"labels":["festival","music"],"duration":7200,"start_local":"2024-05-31T20:00:00","end":"2024-05-31T20:00:00Z","end_local":"2024-05-31T22:00:00","updated":"2024-06-05T01:01:44Z"},{"title":"Chopin Piano FEST 14th Edition - Croatian Guitar Quartet","description":"Sourced from predicthq.com - Don't miss the chance to experience the magic of ChopinPianoFEST. The festival offers a wonderful program for classic music and piano lovers","category":"festivals","start":"2024-05-29T18:00:00Z","geo":{"geometry":{"coordinates":[21.1635638,42.6554158],"type":"Point"},"placekey":"@4zx-k74-x5z","address":{"country_code":"AL","formatted_address":"Eqrem Çabej 111, 10000 Prishtina, Albania","postcode":"10000","region":"Kosovo"}},"labels":["festival","music"],"duration":7200,"start_local":"2024-05-29T20:00:00","end":"2024-05-29T20:00:00Z","end_local":"2024-05-29T22:00:00","updated":"2024-06-05T01:02:29Z"},{"title":"Chopin Piano FEST 14th Edition - Iliriana Gjoni, Milica Lalosevic","description":"Sourced from predicthq.com - Don't miss the chance to experience the magic of ChopinPianoFEST. The festival offers a wonderful program for classic music and piano lovers","category":"festivals","start":"2024-05-27T18:00:00Z","geo":{"geometry":{"coordinates":[21.1635638,42.6554158],"type":"Point"},"placekey":"@4zx-k74-x5z","address":{"country_code":"AL","formatted_address":"Eqrem Çabej 111, 10000 Prishtina, Albania","postcode":"10000","region":"Kosovo"}},"labels":["festival","music"],"duration":7200,"start_local":"2024-05-27T20:00:00","end":"2024-05-27T20:00:00Z","end_local":"2024-05-27T22:00:00","updated":"2024-06-05T08:55:49Z"},{"title":"Beethoven x Schubert: Orkestra e Filharmonisë së Kosovës","description":"Sourced from predicthq.com - Muaji maj në kalendarin e aktiviteteve të Filharmonisë së Kosovës do të përmbyllet me një koncert nën drejtimin e Antoine Marguier.","category":"concerts","start":"2024-05-25T18:00:00Z","geo":{"geometry":{"coordinates":[21.1655028,42.6629138],"type":"Point"},"placekey":"@4zx-k69-ysq","address":{"country_code":"AL","formatted_address":"Luan Haradinaj, 10000 Prishtina, Albania","postcode":"10000","region":"Select"}},"labels":["concert","music"],"duration":5400,"start_local":"2024-05-25T20:00:00","end":"2024-05-25T19:30:00Z","end_local":"2024-05-25T21:30:00","updated":"2024-06-05T02:22:58Z"},{"title":"Digital  Skills Festival","description":"Sourced from predicthq.com - This year's festival edition is dedicated to educating and inspiring\nparticipants specifically on the topic of Twin Transition.","category":"conferences","start":"2024-05-25T06:00:00Z","geo":{"geometry":{"coordinates":[20.4259456,42.0755845],"type":"Point"},"placekey":"@4zx-cyg-7wk","address":{"country_code":"AL","formatted_address":"Kukës, Kukës County, Albania","locality":"Kukës","region":"Kukës County"}},"labels":["conference","science","technology"],"duration":39600,"start_local":"2024-05-25T08:00:00","end":"2024-05-25T17:00:00Z","end_local":"2024-05-25T19:00:00","updated":"2024-06-05T07:58:35Z"},{"title":"Chopin Piano FEST 14th Edition - Philipp Scheucher, Konstantin Manaev","description":"Sourced from predicthq.com - Don't miss the chance to experience the magic of ChopinPianoFEST. The festival offers a wonderful program for classic music and piano lovers","category":"festivals","start":"2024-05-22T18:00:00Z","geo":{"geometry":{"coordinates":[21.1635638,42.6554158],"type":"Point"},"placekey":"@4zx-k74-x5z","address":{"country_code":"AL","formatted_address":"Eqrem Çabej 111, 10000 Prishtina, Albania","postcode":"10000","region":"Kosovo"}},"labels":["festival","music"],"duration":7200,"start_local":"2024-05-22T20:00:00","end":"2024-05-22T20:00:00Z","end_local":"2024-05-22T22:00:00","updated":"2024-06-05T06:44:21Z"},{"title":"Chopin Piano FEST 14th Edition - Catalina Butcaru, Lucy Hall","description":"Sourced from predicthq.com - Don't miss the chance to experience the magic of ChopinPianoFEST. The festival offers a wonderful program for classic music and piano lovers","category":"festivals","start":"2024-05-20T18:00:00Z","geo":{"geometry":{"coordinates":[21.1635638,42.6554158],"type":"Point"},"placekey":"@4zx-k74-x5z","address":{"country_code":"AL","formatted_address":"Eqrem Çabej 111, 10000 Prishtina, Albania","postcode":"10000","region":"Kosovo"}},"labels":["festival","music"],"duration":7200,"start_local":"2024-05-20T20:00:00","end":"2024-05-20T20:00:00Z","end_local":"2024-05-20T22:00:00","updated":"2024-06-05T12:01:37Z"},{"title":"Chopin Piano FEST 14th Edition - Fabrizio Bosso Quartet We Wonder","description":"Sourced from predicthq.com - Don't miss the chance to experience the magic of ChopinPianoFEST. The festival offers a wonderful program for classic music and piano lovers","category":"festivals","start":"2024-05-18T18:00:00Z","geo":{"geometry":{"coordinates":[21.1635638,42.6554158],"type":"Point"},"placekey":"@4zx-k74-x5z","address":{"country_code":"AL","formatted_address":"Eqrem Çabej 111, 10000 Prishtina, Albania","postcode":"10000","region":"Kosovo"}},"labels":["festival","music"],"duration":7200,"start_local":"2024-05-18T20:00:00","end":"2024-05-18T20:00:00Z","end_local":"2024-05-18T22:00:00","updated":"2024-06-04T23:19:25Z"},{"title":"A night in Kyoto","description":"Sourced from predicthq.com - Një seri eventesh të vogla tematike, me në qendër muzikën, pijet dhe ushqime të vogla.","category":"performing-arts","start":"2024-05-18T18:00:00Z","geo":{"geometry":{"coordinates":[19.8051997,41.31771850000001],"type":"Point"},"placekey":"@4zm-qzt-99f","address":{"country_code":"AL","formatted_address":"Tirana, Tirana County, Albania","locality":"Tirana","region":"Tirana County"}},"labels":["concert","music","performing-arts"],"duration":10800,"start_local":"2024-05-18T20:00:00","end":"2024-05-18T21:00:00Z","end_local":"2024-05-18T23:00:00","updated":"2024-06-01T18:07:27Z"},{"title":"Colour Day Festival","description":"Sourced from predicthq.com","category":"festivals","start":"2024-05-17T22:00:00Z","geo":{"geometry":{"coordinates":[19.821651,41.3179346],"type":"Point"},"placekey":"@4zm-qxg-8d9","address":{"country_code":"AL","formatted_address":"8R9C+5MC, Sheshi Nënë Tereza, Tiranë, Albania","locality":"Tiranë","region":"Qarku i Tiranës"}},"labels":["festival","music"],"duration":86399,"start_local":"2024-05-18T00:00:00","end":"2024-05-18T21:59:59Z","end_local":"2024-05-18T23:59:59","updated":"2024-06-04T22:13:28Z"},{"title":"Chopin Piano FEST 14th Edition - Kosti Deti","description":"Sourced from predicthq.com - Don't miss the chance to experience the magic of ChopinPianoFEST. The festival offers a wonderful program for classic music and piano lovers","category":"festivals","start":"2024-05-17T18:00:00Z","geo":{"geometry":{"coordinates":[21.1635638,42.6554158],"type":"Point"},"placekey":"@4zx-k74-x5z","address":{"country_code":"AL","formatted_address":"Eqrem Çabej 111, 10000 Prishtina, Albania","postcode":"10000","region":"Kosovo"}},"labels":["festival","music"],"duration":7200,"start_local":"2024-05-17T20:00:00","end":"2024-05-17T20:00:00Z","end_local":"2024-05-17T22:00:00","updated":"2024-06-05T10:27:48Z"},{"title":"Play-offs 2/3 - Finals - Besa Kavajë vs Luftëtari","description":"Sourced from predicthq.com","category":"sports","start":"2024-05-16T13:00:00Z","geo":{"geometry":{"coordinates":[19.4888234,40.4560746],"type":"Point"},"placekey":"@4zn-gnx-kmk","address":{"country_code":"AL","formatted_address":"FF4Q+CGG, Vlorë, Albania","locality":"Vlorë","region":"Vlorë County"}},"labels":["soccer","sport"],"duration":0,"start_local":"2024-05-16T15:00:00","end":"2024-05-16T13:00:00Z","end_local":"2024-05-16T15:00:00","updated":"2024-06-12T17:02:23Z"},{"title":"Play-offs 2/3 - Finals - Lushnja vs Iliria Fushë-Krujë","description":"Sourced from predicthq.com","category":"sports","start":"2024-05-16T13:00:00Z","geo":{"geometry":{"coordinates":[19.661713278,41.076660012],"type":"Point"},"placekey":"@4zm-t3k-bp9","address":{"country_code":"AL","formatted_address":"3MG6+GJ2, Rrogozhinë, Albania","locality":"Rrogozhinë","region":"Tirana County"}},"labels":["soccer","sport"],"duration":0,"start_local":"2024-05-16T15:00:00","end":"2024-05-16T13:00:00Z","end_local":"2024-05-16T15:00:00","updated":"2024-06-11T23:04:36Z"},{"title":"Chopin Piano FEST 14th Edition - Saran Suebsantiwongse, Alberta Troni","description":"Sourced from predicthq.com - Don't miss the chance to experience the magic of ChopinPianoFEST. The festival offers a wonderful program for classic music and piano lovers","category":"festivals","start":"2024-05-15T18:00:00Z","geo":{"geometry":{"coordinates":[21.1635638,42.6554158],"type":"Point"},"placekey":"@4zx-k74-x5z","address":{"country_code":"AL","formatted_address":"Eqrem Çabej 111, 10000 Prishtina, Albania","postcode":"10000","region":"Kosovo"}},"labels":["festival","music"],"duration":7200,"start_local":"2024-05-15T20:00:00","end":"2024-05-15T20:00:00Z","end_local":"2024-05-15T22:00:00","updated":"2024-06-05T04:39:18Z"},{"title":"1st Division - Promotion Play-offs - Final - Flamurtari vs Apolonia Fier","description":"Sourced from predicthq.com","category":"sports","start":"2024-05-15T14:00:00Z","geo":{"geometry":{"coordinates":[20.092239,41.115568],"type":"Point"},"placekey":"@4zm-sp5-m49","address":{"country_code":"AL","formatted_address":"Sheshi Elbasan Arena 1, Elbasan, 438P+2QH, Rruga Kozma Naska, Elbasan 3001, Albania","postcode":"3001","locality":"Elbasan","region":"Elbasan County"}},"labels":["soccer","sport"],"duration":0,"start_local":"2024-05-15T16:00:00","end":"2024-05-15T14:00:00Z","end_local":"2024-05-15T16:00:00","updated":"2024-06-12T03:28:26Z"},{"title":"2nd Division - Promotion Play-offs - Finals - Shkumbini Peqin vs Luftëtari","description":"Sourced from predicthq.com","category":"sports","start":"2024-05-12T13:00:00Z","geo":{"geometry":{"coordinates":[19.74090814590454,40.601946521692696],"type":"Point"},"placekey":"@4zn-ght-jqf","address":{"country_code":"AL","formatted_address":"Rruga Mehmet Shehu, Ballsh, Albania","locality":"Ballsh","region":"Qarku i Fierit"}},"labels":["soccer","sport"],"duration":0,"start_local":"2024-05-12T15:00:00","end":"2024-05-12T13:00:00Z","end_local":"2024-05-12T15:00:00","updated":"2024-06-12T03:10:27Z"},{"title":"1st Division - Promotion Play-offs - Semi-finals - Flamurtari vs Korabi Peshkopi","description":"Sourced from predicthq.com","category":"sports","start":"2024-05-12T13:00:00Z","geo":{"geometry":{"coordinates":[19.4888234,40.4560746],"type":"Point"},"placekey":"@4zn-gnx-kmk","address":{"country_code":"AL","formatted_address":"FF4Q+CGG, Vlorë, Albania","locality":"Vlorë","region":"Vlorë County"}},"labels":["soccer","sport"],"duration":0,"start_local":"2024-05-12T15:00:00","end":"2024-05-12T13:00:00Z","end_local":"2024-05-12T15:00:00","updated":"2024-06-12T00:16:15Z"},{"title":"1st Division - Promotion Play-offs - Semi-finals - Vora vs Apolonia Fier","description":"Sourced from predicthq.com","category":"sports","start":"2024-05-12T13:00:00Z","geo":{"geometry":{"coordinates":[19.64247137,41.403341527],"type":"Point"},"placekey":"@4zm-rg2-y9z","address":{"country_code":"AL","formatted_address":"Marqinet, Vorë (Vora), Albania","locality":"Vorë (Vora)"}},"labels":["soccer","sport"],"duration":0,"start_local":"2024-05-12T15:00:00","end":"2024-05-12T13:00:00Z","end_local":"2024-05-12T15:00:00","updated":"2024-06-11T22:28:09Z"},{"title":"2nd Division - Promotion Play-offs - Finals - Iliria Fushë-Krujë vs Sopoti Librazhd","description":"Sourced from predicthq.com","category":"sports","start":"2024-05-12T13:00:00Z","geo":{"geometry":{"coordinates":[19.4498563,41.326146],"type":"Point"},"placekey":"@4zm-y7p-k75","address":{"country_code":"AL","formatted_address":"Rruga Paskal Prodani 1761, Durrës, Albania","locality":"Durrës","region":"Durrës County"}},"labels":["soccer","sport"],"duration":0,"start_local":"2024-05-12T15:00:00","end":"2024-05-12T13:00:00Z","end_local":"2024-05-12T15:00:00","updated":"2024-06-12T04:26:02Z"},{"title":"Koncert: Jolivet, Danzi x Dvořák","description":"Sourced from predicthq.com - Një mbrëmje e veçantë ju pret më 11 maj! Orkestra e Filharmonisë së Kosovës do të prezantohet me koncert nën drejtimin e Chris McCracken","category":"performing-arts","start":"2024-05-11T18:00:00Z","geo":{"geometry":{"coordinates":[21.1655028,42.6629138],"type":"Point"},"placekey":"@4zx-k69-ysq","address":{"country_code":"AL","formatted_address":"Luan Haradinaj, 10000 Prishtina, Albania","postcode":"10000","region":"Select"}},"labels":["concert","music","performing-arts"],"duration":5400,"start_local":"2024-05-11T20:00:00","end":"2024-05-11T19:30:00Z","end_local":"2024-05-11T21:30:00","updated":"2024-05-25T18:11:59Z"},{"title":"2nd Division - Championship - Final - Valbona vs Pogradeci","description":"Sourced from predicthq.com","category":"sports","start":"2024-05-10T16:00:00Z","geo":{"geometry":{"coordinates":[20.092239,41.115568],"type":"Point"},"placekey":"@4zm-sp5-m49","address":{"country_code":"AL","formatted_address":"Sheshi Elbasan Arena 1, Elbasan, 438P+2QH, Rruga Kozma Naska, Elbasan 3001, Albania","postcode":"3001","locality":"Elbasan","region":"Elbasan County"}},"labels":["soccer","sport"],"duration":0,"start_local":"2024-05-10T18:00:00","end":"2024-05-10T16:00:00Z","end_local":"2024-05-10T18:00:00","updated":"2024-06-12T01:13:34Z"},{"title":"2nd Division - Relegation Play-offs - Final - Albanët vs Maliqi","description":"Sourced from predicthq.com","category":"sports","start":"2024-05-10T13:00:00Z","geo":{"geometry":{"coordinates":[19.7526475,41.0422971],"type":"Point"},"placekey":"@4zm-vfb-xyv","address":{"country_code":"AL","formatted_address":"2QR3+W36, Peqin, Albania","locality":"Peqin","region":"Elbasan County"}},"labels":["soccer","sport"],"duration":0,"start_local":"2024-05-10T15:00:00","end":"2024-05-10T13:00:00Z","end_local":"2024-05-10T15:00:00","updated":"2024-06-12T06:15:14Z"},{"title":"Chopin Piano FEST 14th Edition Opening Ceremony - Artem Yasynskyy","description":"Sourced from predicthq.com - Don't miss the chance to experience the magic of ChopinPianoFEST. The festival offers a wonderful program for classic music and piano lovers","category":"performing-arts","start":"2024-05-09T18:00:00Z","geo":{"geometry":{"coordinates":[21.1635638,42.6554158],"type":"Point"},"placekey":"@4zx-k74-x5z","address":{"country_code":"AL","formatted_address":"Eqrem Çabej 111, 10000 Prishtina, Albania","postcode":"10000","region":"Kosovo"}},"labels":["concert","music","performing-arts"],"duration":7200,"start_local":"2024-05-09T20:00:00","end":"2024-05-09T20:00:00Z","end_local":"2024-05-09T22:00:00","updated":"2024-05-23T18:56:03Z"},{"title":"1st Division - Bylis vs AF Elbasani","description":"Sourced from predicthq.com","category":"sports","start":"2024-05-09T15:00:00Z","geo":{"geometry":{"coordinates":[20.092239,41.115568],"type":"Point"},"placekey":"@4zm-sp5-m49","address":{"country_code":"AL","formatted_address":"Sheshi Elbasan Arena 1, Elbasan, 438P+2QH, Rruga Kozma Naska, Elbasan 3001, Albania","postcode":"3001","locality":"Elbasan","region":"Elbasan County"}},"labels":["soccer","sport"],"duration":0,"start_local":"2024-05-09T17:00:00","end":"2024-05-09T15:00:00Z","end_local":"2024-05-09T17:00:00","updated":"2024-06-12T00:13:41Z"},{"title":"2nd Division - Promotion Play-offs - Semi-finals - Luftëtari vs Butrinti Sarandë","description":"Sourced from predicthq.com","category":"sports","start":"2024-05-09T14:00:00Z","geo":{"geometry":{"coordinates":[20.138078927993774,40.08121553997284],"type":"Point"},"placekey":"@4zk-pr6-249","address":{"country_code":"AL","formatted_address":"34JQ+C4W, Gjirokaster, Albania","locality":"Gjirokaster","region":"Gjirokastër County"}},"labels":["soccer","sport"],"duration":0,"start_local":"2024-05-09T16:00:00","end":"2024-05-09T14:00:00Z","end_local":"2024-05-09T16:00:00","updated":"2024-06-12T02:31:20Z"},{"title":"2nd Division - Promotion Play-offs - Semi-finals - Besëlidhja Lezhë vs Sopoti Librazhd","description":"Sourced from predicthq.com","category":"sports","start":"2024-05-09T14:00:00Z","geo":{"geometry":{"coordinates":[19.6446705,41.7760165],"type":"Point"},"placekey":"@4zm-wcg-2x5","address":{"country_code":"AL","formatted_address":"Rruga Luigj Gurakuqi, 4501-Lezhë, Albania","postcode":"4501","locality":"Lezhë","region":"Qarku i Lezhës"}},"labels":["soccer","sport"],"duration":0,"start_local":"2024-05-09T16:00:00","end":"2024-05-09T14:00:00Z","end_local":"2024-05-09T16:00:00","updated":"2024-06-11T21:50:27Z"},{"title":"2nd Division - Promotion Play-offs - Semi-finals - Shkumbini Peqin vs Oriku","description":"Sourced from predicthq.com","category":"sports","start":"2024-05-09T14:00:00Z","geo":{"geometry":{"coordinates":[19.7526475,41.0422971],"type":"Point"},"placekey":"@4zm-vfb-xyv","address":{"country_code":"AL","formatted_address":"2QR3+W36, Peqin, Albania","locality":"Peqin","region":"Elbasan County"}},"labels":["soccer","sport"],"duration":0,"start_local":"2024-05-09T16:00:00","end":"2024-05-09T14:00:00Z","end_local":"2024-05-09T16:00:00","updated":"2024-06-12T00:30:19Z"},{"title":"2nd Division - Promotion Play-offs - Semi-finals - Iliria Fushë-Krujë vs Tërbuni Pukë","description":"Sourced from predicthq.com","category":"sports","start":"2024-05-09T14:00:00Z","geo":{"geometry":{"coordinates":[19.724514484405518,41.47660872954692],"type":"Point"},"placekey":"@4zm-rgr-r6k","address":{"country_code":"AL","formatted_address":"FPGF+QPM, Fushë-Krujë, Albania","locality":"Fushë-Krujë","region":"Durrës County"}},"labels":["soccer","sport"],"duration":0,"start_local":"2024-05-09T16:00:00","end":"2024-05-09T14:00:00Z","end_local":"2024-05-09T16:00:00","updated":"2024-06-12T07:20:01Z"},{"title":"1st Division - Luzi 2008 vs Vora","description":"Sourced from predicthq.com","category":"sports","start":"2024-05-08T14:00:00Z","geo":{"geometry":{"coordinates":[19.5756947994,41.1225640833],"type":"Point"},"placekey":"@4zm-thf-26k","address":{"country_code":"AL","formatted_address":"Luzi i Vogël\nShqipëria","locality":"Luzi i Vogël","region":"Qarku i Tiranës"}},"labels":["soccer","sport"],"duration":0,"start_local":"2024-05-08T16:00:00","end":"2024-05-08T14:00:00Z","end_local":"2024-05-08T16:00:00","updated":"2024-06-12T05:07:41Z"},{"title":"1st Division - Burreli vs Apolonia Fier","description":"Sourced from predicthq.com","category":"sports","start":"2024-05-08T14:00:00Z","geo":{"geometry":{"coordinates":[20.006983280181885,41.60893689833258],"type":"Point"},"placekey":"@4zm-xmz-5zz","address":{"country_code":"AL","formatted_address":"Burreli, Albania","locality":"Burreli"}},"labels":["soccer","sport"],"duration":0,"start_local":"2024-05-08T16:00:00","end":"2024-05-08T14:00:00Z","end_local":"2024-05-08T16:00:00","updated":"2024-06-12T03:11:28Z"},{"title":"1st Division - Kastrioti Krujë vs Korabi Peshkopi","description":"Sourced from predicthq.com","category":"sports","start":"2024-05-08T14:00:00Z","geo":{"geometry":{"coordinates":[19.724514484405518,41.47660872954692],"type":"Point"},"placekey":"@4zm-rgr-r6k","address":{"country_code":"AL","formatted_address":"FPGF+QPM, Fushë-Krujë, Albania","locality":"Fushë-Krujë","region":"Durrës County"}},"labels":["soccer","sport"],"duration":0,"start_local":"2024-05-08T16:00:00","end":"2024-05-08T14:00:00Z","end_local":"2024-05-08T16:00:00","updated":"2024-06-12T18:13:09Z"},{"title":"1st Division - Besa Kavajë vs Flamurtari","description":"Sourced from predicthq.com","category":"sports","start":"2024-05-08T14:00:00Z","geo":{"geometry":{"coordinates":[19.7096871,40.9356462],"type":"Point"},"placekey":"@4zm-vn9-8jv","address":{"country_code":"AL","formatted_address":"WPP5+7V3, Lushnjë, Albania","locality":"Lushnjë","region":"Fier County"}},"labels":["soccer","sport"],"duration":0,"start_local":"2024-05-08T16:00:00","end":"2024-05-08T14:00:00Z","end_local":"2024-05-08T16:00:00","updated":"2024-06-12T01:09:07Z"},{"title":"1st Division - Tomori Berat vs Lushnja","description":"Sourced from predicthq.com","category":"sports","start":"2024-05-08T14:00:00Z","geo":{"geometry":{"coordinates":[19.964518547058105,40.698974638697266],"type":"Point"},"placekey":"@4zm-v8h-ffz","address":{"country_code":"AL","formatted_address":"MXX7+HQW, Berat, Albania","locality":"Berat","region":"Berat County"}},"labels":["soccer","sport"],"duration":0,"start_local":"2024-05-08T16:00:00","end":"2024-05-08T14:00:00Z","end_local":"2024-05-08T16:00:00","updated":"2024-06-12T11:20:06Z"},{"title":"2nd Division - Group B - Oriku vs Këlcyra","description":"Sourced from predicthq.com","category":"sports","start":"2024-05-05T13:00:00Z","geo":{"geometry":{"coordinates":[19.475691318511963,40.327202971917885],"type":"Point"},"placekey":"@4zn-bz7-jsq","address":{"country_code":"AL","formatted_address":"Rruga Gjergj Kastrioti 28, Orikum, Albania","locality":"Orikum","region":"Qarku i Vlorës"}},"labels":["soccer","sport"],"duration":0,"start_local":"2024-05-05T15:00:00","end":"2024-05-05T13:00:00Z","end_local":"2024-05-05T15:00:00","updated":"2024-06-12T12:27:11Z"},{"title":"2nd Division - Group A - Gramshi vs Veleçiku Koplik","description":"Sourced from predicthq.com","category":"sports","start":"2024-05-05T13:00:00Z","geo":{"geometry":{"coordinates":[20.186508893966675,40.861910816175694],"type":"Point"},"placekey":"@4zm-typ-2hq","address":{"country_code":"AL","formatted_address":"Rruga Hamit Dollani 3300, Gramsh, Albania","locality":"Gramsh","region":"Qarku i Elbasanit"}},"labels":["soccer","sport"],"duration":0,"start_local":"2024-05-05T15:00:00","end":"2024-05-05T13:00:00Z","end_local":"2024-05-05T15:00:00","updated":"2024-06-11T22:13:08Z"},{"title":"2nd Division - Group B - Labëria vs Devolli","description":"Sourced from predicthq.com","category":"sports","start":"2024-05-05T13:00:00Z","geo":{"geometry":{"coordinates":[19.452074445,40.491017606],"type":"Point"},"placekey":"@4zn-gqh-8qf","address":{"country_code":"AL","formatted_address":"Nartë, Vlorë, Albania","locality":"Vlorë"}},"labels":["soccer","sport"],"duration":0,"start_local":"2024-05-05T15:00:00","end":"2024-05-05T13:00:00Z","end_local":"2024-05-05T15:00:00","updated":"2024-06-12T17:28:49Z"},{"title":"2nd Division - Group B - Pogradeci vs Turbina Cërrik","description":"Sourced from predicthq.com","category":"sports","start":"2024-05-05T13:00:00Z","geo":{"geometry":{"coordinates":[20.6641959,40.9002355],"type":"Point"},"placekey":"@4zk-sbb-qj9","address":{"country_code":"AL","formatted_address":"WM27+3MW, E86, Pogradec, Albania","locality":"Pogradec","region":"Qarku i Korçës"}},"labels":["soccer","sport"],"duration":0,"start_local":"2024-05-05T15:00:00","end":"2024-05-05T13:00:00Z","end_local":"2024-05-05T15:00:00","updated":"2024-06-12T19:31:54Z"},{"title":"2nd Division - Group B - Butrinti Sarandë vs Luftëtari","description":"Sourced from predicthq.com","category":"sports","start":"2024-05-05T13:00:00Z","geo":{"geometry":{"coordinates":[19.995696544647217,39.87443442005875],"type":"Point"},"placekey":"@4zk-pyb-649","address":{"country_code":"AL","formatted_address":"VXCW+6XQ, Rruga Mitat Hoxha, Sarandë, Albania","locality":"Sarandë","region":"Qarku i Vlorës"}},"labels":["soccer","sport"],"duration":0,"start_local":"2024-05-05T15:00:00","end":"2024-05-05T13:00:00Z","end_local":"2024-05-05T15:00:00","updated":"2024-06-12T03:07:08Z"},{"title":"1st Division - AF Elbasani vs Tomori Berat","description":"Sourced from predicthq.com","category":"sports","start":"2024-05-04T17:00:00Z","geo":{"geometry":{"coordinates":[20.092239,41.115568],"type":"Point"},"placekey":"@4zm-sp5-m49","address":{"country_code":"AL","formatted_address":"Sheshi Elbasan Arena 1, Elbasan, 438P+2QH, Rruga Kozma Naska, Elbasan 3001, Albania","postcode":"3001","locality":"Elbasan","region":"Elbasan County"}},"labels":["soccer","sport"],"duration":0,"start_local":"2024-05-04T19:00:00","end":"2024-05-04T17:00:00Z","end_local":"2024-05-04T19:00:00","updated":"2024-06-12T08:22:39Z"},{"title":"1st Division - Korabi Peshkopi vs Burreli","description":"Sourced from predicthq.com","category":"sports","start":"2024-05-04T14:00:00Z","geo":{"geometry":{"coordinates":[20.4252778,41.6803585],"type":"Point"},"placekey":"@4zm-xgb-9s5","address":{"country_code":"AL","formatted_address":"Rruga Kongresi i Dibres, Peshkopi, Albania","locality":"Peshkopi","region":"Qarku i Dibrës"}},"labels":["soccer","sport"],"duration":0,"start_local":"2024-05-04T16:00:00","end":"2024-05-04T14:00:00Z","end_local":"2024-05-04T16:00:00","updated":"2024-06-12T01:34:37Z"},{"title":"1st Division - Flamurtari vs Luzi 2008","description":"Sourced from predicthq.com","category":"sports","start":"2024-05-04T14:00:00Z","geo":{"geometry":{"coordinates":[19.4888234,40.4560746],"type":"Point"},"placekey":"@4zn-gnx-kmk","address":{"country_code":"AL","formatted_address":"FF4Q+CGG, Vlorë, Albania","locality":"Vlorë","region":"Vlorë County"}},"labels":["soccer","sport"],"duration":0,"start_local":"2024-05-04T16:00:00","end":"2024-05-04T14:00:00Z","end_local":"2024-05-04T16:00:00","updated":"2024-06-12T18:40:14Z"},{"title":"1st Division - Lushnja vs Kastrioti Krujë","description":"Sourced from predicthq.com","category":"sports","start":"2024-05-04T14:00:00Z","geo":{"geometry":{"coordinates":[19.7096871,40.9356462],"type":"Point"},"placekey":"@4zm-vn9-8jv","address":{"country_code":"AL","formatted_address":"WPP5+7V3, Lushnjë, Albania","locality":"Lushnjë","region":"Fier County"}},"labels":["soccer","sport"],"duration":0,"start_local":"2024-05-04T16:00:00","end":"2024-05-04T14:00:00Z","end_local":"2024-05-04T16:00:00","updated":"2024-06-12T01:34:07Z"},{"title":"1st Division - Vora vs Bylis","description":"Sourced from predicthq.com","category":"sports","start":"2024-05-04T14:00:00Z","geo":{"geometry":{"coordinates":[19.64247137,41.403341527],"type":"Point"},"placekey":"@4zm-rg2-y9z","address":{"country_code":"AL","formatted_address":"Marqinet, Vorë (Vora), Albania","locality":"Vorë (Vora)"}},"labels":["soccer","sport"],"duration":0,"start_local":"2024-05-04T16:00:00","end":"2024-05-04T14:00:00Z","end_local":"2024-05-04T16:00:00","updated":"2024-06-12T02:32:42Z"},{"title":"1st Division - Apolonia Fier vs Besa Kavajë","description":"Sourced from predicthq.com","category":"sports","start":"2024-05-04T14:00:00Z","geo":{"geometry":{"coordinates":[19.55216,40.720977],"type":"Point"},"placekey":"@4zn-h2j-975","address":{"country_code":"AL","formatted_address":"PHC2+9VV, Fier, Albania","locality":"Fier","region":"Fier County"}},"labels":["soccer","sport"],"duration":0,"start_local":"2024-05-04T16:00:00","end":"2024-05-04T14:00:00Z","end_local":"2024-05-04T16:00:00","updated":"2024-06-12T06:29:35Z"},{"title":"2nd Division - Group A - Sopoti Librazhd vs Iliria Fushë-Krujë","description":"Sourced from predicthq.com","category":"sports","start":"2024-05-04T13:00:00Z","geo":{"geometry":{"coordinates":[20.313398838043213,41.18075348249242],"type":"Point"},"placekey":"@4zm-rz3-4vz","address":{"country_code":"AL","formatted_address":"Rruga Unaza, Librazhd, Albania","locality":"Librazhd","region":"Qarku i Elbasanit"}},"labels":["soccer","sport"],"duration":0,"start_local":"2024-05-04T15:00:00","end":"2024-05-04T13:00:00Z","end_local":"2024-05-04T15:00:00","updated":"2024-06-11T23:00:19Z"},{"title":"2nd Division - Group A - Valbona vs Murlani","description":"Sourced from predicthq.com","category":"sports","start":"2024-05-04T13:00:00Z","geo":{"geometry":{"coordinates":[20.07372136543125,42.360534043060724],"type":"Point"},"placekey":"@4zx-kkr-6rk","address":{"country_code":"AL","formatted_address":"936F+6C8, Bajram Curri, Albania","locality":"Bajram Curri","region":"Kukës County"}},"labels":["soccer","sport"],"duration":0,"start_local":"2024-05-04T15:00:00","end":"2024-05-04T13:00:00Z","end_local":"2024-05-04T15:00:00","updated":"2024-06-12T08:42:24Z"},{"title":"2nd Division - Group A - Adriatiku vs Tërbuni Pukë","description":"Sourced from predicthq.com","category":"sports","start":"2024-05-04T13:00:00Z","geo":{"geometry":{"coordinates":[19.526444807052613,42.07257332009125],"type":"Point"},"placekey":"@4zx-566-v2k","address":{"country_code":"AL","formatted_address":"3GFG+2H6, Shkodër, Albania","locality":"Shkodër","region":"Shkodër County"}},"labels":["soccer","sport"],"duration":0,"start_local":"2024-05-04T15:00:00","end":"2024-05-04T13:00:00Z","end_local":"2024-05-04T15:00:00","updated":"2024-06-12T05:00:38Z"},{"title":"2nd Division - Group A - Albanët vs Naftëtari Kuçovë","description":"Sourced from predicthq.com","category":"sports","start":"2024-05-04T11:00:00Z","geo":{"geometry":{"coordinates":[19.7006479,41.2693042],"type":"Point"},"placekey":"@4zm-rp4-pvz","address":{"country_code":"AL","formatted_address":"7P92+C8P, SH56, Spahi, Albania","locality":"Spahi","region":"Tirana County"}},"labels":["soccer","sport"],"duration":0,"start_local":"2024-05-04T13:00:00","end":"2024-05-04T11:00:00Z","end_local":"2024-05-04T13:00:00","updated":"2024-06-12T15:15:39Z"},{"title":"Red Teaming with Sliver","description":"Sourced from predicthq.com - During this workshop, Tim will provide a hands-on training on the Sliver C2 framework and how it could be used for red teaming.","category":"conferences","start":"2024-05-04T08:00:00Z","geo":{"geometry":{"coordinates":[21.1635638,42.6554158],"type":"Point"},"placekey":"@4zx-k74-x5z","address":{"country_code":"AL","formatted_address":"111 Eqrem Çabej, 10000 Prishtinë, Albania","postcode":"10000","region":"Prishtine"}},"labels":["conference","science","technology"],"duration":7200,"start_local":"2024-05-04T10:00:00","end":"2024-05-04T10:00:00Z","end_local":"2024-05-04T12:00:00","updated":"2024-06-04T21:37:14Z"},{"title":"BSides Prishtina 2024","description":"Sourced from predicthq.com - BSides Prishtina 2024 is an information security conference, taking place in Prishtina, Kosova on May 3rd & 4th 2024 in Prishtina (Kosova)","category":"conferences","start":"2024-05-03T06:30:00Z","geo":{"geometry":{"coordinates":[21.1672262,42.6544453],"type":"Point"},"placekey":"@4zx-k74-xdv","address":{"country_code":"AL","formatted_address":"Eqrem Cabej 111, 10000 Prishtina, Albania","postcode":"10000","region":"Prishtine"}},"labels":["conference","science","technology"],"duration":124200,"start_local":"2024-05-03T08:30:00","end":"2024-05-04T17:00:00Z","end_local":"2024-05-04T19:00:00","updated":"2024-06-05T00:44:08Z"},{"title":"Marrja Zeze on Freedom","description":"Sourced from predicthq.com - an evening with poetry, music, interactive story telling and communion so we break free from what makes our wings so heavy.","category":"community","start":"2024-05-02T17:00:00Z","geo":{"geometry":{"coordinates":[19.8116115,41.3205474],"type":"Point"},"placekey":"@4zm-qzv-8qf","address":{"country_code":"AL","formatted_address":"Rruga Gjin Bue Shpata, 1001-Tirana, Albania","locality":"Tirana","postcode":"1001","region":"Tirana County"}},"labels":["community"],"duration":7200,"start_local":"2024-05-02T19:00:00","end":"2024-05-02T19:00:00Z","end_local":"2024-05-02T21:00:00","updated":"2024-06-05T16:51:40Z"},{"title":"1st Division - AF Elbasani vs Vora","description":"Sourced from predicthq.com","category":"sports","start":"2024-04-29T16:00:00Z","geo":{"geometry":{"coordinates":[20.092239,41.115568],"type":"Point"},"placekey":"@4zm-sp5-m49","address":{"country_code":"AL","formatted_address":"Sheshi Elbasan Arena 1, Elbasan, 438P+2QH, Rruga Kozma Naska, Elbasan 3001, Albania","postcode":"3001","locality":"Elbasan","region":"Elbasan County"}},"labels":["closed-doors","soccer","sport"],"duration":0,"start_local":"2024-04-29T18:00:00","end":"2024-04-29T16:00:00Z","end_local":"2024-04-29T18:00:00","updated":"2024-06-11T23:47:04Z"},{"title":"1st Division - Bylis vs Flamurtari","description":"Sourced from predicthq.com","category":"sports","start":"2024-04-29T13:00:00Z","geo":{"geometry":{"coordinates":[19.74090814590454,40.601946521692696],"type":"Point"},"placekey":"@4zn-ght-jqf","address":{"country_code":"AL","formatted_address":"Rruga Mehmet Shehu, Ballsh, Albania","locality":"Ballsh","region":"Qarku i Fierit"}},"labels":["soccer","sport"],"duration":0,"start_local":"2024-04-29T15:00:00","end":"2024-04-29T13:00:00Z","end_local":"2024-04-29T15:00:00","updated":"2024-06-12T03:12:23Z"},{"title":"1st Division - Burreli vs Lushnja","description":"Sourced from predicthq.com","category":"sports","start":"2024-04-28T13:00:00Z","geo":{"geometry":{"coordinates":[20.006983280181885,41.60893689833258],"type":"Point"},"placekey":"@4zm-xmz-5zz","address":{"country_code":"AL","formatted_address":"Burreli, Albania","locality":"Burreli"}},"labels":["soccer","sport"],"duration":0,"start_local":"2024-04-28T15:00:00","end":"2024-04-28T13:00:00Z","end_local":"2024-04-28T15:00:00","updated":"2024-06-12T06:58:10Z"},{"title":"2nd Division - Group B - Turbina Cërrik vs Oriku","description":"Sourced from predicthq.com","category":"sports","start":"2024-04-28T13:00:00Z","geo":{"geometry":{"coordinates":[19.9941608,41.0302455],"type":"Point"},"placekey":"@4zm-vjw-jn5","address":{"country_code":"AL","formatted_address":"Cërrik, Qarku i Elbasanit, Albania","locality":"Cërrik","region":"Qarku i Elbasanit"}},"labels":["soccer","sport"],"duration":0,"start_local":"2024-04-28T15:00:00","end":"2024-04-28T13:00:00Z","end_local":"2024-04-28T15:00:00","updated":"2024-06-12T12:25:43Z"},{"title":"1st Division - Luzi 2008 vs Apolonia Fier","description":"Sourced from predicthq.com","category":"sports","start":"2024-04-28T13:00:00Z","geo":{"geometry":{"coordinates":[19.5756947994,41.1225640833],"type":"Point"},"placekey":"@4zm-thf-26k","address":{"country_code":"AL","formatted_address":"Luzi i Vogël\nShqipëria","locality":"Luzi i Vogël","region":"Qarku i Tiranës"}},"labels":["soccer","sport"],"duration":0,"start_local":"2024-04-28T15:00:00","end":"2024-04-28T13:00:00Z","end_local":"2024-04-28T15:00:00","updated":"2024-06-12T11:18:48Z"},{"title":"2nd Division - Group B - Këlcyra vs Maliqi","description":"Sourced from predicthq.com","category":"sports","start":"2024-04-28T13:00:00Z","geo":{"geometry":{"coordinates":[20.195510387420654,40.313059570806026],"type":"Point"},"placekey":"@4zk-txt-t35","address":{"country_code":"AL","formatted_address":"857V+4VW, Këlcyrë, Albania","locality":"Këlcyrë","region":"Gjirokastër County"}},"labels":["soccer","sport"],"duration":0,"start_local":"2024-04-28T15:00:00","end":"2024-04-28T13:00:00Z","end_local":"2024-04-28T15:00:00","updated":"2024-06-12T07:18:06Z"},{"title":"2nd Division - Group B - Delvina vs Labëria","description":"Sourced from predicthq.com","category":"sports","start":"2024-04-28T13:00:00Z","geo":{"geometry":{"coordinates":[20.1020085811615,39.952048091175016],"type":"Point"},"placekey":"@4zk-pzb-kxq","address":{"country_code":"AL","formatted_address":"Delvinë, Albania","locality":"Delvinë"}},"labels":["soccer","sport"],"duration":0,"start_local":"2024-04-28T15:00:00","end":"2024-04-28T13:00:00Z","end_local":"2024-04-28T15:00:00","updated":"2024-06-12T07:14:13Z"},{"title":"2nd Division - Group B - Devolli vs Butrinti Sarandë","description":"Sourced from predicthq.com","category":"sports","start":"2024-04-28T13:00:00Z","geo":{"geometry":{"coordinates":[20.9832626,40.6280815],"type":"Point"},"placekey":"@4zk-spv-vzz","address":{"country_code":"AL","formatted_address":"Bilisht, Qarku I Korçës, Albania","locality":"Bilisht","region":"Qarku I Korçës"}},"labels":["soccer","sport"],"duration":0,"start_local":"2024-04-28T15:00:00","end":"2024-04-28T13:00:00Z","end_local":"2024-04-28T15:00:00","updated":"2024-06-11T21:33:13Z"},{"title":"1st Division - Besa Kavajë vs Korabi Peshkopi","description":"Sourced from predicthq.com","category":"sports","start":"2024-04-28T13:00:00Z","geo":{"geometry":{"coordinates":[19.7096871,40.9356462],"type":"Point"},"placekey":"@4zm-vn9-8jv","address":{"country_code":"AL","formatted_address":"WPP5+7V3, Lushnjë, Albania","locality":"Lushnjë","region":"Fier County"}},"labels":["soccer","sport"],"duration":0,"start_local":"2024-04-28T15:00:00","end":"2024-04-28T13:00:00Z","end_local":"2024-04-28T15:00:00","updated":"2024-06-12T05:21:30Z"},{"title":"1st Division - Tomori Berat vs Kastrioti Krujë","description":"Sourced from predicthq.com","category":"sports","start":"2024-04-28T13:00:00Z","geo":{"geometry":{"coordinates":[19.964518547058105,40.698974638697266],"type":"Point"},"placekey":"@4zm-v8h-ffz","address":{"country_code":"AL","formatted_address":"MXX7+HQW, Berat, Albania","locality":"Berat","region":"Berat County"}},"labels":["soccer","sport"],"duration":0,"start_local":"2024-04-28T15:00:00","end":"2024-04-28T13:00:00Z","end_local":"2024-04-28T15:00:00","updated":"2024-06-11T22:15:31Z"},{"title":"Koncert: Chopin x Mendelssohn","description":"Sourced from predicthq.com - Koncerti i 27 prillit i Orkestrës së Filharmonisë së Kosovës vjen me dy vepra nga dy kompozitorë romantik.","category":"performing-arts","start":"2024-04-27T18:00:00Z","geo":{"geometry":{"coordinates":[21.1655028,42.6629138],"type":"Point"},"placekey":"@4zx-k69-ysq","address":{"country_code":"AL","formatted_address":"Luan Haradinaj, 10000 Prishtina, Albania","postcode":"10000","region":"Select"}},"labels":["concert","music","performing-arts"],"duration":5400,"start_local":"2024-04-27T20:00:00","end":"2024-04-27T19:30:00Z","end_local":"2024-04-27T21:30:00","updated":"2024-06-05T19:48:39Z"},{"title":"2nd Division - Group A - Iliria Fushë-Krujë vs Albanët","description":"Sourced from predicthq.com","category":"sports","start":"2024-04-27T13:00:00Z","geo":{"geometry":{"coordinates":[19.724514484405518,41.47660872954692],"type":"Point"},"placekey":"@4zm-rgr-r6k","address":{"country_code":"AL","formatted_address":"FPGF+QPM, Fushë-Krujë, Albania","locality":"Fushë-Krujë","region":"Durrës County"}},"labels":["soccer","sport"],"duration":0,"start_local":"2024-04-27T15:00:00","end":"2024-04-27T13:00:00Z","end_local":"2024-04-27T15:00:00","updated":"2024-06-12T15:07:37Z"},{"title":"2nd Division - Group A - Naftëtari Kuçovë vs Valbona","description":"Sourced from predicthq.com","category":"sports","start":"2024-04-27T13:00:00Z","geo":{"geometry":{"coordinates":[19.9095889,40.8021446],"type":"Point"},"placekey":"@4zm-v6c-bzf","address":{"country_code":"AL","formatted_address":"RW25+VR4, Kuçovë, Albania","locality":"Kuçovë","region":"Berat County"}},"labels":["soccer","sport"],"duration":0,"start_local":"2024-04-27T15:00:00","end":"2024-04-27T13:00:00Z","end_local":"2024-04-27T15:00:00","updated":"2024-06-12T00:23:38Z"},{"title":"2nd Division - Group A - Besëlidhja Lezhë vs Gramshi","description":"Sourced from predicthq.com","category":"sports","start":"2024-04-27T13:00:00Z","geo":{"geometry":{"coordinates":[19.6446705,41.7760165],"type":"Point"},"placekey":"@4zm-wcg-2x5","address":{"country_code":"AL","formatted_address":"Rruga Luigj Gurakuqi, 4501-Lezhë, Albania","postcode":"4501","locality":"Lezhë","region":"Qarku i Lezhës"}},"labels":["soccer","sport"],"duration":0,"start_local":"2024-04-27T15:00:00","end":"2024-04-27T13:00:00Z","end_local":"2024-04-27T15:00:00","updated":"2024-06-12T02:54:26Z"},{"title":"2nd Division - Group A - Tërbuni Pukë vs Sopoti Librazhd","description":"Sourced from predicthq.com","category":"sports","start":"2024-04-27T13:00:00Z","geo":{"geometry":{"coordinates":[20.035114288330078,42.06974834274927],"type":"Point"},"placekey":"@4zx-g5p-s5z","address":{"country_code":"AL","formatted_address":"Pukë, Albania","locality":"Pukë"}},"labels":["soccer","sport"],"duration":0,"start_local":"2024-04-27T15:00:00","end":"2024-04-27T13:00:00Z","end_local":"2024-04-27T15:00:00","updated":"2024-06-11T23:49:12Z"},{"title":"2nd Division - Group A - Veleçiku Koplik vs Adriatiku","description":"Sourced from predicthq.com","category":"sports","start":"2024-04-27T13:00:00Z","geo":{"geometry":{"coordinates":[19.4354998,42.2079353],"type":"Point"},"placekey":"@4zx-5nv-4y9","address":{"country_code":"AL","formatted_address":"6C5P+55H, Koplik, Albania","locality":"Koplik","region":"Shkodër County"}},"labels":["soccer","sport"],"duration":0,"start_local":"2024-04-27T15:00:00","end":"2024-04-27T13:00:00Z","end_local":"2024-04-27T15:00:00","updated":"2024-06-12T00:58:39Z"},{"title":"2nd Division - Group B - Luftëtari vs Pogradeci","description":"Sourced from predicthq.com","category":"sports","start":"2024-04-27T13:00:00Z","geo":{"geometry":{"coordinates":[20.138078927993774,40.08121553997284],"type":"Point"},"placekey":"@4zk-pr6-249","address":{"country_code":"AL","formatted_address":"34JQ+C4W, Gjirokaster, Albania","locality":"Gjirokaster","region":"Gjirokastër County"}},"labels":["soccer","sport"],"duration":0,"start_local":"2024-04-27T15:00:00","end":"2024-04-27T13:00:00Z","end_local":"2024-04-27T15:00:00","updated":"2024-06-12T15:09:12Z"},{"title":"Albanian Dreamin' 2024 (The Balkan Salesforce Community Conference)","description":"Sourced from predicthq.com - Albanian Dreamin 2024 is the Community Powered Conference to activate and empower the Salesforce potential through the Trailblazer Community","category":"conferences","start":"2024-04-27T07:30:00Z","geo":{"geometry":{"coordinates":[19.7952873,41.3210549],"type":"Point"},"placekey":"@4zm-qzv-dgk","address":{"country_code":"AL","formatted_address":"146 Bulevardi Gjergj Fishta, Afrimi i Ri, Albania","locality":"Afrimi i Ri","region":"Tirane"}},"labels":["business","conference"],"duration":18000,"start_local":"2024-04-27T09:30:00","end":"2024-04-27T12:30:00Z","end_local":"2024-04-27T14:30:00","updated":"2024-06-11T21:55:35Z"},{"title":"Albania Dreamin Conference","description":"Sourced from predicthq.com","category":"conferences","start":"2024-04-27T07:00:00Z","geo":{"geometry":{"coordinates":[19.7952873,41.3210549],"type":"Point"},"placekey":"@4zm-qzv-dgk","address":{"country_code":"AL","formatted_address":"146 Bulevardi Gjergj Fishta, Afrimi i Ri, Albania","locality":"Afrimi i Ri","region":"Tirane"}},"labels":["conference"],"duration":32400,"start_local":"2024-04-27T09:00:00","end":"2024-04-27T16:00:00Z","end_local":"2024-04-27T18:00:00","updated":"2024-05-31T23:06:20Z"},{"title":"1st Division - Korabi Peshkopi vs Luzi 2008","description":"Sourced from predicthq.com","category":"sports","start":"2024-04-24T13:00:00Z","geo":{"geometry":{"coordinates":[20.4252778,41.6803585],"type":"Point"},"placekey":"@4zm-xgb-9s5","address":{"country_code":"AL","formatted_address":"Rruga Kongresi i Dibres, Peshkopi, Albania","locality":"Peshkopi","region":"Qarku i Dibrës"}},"labels":["soccer","sport"],"duration":0,"start_local":"2024-04-24T15:00:00","end":"2024-04-24T13:00:00Z","end_local":"2024-04-24T15:00:00","updated":"2024-06-12T05:14:57Z"},{"title":"1st Division - Kastrioti Krujë vs Burreli","description":"Sourced from predicthq.com","category":"sports","start":"2024-04-21T13:00:00Z","geo":{"geometry":{"coordinates":[19.724514484405518,41.47660872954692],"type":"Point"},"placekey":"@4zm-rgr-r6k","address":{"country_code":"AL","formatted_address":"FPGF+QPM, Fushë-Krujë, Albania","locality":"Fushë-Krujë","region":"Durrës County"}},"labels":["soccer","sport"],"duration":0,"start_local":"2024-04-21T15:00:00","end":"2024-04-21T13:00:00Z","end_local":"2024-04-21T15:00:00","updated":"2024-06-12T07:40:58Z"},{"title":"2nd Division - Group B - Pogradeci vs Devolli","description":"Sourced from predicthq.com","category":"sports","start":"2024-04-21T13:00:00Z","geo":{"geometry":{"coordinates":[20.6641959,40.9002355],"type":"Point"},"placekey":"@4zk-sbb-qj9","address":{"country_code":"AL","formatted_address":"WM27+3MW, E86, Pogradec, Albania","locality":"Pogradec","region":"Qarku i Korçës"}},"labels":["soccer","sport"],"duration":0,"start_local":"2024-04-21T15:00:00","end":"2024-04-21T13:00:00Z","end_local":"2024-04-21T15:00:00","updated":"2024-06-12T01:08:33Z"},{"title":"1st Division - Apolonia Fier vs Bylis","description":"Sourced from predicthq.com","category":"sports","start":"2024-04-21T13:00:00Z","geo":{"geometry":{"coordinates":[19.55216,40.720977],"type":"Point"},"placekey":"@4zn-h2j-975","address":{"country_code":"AL","formatted_address":"PHC2+9VV, Fier, Albania","locality":"Fier","region":"Fier County"}},"labels":["soccer","sport"],"duration":0,"start_local":"2024-04-21T15:00:00","end":"2024-04-21T13:00:00Z","end_local":"2024-04-21T15:00:00","updated":"2024-06-12T13:37:41Z"},{"title":"1st Division - Flamurtari vs AF Elbasani","description":"Sourced from predicthq.com","category":"sports","start":"2024-04-21T13:00:00Z","geo":{"geometry":{"coordinates":[19.4888234,40.4560746],"type":"Point"},"placekey":"@4zn-gnx-kmk","address":{"country_code":"AL","formatted_address":"FF4Q+CGG, Vlorë, Albania","locality":"Vlorë","region":"Vlorë County"}},"labels":["soccer","sport"],"duration":0,"start_local":"2024-04-21T15:00:00","end":"2024-04-21T13:00:00Z","end_local":"2024-04-21T15:00:00","updated":"2024-06-11T22:34:09Z"},{"title":"2nd Division - Group B - Butrinti Sarandë vs Delvina","description":"Sourced from predicthq.com","category":"sports","start":"2024-04-21T13:00:00Z","geo":{"geometry":{"coordinates":[19.995696544647217,39.87443442005875],"type":"Point"},"placekey":"@4zk-pyb-649","address":{"country_code":"AL","formatted_address":"VXCW+6XQ, Rruga Mitat Hoxha, Sarandë, Albania","locality":"Sarandë","region":"Qarku i Vlorës"}},"labels":["soccer","sport"],"duration":0,"start_local":"2024-04-21T15:00:00","end":"2024-04-21T13:00:00Z","end_local":"2024-04-21T15:00:00","updated":"2024-06-12T05:06:56Z"},{"title":"1st Division - Lushnja vs Besa Kavajë","description":"Sourced from predicthq.com","category":"sports","start":"2024-04-21T13:00:00Z","geo":{"geometry":{"coordinates":[19.7096871,40.9356462],"type":"Point"},"placekey":"@4zm-vn9-8jv","address":{"country_code":"AL","formatted_address":"WPP5+7V3, Lushnjë, Albania","locality":"Lushnjë","region":"Fier County"}},"labels":["soccer","sport"],"duration":0,"start_local":"2024-04-21T15:00:00","end":"2024-04-21T13:00:00Z","end_local":"2024-04-21T15:00:00","updated":"2024-06-11T23:19:04Z"},{"title":"2nd Division - Group B - Shkumbini Peqin vs Këlcyra","description":"Sourced from predicthq.com","category":"sports","start":"2024-04-21T13:00:00Z","geo":{"geometry":{"coordinates":[19.7526475,41.0422971],"type":"Point"},"placekey":"@4zm-vfb-xyv","address":{"country_code":"AL","formatted_address":"2QR3+W36, Peqin, Albania","locality":"Peqin","region":"Elbasan County"}},"labels":["soccer","sport"],"duration":0,"start_local":"2024-04-21T15:00:00","end":"2024-04-21T13:00:00Z","end_local":"2024-04-21T15:00:00","updated":"2024-06-12T07:34:40Z"},{"title":"2nd Division - Group B - Oriku vs Luftëtari","description":"Sourced from predicthq.com","category":"sports","start":"2024-04-21T13:00:00Z","geo":{"geometry":{"coordinates":[19.475691318511963,40.327202971917885],"type":"Point"},"placekey":"@4zn-bz7-jsq","address":{"country_code":"AL","formatted_address":"Rruga Gjergj Kastrioti 28, Orikum, Albania","locality":"Orikum","region":"Qarku i Vlorës"}},"labels":["soccer","sport"],"duration":0,"start_local":"2024-04-21T15:00:00","end":"2024-04-21T13:00:00Z","end_local":"2024-04-21T15:00:00","updated":"2024-06-12T00:17:51Z"},{"title":"1st Division - Vora vs Tomori Berat","description":"Sourced from predicthq.com","category":"sports","start":"2024-04-21T13:00:00Z","geo":{"geometry":{"coordinates":[19.64247137,41.403341527],"type":"Point"},"placekey":"@4zm-rg2-y9z","address":{"country_code":"AL","formatted_address":"Marqinet, Vorë (Vora), Albania","locality":"Vorë (Vora)"}},"labels":["soccer","sport"],"duration":0,"start_local":"2024-04-21T15:00:00","end":"2024-04-21T13:00:00Z","end_local":"2024-04-21T15:00:00","updated":"2024-06-12T15:12:57Z"},{"title":"2nd Division - Group A - Adriatiku vs Besëlidhja Lezhë","description":"Sourced from predicthq.com","category":"sports","start":"2024-04-20T13:00:00Z","geo":{"geometry":{"coordinates":[19.64247137,41.403341527],"type":"Point"},"placekey":"@4zm-rg2-y9z","address":{"country_code":"AL","formatted_address":"Marqinet, Vorë (Vora), Albania","locality":"Vorë (Vora)"}},"labels":["soccer","sport"],"duration":0,"start_local":"2024-04-20T15:00:00","end":"2024-04-20T13:00:00Z","end_local":"2024-04-20T15:00:00","updated":"2024-06-12T05:38:09Z"},{"title":"2nd Division - Group A - Tërbuni Pukë vs Veleçiku Koplik","description":"Sourced from predicthq.com","category":"sports","start":"2024-04-20T13:00:00Z","geo":{"geometry":{"coordinates":[20.035114288330078,42.06974834274927],"type":"Point"},"placekey":"@4zx-g5p-s5z","address":{"country_code":"AL","formatted_address":"Pukë, Albania","locality":"Pukë"}},"labels":["soccer","sport"],"duration":0,"start_local":"2024-04-20T15:00:00","end":"2024-04-20T13:00:00Z","end_local":"2024-04-20T15:00:00","updated":"2024-06-12T02:04:09Z"},{"title":"2nd Division - Group A - Valbona vs Iliria Fushë-Krujë","description":"Sourced from predicthq.com","category":"sports","start":"2024-04-20T13:00:00Z","geo":{"geometry":{"coordinates":[20.07372136543125,42.360534043060724],"type":"Point"},"placekey":"@4zx-kkr-6rk","address":{"country_code":"AL","formatted_address":"936F+6C8, Bajram Curri, Albania","locality":"Bajram Curri","region":"Kukës County"}},"labels":["soccer","sport"],"duration":0,"start_local":"2024-04-20T15:00:00","end":"2024-04-20T13:00:00Z","end_local":"2024-04-20T15:00:00","updated":"2024-06-12T03:03:32Z"},{"title":"2nd Division - Group A - Sopoti Librazhd vs Albanët","description":"Sourced from predicthq.com","category":"sports","start":"2024-04-20T13:00:00Z","geo":{"geometry":{"coordinates":[20.313398838043213,41.18075348249242],"type":"Point"},"placekey":"@4zm-rz3-4vz","address":{"country_code":"AL","formatted_address":"Rruga Unaza, Librazhd, Albania","locality":"Librazhd","region":"Qarku i Elbasanit"}},"labels":["soccer","sport"],"duration":0,"start_local":"2024-04-20T15:00:00","end":"2024-04-20T13:00:00Z","end_local":"2024-04-20T15:00:00","updated":"2024-06-12T02:34:42Z"},{"title":"2nd Division - Group A - Gramshi vs Murlani","description":"Sourced from predicthq.com","category":"sports","start":"2024-04-20T13:00:00Z","geo":{"geometry":{"coordinates":[20.186508893966675,40.861910816175694],"type":"Point"},"placekey":"@4zm-typ-2hq","address":{"country_code":"AL","formatted_address":"Rruga Hamit Dollani 3300, Gramsh, Albania","locality":"Gramsh","region":"Qarku i Elbasanit"}},"labels":["soccer","sport"],"duration":0,"start_local":"2024-04-20T15:00:00","end":"2024-04-20T13:00:00Z","end_local":"2024-04-20T15:00:00","updated":"2024-06-12T00:34:35Z"},{"title":"International Conference on Modern Age Fortifications of the Mediterranean Coast","description":"Sourced from predicthq.com","category":"conferences","start":"2024-04-18T07:00:00Z","geo":{"geometry":{"coordinates":[19.821535,41.316748],"type":"Point"},"placekey":"@4zm-qxg-835","address":{"country_code":"AL","formatted_address":"Sheshi Nënë Tereza, 1000-Tiranë, Albania","locality":"Tiranë","postcode":"1000","region":"Qarku i Tiranës"}},"labels":["conference"],"duration":205200,"start_local":"2024-04-18T09:00:00","end":"2024-04-20T16:00:00Z","end_local":"2024-04-20T18:00:00","updated":"2024-06-01T16:48:35Z"},{"title":"1st Division - Besa Kavajë vs Kastrioti Krujë","description":"Sourced from predicthq.com","category":"sports","start":"2024-04-14T13:00:00Z","geo":{"geometry":{"coordinates":[19.5756947994,41.1225640833],"type":"Point"},"placekey":"@4zm-thf-26k","address":{"country_code":"AL","formatted_address":"Luzi i Vogël\nShqipëria","locality":"Luzi i Vogël","region":"Qarku i Tiranës"}},"labels":["soccer","sport"],"duration":0,"start_local":"2024-04-14T15:00:00","end":"2024-04-14T13:00:00Z","end_local":"2024-04-14T15:00:00","updated":"2024-06-12T18:09:35Z"},{"title":"1st Division - AF Elbasani vs Apolonia Fier","description":"Sourced from predicthq.com","category":"sports","start":"2024-04-13T17:00:00Z","geo":{"geometry":{"coordinates":[20.092239,41.115568],"type":"Point"},"placekey":"@4zm-sp5-m49","address":{"country_code":"AL","formatted_address":"Sheshi Elbasan Arena 1, Elbasan, 438P+2QH, Rruga Kozma Naska, Elbasan 3001, Albania","postcode":"3001","locality":"Elbasan","region":"Elbasan County"}},"labels":["soccer","sport"],"duration":0,"start_local":"2024-04-13T19:00:00","end":"2024-04-13T17:00:00Z","end_local":"2024-04-13T19:00:00","updated":"2024-06-11T23:29:13Z"},{"title":"1st Division - Luzi 2008 vs Lushnja","description":"Sourced from predicthq.com","category":"sports","start":"2024-04-13T13:00:00Z","geo":{"geometry":{"coordinates":[19.5756947994,41.1225640833],"type":"Point"},"placekey":"@4zm-thf-26k","address":{"country_code":"AL","formatted_address":"Luzi i Vogël\nShqipëria","locality":"Luzi i Vogël","region":"Qarku i Tiranës"}},"labels":["soccer","sport"],"duration":0,"start_local":"2024-04-13T15:00:00","end":"2024-04-13T13:00:00Z","end_local":"2024-04-13T15:00:00","updated":"2024-06-11T21:56:19Z"},{"title":"1st Division - Tomori Berat vs Burreli","description":"Sourced from predicthq.com","category":"sports","start":"2024-04-13T13:00:00Z","geo":{"geometry":{"coordinates":[19.964518547058105,40.698974638697266],"type":"Point"},"placekey":"@4zm-v8h-ffz","address":{"country_code":"AL","formatted_address":"MXX7+HQW, Berat, Albania","locality":"Berat","region":"Berat County"}},"labels":["soccer","sport"],"duration":0,"start_local":"2024-04-13T15:00:00","end":"2024-04-13T13:00:00Z","end_local":"2024-04-13T15:00:00","updated":"2024-06-12T01:39:15Z"},{"title":"1st Division - Bylis vs Korabi Peshkopi","description":"Sourced from predicthq.com","category":"sports","start":"2024-04-13T13:00:00Z","geo":{"geometry":{"coordinates":[19.74090814590454,40.601946521692696],"type":"Point"},"placekey":"@4zn-ght-jqf","address":{"country_code":"AL","formatted_address":"Rruga Mehmet Shehu, Ballsh, Albania","locality":"Ballsh","region":"Qarku i Fierit"}},"labels":["soccer","sport"],"duration":0,"start_local":"2024-04-13T15:00:00","end":"2024-04-13T13:00:00Z","end_local":"2024-04-13T15:00:00","updated":"2024-06-12T07:19:32Z"},{"title":"1st Division - Vora vs Flamurtari","description":"Sourced from predicthq.com","category":"sports","start":"2024-04-12T13:00:00Z","geo":{"geometry":{"coordinates":[19.64247137,41.403341527],"type":"Point"},"placekey":"@4zm-rg2-y9z","address":{"country_code":"AL","formatted_address":"Marqinet, Vorë (Vora), Albania","locality":"Vorë (Vora)"}},"labels":["soccer","sport"],"duration":0,"start_local":"2024-04-12T15:00:00","end":"2024-04-12T13:00:00Z","end_local":"2024-04-12T15:00:00","updated":"2024-06-11T22:58:49Z"},{"title":"2nd Division - Group B - Devolli vs Oriku","description":"Sourced from predicthq.com","category":"sports","start":"2024-04-07T13:00:00Z","geo":{"geometry":{"coordinates":[20.9832626,40.6280815],"type":"Point"},"placekey":"@4zk-spv-vzz","address":{"country_code":"AL","formatted_address":"Bilisht, Qarku I Korçës, Albania","locality":"Bilisht","region":"Qarku I Korçës"}},"labels":["soccer","sport"],"duration":0,"start_local":"2024-04-07T15:00:00","end":"2024-04-07T13:00:00Z","end_local":"2024-04-07T15:00:00","updated":"2024-06-12T02:43:32Z"},{"title":"2nd Division - Group B - Delvina vs Pogradeci","description":"Sourced from predicthq.com","category":"sports","start":"2024-04-07T13:00:00Z","geo":{"geometry":{"coordinates":[20.1020085811615,39.952048091175016],"type":"Point"},"placekey":"@4zk-pzb-kxq","address":{"country_code":"AL","formatted_address":"Delvinë, Albania","locality":"Delvinë"}},"labels":["soccer","sport"],"duration":0,"start_local":"2024-04-07T15:00:00","end":"2024-04-07T13:00:00Z","end_local":"2024-04-07T15:00:00","updated":"2024-06-12T14:01:48Z"},{"title":"2nd Division - Group B - Labëria vs Butrinti Sarandë","description":"Sourced from predicthq.com","category":"sports","start":"2024-04-07T13:00:00Z","geo":{"geometry":{"coordinates":[19.452074445,40.491017606],"type":"Point"},"placekey":"@4zn-gqh-8qf","address":{"country_code":"AL","formatted_address":"Nartë, Vlorë, Albania","locality":"Vlorë"}},"labels":["soccer","sport"],"duration":0,"start_local":"2024-04-07T15:00:00","end":"2024-04-07T13:00:00Z","end_local":"2024-04-07T15:00:00","updated":"2024-06-12T17:47:19Z"},{"title":"2nd Division - Group B - Luftëtari vs Maliqi","description":"Sourced from predicthq.com","category":"sports","start":"2024-04-07T13:00:00Z","geo":{"geometry":{"coordinates":[20.138078927993774,40.08121553997284],"type":"Point"},"placekey":"@4zk-pr6-249","address":{"country_code":"AL","formatted_address":"34JQ+C4W, Gjirokaster, Albania","locality":"Gjirokaster","region":"Gjirokastër County"}},"labels":["soccer","sport"],"duration":0,"start_local":"2024-04-07T15:00:00","end":"2024-04-07T13:00:00Z","end_local":"2024-04-07T15:00:00","updated":"2024-06-12T06:48:47Z"},{"title":"2nd Division - Group B - Turbina Cërrik vs Shkumbini Peqin","description":"Sourced from predicthq.com","category":"sports","start":"2024-04-07T13:00:00Z","geo":{"geometry":{"coordinates":[19.9941608,41.0302455],"type":"Point"},"placekey":"@4zm-vjw-jn5","address":{"country_code":"AL","formatted_address":"Cërrik, Qarku i Elbasanit, Albania","locality":"Cërrik","region":"Qarku i Elbasanit"}},"labels":["soccer","sport"],"duration":0,"start_local":"2024-04-07T15:00:00","end":"2024-04-07T13:00:00Z","end_local":"2024-04-07T15:00:00","updated":"2024-06-12T03:48:54Z"},{"title":"Berat Green Half Marathon","description":"Sourced from predicthq.com","category":"sports","start":"2024-04-06T22:00:00Z","geo":{"geometry":{"coordinates":[19.9437314,40.7086377],"type":"Point"},"placekey":"@4zm-v4j-fxq","address":{"country_code":"AL","formatted_address":"Berat, Berat County, Albania","locality":"Berat","region":"Berat County"}},"labels":["marathon","outdoor-sports","running","sport"],"duration":86399,"start_local":"2024-04-07T00:00:00","end":"2024-04-07T21:59:59Z","end_local":"2024-04-07T23:59:59","updated":"2024-06-05T11:03:49Z"},{"title":"Italian Comedy Night - Luca Anselmi \"È tutta colpa di Tinder\"","description":"Sourced from predicthq.com - Vieni a ridere con Luca Anselmi mentre racconta le sue disavventure amorose causate da Tinder! Uno show in Italiano!","category":"performing-arts","start":"2024-04-06T19:00:00Z","geo":{"geometry":{"coordinates":[19.8159125,41.3261014],"type":"Point"},"placekey":"@4zm-qz2-gp9","address":{"country_code":"AL","formatted_address":"Rruga Reshit Çollaku, Tirana, Albania","locality":"Tirana","region":"Tirana County"}},"labels":["concert","music","performing-arts"],"duration":5400,"start_local":"2024-04-06T21:00:00","end":"2024-04-06T20:30:00Z","end_local":"2024-04-06T22:30:00","updated":"2024-06-05T16:50:03Z"},{"title":"2nd Division - Group A - Besëlidhja Lezhë vs Tërbuni Pukë","description":"Sourced from predicthq.com","category":"sports","start":"2024-04-06T13:00:00Z","geo":{"geometry":{"coordinates":[19.6446705,41.7760165],"type":"Point"},"placekey":"@4zm-wcg-2x5","address":{"country_code":"AL","formatted_address":"Rruga Luigj Gurakuqi, 4501-Lezhë, Albania","postcode":"4501","locality":"Lezhë","region":"Qarku i Lezhës"}},"labels":["soccer","sport"],"duration":0,"start_local":"2024-04-06T15:00:00","end":"2024-04-06T13:00:00Z","end_local":"2024-04-06T15:00:00","updated":"2024-06-12T10:56:26Z"},{"title":"2nd Division - Group A - Albanët vs Valbona","description":"Sourced from predicthq.com","category":"sports","start":"2024-04-06T13:00:00Z","geo":{"geometry":{"coordinates":[19.7006479,41.2693042],"type":"Point"},"placekey":"@4zm-rp4-pvz","address":{"country_code":"AL","formatted_address":"7P92+C8P, SH56, Spahi, Albania","locality":"Spahi","region":"Tirana County"}},"labels":["soccer","sport"],"duration":0,"start_local":"2024-04-06T15:00:00","end":"2024-04-06T13:00:00Z","end_local":"2024-04-06T15:00:00","updated":"2024-06-12T00:59:23Z"},{"title":"1st Division - Flamurtari vs Tomori Berat","description":"Sourced from predicthq.com","category":"sports","start":"2024-04-06T13:00:00Z","geo":{"geometry":{"coordinates":[19.4888234,40.4560746],"type":"Point"},"placekey":"@4zn-gnx-kmk","address":{"country_code":"AL","formatted_address":"FF4Q+CGG, Vlorë, Albania","locality":"Vlorë","region":"Vlorë County"}},"labels":["soccer","sport"],"duration":0,"start_local":"2024-04-06T15:00:00","end":"2024-04-06T13:00:00Z","end_local":"2024-04-06T15:00:00","updated":"2024-06-12T00:50:52Z"},{"title":"1st Division - Korabi Peshkopi vs AF Elbasani","description":"Sourced from predicthq.com","category":"sports","start":"2024-04-06T13:00:00Z","geo":{"geometry":{"coordinates":[20.4252778,41.6803585],"type":"Point"},"placekey":"@4zm-xgb-9s5","address":{"country_code":"AL","formatted_address":"Rruga Kongresi i Dibres, Peshkopi, Albania","locality":"Peshkopi","region":"Qarku i Dibrës"}},"labels":["soccer","sport"],"duration":0,"start_local":"2024-04-06T15:00:00","end":"2024-04-06T13:00:00Z","end_local":"2024-04-06T15:00:00","updated":"2024-06-12T06:48:47Z"},{"title":"1st Division - Burreli vs Besa Kavajë","description":"Sourced from predicthq.com","category":"sports","start":"2024-04-06T13:00:00Z","geo":{"geometry":{"coordinates":[20.006983280181885,41.60893689833258],"type":"Point"},"placekey":"@4zm-xmz-5zz","address":{"country_code":"AL","formatted_address":"Burreli, Albania","locality":"Burreli"}},"labels":["soccer","sport"],"duration":0,"start_local":"2024-04-06T15:00:00","end":"2024-04-06T13:00:00Z","end_local":"2024-04-06T15:00:00","updated":"2024-06-12T01:09:12Z"},{"title":"2nd Division - Group A - Veleçiku Koplik vs Sopoti Librazhd","description":"Sourced from predicthq.com","category":"sports","start":"2024-04-06T13:00:00Z","geo":{"geometry":{"coordinates":[19.4354998,42.2079353],"type":"Point"},"placekey":"@4zx-5nv-4y9","address":{"country_code":"AL","formatted_address":"6C5P+55H, Koplik, Albania","locality":"Koplik","region":"Shkodër County"}},"labels":["soccer","sport"],"duration":0,"start_local":"2024-04-06T15:00:00","end":"2024-04-06T13:00:00Z","end_local":"2024-04-06T15:00:00","updated":"2024-06-12T19:04:51Z"},{"title":"1st Division - Lushnja vs Bylis","description":"Sourced from predicthq.com","category":"sports","start":"2024-04-06T13:00:00Z","geo":{"geometry":{"coordinates":[19.7096871,40.9356462],"type":"Point"},"placekey":"@4zm-vn9-8jv","address":{"country_code":"AL","formatted_address":"WPP5+7V3, Lushnjë, Albania","locality":"Lushnjë","region":"Fier County"}},"labels":["soccer","sport"],"duration":0,"start_local":"2024-04-06T15:00:00","end":"2024-04-06T13:00:00Z","end_local":"2024-04-06T15:00:00","updated":"2024-06-12T02:19:06Z"},{"title":"1st Division - Apolonia Fier vs Vora","description":"Sourced from predicthq.com","category":"sports","start":"2024-04-06T13:00:00Z","geo":{"geometry":{"coordinates":[19.55216,40.720977],"type":"Point"},"placekey":"@4zn-h2j-975","address":{"country_code":"AL","formatted_address":"PHC2+9VV, Fier, Albania","locality":"Fier","region":"Fier County"}},"labels":["soccer","sport"],"duration":0,"start_local":"2024-04-06T15:00:00","end":"2024-04-06T13:00:00Z","end_local":"2024-04-06T15:00:00","updated":"2024-06-12T19:35:07Z"},{"title":"2nd Division - Group A - Naftëtari Kuçovë vs Gramshi","description":"Sourced from predicthq.com","category":"sports","start":"2024-04-06T13:00:00Z","geo":{"geometry":{"coordinates":[19.9095889,40.8021446],"type":"Point"},"placekey":"@4zm-v6c-bzf","address":{"country_code":"AL","formatted_address":"RW25+VR4, Kuçovë, Albania","locality":"Kuçovë","region":"Berat County"}},"labels":["soccer","sport"],"duration":0,"start_local":"2024-04-06T15:00:00","end":"2024-04-06T13:00:00Z","end_local":"2024-04-06T15:00:00","updated":"2024-06-12T01:07:45Z"},{"title":"2nd Division - Group A - Murlani vs Adriatiku","description":"Sourced from predicthq.com","category":"sports","start":"2024-04-06T13:00:00Z","geo":{"geometry":{"coordinates":[19.5066279,42.0699975],"type":"Point"},"placekey":"@4zx-565-gx5","address":{"country_code":"AL","formatted_address":"Rruga Djepaxhijej 2, Shkodër 4001, Albania","postcode":"4001","locality":"Shkodër","region":"Shkodër County"}},"labels":["soccer","sport"],"duration":0,"start_local":"2024-04-06T15:00:00","end":"2024-04-06T13:00:00Z","end_local":"2024-04-06T15:00:00","updated":"2024-06-12T15:50:40Z"},{"title":"International Tourism Fair Tirana","description":"Sourced from predicthq.com","category":"expos","start":"2024-04-04T22:00:00Z","geo":{"geometry":{"coordinates":[19.822338,41.318195],"type":"Point"},"placekey":"@4zm-qxg-6x5","address":{"country_code":"AL","formatted_address":"Tirana, Tirana County, Albania","locality":"Tirana","region":"Tirana County"}},"labels":["expo"],"duration":172799,"start_local":"2024-04-05T00:00:00","end":"2024-04-06T21:59:59Z","end_local":"2024-04-06T23:59:59","updated":"2024-05-28T15:34:09Z"}]