[{"title":"Estas Tonne, Ben Aylon, and Conrado Molina","description":"Sourced from predicthq.com","category":"concerts","start":"2024-09-22T16:00:00Z","geo":{"geometry":{"coordinates":[44.5073634,40.1734255],"type":"Point"},"placekey":"@676-ffd-z4v","address":{"country_code":"AM","formatted_address":"6 Grigor Lusavorich Street, Yerevan 0015, Armenia","postcode":"0015","locality":"Yerevan","region":"Yerevan"}},"labels":["concert","music"],"duration":0,"start_local":"2024-09-22T20:00:00","end":"2024-09-22T16:00:00Z","end_local":"2024-09-22T20:00:00","updated":"2024-06-21T16:29:08Z"},{"title":"Yerevan International Tourism & Related Industries Exhibition","description":"Sourced from predicthq.com","category":"expos","start":"2024-09-19T20:00:00Z","geo":{"geometry":{"coordinates":[44.4906082,40.1995148],"type":"Point"},"placekey":"@676-f5t-8vz","address":{"country_code":"AM","formatted_address":"3, H. Hakob Hakobyan Street, 0033, Yerevan, Armenia","postcode":"0033","locality":"Yerevan","region":"Yerevan"}},"labels":["expo"],"duration":259199,"start_local":"2024-09-20T00:00:00","end":"2024-09-22T19:59:59Z","end_local":"2024-09-22T23:59:59","updated":"2024-06-04T11:16:44Z"},{"title":"Bagratashen Marathon","description":"Sourced from predicthq.com","category":"sports","start":"2024-09-13T20:00:00Z","geo":{"geometry":{"coordinates":[44.8236089,41.2404491],"type":"Point"},"placekey":"@67k-ppn-cyv","address":{"country_code":"AM","formatted_address":"Bagratashen, Tavush Province, Armenia","locality":"Bagratashen","region":"Tavush Province"}},"labels":["marathon","outdoor-sports","running","sport"],"duration":86399,"start_local":"2024-09-14T00:00:00","end":"2024-09-14T19:59:59Z","end_local":"2024-09-14T23:59:59","updated":"2024-06-04T10:15:33Z"},{"title":"International Symposium on Self-propagating High-temperature Synthesis","description":"Sourced from predicthq.com","category":"conferences","start":"2024-09-09T05:00:00Z","geo":{"geometry":{"coordinates":[44.508791,40.192387],"type":"Point"},"placekey":"@676-f5s-nh5","address":{"country_code":"AM","formatted_address":"24 Marshal Baghramyan Ave, Yerevan 0019, Armenia","postcode":"0019","locality":"Yerevan","region":"Yerevan"}},"labels":["conference"],"duration":378000,"start_local":"2024-09-09T09:00:00","end":"2024-09-13T14:00:00Z","end_local":"2024-09-13T18:00:00","updated":"2024-06-04T11:35:59Z"},{"title":"UEFA Nations League - League C - Armenia vs Latvia","description":"Sourced from predicthq.com","category":"sports","start":"2024-09-07T16:00:00Z","geo":{"geometry":{"coordinates":[44.52566742897034,40.17191353865124],"type":"Point"},"placekey":"@676-fg5-4y9","address":{"country_code":"AM","formatted_address":"65 Vardanants St, Yerevan, Armenia","locality":"Yerevan","region":"Yerevan"}},"labels":["soccer","sport"],"duration":0,"start_local":"2024-09-07T20:00:00","end":"2024-09-07T16:00:00Z","end_local":"2024-09-07T20:00:00","updated":"2024-06-10T23:56:32Z"},{"title":"Trans Expo Armenia","description":"Sourced from predicthq.com","category":"expos","start":"2024-09-06T05:00:00Z","geo":{"geometry":{"coordinates":[44.4830806,40.18824439999999],"type":"Point"},"placekey":"@676-f5z-yy9","address":{"country_code":"AM","formatted_address":"Yerevan, Armenia","locality":"Yerevan","region":"Yerevan"}},"labels":["expo"],"duration":205200,"start_local":"2024-09-06T09:00:00","end":"2024-09-08T14:00:00Z","end_local":"2024-09-08T18:00:00","updated":"2024-06-03T23:50:55Z"},{"title":"Rest and Entertainment Expo","description":"Sourced from predicthq.com","category":"expos","start":"2024-09-06T05:00:00Z","geo":{"geometry":{"coordinates":[44.4830806,40.18824439999999],"type":"Point"},"placekey":"@676-f5z-yy9","address":{"country_code":"AM","formatted_address":"Yerevan, Armenia","locality":"Yerevan","region":"Yerevan"}},"labels":["expo"],"duration":205200,"start_local":"2024-09-06T09:00:00","end":"2024-09-08T14:00:00Z","end_local":"2024-09-08T18:00:00","updated":"2024-06-02T02:36:58Z"},{"title":"Build Expo-Armenia","description":"Sourced from predicthq.com","category":"expos","start":"2024-09-06T05:00:00Z","geo":{"geometry":{"coordinates":[44.4830806,40.18824439999999],"type":"Point"},"placekey":"@676-f5z-yy9","address":{"country_code":"AM","formatted_address":"Yerevan, Armenia","locality":"Yerevan","region":"Yerevan"}},"labels":["expo"],"duration":205200,"start_local":"2024-09-06T09:00:00","end":"2024-09-08T14:00:00Z","end_local":"2024-09-08T18:00:00","updated":"2024-06-01T05:05:56Z"},{"title":"EXPO.am","description":"Sourced from predicthq.com","category":"expos","start":"2024-09-06T05:00:00Z","geo":{"geometry":{"coordinates":[44.4830806,40.18824439999999],"type":"Point"},"placekey":"@676-f5z-yy9","address":{"country_code":"AM","formatted_address":"Yerevan, Armenia","locality":"Yerevan","region":"Yerevan"}},"labels":["expo"],"duration":205200,"start_local":"2024-09-06T09:00:00","end":"2024-09-08T14:00:00Z","end_local":"2024-09-08T18:00:00","updated":"2024-06-04T01:21:41Z"},{"title":"Furniture Salon Expo","description":"Sourced from predicthq.com","category":"expos","start":"2024-09-06T05:00:00Z","geo":{"geometry":{"coordinates":[44.4830806,40.18824439999999],"type":"Point"},"placekey":"@676-f5z-yy9","address":{"country_code":"AM","formatted_address":"Yerevan, Armenia","locality":"Yerevan","region":"Yerevan"}},"labels":["expo"],"duration":205200,"start_local":"2024-09-06T09:00:00","end":"2024-09-08T14:00:00Z","end_local":"2024-09-08T18:00:00","updated":"2024-06-04T03:05:11Z"},{"title":"Inter Food Expo","description":"Sourced from predicthq.com","category":"expos","start":"2024-09-06T05:00:00Z","geo":{"geometry":{"coordinates":[44.4830806,40.18824439999999],"type":"Point"},"placekey":"@676-f5z-yy9","address":{"country_code":"AM","formatted_address":"Yerevan, Armenia","locality":"Yerevan","region":"Yerevan"}},"labels":["expo"],"duration":205200,"start_local":"2024-09-06T09:00:00","end":"2024-09-08T14:00:00Z","end_local":"2024-09-08T18:00:00","updated":"2024-05-31T23:13:28Z"},{"title":"Finance, Credit, Insurance & Audit Expo","description":"Sourced from predicthq.com","category":"expos","start":"2024-09-06T05:00:00Z","geo":{"geometry":{"coordinates":[44.4830806,40.18824439999999],"type":"Point"},"placekey":"@676-f5z-yy9","address":{"country_code":"AM","formatted_address":"Yerevan, Armenia","locality":"Yerevan","region":"Yerevan"}},"labels":["expo"],"duration":205200,"start_local":"2024-09-06T09:00:00","end":"2024-09-08T14:00:00Z","end_local":"2024-09-08T18:00:00","updated":"2024-06-04T07:40:32Z"},{"title":"Polygraphy, Publishing & Advertisement Expo","description":"Sourced from predicthq.com","category":"expos","start":"2024-09-06T05:00:00Z","geo":{"geometry":{"coordinates":[44.4830806,40.18824439999999],"type":"Point"},"placekey":"@676-f5z-yy9","address":{"country_code":"AM","formatted_address":"Yerevan, Armenia","locality":"Yerevan","region":"Yerevan"}},"labels":["expo"],"duration":205200,"start_local":"2024-09-06T09:00:00","end":"2024-09-08T14:00:00Z","end_local":"2024-09-08T18:00:00","updated":"2024-06-04T02:19:17Z"},{"title":"Armenia Expo","description":"Sourced from predicthq.com","category":"expos","start":"2024-09-06T05:00:00Z","geo":{"geometry":{"coordinates":[44.4830806,40.18824439999999],"type":"Point"},"placekey":"@676-f5z-yy9","address":{"country_code":"AM","formatted_address":"Yerevan, Armenia","locality":"Yerevan","region":"Yerevan"}},"labels":["expo"],"duration":205200,"start_local":"2024-09-06T09:00:00","end":"2024-09-08T14:00:00Z","end_local":"2024-09-08T18:00:00","updated":"2024-06-04T03:26:26Z"},{"title":"Dilijan Wine Fest 2024","description":"Sourced from predicthq.com - Get ready for a wine-tastic time at Dilijan Wine Fest 2024 - come sip, swirl, and savor the best local wines!","category":"festivals","start":"2024-08-03T11:00:00Z","geo":{"geometry":{"coordinates":[44.8625965,40.7405524],"type":"Point"},"placekey":"@676-bt6-cbk","address":{"country_code":"AM","formatted_address":"Getapnya Street, 3903, Dilijan, Tavush Province, Armenia","locality":"Dilijan","postcode":"3903","region":"Tavush Province"}},"labels":["festival","food"],"duration":25200,"start_local":"2024-08-03T15:00:00","end":"2024-08-03T18:00:00Z","end_local":"2024-08-03T22:00:00","updated":"2024-06-27T04:14:33Z"},{"title":"International Conference on Cell and Tissue Science","description":"Sourced from predicthq.com","category":"conferences","start":"2024-08-02T05:00:00Z","geo":{"geometry":{"coordinates":[44.4998,40.179761],"type":"Point"},"placekey":"@676-f5s-tvz","address":{"country_code":"AM","formatted_address":"Paronyan Street, 0002, Yerevan, Armenia","locality":"Yerevan","postcode":"0002","region":"Yerevan"}},"labels":["conference"],"duration":118800,"start_local":"2024-08-02T09:00:00","end":"2024-08-03T14:00:00Z","end_local":"2024-08-03T18:00:00","updated":"2024-07-04T06:51:04Z"},{"title":"International Conference on Nano Science and Nanotechnology","description":"Sourced from predicthq.com","category":"conferences","start":"2024-08-02T05:00:00Z","geo":{"geometry":{"coordinates":[44.4998,40.179761],"type":"Point"},"placekey":"@676-f5s-tvz","address":{"country_code":"AM","formatted_address":"Paronyan Street, 0002, Yerevan, Armenia","locality":"Yerevan","postcode":"0002","region":"Yerevan"}},"labels":["conference"],"duration":118800,"start_local":"2024-08-02T09:00:00","end":"2024-08-03T14:00:00Z","end_local":"2024-08-03T18:00:00","updated":"2024-07-04T06:55:08Z"},{"title":"Tyga","description":"Sourced from predicthq.com","category":"concerts","start":"2024-07-28T18:00:00Z","geo":{"geometry":{"coordinates":[44.50129,40.18384],"type":"Point"},"placekey":"@676-f5s-s5z","address":{"country_code":"AM","formatted_address":"40 Paronyan poxoc, Yerevan, Armenia","locality":"Yerevan","region":"Yerevan"}},"labels":["concert","music"],"duration":0,"start_local":"2024-07-28T22:00:00","end":"2024-07-28T18:00:00Z","end_local":"2024-07-28T22:00:00","updated":"2024-06-29T00:19:18Z"},{"title":"UEFA Conference League - 1st Qualifying Round - Urartu vs Tallinna Kalev","description":"Sourced from predicthq.com","category":"sports","start":"2024-07-18T15:00:00Z","geo":{"geometry":{"coordinates":[44.44999694824219,40.17138886231673],"type":"Point"},"placekey":"@676-3zj-fzz","address":{"country_code":"AM","formatted_address":"5CCX+GXV, Yerevan, Armenia","locality":"Yerevan","region":"Yerevan"}},"labels":["soccer","sport"],"duration":0,"start_local":"2024-07-18T19:00:00","end":"2024-07-18T15:00:00Z","end_local":"2024-07-18T19:00:00","updated":"2024-06-24T18:24:49Z"},{"title":"UEFA Champions League - 1st Qualifying Round - Pyunik vs Dinamo Minsk","description":"Sourced from predicthq.com","category":"sports","start":"2024-07-16T16:00:00Z","geo":{"geometry":{"coordinates":[44.44999694824219,40.17138886231673],"type":"Point"},"placekey":"@676-3zj-fzz","address":{"country_code":"AM","formatted_address":"5CCX+GXV, Yerevan, Armenia","locality":"Yerevan","region":"Yerevan"}},"labels":["soccer","sport"],"duration":0,"start_local":"2024-07-16T20:00:00","end":"2024-07-16T16:00:00Z","end_local":"2024-07-16T20:00:00","updated":"2024-07-05T12:56:43Z"},{"title":"UEFA Conference League - 1st Qualifying Round - Noah vs Shkendija","description":"Sourced from predicthq.com","category":"sports","start":"2024-07-11T16:00:00Z","geo":{"geometry":{"coordinates":[44.63542878627777,40.268491357980714],"type":"Point"},"placekey":"@676-dpw-d5f","address":{"country_code":"AM","formatted_address":"Nairyan Street, Abovian, Armenia","locality":"Abovian"}},"labels":["soccer","sport"],"duration":0,"start_local":"2024-07-11T20:00:00","end":"2024-07-11T16:00:00Z","end_local":"2024-07-11T20:00:00","updated":"2024-06-24T19:14:11Z"},{"title":"JS Conf Armenia 2024","description":"Sourced from predicthq.com - Բարև բոլորին, ես ստեղծում եմ JS Conf Armenia 2024 անվան մի միջուկ միտում, այստեղ կարող եք բացահայտել ձեր գիտելիքը։","category":"conferences","start":"2024-07-06T06:00:00Z","geo":{"geometry":{"coordinates":[44.5324715,40.19059559999999],"type":"Point"},"placekey":"@676-ffz-kfz","address":{"country_code":"AM","formatted_address":"Armenak Armenakyan Street, 0047, Yerevan, Armenia","locality":"Yerevan","postcode":"0047","region":"Yerevan"}},"labels":["conference","science","technology"],"duration":7200,"start_local":"2024-07-06T10:00:00","end":"2024-07-06T08:00:00Z","end_local":"2024-07-06T12:00:00","updated":"2024-06-11T00:10:55Z"},{"title":"International Conference on Cell and Tissue Science","description":"Sourced from predicthq.com","category":"conferences","start":"2024-07-02T05:00:00Z","geo":{"geometry":{"coordinates":[44.4998,40.179761],"type":"Point"},"placekey":"@676-f5s-tvz","address":{"country_code":"AM","formatted_address":"Paronyan Street, 0002, Yerevan, Armenia","locality":"Yerevan","postcode":"0002","region":"Yerevan"}},"labels":["conference"],"duration":118800,"start_local":"2024-07-02T09:00:00","end":"2024-07-03T14:00:00Z","end_local":"2024-07-03T18:00:00","updated":"2024-06-14T06:30:50Z"},{"title":"International Conference on Nano Science and Nanotechnology","description":"Sourced from predicthq.com","category":"conferences","start":"2024-07-02T05:00:00Z","geo":{"geometry":{"coordinates":[44.4998,40.179761],"type":"Point"},"placekey":"@676-f5s-tvz","address":{"country_code":"AM","formatted_address":"Paronyan Street, 0002, Yerevan, Armenia","locality":"Yerevan","postcode":"0002","region":"Yerevan"}},"labels":["conference"],"duration":118800,"start_local":"2024-07-02T09:00:00","end":"2024-07-03T14:00:00Z","end_local":"2024-07-03T18:00:00","updated":"2024-06-14T06:23:41Z"},{"title":"International Conference on Sustainable Water Management","description":"Sourced from predicthq.com","category":"conferences","start":"2024-07-02T05:00:00Z","geo":{"geometry":{"coordinates":[44.4998,40.179761],"type":"Point"},"placekey":"@676-f5s-tvz","address":{"country_code":"AM","formatted_address":"Paronyan Street, 0002, Yerevan, Armenia","locality":"Yerevan","postcode":"0002","region":"Yerevan"}},"labels":["conference"],"duration":118800,"start_local":"2024-07-02T09:00:00","end":"2024-07-03T14:00:00Z","end_local":"2024-07-03T18:00:00","updated":"2024-06-14T08:20:35Z"},{"title":"1001 Nights Experience:  Storytelling, Music and Culinary Delights","description":"Sourced from predicthq.com - A Celebration of our shared heritage with DJ and Live Ethnic Instruments, Storytelling and Culinary Delights.","category":"festivals","start":"2024-06-30T13:30:00Z","geo":{"geometry":{"coordinates":[44.4570122,40.2207306],"type":"Point"},"placekey":"@676-f5x-6ff","address":{"country_code":"AM","formatted_address":"Ashtarak Highway, 0088, Yerevan, Armenia","locality":"Yerevan","postcode":"0088","region":"Yerevan"}},"labels":["community","festival"],"duration":27000,"start_local":"2024-06-30T17:30:00","end":"2024-06-30T21:00:00Z","end_local":"2024-07-01T01:00:00","updated":"2024-06-13T00:35:05Z"},{"title":"Rey&Kjavik","description":"Sourced from predicthq.com","category":"concerts","start":"2024-06-29T18:00:00Z","geo":{"geometry":{"coordinates":[44.5087218,40.2124255],"type":"Point"},"placekey":"@676-f5v-nnq","address":{"country_code":"AM","formatted_address":"Hovsep Arghutian St, Yerevan, Armenia","locality":"Yerevan","region":"Yerevan"}},"labels":["concert","music"],"duration":0,"start_local":"2024-06-29T22:00:00","end":"2024-06-29T18:00:00Z","end_local":"2024-06-29T22:00:00","updated":"2024-06-15T18:58:39Z"},{"title":"Hyper parameter tuning for online reinforcement learning","description":"Sourced from predicthq.com - Learn how to optimize your online reinforcement learning algorithms by tuning hyperparameters at our event!","category":"conferences","start":"2024-06-28T12:00:00Z","geo":{"geometry":{"coordinates":[44.5221766,40.1902507],"type":"Point"},"placekey":"@676-fg2-4gk","address":{"country_code":"AM","formatted_address":"105 Teryan St, Yerevan, Armenia","locality":"Yerevan","region":"Yerevan"}},"labels":["conference","science","technology"],"duration":5400,"start_local":"2024-06-28T16:00:00","end":"2024-06-28T13:30:00Z","end_local":"2024-06-28T17:30:00","updated":"2024-06-28T03:16:53Z"},{"title":"ABC Anniversary","description":"Sourced from predicthq.com","category":"festivals","start":"2024-06-27T20:00:00Z","geo":{"geometry":{"coordinates":[44.4553057,40.2252249],"type":"Point"},"placekey":"@676-f5x-5j9","address":{"country_code":"AM","formatted_address":"6FG4+34M, Ashtarak Highway, Yerevan, Armenia","locality":"Yerevan","region":"Yerevan"}},"labels":["festival","music"],"duration":172799,"start_local":"2024-06-28T00:00:00","end":"2024-06-29T19:59:59Z","end_local":"2024-06-29T23:59:59","updated":"2024-06-17T20:04:06Z"},{"title":"Ruben Gabrielyan","description":"Sourced from predicthq.com - Testing","category":"performing-arts","start":"2024-06-23T06:00:00Z","geo":{"geometry":{"coordinates":[44.515209,40.1872023],"type":"Point"},"placekey":"@676-fg2-66k","address":{"country_code":"AM","formatted_address":"Yerevan, Armenia","locality":"Yerevan","region":"Yerevan"}},"labels":["concert","music","performing-arts"],"duration":7200,"start_local":"2024-06-23T10:00:00","end":"2024-06-23T08:00:00Z","end_local":"2024-06-23T12:00:00","updated":"2024-06-04T00:10:42Z"},{"title":"TAKES TWO Immersive theater show","description":"Sourced from predicthq.com - An improvisation show that will never be repeated","category":"performing-arts","start":"2024-06-21T16:00:00Z","geo":{"geometry":{"coordinates":[44.51227309999999,40.1807001],"type":"Point"},"placekey":"@676-fff-t9z","address":{"country_code":"AM","formatted_address":"Aram Street, 0010, Yerevan, Armenia","locality":"Yerevan","postcode":"0010","region":"Yerevan"}},"labels":["concert","music","performing-arts"],"duration":7200,"start_local":"2024-06-21T20:00:00","end":"2024-06-21T18:00:00Z","end_local":"2024-06-21T22:00:00","updated":"2024-06-20T12:52:57Z"},{"title":"GCON 2024 - Game Development Conference in Armenia","description":"Sourced from predicthq.com - Join us at GCON 2024 for a day full of game development insights in Armenia!","category":"conferences","start":"2024-06-15T06:00:00Z","geo":{"geometry":{"coordinates":[44.5044753,40.1930377],"type":"Point"},"placekey":"@676-f5s-fj9","address":{"country_code":"AM","formatted_address":"40 Marshal Baghramyan Avenue, 0019, Yerevan, Armenia","postcode":"0019","locality":"Yerevan","region":"Yerevan"}},"labels":["conference","science","technology"],"duration":32400,"start_local":"2024-06-15T10:00:00","end":"2024-06-15T15:00:00Z","end_local":"2024-06-15T19:00:00","updated":"2024-06-04T00:24:53Z"},{"title":"EPIC Demo Day","description":"Sourced from predicthq.com - Join us at our annual demo day for a showcase of innovative startups and groundbreaking ideas! Don't miss out!","category":"conferences","start":"2024-06-11T14:30:00Z","geo":{"geometry":{"coordinates":[44.5044753,40.1930377],"type":"Point"},"placekey":"@676-f5s-fj9","address":{"country_code":"AM","formatted_address":"40 Marshal Baghramyan Avenue, 0019, Yerevan, Armenia","postcode":"0019","locality":"Yerevan","region":"Yerevan"}},"labels":["business","conference"],"duration":7200,"start_local":"2024-06-11T18:30:00","end":"2024-06-11T16:30:00Z","end_local":"2024-06-11T20:30:00","updated":"2024-05-30T03:50:57Z"},{"title":"Friendlies - Friendlies 2 - Armenia vs Kazakhstan","description":"Sourced from predicthq.com","category":"sports","start":"2024-06-07T16:00:00Z","geo":{"geometry":{"coordinates":[44.52566742897034,40.17191353865124],"type":"Point"},"placekey":"@676-fg5-4y9","address":{"country_code":"AM","formatted_address":"65 Vardanants St, Yerevan, Armenia","locality":"Yerevan","region":"Yerevan"}},"labels":["soccer","sport"],"duration":7071,"start_local":"2024-06-07T20:00:00","end":"2024-06-07T17:57:51Z","end_local":"2024-06-07T21:57:51","updated":"2024-06-07T23:59:23Z"},{"title":"World of Childhood EXPO","description":"Sourced from predicthq.com","category":"expos","start":"2024-06-07T05:00:00Z","geo":{"geometry":{"coordinates":[44.4906082,40.1995148],"type":"Point"},"placekey":"@676-f5t-8vz","address":{"country_code":"AM","formatted_address":"3, H. Hakob Hakobyan Street, 0033, Yerevan, Armenia","postcode":"0033","locality":"Yerevan","region":"Yerevan"}},"labels":["expo"],"duration":205200,"start_local":"2024-06-07T09:00:00","end":"2024-06-09T14:00:00Z","end_local":"2024-06-09T18:00:00","updated":"2024-05-27T19:54:06Z"},{"title":"Lady Expo","description":"Sourced from predicthq.com","category":"expos","start":"2024-06-06T20:00:00Z","geo":{"geometry":{"coordinates":[44.4906082,40.1995148],"type":"Point"},"placekey":"@676-f5t-8vz","address":{"country_code":"AM","formatted_address":"3, H. Hakob Hakobyan Street, 0033, Yerevan, Armenia","postcode":"0033","locality":"Yerevan","region":"Yerevan"}},"labels":["expo"],"duration":259199,"start_local":"2024-06-07T00:00:00","end":"2024-06-09T19:59:59Z","end_local":"2024-06-09T23:59:59","updated":"2024-05-27T19:26:57Z"},{"title":"ISTQB Foundation Level 4.0","description":"Sourced from predicthq.com - Get ready to boost your software testing skills at the ISTQB Foundation Level 4.0 event – it's going to be epic!","category":"conferences","start":"2024-06-05T15:00:00Z","geo":{"geometry":{"coordinates":[44.5095245,40.1559366],"type":"Point"},"placekey":"@676-ffj-mx5","address":{"country_code":"AM","formatted_address":"Tigran Mets Avenue, Yerevan, Armenia","locality":"Yerevan","region":"Yerevan"}},"labels":["conference","science","technology"],"duration":10800,"start_local":"2024-06-05T19:00:00","end":"2024-06-05T18:00:00Z","end_local":"2024-06-05T22:00:00","updated":"2024-05-30T03:51:22Z"},{"title":"International Conference on Cell and Tissue Science","description":"Sourced from predicthq.com","category":"conferences","start":"2024-06-02T05:00:00Z","geo":{"geometry":{"coordinates":[44.4998,40.179761],"type":"Point"},"placekey":"@676-f5s-tvz","address":{"country_code":"AM","formatted_address":"Paronyan Street, 0002, Yerevan, Armenia","locality":"Yerevan","postcode":"0002","region":"Yerevan"}},"labels":["conference"],"duration":118800,"start_local":"2024-06-02T09:00:00","end":"2024-06-03T14:00:00Z","end_local":"2024-06-03T18:00:00","updated":"2024-06-01T11:46:12Z"},{"title":"International Conference on Sustainable Water Management","description":"Sourced from predicthq.com","category":"conferences","start":"2024-06-02T05:00:00Z","geo":{"geometry":{"coordinates":[44.4998,40.179761],"type":"Point"},"placekey":"@676-f5s-tvz","address":{"country_code":"AM","formatted_address":"Paronyan Street, 0002, Yerevan, Armenia","locality":"Yerevan","postcode":"0002","region":"Yerevan"}},"labels":["conference"],"duration":118800,"start_local":"2024-06-02T09:00:00","end":"2024-06-03T14:00:00Z","end_local":"2024-06-03T18:00:00","updated":"2024-06-01T06:24:57Z"},{"title":"Ուսուցչի ինքնախնամքը","description":"Sourced from predicthq.com - Դասընթացի ընթացքում կխոսենք ուսուցչի ինքնախնամքի կարևորության, դրա դերի և նշանակության մասին։","category":"conferences","start":"2024-06-01T20:00:00Z","geo":{"geometry":{"coordinates":[44.5285847,40.2240798],"type":"Point"},"placekey":"@676-f6g-4vz","address":{"country_code":"AM","formatted_address":"Tbilisyan Highway, Yerevan, Armenia","locality":"Yerevan","region":"Yerevan"}},"labels":["conference","music"],"duration":5400,"start_local":"2024-06-02T00:00:00","end":"2024-06-01T21:30:00Z","end_local":"2024-06-02T01:30:00","updated":"2024-06-04T02:42:05Z"},{"title":"Մարտահրավերներից դեպի հնարավորություններ։ Դրական հոգեբանությունը կրթության համատեքստում","description":"Sourced from predicthq.com - Դրական հոգեբանությունը կրթության համատեքստում։","category":"conferences","start":"2024-06-01T20:00:00Z","geo":{"geometry":{"coordinates":[44.5285847,40.2240798],"type":"Point"},"placekey":"@676-f6g-4vz","address":{"country_code":"AM","formatted_address":"Tbilisyan Highway, Yerevan, Armenia","locality":"Yerevan","region":"Yerevan"}},"labels":["conference","music"],"duration":5400,"start_local":"2024-06-02T00:00:00","end":"2024-06-01T21:30:00Z","end_local":"2024-06-02T01:30:00","updated":"2024-06-04T05:02:38Z"},{"title":"Armenian National Supercomputing Center Opening and  Women in Data Science Armenia 2024 Conference","description":"Sourced from predicthq.com - Join us for the grand opening of the Armenian National Supercomputing Center and the Women in Data Science Armenia 2024 Conference!","category":"conferences","start":"2024-05-31T06:00:00Z","geo":{"geometry":{"coordinates":[44.5826291,40.2011412],"type":"Point"},"placekey":"@676-ffv-4jv","address":{"country_code":"AM","formatted_address":"Bagrevand Street, Yerevan, Armenia","locality":"Yerevan","region":"Yerevan"}},"labels":["conference","science","technology"],"duration":43200,"start_local":"2024-05-31T10:00:00","end":"2024-05-31T18:00:00Z","end_local":"2024-05-31T22:00:00","updated":"2024-05-23T03:04:33Z"},{"title":"Mission Armenia Symposium","description":"Sourced from predicthq.com","category":"conferences","start":"2024-05-31T05:00:00Z","geo":{"geometry":{"coordinates":[44.511347,40.17785],"type":"Point"},"placekey":"@676-fff-vvf","address":{"country_code":"AM","formatted_address":"1 Amiryan St, Yerevan 0010, Armenia","postcode":"0010","locality":"Yerevan","region":"Yerevan"}},"labels":["conference"],"duration":32400,"start_local":"2024-05-31T09:00:00","end":"2024-05-31T14:00:00Z","end_local":"2024-05-31T18:00:00","updated":"2024-06-05T02:48:45Z"},{"title":"Andreas Kern, Piano Battle, and Armenian National Philharmonic Orchestra","description":"Sourced from predicthq.com","category":"concerts","start":"2024-05-29T15:00:00Z","geo":{"geometry":{"coordinates":[44.50725,40.18001],"type":"Point"},"placekey":"@676-fff-wzf","address":{"country_code":"AM","formatted_address":"46 Mesrop Mashtoc pokhota, Yerevan, Armenia","locality":"Yerevan","region":"Yerevan"}},"labels":["concert","music"],"duration":0,"start_local":"2024-05-29T19:00:00","end":"2024-05-29T15:00:00Z","end_local":"2024-05-29T19:00:00","updated":"2024-06-12T18:07:14Z"},{"title":"Global Talks","description":"Sourced from predicthq.com - Ինչպես փոքր և խիտ շուկա ունեցող երկրում ունենալ մրցակցային առավելություն՝ օգտագործելով արհեստական բանականությունը:","category":"conferences","start":"2024-05-23T15:00:00Z","geo":{"geometry":{"coordinates":[44.4890207,40.169635],"type":"Point"},"placekey":"@676-ffn-dgk","address":{"country_code":"AM","formatted_address":"Admiral Isakov Avenue, Yerevan, Armenia","locality":"Yerevan","region":"Yerevan"}},"labels":["community","conference"],"duration":7200,"start_local":"2024-05-23T19:00:00","end":"2024-05-23T17:00:00Z","end_local":"2024-05-23T21:00:00","updated":"2024-06-04T22:49:37Z"},{"title":"Wine days","description":"Sourced from predicthq.com - Celebra dos días llenos de vino delicioso, música en vivo y buena compañía en Wine Days. ¡No te lo pierdas!","category":"festivals","start":"2024-05-19T06:00:00Z","geo":{"geometry":{"coordinates":[44.515209,40.1872023],"type":"Point"},"placekey":"@676-fg2-66k","address":{"country_code":"AM","formatted_address":"Yerevan, Armenia","locality":"Yerevan","region":"Yerevan"}},"labels":["festival","food"],"duration":7200,"start_local":"2024-05-19T10:00:00","end":"2024-05-19T08:00:00Z","end_local":"2024-05-19T12:00:00","updated":"2024-06-05T13:22:53Z"},{"title":"Security BSides Yerevan","description":"Sourced from predicthq.com - Unlock the world of cybersecurity at BSides Yerevan! Join experts, workshops, and networking. Register now!!!","category":"conferences","start":"2024-05-18T08:00:00Z","geo":{"geometry":{"coordinates":[44.511347,40.17785],"type":"Point"},"placekey":"@676-fff-vvf","address":{"country_code":"AM","formatted_address":"1 Amiryan St, Yerevan 0010, Armenia","postcode":"0010","locality":"Yerevan","region":"Yerevan"}},"labels":["conference","science","technology"],"duration":0,"start_local":"2024-05-18T12:00:00","end":"2024-05-18T08:00:00Z","end_local":"2024-05-18T12:00:00","updated":"2024-06-05T16:47:48Z"},{"title":"Expo Food And Drinks","description":"Sourced from predicthq.com - Expo Food And Drinks is an exciting expo event showcasing a wide array of delectable food and beverage products from local and international vendors. Visitors can indulge in mouthwatering delicacies, discover new flavors, and explore the latest trends in the culinary world.","category":"expos","start":"2024-05-17T05:00:00Z","geo":{"geometry":{"coordinates":[44.4906082,40.1995148],"type":"Point"},"placekey":"@676-f5t-8vz","address":{"country_code":"AM","formatted_address":"3, H. Hakob Hakobyan Street, 0033, Yerevan, Armenia","postcode":"0033","locality":"Yerevan","region":"Yerevan"}},"labels":["expo"],"duration":205200,"start_local":"2024-05-17T09:00:00","end":"2024-05-19T14:00:00Z","end_local":"2024-05-19T18:00:00","updated":"2024-05-28T03:03:58Z"},{"title":"Ди Курцман and The Dartz","description":"Sourced from predicthq.com","category":"concerts","start":"2024-05-16T17:00:00Z","geo":{"geometry":{"coordinates":[44.51285,40.18927],"type":"Point"},"placekey":"@676-f5s-z2k","address":{"country_code":"AM","formatted_address":"3 Marshal Baghramyan Ave, Yerevan 0019, Armenia","postcode":"0019","locality":"Yerevan","region":"Yerevan"}},"labels":["concert","music"],"duration":0,"start_local":"2024-05-16T21:00:00","end":"2024-05-16T17:00:00Z","end_local":"2024-05-16T21:00:00","updated":"2024-06-12T20:20:29Z"},{"title":"Louna","description":"Sourced from predicthq.com","category":"concerts","start":"2024-05-15T16:00:00Z","geo":{"geometry":{"coordinates":[44.51564,40.18008],"type":"Point"},"placekey":"@676-fg2-jvz","address":{"country_code":"AM","formatted_address":"3a Pushkin St, Yerevan 0010, Armenia","postcode":"0010","locality":"Yerevan","region":"Yerevan"}},"labels":["concert","music"],"duration":0,"start_local":"2024-05-15T20:00:00","end":"2024-05-15T16:00:00Z","end_local":"2024-05-15T20:00:00","updated":"2024-06-12T13:24:05Z"},{"title":"EUROVISION 2024 | OGAE ARMENIA","description":"Sourced from predicthq.com - OGAE Armenia Live Screening","category":"concerts","start":"2024-05-11T18:00:00Z","geo":{"geometry":{"coordinates":[44.5049188,40.20217979999999],"type":"Point"},"placekey":"@676-f5t-ch5","address":{"country_code":"AM","formatted_address":"Hrachya Kochar Street, Yerevan, Armenia","locality":"Yerevan","region":"Yerevan"}},"labels":["concert","music"],"duration":5400,"start_local":"2024-05-11T22:00:00","end":"2024-05-11T19:30:00Z","end_local":"2024-05-11T23:30:00","updated":"2024-05-25T18:10:22Z"},{"title":"VEiiLA","description":"Sourced from predicthq.com","category":"concerts","start":"2024-05-11T15:00:00Z","geo":{"geometry":{"coordinates":[44.9184427,40.7921698],"type":"Point"},"placekey":"@676-bth-yn5","address":{"country_code":"AM","formatted_address":"QWR9+V98, Teghut 3902, Armenia","postcode":"3902","locality":"Teghut","region":"Tavush Province"}},"labels":["concert","music"],"duration":0,"start_local":"2024-05-11T19:00:00","end":"2024-05-11T15:00:00Z","end_local":"2024-05-11T19:00:00","updated":"2024-06-12T05:47:42Z"},{"title":"Dan Costa","description":"Sourced from predicthq.com","category":"concerts","start":"2024-05-05T16:00:00Z","geo":{"geometry":{"coordinates":[44.4943245,40.1979358],"type":"Point"},"placekey":"@676-f5t-6ff","address":{"country_code":"AM","formatted_address":"4 Gevorg Kochar St, Yerevan, Armenia","locality":"Yerevan","region":"Yerevan"}},"labels":["concert","music"],"duration":0,"start_local":"2024-05-05T20:00:00","end":"2024-05-05T16:00:00Z","end_local":"2024-05-05T20:00:00","updated":"2024-06-12T11:15:06Z"},{"title":"VEiiLA","description":"Sourced from predicthq.com","category":"concerts","start":"2024-05-03T16:00:00Z","geo":{"geometry":{"coordinates":[44.86867,40.73881],"type":"Point"},"placekey":"@676-bt6-94v","address":{"country_code":"AM","formatted_address":"32 Myasnikyan St, Dilijan 3901, Armenia","postcode":"3901","locality":"Dilijan","region":"Tavush Province"}},"labels":["concert","music"],"duration":0,"start_local":"2024-05-03T20:00:00","end":"2024-05-03T16:00:00Z","end_local":"2024-05-03T20:00:00","updated":"2024-06-12T10:33:28Z"},{"title":"International Conference on Cell and Tissue Science","description":"Sourced from predicthq.com","category":"conferences","start":"2024-05-02T05:00:00Z","geo":{"geometry":{"coordinates":[44.4998,40.179761],"type":"Point"},"placekey":"@676-f5s-tvz","address":{"country_code":"AM","formatted_address":"Paronyan Street, 0002, Yerevan, Armenia","locality":"Yerevan","postcode":"0002","region":"Yerevan"}},"labels":["conference"],"duration":118800,"start_local":"2024-05-02T09:00:00","end":"2024-05-03T14:00:00Z","end_local":"2024-05-03T18:00:00","updated":"2024-06-05T14:24:53Z"},{"title":"International Conference on Nano Science and Nanotechnology","description":"Sourced from predicthq.com","category":"conferences","start":"2024-05-02T05:00:00Z","geo":{"geometry":{"coordinates":[44.4998,40.179761],"type":"Point"},"placekey":"@676-f5s-tvz","address":{"country_code":"AM","formatted_address":"Paronyan Street, 0002, Yerevan, Armenia","locality":"Yerevan","postcode":"0002","region":"Yerevan"}},"labels":["conference"],"duration":118800,"start_local":"2024-05-02T09:00:00","end":"2024-05-03T14:00:00Z","end_local":"2024-05-03T18:00:00","updated":"2024-06-05T11:20:47Z"},{"title":"International Conference on Sustainable Water Management","description":"Sourced from predicthq.com","category":"conferences","start":"2024-05-02T05:00:00Z","geo":{"geometry":{"coordinates":[44.4998,40.179761],"type":"Point"},"placekey":"@676-f5s-tvz","address":{"country_code":"AM","formatted_address":"Paronyan Street, 0002, Yerevan, Armenia","locality":"Yerevan","postcode":"0002","region":"Yerevan"}},"labels":["conference"],"duration":118800,"start_local":"2024-05-02T09:00:00","end":"2024-05-03T14:00:00Z","end_local":"2024-05-03T18:00:00","updated":"2024-06-05T10:28:13Z"},{"title":"Make it Real! — CCF Edition","description":"Sourced from predicthq.com - 28 апреля встречаемся digital-сообществом,  чтобы обсудить темы, интересные всем цифровым кочевникам и тем, кто недавно переехал в Армению!","category":"conferences","start":"2024-04-28T10:00:00Z","geo":{"geometry":{"coordinates":[44.5006263,40.1672569],"type":"Point"},"placekey":"@676-fff-zxq","address":{"country_code":"AM","formatted_address":"Arshakuniats 1 bck, 0015, Yerevan, Armenia","locality":"Yerevan","postcode":"0015","region":"Yerevan"}},"labels":["business","conference"],"duration":10800,"start_local":"2024-04-28T14:00:00","end":"2024-04-28T13:00:00Z","end_local":"2024-04-28T17:00:00","updated":"2024-06-05T01:37:59Z"},{"title":"«Պատմություն, ժամանակ, ֆորմա»","description":"Sourced from predicthq.com - ARDY Academy","category":"conferences","start":"2024-04-28T08:20:00Z","geo":{"geometry":{"coordinates":[44.5006263,40.1672569],"type":"Point"},"placekey":"@676-fff-zxq","address":{"country_code":"AM","formatted_address":"Arshakuniats 1 bck, 0015, Yerevan, Armenia","locality":"Yerevan","postcode":"0015","region":"Yerevan"}},"labels":["business","conference"],"duration":2400,"start_local":"2024-04-28T12:20:00","end":"2024-04-28T09:00:00Z","end_local":"2024-04-28T13:00:00","updated":"2024-06-05T04:54:52Z"},{"title":"Ձեր հաջողության կոդը`  տեխնիկական հարցազրույցի գաղտնիքներ","description":"Sourced from predicthq.com - Growth Zone-ը Career City Fest-ի ամենաօգտակար հարթակներից մեկն է։ Այստեղ երկու օր շարունակ լինելու են թեմատիկ սեմինարներ, վապետության դասեր:","category":"conferences","start":"2024-04-28T07:30:00Z","geo":{"geometry":{"coordinates":[44.5006263,40.1672569],"type":"Point"},"placekey":"@676-fff-zxq","address":{"country_code":"AM","formatted_address":"Arshakuniats 1 bck, 0015, Yerevan, Armenia","locality":"Yerevan","postcode":"0015","region":"Yerevan"}},"labels":["business","conference"],"duration":2400,"start_local":"2024-04-28T11:30:00","end":"2024-04-28T08:10:00Z","end_local":"2024-04-28T12:10:00","updated":"2024-06-05T07:07:31Z"},{"title":"Yerevan Marathon","description":"Sourced from predicthq.com","category":"sports","start":"2024-04-28T04:00:00Z","geo":{"geometry":{"coordinates":[44.4991029,40.1791857],"type":"Point"},"placekey":"@676-f5s-tvz","address":{"country_code":"AM","formatted_address":"Yerevan, Armenia","locality":"Yerevan","region":"Yerevan"}},"labels":["marathon","outdoor-sports","running","sport"],"duration":0,"start_local":"2024-04-28T08:00:00","end":"2024-04-28T04:00:00Z","end_local":"2024-04-28T08:00:00","updated":"2024-06-05T09:16:03Z"},{"title":"Կարիերայի ուղիներ և հնարավորություններ արվեստի ոլորտում","description":"Sourced from predicthq.com - Growth Zone-ը Career City Fest-ի ամենաօգտակար հարթակներից մեկն է։ Այստեղ երկու օր շարունակ լինելու են թեմատիկ սեմինարներ, վապետության դասեր:","category":"conferences","start":"2024-04-27T14:00:00Z","geo":{"geometry":{"coordinates":[44.5006263,40.1672569],"type":"Point"},"placekey":"@676-fff-zxq","address":{"country_code":"AM","formatted_address":"Arshakuniats 1 bck, 0015, Yerevan, Armenia","locality":"Yerevan","postcode":"0015","region":"Yerevan"}},"labels":["business","conference"],"duration":2400,"start_local":"2024-04-27T18:00:00","end":"2024-04-27T14:40:00Z","end_local":"2024-04-27T18:40:00","updated":"2024-06-05T06:15:20Z"},{"title":"Հաղորդակցումը գործատուի հետ, ինչպե՞ս կառուցել դրական փոխհարաբերություն","description":"Sourced from predicthq.com - Growth Zone-ը Career City Fest-ի ամենաօգտակար հարթակներից մեկն է։ Այստեղ երկու օր շարունակ լինելու են թեմատիկ սեմինարներ, վապետության դասեր:","category":"conferences","start":"2024-04-27T12:50:00Z","geo":{"geometry":{"coordinates":[44.5006263,40.1672569],"type":"Point"},"placekey":"@676-fff-zxq","address":{"country_code":"AM","formatted_address":"Arshakuniats 1 bck, 0015, Yerevan, Armenia","locality":"Yerevan","postcode":"0015","region":"Yerevan"}},"labels":["business","conference"],"duration":2400,"start_local":"2024-04-27T16:50:00","end":"2024-04-27T13:30:00Z","end_local":"2024-04-27T17:30:00","updated":"2024-06-05T00:47:04Z"},{"title":"Mistakes and Lessons: More Than a Decade in HR","description":"Sourced from predicthq.com - Join us for a candid discussion on the mishaps and wisdom gained from over a decade in the HR field!","category":"conferences","start":"2024-04-27T11:20:00Z","geo":{"geometry":{"coordinates":[44.5006263,40.1672569],"type":"Point"},"placekey":"@676-fff-zxq","address":{"country_code":"AM","formatted_address":"Arshakuniats 1 bck, 0015, Yerevan, Armenia","locality":"Yerevan","postcode":"0015","region":"Yerevan"}},"labels":["business","conference"],"duration":1200,"start_local":"2024-04-27T15:20:00","end":"2024-04-27T11:40:00Z","end_local":"2024-04-27T15:40:00","updated":"2024-06-05T06:24:13Z"},{"title":"Կարիերային ինքնորոշման հոգեբանական առանձնահատկությունները","description":"Sourced from predicthq.com - Growth Zone-ը Career City Fest-ի ամենաօգտակար հարթակներից մեկն է։ Այստեղ երկու օր շարունակ լինելու են թեմատիկ սեմինարներ, վապետության դասեր:","category":"conferences","start":"2024-04-27T08:00:00Z","geo":{"geometry":{"coordinates":[44.5006263,40.1672569],"type":"Point"},"placekey":"@676-fff-zxq","address":{"country_code":"AM","formatted_address":"Arshakuniats 1 bck, 0015, Yerevan, Armenia","locality":"Yerevan","postcode":"0015","region":"Yerevan"}},"labels":["business","conference"],"duration":2400,"start_local":"2024-04-27T12:00:00","end":"2024-04-27T08:40:00Z","end_local":"2024-04-27T12:40:00","updated":"2024-06-05T07:03:49Z"},{"title":"Новая волна автократизации: ловушки и угрозы в Евразии и в мире","description":"Sourced from predicthq.com - Лекция Владимира Гельмана","category":"conferences","start":"2024-04-25T14:00:00Z","geo":{"geometry":{"coordinates":[44.5271067,40.18434269999999],"type":"Point"},"placekey":"@676-ffz-9cq","address":{"country_code":"AM","formatted_address":"Charents Street, 0001, Yerevan, Armenia","locality":"Yerevan","postcode":"0001","region":"Yerevan"}},"labels":["conference"],"duration":5400,"start_local":"2024-04-25T18:00:00","end":"2024-04-25T15:30:00Z","end_local":"2024-04-25T19:30:00","updated":"2024-06-05T00:36:26Z"},{"title":"International Scientific Conference \"Construction the formation of living environment\"","description":"Sourced from predicthq.com","category":"conferences","start":"2024-04-24T05:00:00Z","geo":{"geometry":{"coordinates":[44.523187,40.19106],"type":"Point"},"placekey":"@676-fg2-cqz","address":{"country_code":"AM","formatted_address":"Teryan Street, 0009, Yerevan, Armenia","locality":"Yerevan","postcode":"0009","region":"Yerevan"}},"labels":["conference"],"duration":205200,"start_local":"2024-04-24T09:00:00","end":"2024-04-26T14:00:00Z","end_local":"2024-04-26T18:00:00","updated":"2024-05-28T01:29:32Z"},{"title":"Deallly Talks: Preparing for Conversations with US Venture Capitalists","description":"Sourced from predicthq.com - Get ready to ace your pitch with insider tips and strategies for talking to US Venture Capitalists at Deallly Talks!","category":"conferences","start":"2024-04-23T15:30:00Z","geo":{"geometry":{"coordinates":[44.4886726,40.1989114],"type":"Point"},"placekey":"@676-f5t-99f","address":{"country_code":"AM","formatted_address":"Barbusse Street, Yerevan, Armenia","locality":"Yerevan","region":"Yerevan"}},"labels":["business","conference"],"duration":9000,"start_local":"2024-04-23T19:30:00","end":"2024-04-23T18:00:00Z","end_local":"2024-04-23T22:00:00","updated":"2024-06-05T05:26:18Z"},{"title":"Сатсанг + Практика медитации с Дмитрием Лапшиновым в Армении.","description":"Sourced from predicthq.com - АРТНАМ организует в Ереване встречу с Дмитрием Лапшиновым, учителем 5 духовных традиций, основателем школы СВАРГА.","category":"conferences","start":"2024-04-18T15:00:00Z","geo":{"geometry":{"coordinates":[44.5124193,40.1892353],"type":"Point"},"placekey":"@676-f5s-z2k","address":{"country_code":"AM","formatted_address":"Rafael Lemkin Street, Yerevan, Armenia","locality":"Yerevan","region":"Yerevan"}},"labels":["conference","religion"],"duration":7200,"start_local":"2024-04-18T19:00:00","end":"2024-04-18T17:00:00Z","end_local":"2024-04-18T21:00:00","updated":"2024-06-05T09:33:04Z"},{"title":"From SILICON To WINE: Global Impact and Forging Legacy","description":"Sourced from predicthq.com - Learn, Connect, and Act! Explore  Adam Kablanian's Fascinating Journey of Innovation, Investing, Philanthropy, and Legacy Forging","category":"conferences","start":"2024-04-17T04:30:00Z","geo":{"geometry":{"coordinates":[44.509695,40.1870445],"type":"Point"},"placekey":"@676-f5s-yd9","address":{"country_code":"AM","formatted_address":"Martiros Saryan Street, Yerevan, Armenia","locality":"Yerevan","region":"Yerevan"}},"labels":["business","conference"],"duration":7200,"start_local":"2024-04-17T08:30:00","end":"2024-04-17T06:30:00Z","end_local":"2024-04-17T10:30:00","updated":"2024-06-04T22:38:39Z"},{"title":"JavaScript Summit  Armenia 2024","description":"Sourced from predicthq.com - A one-day conference for JavaScript developers.","category":"conferences","start":"2024-04-13T10:00:00Z","geo":{"geometry":{"coordinates":[44.5044753,40.1930377],"type":"Point"},"placekey":"@676-f5s-fj9","address":{"country_code":"AM","formatted_address":"40 Marshal Baghramyan Avenue, 0019, Yerevan, Armenia","postcode":"0019","locality":"Yerevan","region":"Yerevan"}},"labels":["conference","science","technology"],"duration":14400,"start_local":"2024-04-13T14:00:00","end":"2024-04-13T14:00:00Z","end_local":"2024-04-13T18:00:00","updated":"2024-06-09T03:59:42Z"},{"title":"«SEO-ի հնացած մեթոդները 2024-ի համար»","description":"Sourced from predicthq.com - Ռոման Դանեղյանի հետ","category":"conferences","start":"2024-04-12T20:00:00Z","geo":{"geometry":{"coordinates":[44.6293294,40.1835597],"type":"Point"},"placekey":"@676-dqv-2ff","address":{"country_code":"AM","formatted_address":"Amaranotsayin 3th Street, 2227, Jrvezh, Kotayk Province, Armenia","locality":"Jrvezh","postcode":"2227","region":"Kotayk Province"}},"labels":["conference","science","technology"],"duration":50400,"start_local":"2024-04-13T00:00:00","end":"2024-04-13T10:00:00Z","end_local":"2024-04-13T14:00:00","updated":"2024-06-05T08:04:24Z"},{"title":"«Closing deals, opening doors - վաճառքամետ մտածողություն»","description":"Sourced from predicthq.com - Բաց դաս բոլոր նրանց համար ովքեր ուզում են ավելի արդյունավետ վաճառել","category":"conferences","start":"2024-04-11T15:00:00Z","geo":{"geometry":{"coordinates":[44.6293294,40.1835597],"type":"Point"},"placekey":"@676-dqv-2ff","address":{"country_code":"AM","formatted_address":"Amaranotsayin 3th Street, 2227, Jrvezh, Kotayk Province, Armenia","locality":"Jrvezh","postcode":"2227","region":"Kotayk Province"}},"labels":["business","conference"],"duration":7200,"start_local":"2024-04-11T19:00:00","end":"2024-04-11T17:00:00Z","end_local":"2024-04-11T21:00:00","updated":"2024-06-05T06:32:00Z"},{"title":"Education & Career Expo-Armenia","description":"Sourced from predicthq.com - Education & Career Expo-Armenia is a highly anticipated event that brings together renowned educational institutions, distinguished employers, and ambitious individuals under one roof. It offers a perfect platform to explore diverse educational opportunities and career prospects, providing invaluable insights to attendees.","category":"expos","start":"2024-04-09T20:00:00Z","geo":{"geometry":{"coordinates":[44.4906082,40.1995148],"type":"Point"},"placekey":"@676-f5t-8vz","address":{"country_code":"AM","formatted_address":"3, H. Hakob Hakobyan Street, 0033, Yerevan, Armenia","postcode":"0033","locality":"Yerevan","region":"Yerevan"}},"labels":["career","education","expo"],"duration":259199,"start_local":"2024-04-10T00:00:00","end":"2024-04-12T19:59:59Z","end_local":"2024-04-12T23:59:59","updated":"2024-05-27T22:58:50Z"},{"title":"TEDxUWCDilijan Youth 2024","description":"Sourced from predicthq.com - Join TEDxUWCDilijan Youth 2024 for an amazing in-person event on April 6, 2024, where external guests can sign up and be inspired!","category":"conferences","start":"2024-04-06T09:00:00Z","geo":{"geometry":{"coordinates":[44.832545,40.739339],"type":"Point"},"placekey":"@676-btb-mx5","address":{"country_code":"AM","formatted_address":"7 Getapnya St, Dilijan 3903, Armenia","postcode":"3903","locality":"Dilijan","region":"Tavush Province"}},"labels":["conference"],"duration":21600,"start_local":"2024-04-06T13:00:00","end":"2024-04-06T15:00:00Z","end_local":"2024-04-06T19:00:00","updated":"2024-06-05T14:35:12Z"}]