[{"title":"Segredo do curso de Arquitectura","description":"Sourced from predicthq.com - Aprenda em duas horas com quem já esteve no seu lugar para não cometer os mesmos erros e ganhe o seu diploma de Arquitecto com sucesso.","category":"conferences","start":"2024-09-27T14:00:00Z","geo":{"geometry":{"coordinates":[13.2189207,-8.8238138],"type":"Point"},"placekey":"@g4z-mbp-hyv","address":{"country_code":"AO","formatted_address":"Luanda, Angola","locality":"Luanda","region":"Luanda"}},"labels":["conference"],"duration":7200,"start_local":"2024-09-27T15:00:00","end":"2024-09-27T16:00:00Z","end_local":"2024-09-27T17:00:00","updated":"2024-06-04T03:02:15Z"},{"title":"IV CONGRESSO DA CLÍNICA GIRASSOL","description":"Sourced from predicthq.com - Não Perca a Oportunidade de Participar dessa Jornada Única!\n\nO IV Congresso oferece uma experiência ampla e imersiva, com três dias repletos","category":"conferences","start":"2024-09-06T09:00:00Z","geo":{"geometry":{"coordinates":[13.1829542,-8.923833899999998],"type":"Point"},"placekey":"@g4z-m44-rc5","address":{"country_code":"AO","formatted_address":"Belas, Luanda Province, Angola","locality":"Belas","region":"Luanda Province"}},"labels":["conference","health"],"duration":37800,"start_local":"2024-09-06T10:00:00","end":"2024-09-06T19:30:00Z","end_local":"2024-09-06T20:30:00","updated":"2024-05-30T01:01:12Z"},{"title":"Mesa Redonda com os CEOs","description":"Sourced from predicthq.com - A Feira Internacional de Luanda é a maior montra de promoção nacional, da realização de negócios e do fomento de empregos.","category":"conferences","start":"2024-07-23T09:00:00Z","geo":{"geometry":{"coordinates":[13.4471479,-8.964871],"type":"Point"},"placekey":"@g4z-jnq-mrk","address":{"country_code":"AO","formatted_address":"Luanda, Luanda Province, Angola","locality":"Luanda","region":"Luanda Province"}},"labels":["business","conference"],"duration":478800,"start_local":"2024-07-23T10:00:00","end":"2024-07-28T22:00:00Z","end_local":"2024-07-28T23:00:00","updated":"2024-06-27T11:14:41Z"},{"title":"FILDA - LUANDA INTERNATIONAL FAIR - CANADA PAVILION","description":"Sourced from predicthq.com - Welcome to Angola. The FILDA is one of the biggest trade fair in Africa. It´ s a multisectorial fair.","category":"expos","start":"2024-07-23T08:00:00Z","geo":{"geometry":{"coordinates":[13.2620088,-8.8277498],"type":"Point"},"placekey":"@g4z-mb2-6hq","address":{"country_code":"AO","formatted_address":"Avenida Hoji ya Henda, Luanda, Angola","locality":"Luanda","region":"Luanda"}},"labels":["business","expo"],"duration":460800,"start_local":"2024-07-23T09:00:00","end":"2024-07-28T16:00:00Z","end_local":"2024-07-28T17:00:00","updated":"2024-06-04T06:14:21Z"},{"title":"EDUCAÇÃO QUE TRANSFORMA","description":"Sourced from predicthq.com - Expanda seus horizontes, inspire-se com ideias inovadoras e junte-se a uma comunidade apaixonada por revolucionar a educação!","category":"conferences","start":"2024-06-26T16:00:00Z","geo":{"geometry":{"coordinates":[13.2024688,-8.9114527],"type":"Point"},"placekey":"@g4z-md9-wp9","address":{"country_code":"AO","formatted_address":"Avenida Talatona, Luanda, Angola","locality":"Luanda","region":"Luanda"}},"labels":["conference","education","family"],"duration":14400,"start_local":"2024-06-26T17:00:00","end":"2024-06-26T20:00:00Z","end_local":"2024-06-26T21:00:00","updated":"2024-06-20T03:35:38Z"},{"title":"Encontro de Casais com Ana Pauloa Valadão e Gustavo Bessa em Luanda - AO","description":"Sourced from predicthq.com - Você e seu parceiro estão prontos para uma experiência transformadora?","category":"conferences","start":"2024-06-10T17:00:00Z","geo":{"geometry":{"coordinates":[13.2024688,-8.9114527],"type":"Point"},"placekey":"@g4z-md9-wp9","address":{"country_code":"AO","formatted_address":"Avenida Talatona, Luanda, Angola","locality":"Luanda","region":"Luanda"}},"labels":["conference","religion"],"duration":7200,"start_local":"2024-06-10T18:00:00","end":"2024-06-10T19:00:00Z","end_local":"2024-06-10T20:00:00","updated":"2024-06-11T09:38:24Z"},{"title":"Girabola - Wiliete vs Desportivo Lunda-Sul","description":"Sourced from predicthq.com","category":"sports","start":"2024-06-01T14:30:00Z","geo":{"geometry":{"coordinates":[13.461077,-12.542761],"type":"Point"},"placekey":"@g4r-d26-389","address":{"country_code":"AO","formatted_address":"Benguela\nAngola","locality":"Benguela","region":"Benguela"}},"labels":["soccer","sport"],"duration":0,"start_local":"2024-06-01T15:30:00","end":"2024-06-01T14:30:00Z","end_local":"2024-06-01T15:30:00","updated":"2024-06-12T00:00:05Z"},{"title":"Girabola - Académica do Lobito vs São Salvador","description":"Sourced from predicthq.com","category":"sports","start":"2024-06-01T14:30:00Z","geo":{"geometry":{"coordinates":[13.553711771965027,-12.392652894516445],"type":"Point"},"placekey":"@g4r-zg7-y9z","address":{"country_code":"AO","formatted_address":"JH43+WCX, Lobito, Angola","locality":"Lobito","region":"Benguela Province"}},"labels":["soccer","sport"],"duration":0,"start_local":"2024-06-01T15:30:00","end":"2024-06-01T14:30:00Z","end_local":"2024-06-01T15:30:00","updated":"2024-06-11T22:04:34Z"},{"title":"Girabola - Desportivo Huíla vs Recreativo do Libolo","description":"Sourced from predicthq.com","category":"sports","start":"2024-06-01T14:30:00Z","geo":{"geometry":{"coordinates":[13.5382207312,-14.9490820113],"type":"Point"},"placekey":"@g53-tgf-tsq","address":{"country_code":"AO","formatted_address":"Bairro Do Tchioco (Rua 4 De Fevereiro)\nLubango\nAngola","locality":"Lubango","region":"Huila"}},"labels":["soccer","sport"],"duration":0,"start_local":"2024-06-01T15:30:00","end":"2024-06-01T14:30:00Z","end_local":"2024-06-01T15:30:00","updated":"2024-06-11T21:31:28Z"},{"title":"Girabola - Bravos do Maquis vs Petro de Luanda","description":"Sourced from predicthq.com","category":"sports","start":"2024-06-01T14:30:00Z","geo":{"geometry":{"coordinates":[19.9104473,-11.7797958],"type":"Point"},"placekey":"@hvr-s24-t5f","address":{"country_code":"AO","formatted_address":"6WC6+4XG, Luena, Angola","locality":"Luena","region":"Moxico Province"}},"labels":["soccer","sport"],"duration":0,"start_local":"2024-06-01T15:30:00","end":"2024-06-01T14:30:00Z","end_local":"2024-06-01T15:30:00","updated":"2024-06-12T09:17:36Z"},{"title":"Girabola - Kabuscorp vs Interclube","description":"Sourced from predicthq.com","category":"sports","start":"2024-06-01T14:30:00Z","geo":{"geometry":{"coordinates":[13.2261328,-8.8144634],"type":"Point"},"placekey":"@g4z-mch-6x5","address":{"country_code":"AO","formatted_address":"Rua dos Coqueiros, Luanda, Angola","locality":"Luanda","region":"Luanda"}},"labels":["soccer","sport"],"duration":0,"start_local":"2024-06-01T15:30:00","end":"2024-06-01T14:30:00Z","end_local":"2024-06-01T15:30:00","updated":"2024-06-12T07:27:34Z"},{"title":"Girabola - 1º de Agosto vs Sagrada Esperança","description":"Sourced from predicthq.com","category":"sports","start":"2024-06-01T14:30:00Z","geo":{"geometry":{"coordinates":[13.28349296537317,-8.969828880796653],"type":"Point"},"placekey":"@g4z-jrb-kxq","address":{"country_code":"AO","formatted_address":"Via Expresso, Bairro da Camama, Kilamba Kiaxi, Luanda, Angola","locality":"Luanda"}},"labels":["soccer","sport"],"duration":0,"start_local":"2024-06-01T15:30:00","end":"2024-06-01T14:30:00Z","end_local":"2024-06-01T15:30:00","updated":"2024-06-12T19:04:36Z"},{"title":"Girabola - Santa Rita vs União de Malanje","description":"Sourced from predicthq.com","category":"sports","start":"2024-06-01T14:30:00Z","geo":{"geometry":{"coordinates":[15.0596618,-7.6142181],"type":"Point"},"placekey":"@g6d-5jq-835","address":{"country_code":"AO","formatted_address":"93P5+8V7, Uige, Angola","locality":"Uige","region":"Uíge Province"}},"labels":["soccer","sport"],"duration":0,"start_local":"2024-06-01T15:30:00","end":"2024-06-01T14:30:00Z","end_local":"2024-06-01T15:30:00","updated":"2024-06-12T13:40:44Z"},{"title":"Girabola - São Salvador vs Santa Rita","description":"Sourced from predicthq.com","category":"sports","start":"2024-05-29T14:30:00Z","geo":{"geometry":{"coordinates":[14.24098824,-6.264634371],"type":"Point"},"placekey":"@g6d-ttb-3qz","address":{"country_code":"AO","formatted_address":"P6PR+49F, M'banza-Kongo, Angola","locality":"M'banza-Kongo","region":"Zaire Province"}},"labels":["soccer","sport"],"duration":0,"start_local":"2024-05-29T15:30:00","end":"2024-05-29T14:30:00Z","end_local":"2024-05-29T15:30:00","updated":"2024-06-12T00:38:09Z"},{"title":"Girabola - Sagrada Esperança vs Bravos do Maquis","description":"Sourced from predicthq.com","category":"sports","start":"2024-05-29T14:30:00Z","geo":{"geometry":{"coordinates":[20.83355963230133,-7.3881307191397445],"type":"Point"},"placekey":"@g6h-ddt-8n5","address":{"country_code":"AO","formatted_address":"JRGM+4MX, Dundo, Angola","locality":"Dundo","region":"Lunda Norte Province"}},"labels":["soccer","sport"],"duration":0,"start_local":"2024-05-29T15:30:00","end":"2024-05-29T14:30:00Z","end_local":"2024-05-29T15:30:00","updated":"2024-06-12T07:49:42Z"},{"title":"Girabola - Académica do Lobito vs Sporting de Cabinda","description":"Sourced from predicthq.com","category":"sports","start":"2024-05-29T14:30:00Z","geo":{"geometry":{"coordinates":[13.553711771965027,-12.392652894516445],"type":"Point"},"placekey":"@g4r-zg7-y9z","address":{"country_code":"AO","formatted_address":"JH43+WCX, Lobito, Angola","locality":"Lobito","region":"Benguela Province"}},"labels":["soccer","sport"],"duration":0,"start_local":"2024-05-29T15:30:00","end":"2024-05-29T14:30:00Z","end_local":"2024-05-29T15:30:00","updated":"2024-06-11T23:51:01Z"},{"title":"Girabola - União de Malanje vs 1º de Agosto","description":"Sourced from predicthq.com","category":"sports","start":"2024-05-29T14:30:00Z","geo":{"geometry":{"coordinates":[16.36011154408955,-9.549661126251456],"type":"Point"},"placekey":"@g6c-bg4-s5z","address":{"country_code":"AO","formatted_address":"F925+4XQ, Malanje, Angola","locality":"Malanje","region":"Malanje Province"}},"labels":["soccer","sport"],"duration":0,"start_local":"2024-05-29T15:30:00","end":"2024-05-29T14:30:00Z","end_local":"2024-05-29T15:30:00","updated":"2024-06-12T08:57:29Z"},{"title":"Girabola - Petro de Luanda vs Wiliete","description":"Sourced from predicthq.com","category":"sports","start":"2024-05-29T14:30:00Z","geo":{"geometry":{"coordinates":[13.28349296537317,-8.969828880796653],"type":"Point"},"placekey":"@g4z-jrb-kxq","address":{"country_code":"AO","formatted_address":"Via Expresso, Bairro da Camama, Kilamba Kiaxi, Luanda, Angola","locality":"Luanda"}},"labels":["soccer","sport"],"duration":0,"start_local":"2024-05-29T15:30:00","end":"2024-05-29T14:30:00Z","end_local":"2024-05-29T15:30:00","updated":"2024-06-12T05:34:23Z"},{"title":"Girabola - Recreativo do Libolo vs Kabuscorp","description":"Sourced from predicthq.com","category":"sports","start":"2024-05-29T14:30:00Z","geo":{"geometry":{"coordinates":[14.905102550983429,-10.006651327780284],"type":"Point"},"placekey":"@g4v-nt2-vfz","address":{"country_code":"AO","formatted_address":"XWV4+922, Calulo, Angola","locality":"Calulo","region":"Cuanza Sul Province"}},"labels":["soccer","sport"],"duration":0,"start_local":"2024-05-29T15:30:00","end":"2024-05-29T14:30:00Z","end_local":"2024-05-29T15:30:00","updated":"2024-06-12T11:58:31Z"},{"title":"Girabola - Desportivo Lunda-Sul vs Desportivo Huíla","description":"Sourced from predicthq.com","category":"sports","start":"2024-05-29T14:00:00Z","geo":{"geometry":{"coordinates":[20.3928995,-9.66501919],"type":"Point"},"placekey":"@hvy-gdh-z2k","address":{"country_code":"AO","formatted_address":"Rua das Mangueira, Agostinho Neto,, 89WR+XJG, Saurimo, Angola","locality":"Saurimo","region":"Lunda-Sul"}},"labels":["soccer","sport"],"duration":0,"start_local":"2024-05-29T15:00:00","end":"2024-05-29T14:00:00Z","end_local":"2024-05-29T15:00:00","updated":"2024-06-12T00:21:08Z"},{"title":"[PALESTRA AO] - PROGRAMANDO A SUA MENTE PARA RIQUEZA","description":"Sourced from predicthq.com - Desenvolvendo Mentalidade Financeira: Estratégias para Alcançar Prosperidade","category":"conferences","start":"2024-05-28T17:00:00Z","geo":{"geometry":{"coordinates":[13.2024688,-8.9114527],"type":"Point"},"placekey":"@g4z-md9-wp9","address":{"country_code":"AO","formatted_address":"Avenida Talatona, Luanda, Angola","locality":"Luanda","region":"Luanda"}},"labels":["business","conference"],"duration":9000,"start_local":"2024-05-28T18:00:00","end":"2024-05-28T19:30:00Z","end_local":"2024-05-28T20:30:00","updated":"2024-05-23T01:45:00Z"},{"title":"Girabola - Wiliete vs Sagrada Esperança","description":"Sourced from predicthq.com","category":"sports","start":"2024-05-26T15:00:00Z","geo":{"geometry":{"coordinates":[13.461077,-12.542761],"type":"Point"},"placekey":"@g4r-d26-389","address":{"country_code":"AO","formatted_address":"Benguela\nAngola","locality":"Benguela","region":"Benguela"}},"labels":["soccer","sport"],"duration":0,"start_local":"2024-05-26T16:00:00","end":"2024-05-26T15:00:00Z","end_local":"2024-05-26T16:00:00","updated":"2024-06-12T02:34:20Z"},{"title":"Girabola - Santa Rita vs Académica do Lobito","description":"Sourced from predicthq.com","category":"sports","start":"2024-05-26T14:30:00Z","geo":{"geometry":{"coordinates":[15.0596618,-7.6142181],"type":"Point"},"placekey":"@g6d-5jq-835","address":{"country_code":"AO","formatted_address":"93P5+8V7, Uige, Angola","locality":"Uige","region":"Uíge Province"}},"labels":["soccer","sport"],"duration":0,"start_local":"2024-05-26T15:30:00","end":"2024-05-26T14:30:00Z","end_local":"2024-05-26T15:30:00","updated":"2024-06-12T00:42:20Z"},{"title":"Girabola - Desportivo Huíla vs Petro de Luanda","description":"Sourced from predicthq.com","category":"sports","start":"2024-05-26T14:30:00Z","geo":{"geometry":{"coordinates":[13.5382207312,-14.9490820113],"type":"Point"},"placekey":"@g53-tgf-tsq","address":{"country_code":"AO","formatted_address":"Bairro Do Tchioco (Rua 4 De Fevereiro)\nLubango\nAngola","locality":"Lubango","region":"Huila"}},"labels":["soccer","sport"],"duration":0,"start_local":"2024-05-26T15:30:00","end":"2024-05-26T14:30:00Z","end_local":"2024-05-26T15:30:00","updated":"2024-06-12T01:34:38Z"},{"title":"Girabola - 1º de Agosto vs São Salvador","description":"Sourced from predicthq.com","category":"sports","start":"2024-05-26T14:30:00Z","geo":{"geometry":{"coordinates":[13.241685157652707,-8.841265800628205],"type":"Point"},"placekey":"@g4z-m9x-qs5","address":{"country_code":"AO","formatted_address":"565R+FMG, Luanda, Angola","locality":"Luanda","region":"Luanda Province"}},"labels":["soccer","sport"],"duration":0,"start_local":"2024-05-26T15:30:00","end":"2024-05-26T14:30:00Z","end_local":"2024-05-26T15:30:00","updated":"2024-06-12T14:32:10Z"},{"title":"Girabola - Kabuscorp vs Desportivo Lunda-Sul","description":"Sourced from predicthq.com","category":"sports","start":"2024-05-25T14:30:00Z","geo":{"geometry":{"coordinates":[13.2261328,-8.8144634],"type":"Point"},"placekey":"@g4z-mch-6x5","address":{"country_code":"AO","formatted_address":"Rua dos Coqueiros, Luanda, Angola","locality":"Luanda","region":"Luanda"}},"labels":["soccer","sport"],"duration":0,"start_local":"2024-05-25T15:30:00","end":"2024-05-25T14:30:00Z","end_local":"2024-05-25T15:30:00","updated":"2024-06-11T21:41:08Z"},{"title":"Girabola - Sporting de Cabinda vs Interclube","description":"Sourced from predicthq.com","category":"sports","start":"2024-05-25T14:00:00Z","geo":{"geometry":{"coordinates":[12.1857873,-5.5550617],"type":"Point"},"placekey":"@g2n-cjc-nt9","address":{"country_code":"AO","formatted_address":"Cabinda, Angola","locality":"Cabinda","region":"Cabinda Province"}},"labels":["soccer","sport"],"duration":0,"start_local":"2024-05-25T15:00:00","end":"2024-05-25T14:00:00Z","end_local":"2024-05-25T15:00:00","updated":"2024-06-12T01:44:45Z"},{"title":"Girabola - Bravos do Maquis vs União de Malanje","description":"Sourced from predicthq.com","category":"sports","start":"2024-05-25T14:00:00Z","geo":{"geometry":{"coordinates":[19.9104473,-11.7797958],"type":"Point"},"placekey":"@hvr-s24-t5f","address":{"country_code":"AO","formatted_address":"6WC6+4XG, Luena, Angola","locality":"Luena","region":"Moxico Province"}},"labels":["soccer","sport"],"duration":0,"start_local":"2024-05-25T15:00:00","end":"2024-05-25T14:00:00Z","end_local":"2024-05-25T15:00:00","updated":"2024-06-12T05:51:15Z"},{"title":"Caminhada Dikota Bravuz #11","description":"Sourced from predicthq.com - Traga o seu dikota e vamos juntos caminhar pela nossa saúde!","category":"community","start":"2024-05-25T05:30:00Z","geo":{"geometry":{"coordinates":[13.2768547,-9.0059501],"type":"Point"},"placekey":"@g4z-jst-c5z","address":{"country_code":"AO","formatted_address":"Belas, Luanda, Angola","locality":"Belas","region":"Luanda"}},"labels":["community","outdoor","sport"],"duration":9000,"start_local":"2024-05-25T06:30:00","end":"2024-05-25T08:00:00Z","end_local":"2024-05-25T09:00:00","updated":"2024-06-05T16:50:47Z"},{"title":"Girabola - Santa Rita vs Petro de Luanda","description":"Sourced from predicthq.com","category":"sports","start":"2024-05-22T14:30:00Z","geo":{"geometry":{"coordinates":[15.0596618,-7.6142181],"type":"Point"},"placekey":"@g6d-5jq-835","address":{"country_code":"AO","formatted_address":"93P5+8V7, Uige, Angola","locality":"Uige","region":"Uíge Province"}},"labels":["soccer","sport"],"duration":0,"start_local":"2024-05-22T15:30:00","end":"2024-05-22T14:30:00Z","end_local":"2024-05-22T15:30:00","updated":"2024-06-12T02:01:59Z"},{"title":"Girabola - Académica do Lobito vs Interclube","description":"Sourced from predicthq.com","category":"sports","start":"2024-05-19T14:30:00Z","geo":{"geometry":{"coordinates":[13.553711771965027,-12.392652894516445],"type":"Point"},"placekey":"@g4r-zg7-y9z","address":{"country_code":"AO","formatted_address":"JH43+WCX, Lobito, Angola","locality":"Lobito","region":"Benguela Province"}},"labels":["soccer","sport"],"duration":0,"start_local":"2024-05-19T15:30:00","end":"2024-05-19T14:30:00Z","end_local":"2024-05-19T15:30:00","updated":"2024-06-12T17:40:18Z"},{"title":"Girabola - Santa Rita vs 1º de Agosto","description":"Sourced from predicthq.com","category":"sports","start":"2024-05-19T14:30:00Z","geo":{"geometry":{"coordinates":[15.0596618,-7.6142181],"type":"Point"},"placekey":"@g6d-5jq-835","address":{"country_code":"AO","formatted_address":"93P5+8V7, Uige, Angola","locality":"Uige","region":"Uíge Province"}},"labels":["soccer","sport"],"duration":0,"start_local":"2024-05-19T15:30:00","end":"2024-05-19T14:30:00Z","end_local":"2024-05-19T15:30:00","updated":"2024-06-12T04:43:45Z"},{"title":"Girabola - São Salvador vs Bravos do Maquis","description":"Sourced from predicthq.com","category":"sports","start":"2024-05-19T14:00:00Z","geo":{"geometry":{"coordinates":[14.24098824,-6.264634371],"type":"Point"},"placekey":"@g6d-ttb-3qz","address":{"country_code":"AO","formatted_address":"P6PR+49F, M'banza-Kongo, Angola","locality":"M'banza-Kongo","region":"Zaire Province"}},"labels":["soccer","sport"],"duration":0,"start_local":"2024-05-19T15:00:00","end":"2024-05-19T14:00:00Z","end_local":"2024-05-19T15:00:00","updated":"2024-06-12T06:45:50Z"},{"title":"Girabola - Sagrada Esperança vs Desportivo Huíla","description":"Sourced from predicthq.com","category":"sports","start":"2024-05-19T14:00:00Z","geo":{"geometry":{"coordinates":[20.83355963230133,-7.3881307191397445],"type":"Point"},"placekey":"@g6h-ddt-8n5","address":{"country_code":"AO","formatted_address":"JRGM+4MX, Dundo, Angola","locality":"Dundo","region":"Lunda Norte Province"}},"labels":["soccer","sport"],"duration":0,"start_local":"2024-05-19T15:00:00","end":"2024-05-19T14:00:00Z","end_local":"2024-05-19T15:00:00","updated":"2024-06-12T02:02:22Z"},{"title":"Girabola - Petro de Luanda vs Kabuscorp","description":"Sourced from predicthq.com","category":"sports","start":"2024-05-18T15:00:00Z","geo":{"geometry":{"coordinates":[13.28349296537317,-8.969828880796653],"type":"Point"},"placekey":"@g4z-jrb-kxq","address":{"country_code":"AO","formatted_address":"Via Expresso, Bairro da Camama, Kilamba Kiaxi, Luanda, Angola","locality":"Luanda"}},"labels":["soccer","sport"],"duration":0,"start_local":"2024-05-18T16:00:00","end":"2024-05-18T15:00:00Z","end_local":"2024-05-18T16:00:00","updated":"2024-06-12T03:20:15Z"},{"title":"Girabola - Recreativo do Libolo vs Sporting de Cabinda","description":"Sourced from predicthq.com","category":"sports","start":"2024-05-18T14:00:00Z","geo":{"geometry":{"coordinates":[14.905102550983429,-10.006651327780284],"type":"Point"},"placekey":"@g4v-nt2-vfz","address":{"country_code":"AO","formatted_address":"XWV4+922, Calulo, Angola","locality":"Calulo","region":"Cuanza Sul Province"}},"labels":["soccer","sport"],"duration":0,"start_local":"2024-05-18T15:00:00","end":"2024-05-18T14:00:00Z","end_local":"2024-05-18T15:00:00","updated":"2024-06-11T22:40:42Z"},{"title":"Girabola - União de Malanje vs Wiliete","description":"Sourced from predicthq.com","category":"sports","start":"2024-05-18T14:00:00Z","geo":{"geometry":{"coordinates":[16.36011154408955,-9.549661126251456],"type":"Point"},"placekey":"@g6c-bg4-s5z","address":{"country_code":"AO","formatted_address":"F925+4XQ, Malanje, Angola","locality":"Malanje","region":"Malanje Province"}},"labels":["soccer","sport"],"duration":0,"start_local":"2024-05-18T15:00:00","end":"2024-05-18T14:00:00Z","end_local":"2024-05-18T15:00:00","updated":"2024-06-12T07:11:50Z"},{"title":"Girabola - Petro de Luanda vs 1º de Agosto","description":"Sourced from predicthq.com","category":"sports","start":"2024-05-15T16:00:00Z","geo":{"geometry":{"coordinates":[13.28349296537317,-8.969828880796653],"type":"Point"},"placekey":"@g4z-jrb-kxq","address":{"country_code":"AO","formatted_address":"Via Expresso, Bairro da Camama, Kilamba Kiaxi, Luanda, Angola","locality":"Luanda"}},"labels":["soccer","sport"],"duration":0,"start_local":"2024-05-15T17:00:00","end":"2024-05-15T16:00:00Z","end_local":"2024-05-15T17:00:00","updated":"2024-06-12T09:32:11Z"},{"title":"Girabola - Bravos do Maquis vs Académica do Lobito","description":"Sourced from predicthq.com","category":"sports","start":"2024-05-15T14:00:00Z","geo":{"geometry":{"coordinates":[19.9104473,-11.7797958],"type":"Point"},"placekey":"@hvr-s24-t5f","address":{"country_code":"AO","formatted_address":"6WC6+4XG, Luena, Angola","locality":"Luena","region":"Moxico Province"}},"labels":["soccer","sport"],"duration":0,"start_local":"2024-05-15T15:00:00","end":"2024-05-15T14:00:00Z","end_local":"2024-05-15T15:00:00","updated":"2024-06-12T00:59:27Z"},{"title":"Girabola - Wiliete vs São Salvador","description":"Sourced from predicthq.com","category":"sports","start":"2024-05-12T15:00:00Z","geo":{"geometry":{"coordinates":[13.461077,-12.542761],"type":"Point"},"placekey":"@g4r-d26-389","address":{"country_code":"AO","formatted_address":"Benguela\nAngola","locality":"Benguela","region":"Benguela"}},"labels":["soccer","sport"],"duration":0,"start_local":"2024-05-12T16:00:00","end":"2024-05-12T15:00:00Z","end_local":"2024-05-12T16:00:00","updated":"2024-06-12T05:33:05Z"},{"title":"Girabola - Desportivo Huíla vs União de Malanje","description":"Sourced from predicthq.com","category":"sports","start":"2024-05-12T14:30:00Z","geo":{"geometry":{"coordinates":[13.5382207312,-14.9490820113],"type":"Point"},"placekey":"@g53-tgf-tsq","address":{"country_code":"AO","formatted_address":"Bairro Do Tchioco (Rua 4 De Fevereiro)\nLubango\nAngola","locality":"Lubango","region":"Huila"}},"labels":["soccer","sport"],"duration":0,"start_local":"2024-05-12T15:30:00","end":"2024-05-12T14:30:00Z","end_local":"2024-05-12T15:30:00","updated":"2024-06-12T15:55:21Z"},{"title":"Girabola - Bravos do Maquis vs Santa Rita","description":"Sourced from predicthq.com","category":"sports","start":"2024-05-12T14:00:00Z","geo":{"geometry":{"coordinates":[19.9104473,-11.7797958],"type":"Point"},"placekey":"@hvr-s24-t5f","address":{"country_code":"AO","formatted_address":"6WC6+4XG, Luena, Angola","locality":"Luena","region":"Moxico Province"}},"labels":["soccer","sport"],"duration":0,"start_local":"2024-05-12T15:00:00","end":"2024-05-12T14:00:00Z","end_local":"2024-05-12T15:00:00","updated":"2024-06-12T02:13:20Z"},{"title":"Girabola - Kabuscorp vs Sagrada Esperança","description":"Sourced from predicthq.com","category":"sports","start":"2024-05-11T15:00:00Z","geo":{"geometry":{"coordinates":[13.2261328,-8.8144634],"type":"Point"},"placekey":"@g4z-mch-6x5","address":{"country_code":"AO","formatted_address":"Rua dos Coqueiros, Luanda, Angola","locality":"Luanda","region":"Luanda"}},"labels":["soccer","sport"],"duration":0,"start_local":"2024-05-11T16:00:00","end":"2024-05-11T15:00:00Z","end_local":"2024-05-11T16:00:00","updated":"2024-06-12T07:36:21Z"},{"title":"Girabola - 1º de Agosto vs Académica do Lobito","description":"Sourced from predicthq.com","category":"sports","start":"2024-05-11T14:30:00Z","geo":{"geometry":{"coordinates":[13.553711771965027,-12.392652894516445],"type":"Point"},"placekey":"@g4r-zg7-y9z","address":{"country_code":"AO","formatted_address":"JH43+WCX, Lobito, Angola","locality":"Lobito","region":"Benguela Province"}},"labels":["soccer","sport"],"duration":0,"start_local":"2024-05-11T15:30:00","end":"2024-05-11T14:30:00Z","end_local":"2024-05-11T15:30:00","updated":"2024-06-12T02:13:28Z"},{"title":"Girabola - Interclube vs Recreativo do Libolo","description":"Sourced from predicthq.com","category":"sports","start":"2024-05-11T14:30:00Z","geo":{"geometry":{"coordinates":[13.208919167518616,-8.869091677308205],"type":"Point"},"placekey":"@g4z-md5-y9z","address":{"country_code":"AO","formatted_address":"Estádio 22 de Junho, Luanda, Angola","locality":"Luanda","region":"Luanda"}},"labels":["soccer","sport"],"duration":0,"start_local":"2024-05-11T15:30:00","end":"2024-05-11T14:30:00Z","end_local":"2024-05-11T15:30:00","updated":"2024-06-12T04:38:51Z"},{"title":"Girabola - Sporting de Cabinda vs Desportivo Lunda-Sul","description":"Sourced from predicthq.com","category":"sports","start":"2024-05-11T14:00:00Z","geo":{"geometry":{"coordinates":[12.1857873,-5.5550617],"type":"Point"},"placekey":"@g2n-cjc-nt9","address":{"country_code":"AO","formatted_address":"Cabinda, Angola","locality":"Cabinda","region":"Cabinda Province"}},"labels":["soccer","sport"],"duration":0,"start_local":"2024-05-11T15:00:00","end":"2024-05-11T14:00:00Z","end_local":"2024-05-11T15:00:00","updated":"2024-06-12T18:14:27Z"},{"title":"Girabola - Petro de Luanda vs Sporting de Cabinda","description":"Sourced from predicthq.com","category":"sports","start":"2024-05-08T15:00:00Z","geo":{"geometry":{"coordinates":[13.28349296537317,-8.969828880796653],"type":"Point"},"placekey":"@g4z-jrb-kxq","address":{"country_code":"AO","formatted_address":"Via Expresso, Bairro da Camama, Kilamba Kiaxi, Luanda, Angola","locality":"Luanda"}},"labels":["soccer","sport"],"duration":0,"start_local":"2024-05-08T16:00:00","end":"2024-05-08T15:00:00Z","end_local":"2024-05-08T16:00:00","updated":"2024-06-11T23:03:06Z"},{"title":"Girabola - 1º de Agosto vs Bravos do Maquis","description":"Sourced from predicthq.com","category":"sports","start":"2024-05-08T15:00:00Z","geo":{"geometry":{"coordinates":[13.241685157652707,-8.841265800628205],"type":"Point"},"placekey":"@g4z-m9x-qs5","address":{"country_code":"AO","formatted_address":"565R+FMG, Luanda, Angola","locality":"Luanda","region":"Luanda Province"}},"labels":["soccer","sport"],"duration":0,"start_local":"2024-05-08T16:00:00","end":"2024-05-08T15:00:00Z","end_local":"2024-05-08T16:00:00","updated":"2024-06-12T07:34:33Z"},{"title":"Girabola - Académica do Lobito vs Recreativo do Libolo","description":"Sourced from predicthq.com","category":"sports","start":"2024-05-08T14:30:00Z","geo":{"geometry":{"coordinates":[13.553711771965027,-12.392652894516445],"type":"Point"},"placekey":"@g4r-zg7-y9z","address":{"country_code":"AO","formatted_address":"JH43+WCX, Lobito, Angola","locality":"Lobito","region":"Benguela Province"}},"labels":["soccer","sport"],"duration":0,"start_local":"2024-05-08T15:30:00","end":"2024-05-08T14:30:00Z","end_local":"2024-05-08T15:30:00","updated":"2024-06-12T02:53:46Z"},{"title":"Girabola - São Salvador vs Desportivo Huíla","description":"Sourced from predicthq.com","category":"sports","start":"2024-05-08T14:00:00Z","geo":{"geometry":{"coordinates":[14.24098824,-6.264634371],"type":"Point"},"placekey":"@g6d-ttb-3qz","address":{"country_code":"AO","formatted_address":"P6PR+49F, M'banza-Kongo, Angola","locality":"M'banza-Kongo","region":"Zaire Province"}},"labels":["soccer","sport"],"duration":0,"start_local":"2024-05-08T15:00:00","end":"2024-05-08T14:00:00Z","end_local":"2024-05-08T15:00:00","updated":"2024-06-12T19:09:34Z"},{"title":"Girabola - União de Malanje vs Kabuscorp","description":"Sourced from predicthq.com","category":"sports","start":"2024-05-08T14:00:00Z","geo":{"geometry":{"coordinates":[16.36011154408955,-9.549661126251456],"type":"Point"},"placekey":"@g6c-bg4-s5z","address":{"country_code":"AO","formatted_address":"F925+4XQ, Malanje, Angola","locality":"Malanje","region":"Malanje Province"}},"labels":["soccer","sport"],"duration":0,"start_local":"2024-05-08T15:00:00","end":"2024-05-08T14:00:00Z","end_local":"2024-05-08T15:00:00","updated":"2024-06-12T03:19:39Z"},{"title":"Girabola - Santa Rita vs Wiliete","description":"Sourced from predicthq.com","category":"sports","start":"2024-05-08T14:00:00Z","geo":{"geometry":{"coordinates":[15.0596618,-7.6142181],"type":"Point"},"placekey":"@g6d-5jq-835","address":{"country_code":"AO","formatted_address":"93P5+8V7, Uige, Angola","locality":"Uige","region":"Uíge Province"}},"labels":["soccer","sport"],"duration":0,"start_local":"2024-05-08T15:00:00","end":"2024-05-08T14:00:00Z","end_local":"2024-05-08T15:00:00","updated":"2024-06-12T06:09:37Z"},{"title":"Girabola - Desportivo Lunda-Sul vs Interclube","description":"Sourced from predicthq.com","category":"sports","start":"2024-05-08T14:00:00Z","geo":{"geometry":{"coordinates":[20.3928995,-9.66501919],"type":"Point"},"placekey":"@hvy-gdh-z2k","address":{"country_code":"AO","formatted_address":"Rua das Mangueira, Agostinho Neto,, 89WR+XJG, Saurimo, Angola","locality":"Saurimo","region":"Lunda-Sul"}},"labels":["soccer","sport"],"duration":0,"start_local":"2024-05-08T15:00:00","end":"2024-05-08T14:00:00Z","end_local":"2024-05-08T15:00:00","updated":"2024-06-12T14:17:42Z"},{"title":"Girabola - Wiliete vs 1º de Agosto","description":"Sourced from predicthq.com","category":"sports","start":"2024-05-05T15:00:00Z","geo":{"geometry":{"coordinates":[13.461077,-12.542761],"type":"Point"},"placekey":"@g4r-d26-389","address":{"country_code":"AO","formatted_address":"Benguela\nAngola","locality":"Benguela","region":"Benguela"}},"labels":["soccer","sport"],"duration":0,"start_local":"2024-05-05T16:00:00","end":"2024-05-05T15:00:00Z","end_local":"2024-05-05T16:00:00","updated":"2024-06-12T19:10:33Z"},{"title":"Girabola - Desportivo Huíla vs Santa Rita","description":"Sourced from predicthq.com","category":"sports","start":"2024-05-05T14:30:00Z","geo":{"geometry":{"coordinates":[13.5382207312,-14.9490820113],"type":"Point"},"placekey":"@g53-tgf-tsq","address":{"country_code":"AO","formatted_address":"Bairro Do Tchioco (Rua 4 De Fevereiro)\nLubango\nAngola","locality":"Lubango","region":"Huila"}},"labels":["soccer","sport"],"duration":0,"start_local":"2024-05-05T15:30:00","end":"2024-05-05T14:30:00Z","end_local":"2024-05-05T15:30:00","updated":"2024-06-12T09:52:41Z"},{"title":"Girabola - Kabuscorp vs São Salvador","description":"Sourced from predicthq.com","category":"sports","start":"2024-05-04T15:00:00Z","geo":{"geometry":{"coordinates":[13.2261328,-8.8144634],"type":"Point"},"placekey":"@g4z-mch-6x5","address":{"country_code":"AO","formatted_address":"Rua dos Coqueiros, Luanda, Angola","locality":"Luanda","region":"Luanda"}},"labels":["soccer","sport"],"duration":0,"start_local":"2024-05-04T16:00:00","end":"2024-05-04T15:00:00Z","end_local":"2024-05-04T16:00:00","updated":"2024-06-11T22:43:50Z"},{"title":"Girabola - Interclube vs Petro de Luanda","description":"Sourced from predicthq.com","category":"sports","start":"2024-05-04T14:30:00Z","geo":{"geometry":{"coordinates":[13.208919167518616,-8.869091677308205],"type":"Point"},"placekey":"@g4z-md5-y9z","address":{"country_code":"AO","formatted_address":"Estádio 22 de Junho, Luanda, Angola","locality":"Luanda","region":"Luanda"}},"labels":["soccer","sport"],"duration":0,"start_local":"2024-05-04T15:30:00","end":"2024-05-04T14:30:00Z","end_local":"2024-05-04T15:30:00","updated":"2024-06-12T03:19:23Z"},{"title":"Girabola - Sporting de Cabinda vs Sagrada Esperança","description":"Sourced from predicthq.com","category":"sports","start":"2024-05-04T14:00:00Z","geo":{"geometry":{"coordinates":[12.1857873,-5.5550617],"type":"Point"},"placekey":"@g2n-cjc-nt9","address":{"country_code":"AO","formatted_address":"Cabinda, Angola","locality":"Cabinda","region":"Cabinda Province"}},"labels":["soccer","sport"],"duration":0,"start_local":"2024-05-04T15:00:00","end":"2024-05-04T14:00:00Z","end_local":"2024-05-04T15:00:00","updated":"2024-06-12T14:12:39Z"},{"title":"Girabola - Recreativo do Libolo vs Desportivo Lunda-Sul","description":"Sourced from predicthq.com","category":"sports","start":"2024-05-04T14:00:00Z","geo":{"geometry":{"coordinates":[14.905102550983429,-10.006651327780284],"type":"Point"},"placekey":"@g4v-nt2-vfz","address":{"country_code":"AO","formatted_address":"XWV4+922, Calulo, Angola","locality":"Calulo","region":"Cuanza Sul Province"}},"labels":["soccer","sport"],"duration":0,"start_local":"2024-05-04T15:00:00","end":"2024-05-04T14:00:00Z","end_local":"2024-05-04T15:00:00","updated":"2024-06-12T02:19:43Z"},{"title":"Girabola - 1º de Agosto vs Desportivo Huíla","description":"Sourced from predicthq.com","category":"sports","start":"2024-05-01T15:00:00Z","geo":{"geometry":{"coordinates":[13.241685157652707,-8.841265800628205],"type":"Point"},"placekey":"@g4z-m9x-qs5","address":{"country_code":"AO","formatted_address":"565R+FMG, Luanda, Angola","locality":"Luanda","region":"Luanda Province"}},"labels":["soccer","sport"],"duration":0,"start_local":"2024-05-01T16:00:00","end":"2024-05-01T15:00:00Z","end_local":"2024-05-01T16:00:00","updated":"2024-06-12T07:30:48Z"},{"title":"Girabola - Petro de Luanda vs Recreativo do Libolo","description":"Sourced from predicthq.com","category":"sports","start":"2024-05-01T15:00:00Z","geo":{"geometry":{"coordinates":[13.28349296537317,-8.969828880796653],"type":"Point"},"placekey":"@g4z-jrb-kxq","address":{"country_code":"AO","formatted_address":"Via Expresso, Bairro da Camama, Kilamba Kiaxi, Luanda, Angola","locality":"Luanda"}},"labels":["soccer","sport"],"duration":0,"start_local":"2024-05-01T16:00:00","end":"2024-05-01T15:00:00Z","end_local":"2024-05-01T16:00:00","updated":"2024-06-12T16:54:14Z"},{"title":"Girabola - Académica do Lobito vs Desportivo Lunda-Sul","description":"Sourced from predicthq.com","category":"sports","start":"2024-05-01T14:30:00Z","geo":{"geometry":{"coordinates":[13.553711771965027,-12.392652894516445],"type":"Point"},"placekey":"@g4r-zg7-y9z","address":{"country_code":"AO","formatted_address":"JH43+WCX, Lobito, Angola","locality":"Lobito","region":"Benguela Province"}},"labels":["soccer","sport"],"duration":0,"start_local":"2024-05-01T15:30:00","end":"2024-05-01T14:30:00Z","end_local":"2024-05-01T15:30:00","updated":"2024-06-12T05:06:37Z"},{"title":"Girabola - Santa Rita vs Kabuscorp","description":"Sourced from predicthq.com","category":"sports","start":"2024-05-01T14:00:00Z","geo":{"geometry":{"coordinates":[15.0596618,-7.6142181],"type":"Point"},"placekey":"@g6d-5jq-835","address":{"country_code":"AO","formatted_address":"93P5+8V7, Uige, Angola","locality":"Uige","region":"Uíge Province"}},"labels":["soccer","sport"],"duration":0,"start_local":"2024-05-01T15:00:00","end":"2024-05-01T14:00:00Z","end_local":"2024-05-01T15:00:00","updated":"2024-06-12T04:02:20Z"},{"title":"Girabola - União de Malanje vs Sporting de Cabinda","description":"Sourced from predicthq.com","category":"sports","start":"2024-05-01T14:00:00Z","geo":{"geometry":{"coordinates":[16.36011154408955,-9.549661126251456],"type":"Point"},"placekey":"@g6c-bg4-s5z","address":{"country_code":"AO","formatted_address":"F925+4XQ, Malanje, Angola","locality":"Malanje","region":"Malanje Province"}},"labels":["soccer","sport"],"duration":0,"start_local":"2024-05-01T15:00:00","end":"2024-05-01T14:00:00Z","end_local":"2024-05-01T15:00:00","updated":"2024-06-12T01:39:24Z"},{"title":"Girabola - Sagrada Esperança vs Interclube","description":"Sourced from predicthq.com","category":"sports","start":"2024-05-01T14:00:00Z","geo":{"geometry":{"coordinates":[20.83355963230133,-7.3881307191397445],"type":"Point"},"placekey":"@g6h-ddt-8n5","address":{"country_code":"AO","formatted_address":"JRGM+4MX, Dundo, Angola","locality":"Dundo","region":"Lunda Norte Province"}},"labels":["soccer","sport"],"duration":0,"start_local":"2024-05-01T15:00:00","end":"2024-05-01T14:00:00Z","end_local":"2024-05-01T15:00:00","updated":"2024-06-12T11:38:53Z"},{"title":"Girabola - Bravos do Maquis vs Wiliete","description":"Sourced from predicthq.com","category":"sports","start":"2024-05-01T14:00:00Z","geo":{"geometry":{"coordinates":[19.9104473,-11.7797958],"type":"Point"},"placekey":"@hvr-s24-t5f","address":{"country_code":"AO","formatted_address":"6WC6+4XG, Luena, Angola","locality":"Luena","region":"Moxico Province"}},"labels":["soccer","sport"],"duration":0,"start_local":"2024-05-01T15:00:00","end":"2024-05-01T14:00:00Z","end_local":"2024-05-01T15:00:00","updated":"2024-06-12T07:07:50Z"},{"title":"Girabola - Wiliete vs Académica do Lobito","description":"Sourced from predicthq.com","category":"sports","start":"2024-04-28T15:00:00Z","geo":{"geometry":{"coordinates":[13.461077,-12.542761],"type":"Point"},"placekey":"@g4r-d26-389","address":{"country_code":"AO","formatted_address":"Benguela\nAngola","locality":"Benguela","region":"Benguela"}},"labels":["soccer","sport"],"duration":0,"start_local":"2024-04-28T16:00:00","end":"2024-04-28T15:00:00Z","end_local":"2024-04-28T16:00:00","updated":"2024-06-12T08:15:04Z"},{"title":"Girabola - São Salvador vs Sporting de Cabinda","description":"Sourced from predicthq.com","category":"sports","start":"2024-04-28T14:00:00Z","geo":{"geometry":{"coordinates":[14.24098824,-6.264634371],"type":"Point"},"placekey":"@g6d-ttb-3qz","address":{"country_code":"AO","formatted_address":"P6PR+49F, M'banza-Kongo, Angola","locality":"M'banza-Kongo","region":"Zaire Province"}},"labels":["soccer","sport"],"duration":0,"start_local":"2024-04-28T15:00:00","end":"2024-04-28T14:00:00Z","end_local":"2024-04-28T15:00:00","updated":"2024-06-12T18:42:33Z"},{"title":"Girabola - Desportivo Huíla vs Bravos do Maquis","description":"Sourced from predicthq.com","category":"sports","start":"2024-04-27T15:00:00Z","geo":{"geometry":{"coordinates":[13.5382207312,-14.9490820113],"type":"Point"},"placekey":"@g53-tgf-tsq","address":{"country_code":"AO","formatted_address":"Bairro Do Tchioco (Rua 4 De Fevereiro)\nLubango\nAngola","locality":"Lubango","region":"Huila"}},"labels":["soccer","sport"],"duration":0,"start_local":"2024-04-27T16:00:00","end":"2024-04-27T15:00:00Z","end_local":"2024-04-27T16:00:00","updated":"2024-06-11T21:25:26Z"},{"title":"Girabola - Interclube vs União de Malanje","description":"Sourced from predicthq.com","category":"sports","start":"2024-04-27T14:30:00Z","geo":{"geometry":{"coordinates":[13.208919167518616,-8.869091677308205],"type":"Point"},"placekey":"@g4z-md5-y9z","address":{"country_code":"AO","formatted_address":"Estádio 22 de Junho, Luanda, Angola","locality":"Luanda","region":"Luanda"}},"labels":["soccer","sport"],"duration":0,"start_local":"2024-04-27T15:30:00","end":"2024-04-27T14:30:00Z","end_local":"2024-04-27T15:30:00","updated":"2024-06-12T10:11:32Z"},{"title":"Girabola - Recreativo do Libolo vs Sagrada Esperança","description":"Sourced from predicthq.com","category":"sports","start":"2024-04-27T14:00:00Z","geo":{"geometry":{"coordinates":[14.905102550983429,-10.006651327780284],"type":"Point"},"placekey":"@g4v-nt2-vfz","address":{"country_code":"AO","formatted_address":"XWV4+922, Calulo, Angola","locality":"Calulo","region":"Cuanza Sul Province"}},"labels":["soccer","sport"],"duration":0,"start_local":"2024-04-27T15:00:00","end":"2024-04-27T14:00:00Z","end_local":"2024-04-27T15:00:00","updated":"2024-06-12T09:18:39Z"},{"title":"Girabola - Desportivo Lunda-Sul vs Petro de Luanda","description":"Sourced from predicthq.com","category":"sports","start":"2024-04-27T14:00:00Z","geo":{"geometry":{"coordinates":[20.3928995,-9.66501919],"type":"Point"},"placekey":"@hvy-gdh-z2k","address":{"country_code":"AO","formatted_address":"Rua das Mangueira, Agostinho Neto,, 89WR+XJG, Saurimo, Angola","locality":"Saurimo","region":"Lunda-Sul"}},"labels":["soccer","sport"],"duration":0,"start_local":"2024-04-27T15:00:00","end":"2024-04-27T14:00:00Z","end_local":"2024-04-27T15:00:00","updated":"2024-06-11T22:14:38Z"},{"title":"Girabola - Kabuscorp vs 1º de Agosto","description":"Sourced from predicthq.com","category":"sports","start":"2024-04-26T15:00:00Z","geo":{"geometry":{"coordinates":[13.2261328,-8.8144634],"type":"Point"},"placekey":"@g4z-mch-6x5","address":{"country_code":"AO","formatted_address":"Rua dos Coqueiros, Luanda, Angola","locality":"Luanda","region":"Luanda"}},"labels":["soccer","sport"],"duration":0,"start_local":"2024-04-26T16:00:00","end":"2024-04-26T15:00:00Z","end_local":"2024-04-26T16:00:00","updated":"2024-06-12T06:36:30Z"},{"title":"Girabola - Petro de Luanda vs São Salvador","description":"Sourced from predicthq.com","category":"sports","start":"2024-04-24T15:00:00Z","geo":{"geometry":{"coordinates":[13.28349296537317,-8.969828880796653],"type":"Point"},"placekey":"@g4z-jrb-kxq","address":{"country_code":"AO","formatted_address":"Via Expresso, Bairro da Camama, Kilamba Kiaxi, Luanda, Angola","locality":"Luanda"}},"labels":["soccer","sport"],"duration":0,"start_local":"2024-04-24T16:00:00","end":"2024-04-24T15:00:00Z","end_local":"2024-04-24T16:00:00","updated":"2024-06-12T14:26:09Z"},{"title":"Girabola - Wiliete vs Desportivo Huíla","description":"Sourced from predicthq.com","category":"sports","start":"2024-04-21T15:00:00Z","geo":{"geometry":{"coordinates":[13.461077,-12.542761],"type":"Point"},"placekey":"@g4r-d26-389","address":{"country_code":"AO","formatted_address":"Benguela\nAngola","locality":"Benguela","region":"Benguela"}},"labels":["soccer","sport"],"duration":0,"start_local":"2024-04-21T16:00:00","end":"2024-04-21T15:00:00Z","end_local":"2024-04-21T16:00:00","updated":"2024-06-12T14:56:06Z"},{"title":"Girabola - Santa Rita vs Sporting de Cabinda","description":"Sourced from predicthq.com","category":"sports","start":"2024-04-21T14:00:00Z","geo":{"geometry":{"coordinates":[15.0596618,-7.6142181],"type":"Point"},"placekey":"@g6d-5jq-835","address":{"country_code":"AO","formatted_address":"93P5+8V7, Uige, Angola","locality":"Uige","region":"Uíge Province"}},"labels":["soccer","sport"],"duration":0,"start_local":"2024-04-21T15:00:00","end":"2024-04-21T14:00:00Z","end_local":"2024-04-21T15:00:00","updated":"2024-06-12T11:53:05Z"},{"title":"Girabola - São Salvador vs Interclube","description":"Sourced from predicthq.com","category":"sports","start":"2024-04-21T14:00:00Z","geo":{"geometry":{"coordinates":[14.24098824,-6.264634371],"type":"Point"},"placekey":"@g6d-ttb-3qz","address":{"country_code":"AO","formatted_address":"P6PR+49F, M'banza-Kongo, Angola","locality":"M'banza-Kongo","region":"Zaire Province"}},"labels":["soccer","sport"],"duration":0,"start_local":"2024-04-21T15:00:00","end":"2024-04-21T14:00:00Z","end_local":"2024-04-21T15:00:00","updated":"2024-06-11T21:05:42Z"},{"title":"Girabola - Académica do Lobito vs Petro de Luanda","description":"Sourced from predicthq.com","category":"sports","start":"2024-04-20T14:30:00Z","geo":{"geometry":{"coordinates":[13.461077,-12.542761],"type":"Point"},"placekey":"@g4r-d26-389","address":{"country_code":"AO","formatted_address":"Benguela\nAngola","locality":"Benguela","region":"Benguela"}},"labels":["soccer","sport"],"duration":0,"start_local":"2024-04-20T15:30:00","end":"2024-04-20T14:30:00Z","end_local":"2024-04-20T15:30:00","updated":"2024-06-12T04:09:41Z"},{"title":"Girabola - Bravos do Maquis vs Kabuscorp","description":"Sourced from predicthq.com","category":"sports","start":"2024-04-20T14:00:00Z","geo":{"geometry":{"coordinates":[19.9104473,-11.7797958],"type":"Point"},"placekey":"@hvr-s24-t5f","address":{"country_code":"AO","formatted_address":"6WC6+4XG, Luena, Angola","locality":"Luena","region":"Moxico Province"}},"labels":["soccer","sport"],"duration":0,"start_local":"2024-04-20T15:00:00","end":"2024-04-20T14:00:00Z","end_local":"2024-04-20T15:00:00","updated":"2024-06-12T02:19:17Z"},{"title":"Girabola - Sagrada Esperança vs Desportivo Lunda-Sul","description":"Sourced from predicthq.com","category":"sports","start":"2024-04-20T14:00:00Z","geo":{"geometry":{"coordinates":[20.83355963230133,-7.3881307191397445],"type":"Point"},"placekey":"@g6h-ddt-8n5","address":{"country_code":"AO","formatted_address":"JRGM+4MX, Dundo, Angola","locality":"Dundo","region":"Lunda Norte Province"}},"labels":["soccer","sport"],"duration":0,"start_local":"2024-04-20T15:00:00","end":"2024-04-20T14:00:00Z","end_local":"2024-04-20T15:00:00","updated":"2024-06-12T15:07:25Z"},{"title":"Girabola - União de Malanje vs Recreativo do Libolo","description":"Sourced from predicthq.com","category":"sports","start":"2024-04-20T14:00:00Z","geo":{"geometry":{"coordinates":[16.36011154408955,-9.549661126251456],"type":"Point"},"placekey":"@g6c-bg4-s5z","address":{"country_code":"AO","formatted_address":"F925+4XQ, Malanje, Angola","locality":"Malanje","region":"Malanje Province"}},"labels":["soccer","sport"],"duration":0,"start_local":"2024-04-20T15:00:00","end":"2024-04-20T14:00:00Z","end_local":"2024-04-20T15:00:00","updated":"2024-06-12T03:00:09Z"},{"title":"Prémios Forbes Responsabilidade Social Angola","description":"Sourced from predicthq.com - “Celebrar a paz, apoiar a  sociedade, investir com justiça.”","category":"conferences","start":"2024-04-19T18:00:00Z","geo":{"geometry":{"coordinates":[13.2425289,-8.8115615],"type":"Point"},"placekey":"@g4z-mcf-xyv","address":{"country_code":"AO","formatted_address":"Luanda, Luanda Province, Angola","locality":"Luanda","region":"Luanda Province"}},"labels":["conference","fundraiser"],"duration":7200,"start_local":"2024-04-19T19:00:00","end":"2024-04-19T20:00:00Z","end_local":"2024-04-19T21:00:00","updated":"2024-06-12T02:32:21Z"},{"title":"Girabola - Sporting de Cabinda vs 1º de Agosto","description":"Sourced from predicthq.com","category":"sports","start":"2024-04-15T08:30:00Z","geo":{"geometry":{"coordinates":[12.1857873,-5.5550617],"type":"Point"},"placekey":"@g2n-cjc-nt9","address":{"country_code":"AO","formatted_address":"Cabinda, Angola","locality":"Cabinda","region":"Cabinda Province"}},"labels":["soccer","sport"],"duration":0,"start_local":"2024-04-15T09:30:00","end":"2024-04-15T08:30:00Z","end_local":"2024-04-15T09:30:00","updated":"2024-06-12T02:55:46Z"},{"title":"Girabola - Desportivo Huíla vs Académica do Lobito","description":"Sourced from predicthq.com","category":"sports","start":"2024-04-14T14:00:00Z","geo":{"geometry":{"coordinates":[13.5382207312,-14.9490820113],"type":"Point"},"placekey":"@g53-tgf-tsq","address":{"country_code":"AO","formatted_address":"Bairro Do Tchioco (Rua 4 De Fevereiro)\nLubango\nAngola","locality":"Lubango","region":"Huila"}},"labels":["soccer","sport"],"duration":0,"start_local":"2024-04-14T15:00:00","end":"2024-04-14T14:00:00Z","end_local":"2024-04-14T15:00:00","updated":"2024-06-11T21:23:20Z"},{"title":"Girabola - Desportivo Lunda-Sul vs União de Malanje","description":"Sourced from predicthq.com","category":"sports","start":"2024-04-14T09:00:00Z","geo":{"geometry":{"coordinates":[20.3928995,-9.66501919],"type":"Point"},"placekey":"@hvy-gdh-z2k","address":{"country_code":"AO","formatted_address":"Rua das Mangueira, Agostinho Neto,, 89WR+XJG, Saurimo, Angola","locality":"Saurimo","region":"Lunda-Sul"}},"labels":["soccer","sport"],"duration":0,"start_local":"2024-04-14T10:00:00","end":"2024-04-14T09:00:00Z","end_local":"2024-04-14T10:00:00","updated":"2024-06-12T00:24:01Z"},{"title":"Girabola - Kabuscorp vs Wiliete","description":"Sourced from predicthq.com","category":"sports","start":"2024-04-13T16:00:00Z","geo":{"geometry":{"coordinates":[13.2261328,-8.8144634],"type":"Point"},"placekey":"@g4z-mch-6x5","address":{"country_code":"AO","formatted_address":"Rua dos Coqueiros, Luanda, Angola","locality":"Luanda","region":"Luanda"}},"labels":["soccer","sport"],"duration":0,"start_local":"2024-04-13T17:00:00","end":"2024-04-13T16:00:00Z","end_local":"2024-04-13T17:00:00","updated":"2024-06-12T01:00:54Z"},{"title":"Girabola - Petro de Luanda vs Sagrada Esperança","description":"Sourced from predicthq.com","category":"sports","start":"2024-04-13T15:00:00Z","geo":{"geometry":{"coordinates":[13.28349296537317,-8.969828880796653],"type":"Point"},"placekey":"@g4z-jrb-kxq","address":{"country_code":"AO","formatted_address":"Via Expresso, Bairro da Camama, Kilamba Kiaxi, Luanda, Angola","locality":"Luanda"}},"labels":["soccer","sport"],"duration":0,"start_local":"2024-04-13T16:00:00","end":"2024-04-13T15:00:00Z","end_local":"2024-04-13T16:00:00","updated":"2024-06-12T04:12:01Z"},{"title":"Girabola - Interclube vs Santa Rita","description":"Sourced from predicthq.com","category":"sports","start":"2024-04-13T14:30:00Z","geo":{"geometry":{"coordinates":[13.208919167518616,-8.869091677308205],"type":"Point"},"placekey":"@g4z-md5-y9z","address":{"country_code":"AO","formatted_address":"Estádio 22 de Junho, Luanda, Angola","locality":"Luanda","region":"Luanda"}},"labels":["soccer","sport"],"duration":0,"start_local":"2024-04-13T15:30:00","end":"2024-04-13T14:30:00Z","end_local":"2024-04-13T15:30:00","updated":"2024-06-12T18:13:08Z"},{"title":"Girabola - Recreativo do Libolo vs São Salvador","description":"Sourced from predicthq.com","category":"sports","start":"2024-04-13T14:00:00Z","geo":{"geometry":{"coordinates":[14.905102550983429,-10.006651327780284],"type":"Point"},"placekey":"@g4v-nt2-vfz","address":{"country_code":"AO","formatted_address":"XWV4+922, Calulo, Angola","locality":"Calulo","region":"Cuanza Sul Province"}},"labels":["soccer","sport"],"duration":0,"start_local":"2024-04-13T15:00:00","end":"2024-04-13T14:00:00Z","end_local":"2024-04-13T15:00:00","updated":"2024-06-12T07:15:07Z"},{"title":"Girabola - Sporting de Cabinda vs Bravos do Maquis","description":"Sourced from predicthq.com","category":"sports","start":"2024-04-11T09:00:00Z","geo":{"geometry":{"coordinates":[12.1857873,-5.5550617],"type":"Point"},"placekey":"@g2n-cjc-nt9","address":{"country_code":"AO","formatted_address":"Cabinda, Angola","locality":"Cabinda","region":"Cabinda Province"}},"labels":["soccer","sport"],"duration":0,"start_local":"2024-04-11T10:00:00","end":"2024-04-11T09:00:00Z","end_local":"2024-04-11T10:00:00","updated":"2024-06-12T14:22:54Z"},{"title":"Girabola - 1º de Agosto vs Interclube","description":"Sourced from predicthq.com","category":"sports","start":"2024-04-10T15:00:00Z","geo":{"geometry":{"coordinates":[13.241685157652707,-8.841265800628205],"type":"Point"},"placekey":"@g4z-m9x-qs5","address":{"country_code":"AO","formatted_address":"565R+FMG, Luanda, Angola","locality":"Luanda","region":"Luanda Province"}},"labels":["soccer","sport"],"duration":0,"start_local":"2024-04-10T16:00:00","end":"2024-04-10T15:00:00Z","end_local":"2024-04-10T16:00:00","updated":"2024-06-11T22:01:40Z"},{"title":"Girabola - Desportivo Huíla vs Kabuscorp","description":"Sourced from predicthq.com","category":"sports","start":"2024-04-10T14:30:00Z","geo":{"geometry":{"coordinates":[13.5382207312,-14.9490820113],"type":"Point"},"placekey":"@g53-tgf-tsq","address":{"country_code":"AO","formatted_address":"Bairro Do Tchioco (Rua 4 De Fevereiro)\nLubango\nAngola","locality":"Lubango","region":"Huila"}},"labels":["soccer","sport"],"duration":0,"start_local":"2024-04-10T15:30:00","end":"2024-04-10T14:30:00Z","end_local":"2024-04-10T15:30:00","updated":"2024-06-11T21:02:17Z"},{"title":"Girabola - Académica do Lobito vs Sagrada Esperança","description":"Sourced from predicthq.com","category":"sports","start":"2024-04-10T14:30:00Z","geo":{"geometry":{"coordinates":[13.553711771965027,-12.392652894516445],"type":"Point"},"placekey":"@g4r-zg7-y9z","address":{"country_code":"AO","formatted_address":"JH43+WCX, Lobito, Angola","locality":"Lobito","region":"Benguela Province"}},"labels":["soccer","sport"],"duration":0,"start_local":"2024-04-10T15:30:00","end":"2024-04-10T14:30:00Z","end_local":"2024-04-10T15:30:00","updated":"2024-06-11T21:26:45Z"},{"title":"Girabola - Santa Rita vs Recreativo do Libolo","description":"Sourced from predicthq.com","category":"sports","start":"2024-04-10T14:00:00Z","geo":{"geometry":{"coordinates":[15.0596618,-7.6142181],"type":"Point"},"placekey":"@g6d-5jq-835","address":{"country_code":"AO","formatted_address":"93P5+8V7, Uige, Angola","locality":"Uige","region":"Uíge Province"}},"labels":["soccer","sport"],"duration":0,"start_local":"2024-04-10T15:00:00","end":"2024-04-10T14:00:00Z","end_local":"2024-04-10T15:00:00","updated":"2024-06-12T06:17:16Z"},{"title":"Girabola - São Salvador vs Desportivo Lunda-Sul","description":"Sourced from predicthq.com","category":"sports","start":"2024-04-10T14:00:00Z","geo":{"geometry":{"coordinates":[14.24098824,-6.264634371],"type":"Point"},"placekey":"@g6d-ttb-3qz","address":{"country_code":"AO","formatted_address":"P6PR+49F, M'banza-Kongo, Angola","locality":"M'banza-Kongo","region":"Zaire Province"}},"labels":["soccer","sport"],"duration":0,"start_local":"2024-04-10T15:00:00","end":"2024-04-10T14:00:00Z","end_local":"2024-04-10T15:00:00","updated":"2024-06-11T21:39:30Z"},{"title":"Girabola - União de Malanje vs Petro de Luanda","description":"Sourced from predicthq.com","category":"sports","start":"2024-04-09T14:00:00Z","geo":{"geometry":{"coordinates":[16.36011154408955,-9.549661126251456],"type":"Point"},"placekey":"@g6c-bg4-s5z","address":{"country_code":"AO","formatted_address":"F925+4XQ, Malanje, Angola","locality":"Malanje","region":"Malanje Province"}},"labels":["soccer","sport"],"duration":0,"start_local":"2024-04-09T15:00:00","end":"2024-04-09T14:00:00Z","end_local":"2024-04-09T15:00:00","updated":"2024-06-12T00:49:31Z"},{"title":"Girabola - Kabuscorp vs Académica do Lobito","description":"Sourced from predicthq.com","category":"sports","start":"2024-04-07T15:00:00Z","geo":{"geometry":{"coordinates":[13.2261328,-8.8144634],"type":"Point"},"placekey":"@g4z-mch-6x5","address":{"country_code":"AO","formatted_address":"Rua dos Coqueiros, Luanda, Angola","locality":"Luanda","region":"Luanda"}},"labels":["soccer","sport"],"duration":0,"start_local":"2024-04-07T16:00:00","end":"2024-04-07T15:00:00Z","end_local":"2024-04-07T16:00:00","updated":"2024-06-11T21:36:06Z"},{"title":"Girabola - Recreativo do Libolo vs 1º de Agosto","description":"Sourced from predicthq.com","category":"sports","start":"2024-04-07T14:00:00Z","geo":{"geometry":{"coordinates":[14.905102550983429,-10.006651327780284],"type":"Point"},"placekey":"@g4v-nt2-vfz","address":{"country_code":"AO","formatted_address":"XWV4+922, Calulo, Angola","locality":"Calulo","region":"Cuanza Sul Province"}},"labels":["soccer","sport"],"duration":0,"start_local":"2024-04-07T15:00:00","end":"2024-04-07T14:00:00Z","end_local":"2024-04-07T15:00:00","updated":"2024-06-12T11:28:39Z"},{"title":"CAF Champions League - Quarter-finals - Petro de Luanda vs TP Mazembe","description":"Sourced from predicthq.com","category":"sports","start":"2024-04-06T16:00:00Z","geo":{"geometry":{"coordinates":[13.28349296537317,-8.969828880796653],"type":"Point"},"placekey":"@g4z-jrb-kxq","address":{"country_code":"AO","formatted_address":"Via Expresso, Bairro da Camama, Kilamba Kiaxi, Luanda, Angola","locality":"Luanda"}},"labels":["soccer","sport"],"duration":7013,"start_local":"2024-04-06T17:00:00","end":"2024-04-06T17:56:53Z","end_local":"2024-04-06T18:56:53","updated":"2024-06-05T04:45:42Z"},{"title":"Girabola - Sagrada Esperança vs União de Malanje","description":"Sourced from predicthq.com","category":"sports","start":"2024-04-06T15:00:00Z","geo":{"geometry":{"coordinates":[13.2261328,-8.8144634],"type":"Point"},"placekey":"@g4z-mch-6x5","address":{"country_code":"AO","formatted_address":"Rua dos Coqueiros, Luanda, Angola","locality":"Luanda","region":"Luanda"}},"labels":["soccer","sport"],"duration":0,"start_local":"2024-04-06T16:00:00","end":"2024-04-06T15:00:00Z","end_local":"2024-04-06T16:00:00","updated":"2024-06-12T01:29:53Z"},{"title":"Girabola - Interclube vs Bravos do Maquis","description":"Sourced from predicthq.com","category":"sports","start":"2024-04-06T14:30:00Z","geo":{"geometry":{"coordinates":[13.208919167518616,-8.869091677308205],"type":"Point"},"placekey":"@g4z-md5-y9z","address":{"country_code":"AO","formatted_address":"Estádio 22 de Junho, Luanda, Angola","locality":"Luanda","region":"Luanda"}},"labels":["soccer","sport"],"duration":0,"start_local":"2024-04-06T15:30:00","end":"2024-04-06T14:30:00Z","end_local":"2024-04-06T15:30:00","updated":"2024-06-12T11:25:32Z"},{"title":"Girabola - Desportivo Lunda-Sul vs Santa Rita","description":"Sourced from predicthq.com","category":"sports","start":"2024-04-06T14:00:00Z","geo":{"geometry":{"coordinates":[20.3928995,-9.66501919],"type":"Point"},"placekey":"@hvy-gdh-z2k","address":{"country_code":"AO","formatted_address":"Rua das Mangueira, Agostinho Neto,, 89WR+XJG, Saurimo, Angola","locality":"Saurimo","region":"Lunda-Sul"}},"labels":["soccer","sport"],"duration":0,"start_local":"2024-04-06T15:00:00","end":"2024-04-06T14:00:00Z","end_local":"2024-04-06T15:00:00","updated":"2024-06-12T11:08:54Z"},{"title":"Girabola - Sporting de Cabinda vs Wiliete","description":"Sourced from predicthq.com","category":"sports","start":"2024-04-06T14:00:00Z","geo":{"geometry":{"coordinates":[12.1857873,-5.5550617],"type":"Point"},"placekey":"@g2n-cjc-nt9","address":{"country_code":"AO","formatted_address":"Cabinda, Angola","locality":"Cabinda","region":"Cabinda Province"}},"labels":["soccer","sport"],"duration":0,"start_local":"2024-04-06T15:00:00","end":"2024-04-06T14:00:00Z","end_local":"2024-04-06T15:00:00","updated":"2024-06-12T17:34:06Z"}]