[{"title":"684 CRUSIN CONCERT","description":"Sourced from predicthq.com - 684 CRUSIN CONCERT featuring Manny, Nancy and More","category":"concerts","start":"2024-07-14T06:00:00Z","geo":{"geometry":{"coordinates":[-170.7030309,-14.2732232],"type":"Point"},"placekey":"@j7g-q5h-mrk","address":{"country_code":"AS","formatted_address":"Pago Pago, AS 96799, United States of America","locality":"Pago Pago","postcode":"96799","region":"Eastern District"}},"labels":["concert","music"],"duration":7200,"start_local":"2024-07-13T19:00:00","end":"2024-07-14T08:00:00Z","end_local":"2024-07-13T21:00:00","updated":"2024-07-04T01:15:00Z"},{"title":"How The Top 1% Of Leaders Manage Their Time Like Clockwork Using T5 System","description":"Sourced from predicthq.com - You will learn essential skills that will increase your productivity so you have more margin in your life and business.","category":"conferences","start":"2024-07-08T07:00:00Z","geo":{"geometry":{"coordinates":[-170.7020359,-14.2756319],"type":"Point"},"placekey":"@j7g-q5h-mzf","address":{"country_code":"AS","formatted_address":"Pago Pago, AS 96799, United States of America","locality":"Pago Pago","postcode":"96799","region":"Eastern District"}},"labels":["business","conference"],"duration":3600,"start_local":"2024-07-07T20:00:00","end":"2024-07-08T08:00:00Z","end_local":"2024-07-07T21:00:00","updated":"2024-06-20T09:43:58Z"},{"title":"How The Top 1% Of Leaders Manage Their Time Like Clockwork Using T5 System","description":"Sourced from predicthq.com - You will learn essential skills that will increase your productivity so you have more margin in your life and business.","category":"conferences","start":"2024-06-20T06:00:00Z","geo":{"geometry":{"coordinates":[-170.7020359,-14.2756319],"type":"Point"},"placekey":"@j7g-q5h-mzf","address":{"country_code":"AS","formatted_address":"Pago Pago, AS 96799, United States of America","locality":"Pago Pago","postcode":"96799","region":"Eastern District"}},"labels":["business","conference"],"duration":3600,"start_local":"2024-06-19T19:00:00","end":"2024-06-20T07:00:00Z","end_local":"2024-06-19T20:00:00","updated":"2024-06-13T02:53:59Z"},{"title":"How The Top 1% Of Leaders Manage Their Time Like Clockwork Using T5 System","description":"Sourced from predicthq.com - You will learn essential skills that will increase your productivity so you have more margin in your life and business.","category":"conferences","start":"2024-06-12T05:00:00Z","geo":{"geometry":{"coordinates":[-170.7020359,-14.2756319],"type":"Point"},"placekey":"@j7g-q5h-mzf","address":{"country_code":"AS","formatted_address":"Pago Pago, AS 96799, United States of America","locality":"Pago Pago","postcode":"96799","region":"Eastern District"}},"labels":["business","conference"],"duration":3600,"start_local":"2024-06-11T18:00:00","end":"2024-06-12T06:00:00Z","end_local":"2024-06-11T19:00:00","updated":"2024-06-06T03:56:42Z"},{"title":"How The Top 1% Of Leaders Manage Their Time Like Clockwork Using T5 System","description":"Sourced from predicthq.com - You will learn essential skills that will increase your productivity so you have more margin in your life and business.","category":"conferences","start":"2024-06-03T07:00:00Z","geo":{"geometry":{"coordinates":[-170.7020359,-14.2756319],"type":"Point"},"placekey":"@j7g-q5h-mzf","address":{"country_code":"AS","formatted_address":"Pago Pago, AS 96799, United States of America","locality":"Pago Pago","postcode":"96799","region":"Eastern District"}},"labels":["business","conference"],"duration":3600,"start_local":"2024-06-02T20:00:00","end":"2024-06-03T08:00:00Z","end_local":"2024-06-02T21:00:00","updated":"2024-05-23T01:54:13Z"},{"title":"2024 AMERICAN SAMOA STEAM FEST!","description":"Sourced from predicthq.com - Get ready for a fun-filled day celebrating the unique blend of Oceania and American Samoa culture through science, technology, engineering,","category":"festivals","start":"2024-06-01T20:00:00Z","geo":{"geometry":{"coordinates":[-170.6830588,-14.2787554],"type":"Point"},"placekey":"@j7g-q5f-f75","address":{"country_code":"AS","formatted_address":"Route 001, Utulei, AS 96799, United States of America","locality":"Utulei","postcode":"96799","region":"Eastern District"}},"labels":["festival","science","technology"],"duration":14400,"start_local":"2024-06-01T09:00:00","end":"2024-06-02T00:00:00Z","end_local":"2024-06-01T13:00:00","updated":"2024-05-30T01:54:20Z"},{"title":"How The Top 1% Of Leaders Manage Their Time Like Clockwork Using T5 System","description":"Sourced from predicthq.com - You will learn essential skills that will increase your productivity so you have more margin in your life and business.","category":"conferences","start":"2024-05-16T06:00:00Z","geo":{"geometry":{"coordinates":[-170.7020359,-14.2756319],"type":"Point"},"placekey":"@j7g-q5h-mzf","address":{"country_code":"AS","formatted_address":"Pago Pago, AS 96799, United States of America","locality":"Pago Pago","postcode":"96799","region":"Eastern District"}},"labels":["business","conference"],"duration":3600,"start_local":"2024-05-15T19:00:00","end":"2024-05-16T07:00:00Z","end_local":"2024-05-15T20:00:00","updated":"2024-06-05T07:36:37Z"},{"title":"How The Top 1% Of Leaders Manage Their Time Like Clockwork Using T5 System","description":"Sourced from predicthq.com - You will learn essential skills that will increase your productivity so you have more margin in your life and business.","category":"conferences","start":"2024-05-15T05:00:00Z","geo":{"geometry":{"coordinates":[-170.7020359,-14.2756319],"type":"Point"},"placekey":"@j7g-q5h-mzf","address":{"country_code":"AS","formatted_address":"Pago Pago, AS 96799, United States of America","locality":"Pago Pago","postcode":"96799","region":"Eastern District"}},"labels":["business","conference"],"duration":3600,"start_local":"2024-05-14T18:00:00","end":"2024-05-15T06:00:00Z","end_local":"2024-05-14T19:00:00","updated":"2024-06-05T06:04:15Z"},{"title":"How The Top 1% Of Leaders Manage Their Time Like Clockwork Using T5 System","description":"Sourced from predicthq.com - You will learn essential skills that will increase your productivity so you have more margin in your life and business.","category":"conferences","start":"2024-05-06T07:00:00Z","geo":{"geometry":{"coordinates":[-170.7020359,-14.2756319],"type":"Point"},"placekey":"@j7g-q5h-mzf","address":{"country_code":"AS","formatted_address":"Pago Pago, AS 96799, United States of America","locality":"Pago Pago","postcode":"96799","region":"Eastern District"}},"labels":["business","conference"],"duration":3600,"start_local":"2024-05-05T20:00:00","end":"2024-05-06T08:00:00Z","end_local":"2024-05-05T21:00:00","updated":"2024-06-05T06:06:35Z"},{"title":"How The Top 1% Of Leaders Manage Their Time Like Clockwork Using T5 System","description":"Sourced from predicthq.com - You will learn essential skills that will increase your productivity so you have more margin in your life and business.","category":"conferences","start":"2024-04-18T06:00:00Z","geo":{"geometry":{"coordinates":[-170.7020359,-14.2756319],"type":"Point"},"placekey":"@j7g-q5h-mzf","address":{"country_code":"AS","formatted_address":"Pago Pago, AS 96799, United States of America","locality":"Pago Pago","postcode":"96799","region":"Eastern District"}},"labels":["business","conference"],"duration":3600,"start_local":"2024-04-17T19:00:00","end":"2024-04-18T07:00:00Z","end_local":"2024-04-17T20:00:00","updated":"2024-06-05T05:00:05Z"},{"title":"How The Top 1% Of Leaders Manage Their Time Like Clockwork Using T5 System","description":"Sourced from predicthq.com - You will learn essential skills that will increase your productivity so you have more margin in your life and business.","category":"conferences","start":"2024-04-08T07:00:00Z","geo":{"geometry":{"coordinates":[-170.7020359,-14.2756319],"type":"Point"},"placekey":"@j7g-q5h-mzf","address":{"country_code":"AS","formatted_address":"Pago Pago, AS 96799, United States of America","locality":"Pago Pago","postcode":"96799","region":"Eastern District"}},"labels":["business","conference"],"duration":3600,"start_local":"2024-04-07T20:00:00","end":"2024-04-08T08:00:00Z","end_local":"2024-04-07T21:00:00","updated":"2024-06-05T01:43:09Z"}]