[{"title":"Aland Swimrun","description":"Sourced from predicthq.com","category":"sports","start":"2024-09-13T21:00:00Z","geo":{"geometry":{"coordinates":[19.541652,60.238405],"type":"Point"},"placekey":"@ays-pvc-nqz","address":{"country_code":"AX","formatted_address":"22270 Ålands landsbygd, Åland, Finland","postcode":"22270","region":"Ålands landsbygd"}},"labels":["outdoor-sports","running","sport"],"duration":86399,"start_local":"2024-09-14T00:00:00","end":"2024-09-14T20:59:59Z","end_local":"2024-09-14T23:59:59","updated":"2024-06-06T23:54:58Z"},{"title":"Roland Fidezius and The Å / A Universe","description":"Sourced from predicthq.com","category":"concerts","start":"2024-09-07T17:00:00Z","geo":{"geometry":{"coordinates":[19.9500008,60.0999985],"type":"Point"},"placekey":"@ays-r7k-h89","address":{"country_code":"AX","formatted_address":"Mariehamn, Mariehamn sub-region, Åland, Finland","locality":"Mariehamn","region":"Mariehamn sub-region"}},"labels":["concert","music"],"duration":0,"start_local":"2024-09-07T20:00:00","end":"2024-09-07T17:00:00Z","end_local":"2024-09-07T20:00:00","updated":"2024-06-10T23:54:37Z"},{"title":"Veikkausliiga - Mariehamn vs Oulu","description":"Sourced from predicthq.com","category":"sports","start":"2024-09-01T13:00:00Z","geo":{"geometry":{"coordinates":[19.934896,60.1026086],"type":"Point"},"placekey":"@ays-r7m-85f","address":{"country_code":"AX","formatted_address":"14 Idrottsgatan, Mariehamn 22100, Åland Islands","postcode":"22100","locality":"Mariehamn","region":"Mariehamns stad"}},"labels":["soccer","sport"],"duration":0,"start_local":"2024-09-01T16:00:00","end":"2024-09-01T13:00:00Z","end_local":"2024-09-01T16:00:00","updated":"2024-06-11T05:01:20Z"},{"title":"Käringsund Triathlon","description":"Sourced from predicthq.com","category":"sports","start":"2024-08-22T21:00:00Z","geo":{"geometry":{"coordinates":[19.5391389,60.2403625],"type":"Point"},"placekey":"@ays-pvc-pn5","address":{"country_code":"AX","formatted_address":"106, 22270 Ålands landsbygd, Åland, Finland","postcode":"22270","region":"Ålands landsbygd"}},"labels":["bicycle","outdoor-sports","running","sport","triathlon"],"duration":172799,"start_local":"2024-08-23T00:00:00","end":"2024-08-24T20:59:59Z","end_local":"2024-08-24T23:59:59","updated":"2024-06-11T09:12:49Z"},{"title":"Veikkausliiga - Mariehamn vs Lahti","description":"Sourced from predicthq.com","category":"sports","start":"2024-08-18T15:30:00Z","geo":{"geometry":{"coordinates":[19.934896,60.1026086],"type":"Point"},"placekey":"@ays-r7m-85f","address":{"country_code":"AX","formatted_address":"14 Idrottsgatan, Mariehamn 22100, Åland Islands","postcode":"22100","locality":"Mariehamn","region":"Mariehamns stad"}},"labels":["soccer","sport"],"duration":0,"start_local":"2024-08-18T18:30:00","end":"2024-08-18T15:30:00Z","end_local":"2024-08-18T18:30:00","updated":"2024-06-11T04:09:32Z"},{"title":"Kolmonen - Länsi A - Mariehamn II vs SalPa II","description":"Sourced from predicthq.com","category":"sports","start":"2024-08-10T13:00:00Z","geo":{"geometry":{"coordinates":[19.934896,60.1026086],"type":"Point"},"placekey":"@ays-r7m-85f","address":{"country_code":"AX","formatted_address":"14 Idrottsgatan, Mariehamn 22100, Åland Islands","postcode":"22100","locality":"Mariehamn","region":"Mariehamns stad"}},"labels":["soccer","sport"],"duration":0,"start_local":"2024-08-10T16:00:00","end":"2024-08-10T13:00:00Z","end_local":"2024-08-10T16:00:00","updated":"2024-07-01T19:48:02Z"},{"title":"Rasmus Gozzi and Fröken Snusk","description":"Sourced from predicthq.com","category":"concerts","start":"2024-07-27T09:00:00Z","geo":{"geometry":{"coordinates":[19.93483,60.09709],"type":"Point"},"placekey":"@ays-r7k-d7q","address":{"country_code":"AX","formatted_address":"Östra Esplanadgatan, 22100 Mariehamn, Åland, Finland","locality":"Mariehamn","postcode":"22100","region":"Mariehamns stad"}},"labels":["concert","music"],"duration":0,"start_local":"2024-07-27T12:00:00","end":"2024-07-27T09:00:00Z","end_local":"2024-07-27T12:00:00","updated":"2024-06-11T00:49:06Z"},{"title":"Veikkausliiga - Mariehamn vs SJK","description":"Sourced from predicthq.com","category":"sports","start":"2024-07-21T12:00:00Z","geo":{"geometry":{"coordinates":[19.934896,60.1026086],"type":"Point"},"placekey":"@ays-r7m-85f","address":{"country_code":"AX","formatted_address":"14 Idrottsgatan, Mariehamn 22100, Åland Islands","postcode":"22100","locality":"Mariehamn","region":"Mariehamns stad"}},"labels":["soccer","sport"],"duration":0,"start_local":"2024-07-21T15:00:00","end":"2024-07-21T12:00:00Z","end_local":"2024-07-21T15:00:00","updated":"2024-06-11T07:59:32Z"},{"title":"Veikkausliiga - Mariehamn vs Haka","description":"Sourced from predicthq.com","category":"sports","start":"2024-07-07T15:30:00Z","geo":{"geometry":{"coordinates":[19.934896,60.1026086],"type":"Point"},"placekey":"@ays-r7m-85f","address":{"country_code":"AX","formatted_address":"14 Idrottsgatan, Mariehamn 22100, Åland Islands","postcode":"22100","locality":"Mariehamn","region":"Mariehamns stad"}},"labels":["soccer","sport"],"duration":0,"start_local":"2024-07-07T18:30:00","end":"2024-07-07T15:30:00Z","end_local":"2024-07-07T18:30:00","updated":"2024-06-11T09:55:46Z"},{"title":"Kitto","description":"Sourced from predicthq.com","category":"concerts","start":"2024-07-06T16:00:00Z","geo":{"geometry":{"coordinates":[19.9348339,60.0970945],"type":"Point"},"placekey":"@ays-r7k-d7q","address":{"country_code":"AX","formatted_address":"Östra Esplanadgatan, 22100 Mariehamn, Åland, Finland","locality":"Mariehamn","postcode":"22100","region":"Mariehamns stad"}},"labels":["concert","music"],"duration":0,"start_local":"2024-07-06T19:00:00","end":"2024-07-06T16:00:00Z","end_local":"2024-07-06T19:00:00","updated":"2024-06-11T00:47:45Z"},{"title":"Kitto","description":"Sourced from predicthq.com","category":"concerts","start":"2024-07-05T16:00:00Z","geo":{"geometry":{"coordinates":[19.9348339,60.0970945],"type":"Point"},"placekey":"@ays-r7k-d7q","address":{"country_code":"AX","formatted_address":"Östra Esplanadgatan, 22100 Mariehamn, Åland, Finland","locality":"Mariehamn","postcode":"22100","region":"Mariehamns stad"}},"labels":["concert","music"],"duration":0,"start_local":"2024-07-05T19:00:00","end":"2024-07-05T16:00:00Z","end_local":"2024-07-05T19:00:00","updated":"2024-06-10T23:23:08Z"},{"title":"Veikkausliiga - Mariehamn vs HJK","description":"Sourced from predicthq.com","category":"sports","start":"2024-06-30T13:00:00Z","geo":{"geometry":{"coordinates":[19.934896,60.1026086],"type":"Point"},"placekey":"@ays-r7m-85f","address":{"country_code":"AX","formatted_address":"14 Idrottsgatan, Mariehamn 22100, Åland Islands","postcode":"22100","locality":"Mariehamn","region":"Mariehamns stad"}},"labels":["soccer","sport"],"duration":6950,"start_local":"2024-06-30T16:00:00","end":"2024-06-30T14:55:50Z","end_local":"2024-06-30T17:55:50","updated":"2024-07-01T12:25:07Z"},{"title":"Kolmonen - Länsi A - Mariehamn II vs EuPa","description":"Sourced from predicthq.com","category":"sports","start":"2024-06-29T15:00:00Z","geo":{"geometry":{"coordinates":[19.934896,60.1026086],"type":"Point"},"placekey":"@ays-r7m-85f","address":{"country_code":"AX","formatted_address":"14 Idrottsgatan, Mariehamn 22100, Åland Islands","postcode":"22100","locality":"Mariehamn","region":"Mariehamns stad"}},"labels":["soccer","sport"],"duration":0,"start_local":"2024-06-29T18:00:00","end":"2024-06-29T15:00:00Z","end_local":"2024-06-29T18:00:00","updated":"2024-06-10T23:54:59Z"},{"title":"Käringsundsloppet","description":"Sourced from predicthq.com","category":"sports","start":"2024-06-28T21:00:00Z","geo":{"geometry":{"coordinates":[19.5595374,60.2231622],"type":"Point"},"placekey":"@ays-pf2-tsq","address":{"country_code":"AX","formatted_address":"Eckerövägen, 22270 Eckerö, Åland, Finland","locality":"Eckerö","postcode":"22270","region":"Ålands landsbygd"}},"labels":["outdoor-sports","running","sport"],"duration":172799,"start_local":"2024-06-29T00:00:00","end":"2024-06-30T20:59:59Z","end_local":"2024-06-30T23:59:59","updated":"2024-06-04T01:59:35Z"},{"title":"Veikkausliiga - Mariehamn vs VPS","description":"Sourced from predicthq.com","category":"sports","start":"2024-06-12T15:00:00Z","geo":{"geometry":{"coordinates":[19.934896,60.1026086],"type":"Point"},"placekey":"@ays-r7m-85f","address":{"country_code":"AX","formatted_address":"14 Idrottsgatan, Mariehamn 22100, Åland Islands","postcode":"22100","locality":"Mariehamn","region":"Mariehamns stad"}},"labels":["soccer","sport"],"duration":6886,"start_local":"2024-06-12T18:00:00","end":"2024-06-12T16:54:46Z","end_local":"2024-06-12T19:54:46","updated":"2024-06-13T19:50:55Z"},{"title":"Kolmonen - Länsi A - Mariehamn II vs Peimari United","description":"Sourced from predicthq.com","category":"sports","start":"2024-06-08T13:00:00Z","geo":{"geometry":{"coordinates":[19.934896,60.1026086],"type":"Point"},"placekey":"@ays-r7m-85f","address":{"country_code":"AX","formatted_address":"14 Idrottsgatan, Mariehamn 22100, Åland Islands","postcode":"22100","locality":"Mariehamn","region":"Mariehamns stad"}},"labels":["soccer","sport"],"duration":0,"start_local":"2024-06-08T16:00:00","end":"2024-06-08T13:00:00Z","end_local":"2024-06-08T16:00:00","updated":"2024-06-11T21:22:09Z"},{"title":"Veikkausliiga - Mariehamn vs Gnistan","description":"Sourced from predicthq.com","category":"sports","start":"2024-05-26T15:30:00Z","geo":{"geometry":{"coordinates":[19.934896,60.1026086],"type":"Point"},"placekey":"@ays-r7m-85f","address":{"country_code":"AX","formatted_address":"14 Idrottsgatan, Mariehamn 22100, Åland Islands","postcode":"22100","locality":"Mariehamn","region":"Mariehamns stad"}},"labels":["soccer","sport"],"duration":6658,"start_local":"2024-05-26T18:30:00","end":"2024-05-26T17:20:58Z","end_local":"2024-05-26T20:20:58","updated":"2024-05-29T23:12:27Z"},{"title":"Kolmonen - Länsi A - Mariehamn II vs VG-62","description":"Sourced from predicthq.com","category":"sports","start":"2024-05-25T15:30:00Z","geo":{"geometry":{"coordinates":[19.934896,60.1026086],"type":"Point"},"placekey":"@ays-r7m-85f","address":{"country_code":"AX","formatted_address":"14 Idrottsgatan, Mariehamn 22100, Åland Islands","postcode":"22100","locality":"Mariehamn","region":"Mariehamns stad"}},"labels":["soccer","sport"],"duration":0,"start_local":"2024-05-25T18:30:00","end":"2024-05-25T15:30:00Z","end_local":"2024-05-25T18:30:00","updated":"2024-06-12T11:23:38Z"},{"title":"Kolmonen - Länsi A - Mariehamn II vs KaaPo","description":"Sourced from predicthq.com","category":"sports","start":"2024-05-18T13:00:00Z","geo":{"geometry":{"coordinates":[19.934896,60.1026086],"type":"Point"},"placekey":"@ays-r7m-85f","address":{"country_code":"AX","formatted_address":"14 Idrottsgatan, Mariehamn 22100, Åland Islands","postcode":"22100","locality":"Mariehamn","region":"Mariehamns stad"}},"labels":["soccer","sport"],"duration":0,"start_local":"2024-05-18T16:00:00","end":"2024-05-18T13:00:00Z","end_local":"2024-05-18T16:00:00","updated":"2024-06-12T07:19:08Z"},{"title":"Veikkausliiga - Mariehamn vs Inter Turku","description":"Sourced from predicthq.com","category":"sports","start":"2024-05-05T15:30:00Z","geo":{"geometry":{"coordinates":[19.934896,60.1026086],"type":"Point"},"placekey":"@ays-r7m-85f","address":{"country_code":"AX","formatted_address":"14 Idrottsgatan, Mariehamn 22100, Åland Islands","postcode":"22100","locality":"Mariehamn","region":"Mariehamns stad"}},"labels":["soccer","sport"],"duration":7161,"start_local":"2024-05-05T18:30:00","end":"2024-05-05T17:29:21Z","end_local":"2024-05-05T20:29:21","updated":"2024-06-05T16:33:33Z"},{"title":"Veikkausliiga - Mariehamn vs Ilves","description":"Sourced from predicthq.com","category":"sports","start":"2024-04-28T15:30:00Z","geo":{"geometry":{"coordinates":[19.934896,60.1026086],"type":"Point"},"placekey":"@ays-r7m-85f","address":{"country_code":"AX","formatted_address":"14 Idrottsgatan, Mariehamn 22100, Åland Islands","postcode":"22100","locality":"Mariehamn","region":"Mariehamns stad"}},"labels":["soccer","sport"],"duration":6834,"start_local":"2024-04-28T18:30:00","end":"2024-04-28T17:23:54Z","end_local":"2024-04-28T20:23:54","updated":"2024-06-05T19:31:56Z"},{"title":"Kolmonen - Länsi A - Mariehamn II vs MaPS","description":"Sourced from predicthq.com","category":"sports","start":"2024-04-20T13:00:00Z","geo":{"geometry":{"coordinates":[19.934896,60.1026086],"type":"Point"},"placekey":"@ays-r7m-85f","address":{"country_code":"AX","formatted_address":"14 Idrottsgatan, Mariehamn 22100, Åland Islands","postcode":"22100","locality":"Mariehamn","region":"Mariehamns stad"}},"labels":["soccer","sport"],"duration":0,"start_local":"2024-04-20T16:00:00","end":"2024-04-20T13:00:00Z","end_local":"2024-04-20T16:00:00","updated":"2024-06-12T17:32:34Z"},{"title":"Veikkausliiga - Mariehamn vs KuPS","description":"Sourced from predicthq.com","category":"sports","start":"2024-04-13T14:00:00Z","geo":{"geometry":{"coordinates":[19.934896,60.1026086],"type":"Point"},"placekey":"@ays-r7m-85f","address":{"country_code":"AX","formatted_address":"14 Idrottsgatan, Mariehamn 22100, Åland Islands","postcode":"22100","locality":"Mariehamn","region":"Mariehamns stad"}},"labels":["soccer","sport"],"duration":7119,"start_local":"2024-04-13T17:00:00","end":"2024-04-13T15:58:39Z","end_local":"2024-04-13T18:58:39","updated":"2024-06-05T19:29:05Z"},{"title":"Veikkausliiga - Mariehamn vs EIF","description":"Sourced from predicthq.com","category":"sports","start":"2024-04-06T14:00:00Z","geo":{"geometry":{"coordinates":[19.934896,60.1026086],"type":"Point"},"placekey":"@ays-r7m-85f","address":{"country_code":"AX","formatted_address":"14 Idrottsgatan, Mariehamn 22100, Åland Islands","postcode":"22100","locality":"Mariehamn","region":"Mariehamns stad"}},"labels":["soccer","sport"],"duration":6930,"start_local":"2024-04-06T17:00:00","end":"2024-04-06T15:55:30Z","end_local":"2024-04-06T18:55:30","updated":"2024-06-04T23:19:37Z"}]