[{"title":"Anniversary Azerbaijan International Defence Exhibition","description":"Sourced from predicthq.com","category":"expos","start":"2024-09-24T05:00:00Z","geo":{"geometry":{"coordinates":[49.890631,40.407799],"type":"Point"},"placekey":"@69f-v7d-9mk","address":{"country_code":"AZ","formatted_address":"Heydər Əliyev prospekti, Bakı, Azerbaijan","locality":"Bakı"}},"labels":["expo"],"duration":205200,"start_local":"2024-09-24T09:00:00","end":"2024-09-26T14:00:00Z","end_local":"2024-09-26T18:00:00","updated":"2024-05-31T23:29:47Z"},{"title":"International Exhibition for Internal Security, Safety and Rescue Equipment","description":"Sourced from predicthq.com","category":"expos","start":"2024-09-24T05:00:00Z","geo":{"geometry":{"coordinates":[49.890631,40.407799],"type":"Point"},"placekey":"@69f-v7d-9mk","address":{"country_code":"AZ","formatted_address":"Heydər Əliyev prospekti, Bakı, Azerbaijan","locality":"Bakı"}},"labels":["expo"],"duration":205200,"start_local":"2024-09-24T09:00:00","end":"2024-09-26T14:00:00Z","end_local":"2024-09-26T18:00:00","updated":"2024-05-31T23:11:06Z"},{"title":"International Exhibition for Internal Security, Safety and Rescue Equipment","description":"Sourced from predicthq.com - The International Exhibition for Internal Security, Safety, and Rescue Equipment is a premier expo event, showcasing cutting-edge technologies, products, and services in the realms of security, safety, and rescue. The event brings together industry professionals, government officials, and experts to explore innovative solutions and advancements in maintaining internal security and ensuring public well-being.","category":"expos","start":"2024-09-23T20:00:00Z","geo":{"geometry":{"coordinates":[50.0340688,40.4402731],"type":"Point"},"placekey":"@69f-v7n-7h5","address":{"country_code":"AZ","formatted_address":"Heydər Əliyev prospekti, Bakı, Azerbaijan","locality":"Bakı","region":"Bakı"}},"labels":["expo"],"duration":259199,"start_local":"2024-09-24T00:00:00","end":"2024-09-26T19:59:59Z","end_local":"2024-09-26T23:59:59","updated":"2024-05-31T23:14:51Z"},{"title":"Azerbaijan International Defence Exhibition","description":"Sourced from predicthq.com - The Azerbaijan International Defence Exhibition is a premier expo event showcasing cutting-edge technology, equipment, and services in the field of defense and security. It offers a platform for global industry leaders, government representatives, and military experts to network and explore innovative solutions for defense challenges.","category":"expos","start":"2024-09-23T20:00:00Z","geo":{"geometry":{"coordinates":[50.0340688,40.4402731],"type":"Point"},"placekey":"@69f-v7n-7h5","address":{"country_code":"AZ","formatted_address":"Heydər Əliyev prospekti, Bakı, Azerbaijan","locality":"Bakı","region":"Bakı"}},"labels":["expo"],"duration":259199,"start_local":"2024-09-24T00:00:00","end":"2024-09-26T19:59:59Z","end_local":"2024-09-26T23:59:59","updated":"2024-05-31T23:10:23Z"},{"title":"Black and Caspian Freight Forum: Corridors, Cargos, Infrastructure","description":"Sourced from predicthq.com","category":"expos","start":"2024-09-16T20:00:00Z","geo":{"geometry":{"coordinates":[49.834876,40.363524],"type":"Point"},"placekey":"@69f-ttt-nt9","address":{"country_code":"AZ","formatted_address":"Neftchilar Avenue 77/79، Baku 1095\nAzerbaijan","locality":"Baku"}},"labels":["expo"],"duration":259199,"start_local":"2024-09-17T00:00:00","end":"2024-09-19T19:59:59Z","end_local":"2024-09-19T23:59:59","updated":"2024-06-30T11:21:41Z"},{"title":"Waterfront Marathon","description":"Sourced from predicthq.com","category":"sports","start":"2024-09-16T03:00:00Z","geo":{"geometry":{"coordinates":[49.8670924,40.4092617],"type":"Point"},"placekey":"@69f-tss-6ff","address":{"country_code":"AZ","formatted_address":"Baku, Azerbaijan","locality":"Baku"}},"labels":["marathon","outdoor-sports","running","sport"],"duration":0,"start_local":"2024-09-16T07:00:00","end":"2024-09-16T03:00:00Z","end_local":"2024-09-16T07:00:00","updated":"2024-06-11T01:36:54Z"},{"title":"Formula 1 2024 - Azerbaijan Grand Prix 2024 - Race","description":"Sourced from predicthq.com","category":"sports","start":"2024-09-15T11:00:00Z","geo":{"geometry":{"coordinates":[49.8531816,40.3729181],"type":"Point"},"placekey":"@69f-tth-qmk","address":{"country_code":"AZ","formatted_address":"Zarifa Aliyeva, Bakı, Azerbaijan","locality":"Bakı","region":"Bakı"}},"labels":["auto-racing","f1","sport"],"duration":7200,"start_local":"2024-09-15T15:00:00","end":"2024-09-15T13:00:00Z","end_local":"2024-09-15T17:00:00","updated":"2024-05-23T04:51:12Z"},{"title":"Formula 1 2024 - Azerbaijan Grand Prix 2024 - Qualification","description":"Sourced from predicthq.com","category":"sports","start":"2024-09-14T12:00:00Z","geo":{"geometry":{"coordinates":[49.8531816,40.3729181],"type":"Point"},"placekey":"@69f-tth-qmk","address":{"country_code":"AZ","formatted_address":"Zarifa Aliyeva, Bakı, Azerbaijan","locality":"Bakı","region":"Bakı"}},"labels":["auto-racing","f1","sport"],"duration":3600,"start_local":"2024-09-14T16:00:00","end":"2024-09-14T13:00:00Z","end_local":"2024-09-14T17:00:00","updated":"2024-05-23T04:46:01Z"},{"title":"Formula 1 2024 - Azerbaijan Grand Prix 2024 - Practice 3","description":"Sourced from predicthq.com","category":"sports","start":"2024-09-14T08:30:00Z","geo":{"geometry":{"coordinates":[49.8531816,40.3729181],"type":"Point"},"placekey":"@69f-tth-qmk","address":{"country_code":"AZ","formatted_address":"Zarifa Aliyeva, Bakı, Azerbaijan","locality":"Bakı","region":"Bakı"}},"labels":["auto-racing","f1","sport"],"duration":3600,"start_local":"2024-09-14T12:30:00","end":"2024-09-14T09:30:00Z","end_local":"2024-09-14T13:30:00","updated":"2024-05-23T04:51:23Z"},{"title":"Caucasus Challenge","description":"Sourced from predicthq.com","category":"sports","start":"2024-09-13T20:00:00Z","geo":{"geometry":{"coordinates":[49.8670924,40.4092617],"type":"Point"},"placekey":"@69f-tss-6ff","address":{"country_code":"AZ","formatted_address":"Baku, Azerbaijan","locality":"Baku"}},"labels":["marathon","outdoor-sports","running","sport"],"duration":86399,"start_local":"2024-09-14T00:00:00","end":"2024-09-14T19:59:59Z","end_local":"2024-09-14T23:59:59","updated":"2024-06-11T06:36:30Z"},{"title":"Azerbaijan Grand Prix","description":"Sourced from predicthq.com - Azerbaijan plays host to the fastest Formula One Grand Prix held on the spectacular Baku City street circuit.","category":"sports","start":"2024-09-12T20:00:00Z","geo":{"geometry":{"coordinates":[49.8531816,40.3729181],"type":"Point"},"placekey":"@69f-tth-qmk","address":{"country_code":"AZ","formatted_address":"Zarifa Aliyeva, Bakı, Azerbaijan","locality":"Bakı","region":"Bakı"}},"labels":["auto-racing","f1","sport"],"duration":259199,"start_local":"2024-09-13T00:00:00","end":"2024-09-15T19:59:59Z","end_local":"2024-09-15T23:59:59","updated":"2024-06-11T01:37:20Z"},{"title":"UEFA Nations League - League C - Azerbaijan vs Sweden","description":"Sourced from predicthq.com","category":"sports","start":"2024-09-05T16:00:00Z","geo":{"geometry":{"coordinates":[49.8524054,40.3973495],"type":"Point"},"placekey":"@69f-ttr-hyv","address":{"country_code":"AZ","formatted_address":"10 Fətəli Xan Xoyski, Bakı, Azerbaijan","locality":"Bakı","region":"Bakı"}},"labels":["soccer","sport"],"duration":0,"start_local":"2024-09-05T20:00:00","end":"2024-09-05T16:00:00Z","end_local":"2024-09-05T20:00:00","updated":"2024-06-11T01:25:37Z"},{"title":"Election for Milli Məclis (Azerbaijani National Assembly)","description":"Sourced from predicthq.com - A snap National Assembly election will take place on 1 September 2024.","category":"politics","start":"2024-09-01T00:00:00Z","geo":{"geometry":{"coordinates":[47.576927,40.143105],"type":"Point"},"address":{"country_code":"AZ","formatted_address":"Azerbaijan"}},"labels":["election","parliament","politics"],"duration":86399,"start_local":"2024-09-01T00:00:00","end":"2024-09-01T23:59:59Z","end_local":"2024-09-01T23:59:59","updated":"2024-07-04T07:04:44Z"},{"title":"European Championship Qualifiers - Group Stage - Azerbaijan vs Belgium","description":"Sourced from predicthq.com","category":"sports","start":"2024-08-24T14:00:00Z","geo":{"geometry":{"coordinates":[49.83502507209778,40.35865711605609],"type":"Point"},"placekey":"@69f-tts-yy9","address":{"country_code":"AZ","formatted_address":"26a Neftçilər Prospekti, Bakı, Azerbaijan","locality":"Bakı"}},"labels":["sport","volleyball"],"duration":0,"start_local":"2024-08-24T18:00:00","end":"2024-08-24T14:00:00Z","end_local":"2024-08-24T18:00:00","updated":"2024-06-04T00:51:38Z"},{"title":"CSG Conference - Computer Science and Gravitation","description":"Sourced from predicthq.com","category":"conferences","start":"2024-08-19T05:00:00Z","geo":{"geometry":{"coordinates":[49.833313,40.373352],"type":"Point"},"placekey":"@69f-ttq-9vf","address":{"country_code":"AZ","formatted_address":"Bashir Safar-Oghlu Street, 1009 Baku, Azerbaijan","locality":"Baku","postcode":"1009"}},"labels":["conference"],"duration":378000,"start_local":"2024-08-19T09:00:00","end":"2024-08-23T14:00:00Z","end_local":"2024-08-23T18:00:00","updated":"2024-06-30T09:00:52Z"},{"title":"UEFA Europa League - 1st Qualifying Round - Zira vs Sheriff","description":"Sourced from predicthq.com","category":"sports","start":"2024-07-18T16:00:00Z","geo":{"geometry":{"coordinates":[50.168638229,40.510870874],"type":"Point"},"placekey":"@69f-wkb-26k","address":{"country_code":"AZ","formatted_address":"Mərdəkan, Bakı (Baku), Azerbaijan","locality":"Bakı (Baku)"}},"labels":["soccer","sport"],"duration":0,"start_local":"2024-07-18T20:00:00","end":"2024-07-18T16:00:00Z","end_local":"2024-07-18T20:00:00","updated":"2024-06-24T17:50:30Z"},{"title":"WORLD ENERGY EXPO","description":"Sourced from predicthq.com","category":"expos","start":"2024-07-14T20:00:00Z","geo":{"geometry":{"coordinates":[49.86709,40.40926],"type":"Point"},"placekey":"@69f-tss-6ff","address":{"country_code":"AZ","formatted_address":"Baku, Azerbaijan","locality":"Baku"}},"labels":["business","expo"],"duration":518399,"start_local":"2024-07-15T00:00:00","end":"2024-07-20T19:59:59Z","end_local":"2024-07-20T23:59:59","updated":"2024-06-11T00:34:35Z"},{"title":"Aydilge","description":"Sourced from predicthq.com","category":"concerts","start":"2024-07-13T11:00:00Z","geo":{"geometry":{"coordinates":[49.8364869,40.3675971],"type":"Point"},"placekey":"@69f-ttt-x5z","address":{"country_code":"AZ","formatted_address":"39 Boyuk Qala, Bakı, Azerbaijan","locality":"Bakı"}},"labels":["concert","music"],"duration":0,"start_local":"2024-07-13T15:00:00","end":"2024-07-13T11:00:00Z","end_local":"2024-07-13T15:00:00","updated":"2024-07-05T20:27:41Z"},{"title":"Quality Fest","description":"Sourced from predicthq.com","category":"festivals","start":"2024-07-11T20:00:00Z","geo":{"geometry":{"coordinates":[49.8364869,40.3675971],"type":"Point"},"placekey":"@69f-ttt-x5z","address":{"country_code":"AZ","formatted_address":"39 Boyuk Qala, Bakı, Azerbaijan","locality":"Bakı"}},"labels":["festival","music"],"duration":259199,"start_local":"2024-07-12T00:00:00","end":"2024-07-14T19:59:59Z","end_local":"2024-07-14T23:59:59","updated":"2024-06-20T20:29:37Z"},{"title":"Evgeny Grinko","description":"Sourced from predicthq.com","category":"community","start":"2024-06-30T16:00:00Z","geo":{"geometry":{"coordinates":[49.8423314,40.3785736],"type":"Point"},"placekey":"@69f-ttq-5fz","address":{"country_code":"AZ","formatted_address":"Bul-Bul pros. 3, Baku, Azerbaijan","locality":"Baku"}},"labels":["concert","music"],"duration":0,"start_local":"2024-06-30T20:00:00","end":"2024-06-30T16:00:00Z","end_local":"2024-06-30T20:00:00","updated":"2024-06-14T20:36:27Z"},{"title":"Okaber","description":"Sourced from predicthq.com","category":"concerts","start":"2024-06-29T15:30:00Z","geo":{"geometry":{"coordinates":[49.8410698,40.3392196],"type":"Point"},"placekey":"@69f-v4g-5zz","address":{"country_code":"AZ","formatted_address":"DÖVLƏT BAYRAQ MEYDANI, Bakı, Azerbaijan","locality":"Bakı"}},"labels":["concert","music"],"duration":0,"start_local":"2024-06-29T19:30:00","end":"2024-06-29T15:30:00Z","end_local":"2024-06-29T19:30:00","updated":"2024-06-11T01:03:48Z"},{"title":"Forecasting Healthy Futures Global Summit","description":"Sourced from predicthq.com","category":"conferences","start":"2024-06-18T05:00:00Z","geo":{"geometry":{"coordinates":[49.826793,40.35929],"type":"Point"},"placekey":"@69f-ttt-sbk","address":{"country_code":"AZ","formatted_address":"Mehdi Hüseyn Street, 1006 Bakı, Azerbaijan","postcode":"1006","locality":"Bakı","region":"Bakı"}},"labels":["conference"],"duration":205200,"start_local":"2024-06-18T09:00:00","end":"2024-06-20T14:00:00Z","end_local":"2024-06-20T18:00:00","updated":"2024-05-31T23:06:26Z"},{"title":"Whitesquare","description":"Sourced from predicthq.com","category":"concerts","start":"2024-06-15T19:30:00Z","geo":{"geometry":{"coordinates":[49.8409375,40.3389375],"type":"Point"},"placekey":"@69f-v4g-5pv","address":{"country_code":"AZ","formatted_address":"8RQR+H9, Baku, Azerbaijan","locality":"Baku"}},"labels":["concert","music"],"duration":0,"start_local":"2024-06-15T23:30:00","end":"2024-06-15T19:30:00Z","end_local":"2024-06-15T23:30:00","updated":"2024-06-29T19:31:15Z"},{"title":"CANSO Global ATM Summit and AGM","description":"Sourced from predicthq.com","category":"conferences","start":"2024-06-11T05:00:00Z","geo":{"geometry":{"coordinates":[49.856783,40.374711],"type":"Point"},"placekey":"@69f-tth-r8v","address":{"country_code":"AZ","formatted_address":"Baku, Azerbaijan","locality":"Baku","region":"Baku"}},"labels":["conference"],"duration":205200,"start_local":"2024-06-11T09:00:00","end":"2024-06-13T14:00:00Z","end_local":"2024-06-13T18:00:00","updated":"2024-05-31T23:01:42Z"},{"title":"Civil Air Navigation Services Organisation Global Air Traffic Management Summit","description":"Sourced from predicthq.com","category":"conferences","start":"2024-06-10T05:00:00Z","geo":{"geometry":{"coordinates":[49.856783,40.374711],"type":"Point"},"placekey":"@69f-tth-r8v","address":{"country_code":"AZ","formatted_address":"Baku, Azerbaijan","locality":"Baku","region":"Baku"}},"labels":["conference"],"duration":291600,"start_local":"2024-06-10T09:00:00","end":"2024-06-13T14:00:00Z","end_local":"2024-06-13T18:00:00","updated":"2024-05-31T22:48:44Z"},{"title":"The Blaze","description":"Sourced from predicthq.com","category":"concerts","start":"2024-06-08T16:00:00Z","geo":{"geometry":{"coordinates":[49.836601,40.3341522],"type":"Point"},"placekey":"@69f-v4g-kpv","address":{"country_code":"AZ","formatted_address":"EGP Arena, Bakı, Azerbaijan","locality":"Bakı"}},"labels":["concert","music"],"duration":0,"start_local":"2024-06-08T20:00:00","end":"2024-06-08T16:00:00Z","end_local":"2024-06-08T20:00:00","updated":"2024-06-22T16:10:50Z"},{"title":"Baku Energy Forum","description":"Sourced from predicthq.com","category":"conferences","start":"2024-06-04T20:00:00Z","geo":{"geometry":{"coordinates":[50.0340688,40.4402731],"type":"Point"},"placekey":"@69f-v7n-7h5","address":{"country_code":"AZ","formatted_address":"Heydər Əliyev prospekti, Bakı, Azerbaijan","locality":"Bakı","region":"Bakı"}},"labels":["conference"],"duration":172799,"start_local":"2024-06-05T00:00:00","end":"2024-06-06T19:59:59Z","end_local":"2024-06-06T23:59:59","updated":"2024-06-01T00:31:20Z"},{"title":"Caspian International Transport, Transit and Logistics Exhibition","description":"Sourced from predicthq.com","category":"expos","start":"2024-06-04T05:00:00Z","geo":{"geometry":{"coordinates":[49.890631,40.407799],"type":"Point"},"placekey":"@69f-v7d-9mk","address":{"country_code":"AZ","formatted_address":"Heydər Əliyev prospekti, Bakı, Azerbaijan","locality":"Bakı"}},"labels":["expo"],"duration":205200,"start_local":"2024-06-04T09:00:00","end":"2024-06-06T14:00:00Z","end_local":"2024-06-06T18:00:00","updated":"2024-05-27T04:54:18Z"},{"title":"International Caspian Oil & Gas Exhibition","description":"Sourced from predicthq.com","category":"expos","start":"2024-06-04T05:00:00Z","geo":{"geometry":{"coordinates":[49.890631,40.407799],"type":"Point"},"placekey":"@69f-v7d-9mk","address":{"country_code":"AZ","formatted_address":"Heydər Əliyev prospekti, Bakı, Azerbaijan","locality":"Bakı"}},"labels":["expo"],"duration":205200,"start_local":"2024-06-04T09:00:00","end":"2024-06-06T14:00:00Z","end_local":"2024-06-06T18:00:00","updated":"2024-05-27T05:00:16Z"},{"title":"Caspian International Power and Green Energy Exhibition","description":"Sourced from predicthq.com","category":"expos","start":"2024-06-04T05:00:00Z","geo":{"geometry":{"coordinates":[49.890631,40.407799],"type":"Point"},"placekey":"@69f-v7d-9mk","address":{"country_code":"AZ","formatted_address":"Heydər Əliyev prospekti, Bakı, Azerbaijan","locality":"Bakı"}},"labels":["expo"],"duration":205200,"start_local":"2024-06-04T09:00:00","end":"2024-06-06T14:00:00Z","end_local":"2024-06-06T18:00:00","updated":"2024-05-21T21:29:47Z"},{"title":"Caspian Power","description":"Sourced from predicthq.com - The Caspian International Power and Alternative Energy Exhibition is traditionally the largest annual gathering of major industry players, and successfully presents the main trends in the development of national and world energy production. It also makes a significant contribution to the development and implementation of energy saving programmes and alternative and renewable power sources. The exhibition is considered to be an authoritative international platform at which to showcase achievements in the industry, and is an effective platform for business communication between representatives of governments, businesses and scientists in the energy sector.","category":"expos","start":"2024-06-03T20:00:00Z","geo":{"geometry":{"coordinates":[50.0340688,40.4402731],"type":"Point"},"placekey":"@69f-v7n-7h5","address":{"country_code":"AZ","formatted_address":"Heydər Əliyev prospekti, Bakı, Azerbaijan","locality":"Bakı","region":"Bakı"}},"labels":["expo","technology"],"duration":259199,"start_local":"2024-06-04T00:00:00","end":"2024-06-06T19:59:59Z","end_local":"2024-06-06T23:59:59","updated":"2024-06-16T05:42:16Z"},{"title":"CEV European Golden League (W) - Group Stage - Azerbaijan vs Austria","description":"Sourced from predicthq.com","category":"sports","start":"2024-06-02T13:00:00Z","geo":{"geometry":{"coordinates":[49.83502507209778,40.35865711605609],"type":"Point"},"placekey":"@69f-tts-yy9","address":{"country_code":"AZ","formatted_address":"26a Neftçilər Prospekti, Bakı, Azerbaijan","locality":"Bakı"}},"labels":["sport","volleyball"],"duration":0,"start_local":"2024-06-02T17:00:00","end":"2024-06-02T13:00:00Z","end_local":"2024-06-02T17:00:00","updated":"2024-06-03T20:34:41Z"},{"title":"CEV European Golden League (W) - Group Stage - Austria vs Estonia","description":"Sourced from predicthq.com","category":"sports","start":"2024-06-01T14:00:00Z","geo":{"geometry":{"coordinates":[49.83502507209778,40.35865711605609],"type":"Point"},"placekey":"@69f-tts-yy9","address":{"country_code":"AZ","formatted_address":"26a Neftçilər Prospekti, Bakı, Azerbaijan","locality":"Bakı"}},"labels":["sport","volleyball"],"duration":0,"start_local":"2024-06-01T18:00:00","end":"2024-06-01T14:00:00Z","end_local":"2024-06-01T18:00:00","updated":"2024-06-01T20:01:37Z"},{"title":"Game Summit Summer","description":"Sourced from predicthq.com","category":"conferences","start":"2024-06-01T05:00:00Z","geo":{"geometry":{"coordinates":[49.8502798,40.3442264],"type":"Point"},"placekey":"@69f-v4g-9s5","address":{"country_code":"AZ","formatted_address":"Sabail District, Settlement, National Flag Square, AZ1003, Baku, Azerbaijan","locality":"Baku"}},"labels":["conference"],"duration":118800,"start_local":"2024-06-01T09:00:00","end":"2024-06-02T14:00:00Z","end_local":"2024-06-02T18:00:00","updated":"2024-05-31T22:54:38Z"},{"title":"CEV European Golden League (W) - Group Stage - Estonia vs Azerbaijan","description":"Sourced from predicthq.com","category":"sports","start":"2024-05-31T14:00:00Z","geo":{"geometry":{"coordinates":[49.83502507209778,40.35865711605609],"type":"Point"},"placekey":"@69f-tts-yy9","address":{"country_code":"AZ","formatted_address":"26a Neftçilər Prospekti, Bakı, Azerbaijan","locality":"Bakı"}},"labels":["sport","volleyball"],"duration":0,"start_local":"2024-05-31T18:00:00","end":"2024-05-31T14:00:00Z","end_local":"2024-05-31T18:00:00","updated":"2024-05-31T23:08:32Z"},{"title":"«Interior Mebel Show 2024» is the largest furniture trade show","description":"Sourced from predicthq.com - Manufacturers of furniture, components, woodworking industry, design, and new trends in the development of the furniture industry.","category":"expos","start":"2024-05-22T18:00:00Z","geo":{"geometry":{"coordinates":[49.8906309,40.4077986],"type":"Point"},"placekey":"@69f-v7d-9mk","address":{"country_code":"AZ","formatted_address":"Heydər Əliyev prospekti, Bakı, Azerbaijan","locality":"Bakı"}},"labels":["business","expo"],"duration":158400,"start_local":"2024-05-22T22:00:00","end":"2024-05-24T14:00:00Z","end_local":"2024-05-24T18:00:00","updated":"2024-06-05T19:55:11Z"},{"title":"Birinci Dasta - MOIK vs İmişli","description":"Sourced from predicthq.com","category":"sports","start":"2024-05-22T12:00:00Z","geo":{"geometry":{"coordinates":[50.078622374916094,40.44799687114148],"type":"Point"},"placekey":"@69f-wkk-7wk","address":{"country_code":"AZ","formatted_address":"Binə, Azerbaijan","locality":"Binə"}},"labels":["soccer","sport"],"duration":0,"start_local":"2024-05-22T16:00:00","end":"2024-05-22T12:00:00Z","end_local":"2024-05-22T16:00:00","updated":"2024-06-12T06:45:19Z"},{"title":"Birinci Dasta - Şamaxı vs Araz Saatlı","description":"Sourced from predicthq.com","category":"sports","start":"2024-05-22T12:00:00Z","geo":{"geometry":{"coordinates":[48.635492598,40.64067065],"type":"Point"},"placekey":"@679-53g-rrk","address":{"country_code":"AZ","formatted_address":"Aşıq Məmmədağa, Şamaxı (Shamakhi), Azerbaijan","locality":"Şamaxı (Shamakhi)"}},"labels":["soccer","sport"],"duration":0,"start_local":"2024-05-22T16:00:00","end":"2024-05-22T12:00:00Z","end_local":"2024-05-22T16:00:00","updated":"2024-06-12T11:10:21Z"},{"title":"Birinci Dasta - Difai Ağsu vs Zaqatala","description":"Sourced from predicthq.com","category":"sports","start":"2024-05-22T12:00:00Z","geo":{"geometry":{"coordinates":[48.3820976,40.5765999],"type":"Point"},"placekey":"@679-4zx-xbk","address":{"country_code":"AZ","formatted_address":"Agsu, Azerbaijan","locality":"Agsu","region":"Agsu"}},"labels":["soccer","sport"],"duration":0,"start_local":"2024-05-22T16:00:00","end":"2024-05-22T12:00:00Z","end_local":"2024-05-22T16:00:00","updated":"2024-06-12T19:48:33Z"},{"title":"Birinci Dasta - İrəvan vs Karvan","description":"Sourced from predicthq.com","category":"sports","start":"2024-05-22T12:00:00Z","geo":{"geometry":{"coordinates":[49.89786922931671,40.410890157944166],"type":"Point"},"placekey":"@69f-v7d-7kf","address":{"country_code":"AZ","formatted_address":"5 Heydər Əliyev, Bakı (Baku), Azerbaijan","locality":"Bakı (Baku)"}},"labels":["soccer","sport"],"duration":0,"start_local":"2024-05-22T16:00:00","end":"2024-05-22T12:00:00Z","end_local":"2024-05-22T16:00:00","updated":"2024-06-11T21:27:11Z"},{"title":"Birinci Dasta - Mingəçevir vs Qaradağ Lökbatan","description":"Sourced from predicthq.com","category":"sports","start":"2024-05-22T12:00:00Z","geo":{"geometry":{"coordinates":[47.04272210597992,40.763064288291545],"type":"Point"},"placekey":"@678-cfx-ty9","address":{"country_code":"AZ","formatted_address":"Mingəçevir, Azerbaijan","locality":"Mingəçevir"}},"labels":["soccer","sport"],"duration":0,"start_local":"2024-05-22T16:00:00","end":"2024-05-22T12:00:00Z","end_local":"2024-05-22T16:00:00","updated":"2024-06-26T22:36:25Z"},{"title":"Baku Decor Show","description":"Sourced from predicthq.com","category":"expos","start":"2024-05-22T05:00:00Z","geo":{"geometry":{"coordinates":[50.0340688,40.4402731],"type":"Point"},"placekey":"@69f-v7n-7h5","address":{"country_code":"AZ","formatted_address":"Heydər Əliyev prospekti, Bakı, Azerbaijan","locality":"Bakı","region":"Bakı"}},"labels":["expo"],"duration":205200,"start_local":"2024-05-22T09:00:00","end":"2024-05-24T14:00:00Z","end_local":"2024-05-24T18:00:00","updated":"2024-06-04T05:36:50Z"},{"title":"United Dental Show","description":"Sourced from predicthq.com","category":"expos","start":"2024-05-22T05:00:00Z","geo":{"geometry":{"coordinates":[49.824483,40.386829],"type":"Point"},"placekey":"@69f-ttq-rtv","address":{"country_code":"AZ","formatted_address":"6 Izmir St, Baku 1065, Azerbaijan","postcode":"1065","locality":"Baku"}},"labels":["expo"],"duration":118800,"start_local":"2024-05-22T09:00:00","end":"2024-05-23T14:00:00Z","end_local":"2024-05-23T18:00:00","updated":"2024-06-02T16:10:14Z"},{"title":"United Medical Tourism Expo in Baku","description":"Sourced from predicthq.com","category":"expos","start":"2024-05-21T20:00:00Z","geo":{"geometry":{"coordinates":[49.824483,40.386829],"type":"Point"},"placekey":"@69f-ttq-rtv","address":{"country_code":"AZ","formatted_address":"6 Izmir St, Baku 1065, Azerbaijan","postcode":"1065","locality":"Baku"}},"labels":["expo"],"duration":172799,"start_local":"2024-05-22T00:00:00","end":"2024-05-23T19:59:59Z","end_local":"2024-05-23T23:59:59","updated":"2024-06-05T01:02:09Z"},{"title":"Interior Mebel Show","description":"Sourced from predicthq.com","category":"expos","start":"2024-05-21T20:00:00Z","geo":{"geometry":{"coordinates":[50.0340688,40.4402731],"type":"Point"},"placekey":"@69f-v7n-7h5","address":{"country_code":"AZ","formatted_address":"Heydər Əliyev prospekti, Bakı, Azerbaijan","locality":"Bakı","region":"Bakı"}},"labels":["expo"],"duration":172799,"start_local":"2024-05-22T00:00:00","end":"2024-05-23T19:59:59Z","end_local":"2024-05-23T23:59:59","updated":"2024-06-05T06:00:27Z"},{"title":"CEV European Golden League - Group Stage - Azerbaijan vs Ukraine","description":"Sourced from predicthq.com","category":"sports","start":"2024-05-19T14:00:00Z","geo":{"geometry":{"coordinates":[49.83502507209778,40.35865711605609],"type":"Point"},"placekey":"@69f-tts-yy9","address":{"country_code":"AZ","formatted_address":"26a Neftçilər Prospekti, Bakı, Azerbaijan","locality":"Bakı"}},"labels":["sport","volleyball"],"duration":0,"start_local":"2024-05-19T18:00:00","end":"2024-05-19T14:00:00Z","end_local":"2024-05-19T18:00:00","updated":"2024-06-05T17:27:48Z"},{"title":"CEV European Golden League - Group Stage - Ukraine vs Romania","description":"Sourced from predicthq.com","category":"sports","start":"2024-05-18T14:00:00Z","geo":{"geometry":{"coordinates":[49.83502507209778,40.35865711605609],"type":"Point"},"placekey":"@69f-tts-yy9","address":{"country_code":"AZ","formatted_address":"26a Neftçilər Prospekti, Bakı, Azerbaijan","locality":"Bakı"}},"labels":["sport","volleyball"],"duration":0,"start_local":"2024-05-18T18:00:00","end":"2024-05-18T14:00:00Z","end_local":"2024-05-18T18:00:00","updated":"2024-06-05T02:01:01Z"},{"title":"CEV European Golden League - Group Stage - Romania vs Azerbaijan","description":"Sourced from predicthq.com","category":"sports","start":"2024-05-17T14:00:00Z","geo":{"geometry":{"coordinates":[49.83502507209778,40.35865711605609],"type":"Point"},"placekey":"@69f-tts-yy9","address":{"country_code":"AZ","formatted_address":"26a Neftçilər Prospekti, Bakı, Azerbaijan","locality":"Bakı"}},"labels":["sport","volleyball"],"duration":0,"start_local":"2024-05-17T18:00:00","end":"2024-05-17T14:00:00Z","end_local":"2024-05-17T18:00:00","updated":"2024-06-05T06:45:13Z"},{"title":"NO-CODE SUMMIT BAKU 2024","description":"Sourced from predicthq.com - The event explores the low-code technologies popularization among investors and representatives of the digital community of Azerbaijan!","category":"conferences","start":"2024-05-17T06:00:00Z","geo":{"geometry":{"coordinates":[49.8258725,40.3865761],"type":"Point"},"placekey":"@69f-ttq-pgk","address":{"country_code":"AZ","formatted_address":"Bakıxanov Küçəsi, Bakı, Azerbaijan","locality":"Bakı"}},"labels":["conference","science","technology"],"duration":25200,"start_local":"2024-05-17T10:00:00","end":"2024-05-17T13:00:00Z","end_local":"2024-05-17T17:00:00","updated":"2024-06-12T07:54:25Z"},{"title":"Birinci Dasta - Araz Saatlı vs İmişli","description":"Sourced from predicthq.com","category":"sports","start":"2024-05-16T13:00:00Z","geo":{"geometry":{"coordinates":[48.350178773,39.945045686],"type":"Point"},"placekey":"@678-qxz-ysq","address":{"country_code":"AZ","formatted_address":"W8VX+XV8, Saatli, Azerbaijan","locality":"Saatli"}},"labels":["soccer","sport"],"duration":0,"start_local":"2024-05-16T17:00:00","end":"2024-05-16T13:00:00Z","end_local":"2024-05-16T17:00:00","updated":"2024-06-11T21:17:52Z"},{"title":"Birinci Dasta - Qaradağ Lökbatan vs Şamaxı","description":"Sourced from predicthq.com","category":"sports","start":"2024-05-16T13:00:00Z","geo":{"geometry":{"coordinates":[49.736404,40.32335],"type":"Point"},"placekey":"@69f-vj9-mrk","address":{"country_code":"AZ","formatted_address":"28 May küçəsi (Lökbatan qəs.)\nBakı\nAzərbaycan","locality":"Bakı","region":"Baki"}},"labels":["soccer","sport"],"duration":0,"start_local":"2024-05-16T17:00:00","end":"2024-05-16T13:00:00Z","end_local":"2024-05-16T17:00:00","updated":"2024-06-12T11:20:37Z"},{"title":"Fintex Summit 2024 - Finance and Technologies Expo","description":"Sourced from predicthq.com - Join us as we chart the course for the future of finance and banking in our region and beyond!","category":"conferences","start":"2024-05-15T17:00:00Z","geo":{"geometry":{"coordinates":[49.8836253,40.3748784],"type":"Point"},"placekey":"@69f-ttj-v2k","address":{"country_code":"AZ","formatted_address":"Xəqani Rüstəmov, 1010 Bakı, Azerbaijan","locality":"Bakı","postcode":"1010"}},"labels":["business","conference"],"duration":32400,"start_local":"2024-05-15T21:00:00","end":"2024-05-16T02:00:00Z","end_local":"2024-05-16T06:00:00","updated":"2024-06-04T22:12:37Z"},{"title":"Birinci Dasta - Zaqatala vs İrəvan","description":"Sourced from predicthq.com","category":"sports","start":"2024-05-15T13:00:00Z","geo":{"geometry":{"coordinates":[46.65272355079651,41.639412885706285],"type":"Point"},"placekey":"@679-rj7-rkz","address":{"country_code":"AZ","formatted_address":"JMQ2+VWM, Sülh küçəsi, Zaqatala, Azerbaijan","locality":"Zaqatala"}},"labels":["soccer","sport"],"duration":0,"start_local":"2024-05-15T17:00:00","end":"2024-05-15T13:00:00Z","end_local":"2024-05-15T17:00:00","updated":"2024-06-12T02:07:26Z"},{"title":"Birinci Dasta - Karvan vs Mingəçevir","description":"Sourced from predicthq.com","category":"sports","start":"2024-05-15T13:00:00Z","geo":{"geometry":{"coordinates":[47.16154932975769,40.60298511079611],"type":"Point"},"placekey":"@678-cpp-87q","address":{"country_code":"AZ","formatted_address":"115 Ceyhun Mustafayev küçəsi, Yevlax (Evlakh), Azerbaijan","locality":"Yevlax (Evlakh)"}},"labels":["soccer","sport"],"duration":0,"start_local":"2024-05-15T17:00:00","end":"2024-05-15T13:00:00Z","end_local":"2024-05-15T17:00:00","updated":"2024-06-26T12:51:30Z"},{"title":"Birinci Dasta - Difai Ağsu vs MOIK","description":"Sourced from predicthq.com","category":"sports","start":"2024-05-15T13:00:00Z","geo":{"geometry":{"coordinates":[48.635492598,40.64067065],"type":"Point"},"placekey":"@679-53g-rrk","address":{"country_code":"AZ","formatted_address":"Aşıq Məmmədağa, Şamaxı (Shamakhi), Azerbaijan","locality":"Şamaxı (Shamakhi)"}},"labels":["soccer","sport"],"duration":0,"start_local":"2024-05-15T17:00:00","end":"2024-05-15T13:00:00Z","end_local":"2024-05-15T17:00:00","updated":"2024-06-12T11:31:34Z"},{"title":"Azerbaijan International Food Industry Exhibition","description":"Sourced from predicthq.com","category":"expos","start":"2024-05-15T05:00:00Z","geo":{"geometry":{"coordinates":[49.890631,40.407799],"type":"Point"},"placekey":"@69f-v7d-9mk","address":{"country_code":"AZ","formatted_address":"Heydər Əliyev prospekti, Bakı, Azerbaijan","locality":"Bakı"}},"labels":["expo"],"duration":205200,"start_local":"2024-05-15T09:00:00","end":"2024-05-17T14:00:00Z","end_local":"2024-05-17T18:00:00","updated":"2024-05-27T16:50:48Z"},{"title":"Caspian Agro","description":"Sourced from predicthq.com - Caspian Agro is a prominent expo event held annually at the renowned Baku Expo Center. This highly anticipated event brings together industry professionals, agribusinesses, and experts from around the globe to provide a platform for knowledge-exchange, networking, and showcasing the latest technologies and advancements in the agriculture and agro-industry sectors.","category":"expos","start":"2024-05-14T20:00:00Z","geo":{"geometry":{"coordinates":[50.0336265,40.4398422],"type":"Point"},"placekey":"@69f-v7n-7h5","address":{"country_code":"AZ","formatted_address":"Heydər Əliyev prospekti, Bakı, Azerbaijan","locality":"Bakı"}},"labels":["expo"],"duration":259199,"start_local":"2024-05-15T00:00:00","end":"2024-05-17T19:59:59Z","end_local":"2024-05-17T23:59:59","updated":"2024-06-09T04:44:17Z"},{"title":"Gökhan Türkmen","description":"Sourced from predicthq.com","category":"concerts","start":"2024-05-10T17:00:00Z","geo":{"geometry":{"coordinates":[49.83447,40.3611],"type":"Point"},"placekey":"@69f-ttt-pvz","address":{"country_code":"AZ","formatted_address":"Neftchiler pr.1, Baku, Azerbaijan","locality":"Baku"}},"labels":["concert","music"],"duration":0,"start_local":"2024-05-10T21:00:00","end":"2024-05-10T17:00:00Z","end_local":"2024-05-10T21:00:00","updated":"2024-06-12T01:10:52Z"},{"title":"Birinci Dasta - Mingəçevir vs Zaqatala","description":"Sourced from predicthq.com","category":"sports","start":"2024-05-09T13:00:00Z","geo":{"geometry":{"coordinates":[47.04272210597992,40.763064288291545],"type":"Point"},"placekey":"@678-cfx-ty9","address":{"country_code":"AZ","formatted_address":"Mingəçevir, Azerbaijan","locality":"Mingəçevir"}},"labels":["soccer","sport"],"duration":0,"start_local":"2024-05-09T17:00:00","end":"2024-05-09T13:00:00Z","end_local":"2024-05-09T17:00:00","updated":"2024-06-26T20:11:37Z"},{"title":"Birinci Dasta - İmişli vs Qaradağ Lökbatan","description":"Sourced from predicthq.com","category":"sports","start":"2024-05-09T13:00:00Z","geo":{"geometry":{"coordinates":[48.04121732711792,39.85087330389287],"type":"Point"},"placekey":"@678-q5p-2tv","address":{"country_code":"AZ","formatted_address":"İmişli, Azerbaijan","locality":"İmişli"}},"labels":["soccer","sport"],"duration":0,"start_local":"2024-05-09T17:00:00","end":"2024-05-09T13:00:00Z","end_local":"2024-05-09T17:00:00","updated":"2024-06-12T01:50:37Z"},{"title":"Birinci Dasta - Şamaxı vs Karvan","description":"Sourced from predicthq.com","category":"sports","start":"2024-05-09T12:30:00Z","geo":{"geometry":{"coordinates":[48.635492598,40.64067065],"type":"Point"},"placekey":"@679-53g-rrk","address":{"country_code":"AZ","formatted_address":"Aşıq Məmmədağa, Şamaxı (Shamakhi), Azerbaijan","locality":"Şamaxı (Shamakhi)"}},"labels":["soccer","sport"],"duration":0,"start_local":"2024-05-09T16:30:00","end":"2024-05-09T12:30:00Z","end_local":"2024-05-09T16:30:00","updated":"2024-06-12T07:34:09Z"},{"title":"Birinci Dasta - Araz Saatlı vs MOIK","description":"Sourced from predicthq.com","category":"sports","start":"2024-05-09T12:00:00Z","geo":{"geometry":{"coordinates":[48.350178773,39.945045686],"type":"Point"},"placekey":"@678-qxz-ysq","address":{"country_code":"AZ","formatted_address":"W8VX+XV8, Saatli, Azerbaijan","locality":"Saatli"}},"labels":["soccer","sport"],"duration":0,"start_local":"2024-05-09T16:00:00","end":"2024-05-09T12:00:00Z","end_local":"2024-05-09T16:00:00","updated":"2024-06-12T13:24:12Z"},{"title":"Grand Caucasus - Azerbaijan, Georgia & Armenia Medical Conference Tour","description":"Sourced from predicthq.com","category":"conferences","start":"2024-05-08T20:00:00Z","geo":{"geometry":{"coordinates":[49.826793,40.35929],"type":"Point"},"placekey":"@69f-ttt-sbk","address":{"country_code":"AZ","formatted_address":"Mehdi Hüseyn Street, 1006 Bakı, Azerbaijan","postcode":"1006","locality":"Bakı","region":"Bakı"}},"labels":["conference"],"duration":1814399,"start_local":"2024-05-09T00:00:00","end":"2024-05-29T19:59:59Z","end_local":"2024-05-29T23:59:59","updated":"2024-06-05T01:01:43Z"},{"title":"Birinci Dasta - İrəvan vs Difai Ağsu","description":"Sourced from predicthq.com","category":"sports","start":"2024-05-08T11:00:00Z","geo":{"geometry":{"coordinates":[49.89786922931671,40.410890157944166],"type":"Point"},"placekey":"@69f-v7d-7kf","address":{"country_code":"AZ","formatted_address":"5 Heydər Əliyev, Bakı (Baku), Azerbaijan","locality":"Bakı (Baku)"}},"labels":["soccer","sport"],"duration":0,"start_local":"2024-05-08T15:00:00","end":"2024-05-08T11:00:00Z","end_local":"2024-05-08T15:00:00","updated":"2024-06-12T01:27:53Z"},{"title":"Global Authorship","description":"Sourced from predicthq.com","category":"conferences","start":"2024-05-05T07:00:00Z","geo":{"geometry":{"coordinates":[49.84988,40.4291],"type":"Point"},"placekey":"@69f-tsz-2rk","address":{"country_code":"AZ","formatted_address":"Abay Kunanbayev küçəsi, 1115 Bakı, Azerbaijan","locality":"Bakı","postcode":"1115"}},"labels":["conference"],"duration":14400,"start_local":"2024-05-05T11:00:00","end":"2024-05-05T11:00:00Z","end_local":"2024-05-05T15:00:00","updated":"2024-06-11T22:00:45Z"},{"title":"Baku Marathon","description":"Sourced from predicthq.com","category":"sports","start":"2024-05-05T06:00:00Z","geo":{"geometry":{"coordinates":[49.8670924,40.4092617],"type":"Point"},"placekey":"@69f-tss-6ff","address":{"country_code":"AZ","formatted_address":"Baku, Azerbaijan","locality":"Baku"}},"labels":["marathon","outdoor-sports","running","sport"],"duration":0,"start_local":"2024-05-05T10:00:00","end":"2024-05-05T06:00:00Z","end_local":"2024-05-05T10:00:00","updated":"2024-07-01T10:19:27Z"},{"title":"Gənclərin Sosial Media Forumu","description":"Sourced from predicthq.com - Sosial media haqda danışmaq, öyrənmək və əylənmək üçün peşəkarlarla bir araya gəlirik!","category":"conferences","start":"2024-05-05T05:00:00Z","geo":{"geometry":{"coordinates":[49.8146423,40.3849664],"type":"Point"},"placekey":"@69f-tsb-rrk","address":{"country_code":"AZ","formatted_address":"Həsən Məcidov Küçəsi, 1073 Bakı, Azerbaijan","locality":"Bakı","postcode":"1073"}},"labels":["business","conference"],"duration":32400,"start_local":"2024-05-05T09:00:00","end":"2024-05-05T14:00:00Z","end_local":"2024-05-05T18:00:00","updated":"2024-06-04T22:50:40Z"},{"title":"Birinci Dasta - Qaradağ Lökbatan vs Araz Saatlı","description":"Sourced from predicthq.com","category":"sports","start":"2024-05-02T12:00:00Z","geo":{"geometry":{"coordinates":[49.736404,40.32335],"type":"Point"},"placekey":"@69f-vj9-mrk","address":{"country_code":"AZ","formatted_address":"28 May küçəsi (Lökbatan qəs.)\nBakı\nAzərbaycan","locality":"Bakı","region":"Baki"}},"labels":["soccer","sport"],"duration":0,"start_local":"2024-05-02T16:00:00","end":"2024-05-02T12:00:00Z","end_local":"2024-05-02T16:00:00","updated":"2024-06-11T23:59:46Z"},{"title":"Birinci Dasta - Zaqatala vs Şamaxı","description":"Sourced from predicthq.com","category":"sports","start":"2024-05-02T12:00:00Z","geo":{"geometry":{"coordinates":[46.65272355079651,41.639412885706285],"type":"Point"},"placekey":"@679-rj7-rkz","address":{"country_code":"AZ","formatted_address":"JMQ2+VWM, Sülh küçəsi, Zaqatala, Azerbaijan","locality":"Zaqatala"}},"labels":["soccer","sport"],"duration":0,"start_local":"2024-05-02T16:00:00","end":"2024-05-02T12:00:00Z","end_local":"2024-05-02T16:00:00","updated":"2024-06-12T01:56:55Z"},{"title":"Birinci Dasta - MOIK vs İrəvan","description":"Sourced from predicthq.com","category":"sports","start":"2024-05-02T12:00:00Z","geo":{"geometry":{"coordinates":[50.078622374916094,40.44799687114148],"type":"Point"},"placekey":"@69f-wkk-7wk","address":{"country_code":"AZ","formatted_address":"Binə, Azerbaijan","locality":"Binə"}},"labels":["soccer","sport"],"duration":0,"start_local":"2024-05-02T16:00:00","end":"2024-05-02T12:00:00Z","end_local":"2024-05-02T16:00:00","updated":"2024-06-11T22:26:38Z"},{"title":"Birinci Dasta - Karvan vs İmişli","description":"Sourced from predicthq.com","category":"sports","start":"2024-05-01T13:00:00Z","geo":{"geometry":{"coordinates":[47.16154932975769,40.60298511079611],"type":"Point"},"placekey":"@678-cpp-87q","address":{"country_code":"AZ","formatted_address":"115 Ceyhun Mustafayev küçəsi, Yevlax (Evlakh), Azerbaijan","locality":"Yevlax (Evlakh)"}},"labels":["soccer","sport"],"duration":0,"start_local":"2024-05-01T17:00:00","end":"2024-05-01T13:00:00Z","end_local":"2024-05-01T17:00:00","updated":"2024-06-12T10:16:05Z"},{"title":"Birinci Dasta - Difai Ağsu vs Mingəçevir","description":"Sourced from predicthq.com","category":"sports","start":"2024-05-01T12:30:00Z","geo":{"geometry":{"coordinates":[48.635492598,40.64067065],"type":"Point"},"placekey":"@679-53g-rrk","address":{"country_code":"AZ","formatted_address":"Aşıq Məmmədağa, Şamaxı (Shamakhi), Azerbaijan","locality":"Şamaxı (Shamakhi)"}},"labels":["soccer","sport"],"duration":0,"start_local":"2024-05-01T16:30:00","end":"2024-05-01T12:30:00Z","end_local":"2024-05-01T16:30:00","updated":"2024-06-27T03:44:41Z"},{"title":"Baltra","description":"Sourced from predicthq.com","category":"concerts","start":"2024-04-26T19:00:00Z","geo":{"geometry":{"coordinates":[49.8409375,40.3389375],"type":"Point"},"placekey":"@69f-v4g-5pv","address":{"country_code":"AZ","formatted_address":"8RQR+H9, Baku, Azerbaijan","locality":"Baku"}},"labels":["concert","music"],"duration":0,"start_local":"2024-04-26T23:00:00","end":"2024-04-26T19:00:00Z","end_local":"2024-04-26T23:00:00","updated":"2024-06-11T22:04:37Z"},{"title":"Yalin","description":"Sourced from predicthq.com","category":"concerts","start":"2024-04-26T17:30:00Z","geo":{"geometry":{"coordinates":[49.8614,40.39546],"type":"Point"},"placekey":"@69f-ttr-qcq","address":{"country_code":"AZ","formatted_address":"Tabriz Street, Baku, Azerbaijan","locality":"Baku"}},"labels":["concert","music"],"duration":0,"start_local":"2024-04-26T21:30:00","end":"2024-04-26T17:30:00Z","end_local":"2024-04-26T21:30:00","updated":"2024-06-12T00:15:34Z"},{"title":"Birinci Dasta - Mingəçevir vs İrəvan","description":"Sourced from predicthq.com","category":"sports","start":"2024-04-26T12:00:00Z","geo":{"geometry":{"coordinates":[47.04272210597992,40.763064288291545],"type":"Point"},"placekey":"@678-cfx-ty9","address":{"country_code":"AZ","formatted_address":"Mingəçevir, Azerbaijan","locality":"Mingəçevir"}},"labels":["soccer","sport"],"duration":0,"start_local":"2024-04-26T16:00:00","end":"2024-04-26T12:00:00Z","end_local":"2024-04-26T16:00:00","updated":"2024-06-26T12:30:35Z"},{"title":"Birinci Dasta - Şamaxı vs Difai Ağsu","description":"Sourced from predicthq.com","category":"sports","start":"2024-04-26T11:30:00Z","geo":{"geometry":{"coordinates":[48.635492598,40.64067065],"type":"Point"},"placekey":"@679-53g-rrk","address":{"country_code":"AZ","formatted_address":"Aşıq Məmmədağa, Şamaxı (Shamakhi), Azerbaijan","locality":"Şamaxı (Shamakhi)"}},"labels":["soccer","sport"],"duration":0,"start_local":"2024-04-26T15:30:00","end":"2024-04-26T11:30:00Z","end_local":"2024-04-26T15:30:00","updated":"2024-06-12T13:32:54Z"},{"title":"Health Tourism Expo - Baku","description":"Sourced from predicthq.com","category":"expos","start":"2024-04-26T05:00:00Z","geo":{"geometry":{"coordinates":[49.849712,40.372267],"type":"Point"},"placekey":"@69f-ttj-5vf","address":{"country_code":"AZ","formatted_address":"1B Azadlig Avenue, Baku 1000, Baku, Azerbaijan","locality":"Baku"}},"labels":["expo"],"duration":118800,"start_local":"2024-04-26T09:00:00","end":"2024-04-27T14:00:00Z","end_local":"2024-04-27T18:00:00","updated":"2024-06-05T10:31:04Z"},{"title":"Yalin","description":"Sourced from predicthq.com","category":"concerts","start":"2024-04-25T17:30:00Z","geo":{"geometry":{"coordinates":[49.8614,40.39546],"type":"Point"},"placekey":"@69f-ttr-qcq","address":{"country_code":"AZ","formatted_address":"Tabriz Street, Baku, Azerbaijan","locality":"Baku"}},"labels":["concert","music"],"duration":0,"start_local":"2024-04-25T21:30:00","end":"2024-04-25T17:30:00Z","end_local":"2024-04-25T21:30:00","updated":"2024-06-12T04:07:07Z"},{"title":"Birinci Dasta - İmişli vs Zaqatala","description":"Sourced from predicthq.com","category":"sports","start":"2024-04-25T12:00:00Z","geo":{"geometry":{"coordinates":[48.04121732711792,39.85087330389287],"type":"Point"},"placekey":"@678-q5p-2tv","address":{"country_code":"AZ","formatted_address":"İmişli, Azerbaijan","locality":"İmişli"}},"labels":["soccer","sport"],"duration":0,"start_local":"2024-04-25T16:00:00","end":"2024-04-25T12:00:00Z","end_local":"2024-04-25T16:00:00","updated":"2024-06-12T06:37:20Z"},{"title":"Birinci Dasta - Qaradağ Lökbatan vs MOIK","description":"Sourced from predicthq.com","category":"sports","start":"2024-04-25T12:00:00Z","geo":{"geometry":{"coordinates":[49.736404,40.32335],"type":"Point"},"placekey":"@69f-vj9-mrk","address":{"country_code":"AZ","formatted_address":"28 May küçəsi (Lökbatan qəs.)\nBakı\nAzərbaycan","locality":"Bakı","region":"Baki"}},"labels":["soccer","sport"],"duration":0,"start_local":"2024-04-25T16:00:00","end":"2024-04-25T12:00:00Z","end_local":"2024-04-25T16:00:00","updated":"2024-06-12T08:26:17Z"},{"title":"Birinci Dasta - Araz Saatlı vs Karvan","description":"Sourced from predicthq.com","category":"sports","start":"2024-04-25T11:30:00Z","geo":{"geometry":{"coordinates":[48.350178773,39.945045686],"type":"Point"},"placekey":"@678-qxz-ysq","address":{"country_code":"AZ","formatted_address":"W8VX+XV8, Saatli, Azerbaijan","locality":"Saatli"}},"labels":["soccer","sport"],"duration":0,"start_local":"2024-04-25T15:30:00","end":"2024-04-25T11:30:00Z","end_local":"2024-04-25T15:30:00","updated":"2024-06-11T20:33:24Z"},{"title":"Dolu Kadehi Ters Tut","description":"Sourced from predicthq.com","category":"concerts","start":"2024-04-21T16:00:00Z","geo":{"geometry":{"coordinates":[49.8410698,40.3392196],"type":"Point"},"placekey":"@69f-v4g-5zz","address":{"country_code":"AZ","formatted_address":"DÖVLƏT BAYRAQ MEYDANI, Bakı, Azerbaijan","locality":"Bakı"}},"labels":["concert","music"],"duration":0,"start_local":"2024-04-21T20:00:00","end":"2024-04-21T16:00:00Z","end_local":"2024-04-21T20:00:00","updated":"2024-06-11T22:21:03Z"},{"title":"Birinci Dasta - Karvan vs Qaradağ Lökbatan","description":"Sourced from predicthq.com","category":"sports","start":"2024-04-18T12:00:00Z","geo":{"geometry":{"coordinates":[47.16154932975769,40.60298511079611],"type":"Point"},"placekey":"@678-cpp-87q","address":{"country_code":"AZ","formatted_address":"115 Ceyhun Mustafayev küçəsi, Yevlax (Evlakh), Azerbaijan","locality":"Yevlax (Evlakh)"}},"labels":["soccer","sport"],"duration":0,"start_local":"2024-04-18T16:00:00","end":"2024-04-18T12:00:00Z","end_local":"2024-04-18T16:00:00","updated":"2024-06-12T05:41:44Z"},{"title":"Birinci Dasta - Difai Ağsu vs İmişli","description":"Sourced from predicthq.com","category":"sports","start":"2024-04-18T11:30:00Z","geo":{"geometry":{"coordinates":[48.635492598,40.64067065],"type":"Point"},"placekey":"@679-53g-rrk","address":{"country_code":"AZ","formatted_address":"Aşıq Məmmədağa, Şamaxı (Shamakhi), Azerbaijan","locality":"Şamaxı (Shamakhi)"}},"labels":["soccer","sport"],"duration":0,"start_local":"2024-04-18T15:30:00","end":"2024-04-18T11:30:00Z","end_local":"2024-04-18T15:30:00","updated":"2024-06-12T11:06:35Z"},{"title":"Birinci Dasta - Zaqatala vs Araz Saatlı","description":"Sourced from predicthq.com","category":"sports","start":"2024-04-18T11:00:00Z","geo":{"geometry":{"coordinates":[46.65272355079651,41.639412885706285],"type":"Point"},"placekey":"@679-rj7-rkz","address":{"country_code":"AZ","formatted_address":"JMQ2+VWM, Sülh küçəsi, Zaqatala, Azerbaijan","locality":"Zaqatala"}},"labels":["soccer","sport"],"duration":0,"start_local":"2024-04-18T15:00:00","end":"2024-04-18T11:00:00Z","end_local":"2024-04-18T15:00:00","updated":"2024-06-12T02:01:33Z"},{"title":"Birinci Dasta - MOIK vs Mingəçevir","description":"Sourced from predicthq.com","category":"sports","start":"2024-04-17T11:30:00Z","geo":{"geometry":{"coordinates":[50.078622374916094,40.44799687114148],"type":"Point"},"placekey":"@69f-wkk-7wk","address":{"country_code":"AZ","formatted_address":"Binə, Azerbaijan","locality":"Binə"}},"labels":["soccer","sport"],"duration":0,"start_local":"2024-04-17T15:30:00","end":"2024-04-17T11:30:00Z","end_local":"2024-04-17T15:30:00","updated":"2024-06-27T03:49:22Z"},{"title":"Birinci Dasta - İrəvan vs Şamaxı","description":"Sourced from predicthq.com","category":"sports","start":"2024-04-17T11:00:00Z","geo":{"geometry":{"coordinates":[49.89786922931671,40.410890157944166],"type":"Point"},"placekey":"@69f-v7d-7kf","address":{"country_code":"AZ","formatted_address":"5 Heydər Əliyev, Bakı (Baku), Azerbaijan","locality":"Bakı (Baku)"}},"labels":["soccer","sport"],"duration":0,"start_local":"2024-04-17T15:00:00","end":"2024-04-17T11:00:00Z","end_local":"2024-04-17T15:00:00","updated":"2024-06-12T14:26:04Z"},{"title":"The international multidisciplinary exhibition","description":"Sourced from predicthq.com","category":"expos","start":"2024-04-17T05:00:00Z","geo":{"geometry":{"coordinates":[50.0340688,40.4402731],"type":"Point"},"placekey":"@69f-v7n-7h5","address":{"country_code":"AZ","formatted_address":"Heydər Əliyev prospekti, Bakı, Azerbaijan","locality":"Bakı","region":"Bakı"}},"labels":["expo"],"duration":205200,"start_local":"2024-04-17T09:00:00","end":"2024-04-19T14:00:00Z","end_local":"2024-04-19T18:00:00","updated":"2024-06-05T15:26:35Z"},{"title":"Investpro Azerbaijan","description":"Sourced from predicthq.com","category":"conferences","start":"2024-04-15T05:00:00Z","geo":{"geometry":{"coordinates":[49.864875,40.388878],"type":"Point"},"placekey":"@69f-ttr-xyv","address":{"country_code":"AZ","formatted_address":"1025 Baku, Azerbaijan","locality":"Baku","postcode":"1025"}},"labels":["conference"],"duration":32400,"start_local":"2024-04-15T09:00:00","end":"2024-04-15T14:00:00Z","end_local":"2024-04-15T18:00:00","updated":"2024-06-12T04:09:31Z"},{"title":"NO-CODE SUMMIT BAKU 2024","description":"Sourced from predicthq.com - The event explores the low-code technologies popularization among investors and representatives of the digital community of Azerbaijan.","category":"conferences","start":"2024-04-12T07:00:00Z","geo":{"geometry":{"coordinates":[49.8258725,40.3865761],"type":"Point"},"placekey":"@69f-ttq-pgk","address":{"country_code":"AZ","formatted_address":"Bakıxanov Küçəsi, Bakı, Azerbaijan","locality":"Bakı"}},"labels":["conference","science","technology"],"duration":21600,"start_local":"2024-04-12T11:00:00","end":"2024-04-12T13:00:00Z","end_local":"2024-04-12T17:00:00","updated":"2024-06-12T11:16:26Z"},{"title":"Birinci Dasta - Qaradağ Lökbatan vs Zaqatala","description":"Sourced from predicthq.com","category":"sports","start":"2024-04-11T11:30:00Z","geo":{"geometry":{"coordinates":[49.736404,40.32335],"type":"Point"},"placekey":"@69f-vj9-mrk","address":{"country_code":"AZ","formatted_address":"28 May küçəsi (Lökbatan qəs.)\nBakı\nAzərbaycan","locality":"Bakı","region":"Baki"}},"labels":["soccer","sport"],"duration":0,"start_local":"2024-04-11T15:30:00","end":"2024-04-11T11:30:00Z","end_local":"2024-04-11T15:30:00","updated":"2024-06-11T21:21:36Z"},{"title":"Birinci Dasta - Şamaxı vs Mingəçevir","description":"Sourced from predicthq.com","category":"sports","start":"2024-04-11T11:00:00Z","geo":{"geometry":{"coordinates":[48.635492598,40.64067065],"type":"Point"},"placekey":"@679-53g-rrk","address":{"country_code":"AZ","formatted_address":"Aşıq Məmmədağa, Şamaxı (Shamakhi), Azerbaijan","locality":"Şamaxı (Shamakhi)"}},"labels":["soccer","sport"],"duration":0,"start_local":"2024-04-11T15:00:00","end":"2024-04-11T11:00:00Z","end_local":"2024-04-11T15:00:00","updated":"2024-06-26T13:59:15Z"},{"title":"Birinci Dasta - Karvan vs MOIK","description":"Sourced from predicthq.com","category":"sports","start":"2024-04-11T11:00:00Z","geo":{"geometry":{"coordinates":[47.16154932975769,40.60298511079611],"type":"Point"},"placekey":"@678-cpp-87q","address":{"country_code":"AZ","formatted_address":"115 Ceyhun Mustafayev küçəsi, Yevlax (Evlakh), Azerbaijan","locality":"Yevlax (Evlakh)"}},"labels":["soccer","sport"],"duration":0,"start_local":"2024-04-11T15:00:00","end":"2024-04-11T11:00:00Z","end_local":"2024-04-11T15:00:00","updated":"2024-06-12T16:43:06Z"},{"title":"Birinci Dasta - İmişli vs İrəvan","description":"Sourced from predicthq.com","category":"sports","start":"2024-04-10T11:30:00Z","geo":{"geometry":{"coordinates":[48.04121732711792,39.85087330389287],"type":"Point"},"placekey":"@678-q5p-2tv","address":{"country_code":"AZ","formatted_address":"İmişli, Azerbaijan","locality":"İmişli"}},"labels":["soccer","sport"],"duration":0,"start_local":"2024-04-10T15:30:00","end":"2024-04-10T11:30:00Z","end_local":"2024-04-10T15:30:00","updated":"2024-06-11T22:28:35Z"},{"title":"Birinci Dasta - Araz Saatlı vs Difai Ağsu","description":"Sourced from predicthq.com","category":"sports","start":"2024-04-10T11:00:00Z","geo":{"geometry":{"coordinates":[48.350178773,39.945045686],"type":"Point"},"placekey":"@678-qxz-ysq","address":{"country_code":"AZ","formatted_address":"W8VX+XV8, Saatli, Azerbaijan","locality":"Saatli"}},"labels":["soccer","sport"],"duration":0,"start_local":"2024-04-10T15:00:00","end":"2024-04-10T11:00:00Z","end_local":"2024-04-10T15:00:00","updated":"2024-06-12T11:30:15Z"}]