[{"title":"Barbados Royals vs St. Kitts and Nevis Patriots","description":"Sourced from predicthq.com","category":"sports","start":"2024-09-17T23:00:00Z","geo":{"geometry":{"coordinates":[-59.6225241,13.1049948],"type":"Point"},"placekey":"@bsm-9n6-xwk","address":{"country_code":"BB","formatted_address":"President Kennedy Drive, Bridgetown, Barbados","postcode":"BB120004","locality":"Bridgetown","region":"Saint Michael"}},"labels":["cricket","sport"],"duration":0,"start_local":"2024-09-17T19:00:00","end":"2024-09-17T23:00:00Z","end_local":"2024-09-17T19:00:00","updated":"2024-06-04T03:26:43Z"},{"title":"Barbados Royals vs Guyana Amazon Warriors","description":"Sourced from predicthq.com","category":"sports","start":"2024-09-14T23:00:00Z","geo":{"geometry":{"coordinates":[-59.6225241,13.1049948],"type":"Point"},"placekey":"@bsm-9n6-xwk","address":{"country_code":"BB","formatted_address":"President Kennedy Drive, Bridgetown, Barbados","postcode":"BB120004","locality":"Bridgetown","region":"Saint Michael"}},"labels":["cricket","sport"],"duration":0,"start_local":"2024-09-14T19:00:00","end":"2024-09-14T23:00:00Z","end_local":"2024-09-14T19:00:00","updated":"2024-06-03T23:45:06Z"},{"title":"Barbados Royals vs Trinbago Knight Riders","description":"Sourced from predicthq.com","category":"sports","start":"2024-09-13T23:00:00Z","geo":{"geometry":{"coordinates":[-59.6225241,13.1049948],"type":"Point"},"placekey":"@bsm-9n6-xwk","address":{"country_code":"BB","formatted_address":"President Kennedy Drive, Bridgetown, Barbados","postcode":"BB120004","locality":"Bridgetown","region":"Saint Michael"}},"labels":["cricket","sport"],"duration":0,"start_local":"2024-09-13T19:00:00","end":"2024-09-13T23:00:00Z","end_local":"2024-09-13T19:00:00","updated":"2024-06-04T03:01:54Z"},{"title":"Barbados Royals vs Antigua And Barbuda Falcons","description":"Sourced from predicthq.com","category":"sports","start":"2024-09-11T23:00:00Z","geo":{"geometry":{"coordinates":[-59.6225241,13.1049948],"type":"Point"},"placekey":"@bsm-9n6-xwk","address":{"country_code":"BB","formatted_address":"President Kennedy Drive, Bridgetown, Barbados","postcode":"BB120004","locality":"Bridgetown","region":"Saint Michael"}},"labels":["cricket","sport"],"duration":0,"start_local":"2024-09-11T19:00:00","end":"2024-09-11T23:00:00Z","end_local":"2024-09-11T19:00:00","updated":"2024-06-04T01:01:04Z"},{"title":"Barbershop Talk: Addressing the Mental Health of Barbadian Men and Boys","description":"Sourced from predicthq.com - This event will provide a safe space for community members to hold intimate conversations about the mental health of Barbadian men and boys.","category":"conferences","start":"2024-08-18T22:30:00Z","geo":{"geometry":{"coordinates":[-59.6088639,13.1227244],"type":"Point"},"placekey":"@bsm-9km-cbk","address":{"country_code":"BB","formatted_address":"Spooners Hill, Bridgetown, Barbados","locality":"Bridgetown","region":"Saint Michael"}},"labels":["conference","health"],"duration":9000,"start_local":"2024-08-18T18:30:00","end":"2024-08-19T01:00:00Z","end_local":"2024-08-18T21:00:00","updated":"2024-06-20T22:53:32Z"},{"title":"IEEE Summer Topicals Meeting Series","description":"Sourced from predicthq.com","category":"conferences","start":"2024-07-15T13:00:00Z","geo":{"geometry":{"coordinates":[-59.6107636,13.0787038],"type":"Point"},"placekey":"@bsm-9nf-snq","address":{"country_code":"BB","formatted_address":"Drill Hall Beach, Bridgetown, Barbados","postcode":"BB11000","locality":"Bridgetown","region":"Saint Michael"}},"labels":["conference"],"duration":205200,"start_local":"2024-07-15T09:00:00","end":"2024-07-17T22:00:00Z","end_local":"2024-07-17T18:00:00","updated":"2024-05-27T00:28:43Z"},{"title":"ACHEA Annual Conference","description":"Sourced from predicthq.com","category":"conferences","start":"2024-07-11T13:00:00Z","geo":{"geometry":{"coordinates":[-59.589777,13.07434],"type":"Point"},"placekey":"@bsm-9hf-249","address":{"country_code":"BB","formatted_address":"Christ Church BB 15139, Barbados West Indies, Bridgetown, Barbados","locality":"Bridgetown","region":"Christ Church"}},"labels":["conference"],"duration":205200,"start_local":"2024-07-11T09:00:00","end":"2024-07-13T22:00:00Z","end_local":"2024-07-13T18:00:00","updated":"2024-06-02T13:51:23Z"},{"title":"SUMMER POP-UP EVENT FOR BARBADIAN ENTREPRENEURS","description":"Sourced from predicthq.com - Get ready for a fun-filled summer pop-up event showcasing the talent and creativity of Barbadian entrepreneurs!","category":"expos","start":"2024-06-30T17:00:00Z","geo":{"geometry":{"coordinates":[-59.5620746,13.0655223],"type":"Point"},"placekey":"@bsm-9f6-q75","address":{"country_code":"BB","formatted_address":"Oistins, Christ Church, Barbados","locality":"Oistins","region":"Christ Church"}},"labels":["business","expo"],"duration":21600,"start_local":"2024-06-30T13:00:00","end":"2024-06-30T23:00:00Z","end_local":"2024-06-30T19:00:00","updated":"2024-06-13T01:24:19Z"},{"title":"South Africa vs India","description":"Sourced from predicthq.com","category":"sports","start":"2024-06-29T14:30:00Z","geo":{"geometry":{"coordinates":[-59.6225241,13.1049948],"type":"Point"},"placekey":"@bsm-9n6-xwk","address":{"country_code":"BB","formatted_address":"President Kennedy Drive, Bridgetown, Barbados","postcode":"BB120004","locality":"Bridgetown","region":"Saint Michael"}},"labels":["cricket","sport"],"duration":12747,"start_local":"2024-06-29T10:30:00","end":"2024-06-29T18:02:27Z","end_local":"2024-06-29T14:02:27","updated":"2024-07-01T13:08:48Z"},{"title":"USA vs England","description":"Sourced from predicthq.com","category":"sports","start":"2024-06-23T14:30:00Z","geo":{"geometry":{"coordinates":[-59.6225241,13.1049948],"type":"Point"},"placekey":"@bsm-9n6-xwk","address":{"country_code":"BB","formatted_address":"President Kennedy Drive, Bridgetown, Barbados","postcode":"BB120004","locality":"Bridgetown","region":"Saint Michael"}},"labels":["cricket","sport"],"duration":9029,"start_local":"2024-06-23T10:30:00","end":"2024-06-23T17:00:29Z","end_local":"2024-06-23T13:00:29","updated":"2024-06-28T06:19:42Z"},{"title":"USA vs West Indies","description":"Sourced from predicthq.com","category":"sports","start":"2024-06-22T00:30:00Z","geo":{"geometry":{"coordinates":[-59.6225241,13.1049948],"type":"Point"},"placekey":"@bsm-9n6-xwk","address":{"country_code":"BB","formatted_address":"President Kennedy Drive, Bridgetown, Barbados","postcode":"BB120004","locality":"Bridgetown","region":"Saint Michael"}},"labels":["cricket","sport"],"duration":10022,"start_local":"2024-06-21T20:30:00","end":"2024-06-22T03:17:02Z","end_local":"2024-06-21T23:17:02","updated":"2024-06-23T01:17:01Z"},{"title":"Afghanistan vs India","description":"Sourced from predicthq.com","category":"sports","start":"2024-06-20T14:30:00Z","geo":{"geometry":{"coordinates":[-59.6225241,13.1049948],"type":"Point"},"placekey":"@bsm-9n6-xwk","address":{"country_code":"BB","formatted_address":"President Kennedy Drive, Bridgetown, Barbados","postcode":"BB120004","locality":"Bridgetown","region":"Saint Michael"}},"labels":["cricket","sport"],"duration":12984,"start_local":"2024-06-20T10:30:00","end":"2024-06-20T18:06:24Z","end_local":"2024-06-20T14:06:24","updated":"2024-06-28T06:34:37Z"},{"title":"Australia vs England","description":"Sourced from predicthq.com","category":"sports","start":"2024-06-08T17:00:00Z","geo":{"geometry":{"coordinates":[-59.6225241,13.1049948],"type":"Point"},"placekey":"@bsm-9n6-xwk","address":{"country_code":"BB","formatted_address":"President Kennedy Drive, Bridgetown, Barbados","postcode":"BB120004","locality":"Bridgetown","region":"Saint Michael"}},"labels":["cricket","sport"],"duration":13041,"start_local":"2024-06-08T13:00:00","end":"2024-06-08T20:37:21Z","end_local":"2024-06-08T16:37:21","updated":"2024-06-09T17:03:29Z"},{"title":"ICC Mens T20 World Cup 2024 - Australia vs England","description":"Sourced from predicthq.com","category":"sports","start":"2024-06-08T14:00:00Z","geo":{"geometry":{"coordinates":[-59.6225241,13.1049948],"type":"Point"},"placekey":"@bsm-9n6-xwk","address":{"country_code":"BB","formatted_address":"President Kennedy Drive, Bridgetown, Barbados","postcode":"BB120004","locality":"Bridgetown","region":"Saint Michael"}},"labels":["cricket","sport"],"duration":0,"start_local":"2024-06-08T10:00:00","end":"2024-06-08T14:00:00Z","end_local":"2024-06-08T10:00:00","updated":"2024-06-04T07:37:54Z"},{"title":"Namibia vs Scotland","description":"Sourced from predicthq.com","category":"sports","start":"2024-06-06T19:00:00Z","geo":{"geometry":{"coordinates":[-59.6225241,13.1049948],"type":"Point"},"placekey":"@bsm-9n6-xwk","address":{"country_code":"BB","formatted_address":"President Kennedy Drive, Bridgetown, Barbados","postcode":"BB120004","locality":"Bridgetown","region":"Saint Michael"}},"labels":["cricket","sport"],"duration":12386,"start_local":"2024-06-06T15:00:00","end":"2024-06-06T22:26:26Z","end_local":"2024-06-06T18:26:26","updated":"2024-06-07T19:04:39Z"},{"title":"Barbados Vacation Rental Forum 2024","description":"Sourced from predicthq.com - Be part of history at the first-ever Angel Host Forum in Barbados on June 6th at Hilton Barbados Resort!","category":"conferences","start":"2024-06-06T12:00:00Z","geo":{"geometry":{"coordinates":[-59.6116983,13.0789938],"type":"Point"},"placekey":"@bsm-9nd-rp9","address":{"country_code":"BB","formatted_address":"Drill Hall Beach, Bridgetown, Barbados","locality":"Bridgetown"}},"labels":["conference","outdoor"],"duration":28800,"start_local":"2024-06-06T08:00:00","end":"2024-06-06T20:00:00Z","end_local":"2024-06-06T16:00:00","updated":"2024-06-04T03:55:41Z"},{"title":"Australia vs Oman","description":"Sourced from predicthq.com","category":"sports","start":"2024-06-06T00:30:00Z","geo":{"geometry":{"coordinates":[-59.6225241,13.1049948],"type":"Point"},"placekey":"@bsm-9n6-xwk","address":{"country_code":"BB","formatted_address":"President Kennedy Drive, Bridgetown, Barbados","postcode":"BB120004","locality":"Bridgetown","region":"Saint Michael"}},"labels":["cricket","sport"],"duration":13614,"start_local":"2024-06-05T20:30:00","end":"2024-06-06T04:16:54Z","end_local":"2024-06-06T00:16:54","updated":"2024-06-07T01:30:23Z"},{"title":"England vs Scotland","description":"Sourced from predicthq.com","category":"sports","start":"2024-06-04T14:30:00Z","geo":{"geometry":{"coordinates":[-59.6225241,13.1049948],"type":"Point"},"placekey":"@bsm-9n6-xwk","address":{"country_code":"BB","formatted_address":"President Kennedy Drive, Bridgetown, Barbados","postcode":"BB120004","locality":"Bridgetown","region":"Saint Michael"}},"labels":["cricket","sport"],"duration":0,"start_local":"2024-06-04T10:30:00","end":"2024-06-04T14:30:00Z","end_local":"2024-06-04T10:30:00","updated":"2024-06-12T12:46:28Z"},{"title":"Namibia vs Oman","description":"Sourced from predicthq.com","category":"sports","start":"2024-06-03T00:30:00Z","geo":{"geometry":{"coordinates":[-59.6225241,13.1049948],"type":"Point"},"placekey":"@bsm-9n6-xwk","address":{"country_code":"BB","formatted_address":"President Kennedy Drive, Bridgetown, Barbados","postcode":"BB120004","locality":"Bridgetown","region":"Saint Michael"}},"labels":["cricket","sport"],"duration":13257,"start_local":"2024-06-02T20:30:00","end":"2024-06-03T04:10:57Z","end_local":"2024-06-03T00:10:57","updated":"2024-06-04T07:36:31Z"},{"title":"Innovation Ignite Series - Michael Sheldrick, Co-Founder of Global Citizen","description":"Sourced from predicthq.com - Get ready to be inspired by Michael Sheldrick, Co-Founder of Global Citizen, at our Innovation Ignite Seminar Series!","category":"conferences","start":"2024-05-25T22:30:00Z","geo":{"geometry":{"coordinates":[-59.602231,13.083356],"type":"Point"},"placekey":"@bsm-9ft-qxq","address":{"country_code":"BB","formatted_address":"Chelsea Road, Bridgetown, Barbados","locality":"Bridgetown","region":"Saint Michael"}},"labels":["business","conference"],"duration":9000,"start_local":"2024-05-25T18:30:00","end":"2024-05-26T01:00:00Z","end_local":"2024-05-25T21:00:00","updated":"2024-06-05T18:39:49Z"},{"title":"Inaugural International Leaders Conference- The Year of the Open Door","description":"Sourced from predicthq.com - 3 Power Packed Days of Leadership Development While Enjoying the Beautiful  Beaches of Barbados!","category":"conferences","start":"2024-05-23T14:00:00Z","geo":{"geometry":{"coordinates":[-59.605218,13.07788],"type":"Point"},"placekey":"@bsm-9hd-vfz","address":{"country_code":"BB","formatted_address":"Hastings Main Rd, Bridgetown, Barbados","locality":"Bridgetown","region":"Christ Church"}},"labels":["business","conference"],"duration":180000,"start_local":"2024-05-23T10:00:00","end":"2024-05-25T16:00:00Z","end_local":"2024-05-25T12:00:00","updated":"2024-06-05T06:48:06Z"},{"title":"Launch of the Global Compact Network Caribbean","description":"Sourced from predicthq.com - The official combined launch reception for the Global Compact Network Caribbean and the Sustainable SME & Supply Chain Programme.","category":"conferences","start":"2024-05-22T22:00:00Z","geo":{"geometry":{"coordinates":[-59.582509,13.104281],"type":"Point"},"placekey":"@bsm-9fk-dd9","address":{"country_code":"BB","formatted_address":"Two Mile Hill St.Michael, Bridgetown, Saint Michael BB11093Barbados","postcode":"BB11093","locality":"Bridgetown","region":"Saint Michael"}},"labels":["business","conference"],"duration":9000,"start_local":"2024-05-22T18:00:00","end":"2024-05-23T00:30:00Z","end_local":"2024-05-22T20:30:00","updated":"2024-06-04T23:19:54Z"},{"title":"Rugby Union Internationals - Friendlies 3 - Barbados vs St. Vincent","description":"Sourced from predicthq.com","category":"sports","start":"2024-05-18T19:30:00Z","geo":{"geometry":{"coordinates":[-59.60475004893844,13.080958611997037],"type":"Point"},"placekey":"@bsm-9nf-4n5","address":{"country_code":"BB","formatted_address":"Tudor Street, Bridgetown, Barbados","locality":"Bridgetown","region":"Christ Church"}},"labels":["rugby","sport"],"duration":0,"start_local":"2024-05-18T15:30:00","end":"2024-05-18T19:30:00Z","end_local":"2024-05-18T15:30:00","updated":"2024-06-11T23:56:09Z"},{"title":"European Film Festival 2024","description":"Sourced from predicthq.com - Get ready for a fun-filled weekend of the best European and short Caribbean films in town!","category":"festivals","start":"2024-05-11T22:00:00Z","geo":{"geometry":{"coordinates":[-59.602231,13.083356],"type":"Point"},"placekey":"@bsm-9ft-qxq","address":{"country_code":"BB","formatted_address":"Chelsea Road, Bridgetown, Barbados","locality":"Bridgetown","region":"Saint Michael"}},"labels":["festival"],"duration":86400,"start_local":"2024-05-11T18:00:00","end":"2024-05-12T22:00:00Z","end_local":"2024-05-12T18:00:00","updated":"2024-06-05T14:03:39Z"},{"title":"Martin Family & Friends Reunion","description":"Sourced from predicthq.com","category":"community","start":"2024-05-05T15:00:00Z","geo":{"geometry":{"coordinates":[-59.55838,13.06589],"type":"Point"},"placekey":"@bsm-9f7-6tv","address":{"country_code":"BB","formatted_address":"Oistins, Christ Church, Barbados","locality":"Oistins","region":"Christ Church"}},"labels":["community","entertainment"],"duration":111600,"start_local":"2024-05-05T11:00:00","end":"2024-05-06T22:00:00Z","end_local":"2024-05-06T18:00:00","updated":"2024-06-05T10:23:50Z"},{"title":"Seminar: \"Impact and Challenges of International Human Rights Law\"","description":"Sourced from predicthq.com - International Seminar:\n\"Impact and Challenges of International Human Rights Law\"","category":"conferences","start":"2024-04-22T19:00:00Z","geo":{"geometry":{"coordinates":[-59.62978750000001,13.1345645],"type":"Point"},"placekey":"@bsm-9kn-dd9","address":{"country_code":"BB","formatted_address":"Bridgetown, Saint Michael, Barbados","locality":"Bridgetown","region":"Saint Michael"}},"labels":["conference"],"duration":7200,"start_local":"2024-04-22T15:00:00","end":"2024-04-22T21:00:00Z","end_local":"2024-04-22T17:00:00","updated":"2024-06-05T11:06:15Z"}]