[{"title":"International Conference on Economics, Management and Social Study","description":"Sourced from predicthq.com","category":"conferences","start":"2024-10-01T03:00:00Z","geo":{"geometry":{"coordinates":[90.417869,23.781457],"type":"Point"},"placekey":"@7r9-xhf-bc5","address":{"country_code":"BD","formatted_address":"126, 3 Rd No:- 7, Dhaka 1212, Bangladesh","postcode":"1212","locality":"Dhaka","region":"Dhaka Division"}},"labels":["conference"],"duration":118800,"start_local":"2024-10-01T09:00:00","end":"2024-10-02T12:00:00Z","end_local":"2024-10-02T18:00:00","updated":"2024-05-31T23:14:17Z"},{"title":"Pharma Bangladesh","description":"Sourced from predicthq.com","category":"expos","start":"2024-09-26T03:00:00Z","geo":{"geometry":{"coordinates":[90.4273658,23.8267573],"type":"Point"},"placekey":"@7r9-xjy-r6k","address":{"country_code":"BD","formatted_address":"International Convention City Bashundhara, Joar Sahara, Khilkhet (Beside 300ft Purbachal Link Road), Purbachal Expy, Dhaka, Bangladesh","locality":"Dhaka","region":"Dhaka Division"}},"labels":["expo"],"duration":205200,"start_local":"2024-09-26T09:00:00","end":"2024-09-28T12:00:00Z","end_local":"2024-09-28T18:00:00","updated":"2024-05-27T17:13:58Z"},{"title":"HPC-Bangladesh","description":"Sourced from predicthq.com","category":"expos","start":"2024-09-25T03:00:00Z","geo":{"geometry":{"coordinates":[90.426659,23.827367],"type":"Point"},"placekey":"@7r9-xjw-xnq","address":{"country_code":"BD","formatted_address":"Progoti Sarani - Debogram Rd\nDhaka\nBangladesh","locality":"Dhaka"}},"labels":["expo"],"duration":118800,"start_local":"2024-09-25T09:00:00","end":"2024-09-26T12:00:00Z","end_local":"2024-09-26T18:00:00","updated":"2024-06-01T03:20:21Z"},{"title":"2nd Expo Paint & Coatings 2024","description":"Sourced from predicthq.com","category":"expos","start":"2024-09-18T18:00:00Z","geo":{"geometry":{"coordinates":[90.426953,23.8277687],"type":"Point"},"placekey":"@7r9-xjw-xnq","address":{"country_code":"BD","formatted_address":"Purbachal Expressway, Dhaka -, Bangladesh","locality":"Dhaka","region":"Dhaka Division"}},"labels":["expo","industrial","technology"],"duration":259199,"start_local":"2024-09-19T00:00:00","end":"2024-09-21T17:59:59Z","end_local":"2024-09-21T23:59:59","updated":"2024-07-02T15:26:24Z"},{"title":"Asian Tourism Fair","description":"Sourced from predicthq.com","category":"expos","start":"2024-09-18T18:00:00Z","geo":{"geometry":{"coordinates":[90.4273658,23.8267573],"type":"Point"},"placekey":"@7r9-xjy-r6k","address":{"country_code":"BD","formatted_address":"International Convention City Bashundhara, Joar Sahara, Khilkhet (Beside 300ft Purbachal Link Road), Purbachal Expy, Dhaka, Bangladesh","locality":"Dhaka","region":"Dhaka Division"}},"labels":["expo"],"duration":259199,"start_local":"2024-09-19T00:00:00","end":"2024-09-21T17:59:59Z","end_local":"2024-09-21T23:59:59","updated":"2024-07-02T13:47:54Z"},{"title":"GarmentTechBD Building a Sustainable Supply Chain:Best Practices&Solutions","description":"Sourced from predicthq.com - Learn how to create a sustainable supply chain with best practices and solutions in our online event!","category":"conferences","start":"2024-09-14T19:30:00Z","geo":{"geometry":{"coordinates":[90.42167479999999,23.9932715],"type":"Point"},"placekey":"@7rb-2x8-j7q","address":{"country_code":"BD","formatted_address":"Gazipur, Dhaka Division, Bangladesh","locality":"Gazipur","region":"Dhaka Division"}},"labels":["business","conference"],"duration":62100,"start_local":"2024-09-15T01:30:00","end":"2024-09-15T12:45:00Z","end_local":"2024-09-15T18:45:00","updated":"2024-06-10T23:29:24Z"},{"title":"IFSEC India","description":"Sourced from predicthq.com","category":"expos","start":"2024-09-12T03:00:00Z","geo":{"geometry":{"coordinates":[90.4273658,23.8267573],"type":"Point"},"placekey":"@7r9-xjy-r6k","address":{"country_code":"BD","formatted_address":"International Convention City Bashundhara, Joar Sahara, Khilkhet (Beside 300ft Purbachal Link Road), Purbachal Expy, Dhaka, Bangladesh","locality":"Dhaka","region":"Dhaka Division"}},"labels":["expo"],"duration":205200,"start_local":"2024-09-12T09:00:00","end":"2024-09-14T12:00:00Z","end_local":"2024-09-14T18:00:00","updated":"2024-06-16T05:47:25Z"},{"title":"EvExpo Bangladesh","description":"Sourced from predicthq.com","category":"expos","start":"2024-09-12T03:00:00Z","geo":{"geometry":{"coordinates":[90.3814755,23.7693574],"type":"Point"},"placekey":"@7r9-w57-f2k","address":{"country_code":"BD","formatted_address":"Bir Uttom Khaled Mosharraf Avenue, Dhaka - 1207, Bangladesh","postcode":"1207","locality":"Dhaka","region":"Dhaka Division"}},"labels":["expo"],"duration":205200,"start_local":"2024-09-12T09:00:00","end":"2024-09-14T12:00:00Z","end_local":"2024-09-14T18:00:00","updated":"2024-06-16T04:18:07Z"},{"title":"Occupational Safety & Health Bangladesh","description":"Sourced from predicthq.com","category":"expos","start":"2024-09-11T18:00:00Z","geo":{"geometry":{"coordinates":[90.4273658,23.8267573],"type":"Point"},"placekey":"@7r9-xjy-r6k","address":{"country_code":"BD","formatted_address":"International Convention City Bashundhara, Joar Sahara, Khilkhet (Beside 300ft Purbachal Link Road), Purbachal Expy, Dhaka, Bangladesh","locality":"Dhaka","region":"Dhaka Division"}},"labels":["expo"],"duration":259199,"start_local":"2024-09-12T00:00:00","end":"2024-09-14T17:59:59Z","end_local":"2024-09-14T23:59:59","updated":"2024-05-31T23:13:58Z"},{"title":"SOSS Policy Summit DC","description":"Sourced from predicthq.com","category":"conferences","start":"2024-09-09T03:00:00Z","geo":{"geometry":{"coordinates":[90.406854,23.729385],"type":"Point"},"placekey":"@7r9-zch-3yv","address":{"country_code":"BD","formatted_address":"Topkhana Road, Dhaka - 1205, Bangladesh","locality":"Dhaka","postcode":"1205","region":"Dhaka Division"}},"labels":["conference"],"duration":32400,"start_local":"2024-09-09T09:00:00","end":"2024-09-09T12:00:00Z","end_local":"2024-09-09T18:00:00","updated":"2024-05-31T23:10:59Z"},{"title":"Maritime Port Shipping Expo","description":"Sourced from predicthq.com - The Maritime Port Shipping Expo is a premier event showcasing the latest advancements and solutions in the maritime industry, connecting industry professionals, exhibitors, and delegates from around the world. This expo offers a unique platform for networking, knowledge sharing, and exploring cutting-edge technologies in port operations, shipping logistics, and marine services.","category":"expos","start":"2024-09-06T18:00:00Z","geo":{"geometry":{"coordinates":[90.4273658,23.8267573],"type":"Point"},"placekey":"@7r9-xjy-r6k","address":{"country_code":"BD","formatted_address":"International Convention City Bashundhara, Joar Sahara, Khilkhet (Beside 300ft Purbachal Link Road), Purbachal Expy, Dhaka, Bangladesh","locality":"Dhaka","region":"Dhaka Division"}},"labels":["expo"],"duration":259199,"start_local":"2024-09-07T00:00:00","end":"2024-09-09T17:59:59Z","end_local":"2024-09-09T23:59:59","updated":"2024-06-16T04:17:07Z"},{"title":"International Conference on Computing Advancements","description":"Sourced from predicthq.com","category":"conferences","start":"2024-09-05T03:00:00Z","geo":{"geometry":{"coordinates":[90.427521,23.821961],"type":"Point"},"placekey":"@7r9-xjw-99f","address":{"country_code":"BD","formatted_address":"ঢাকা, ঢাকা বিভাগ, Bangladesh","locality":"ঢাকা","region":"ঢাকা বিভাগ"}},"labels":["conference"],"duration":118800,"start_local":"2024-09-05T09:00:00","end":"2024-09-06T12:00:00Z","end_local":"2024-09-06T18:00:00","updated":"2024-06-03T20:08:37Z"},{"title":"DIFS - Dhaka International Yarn & Fabric Show","description":"Sourced from predicthq.com - The Dhaka International Yarn & Fabric Show  (DIFS) is a Comprehensive International Exhibition featuring Worldwide Yarn, Fabric Trims & Accessories Manufacturers, focusing on the Textile & Apparel Industry of Bangladesh and South Asia.","category":"expos","start":"2024-09-04T04:00:00Z","geo":{"geometry":{"coordinates":[90.5348898,23.8431013],"type":"Point"},"placekey":"@7r9-xjm-yqf","address":{"country_code":"BD","formatted_address":"Purbacahal, Dhaka Division, Bangladesh","locality":"Purbacahal","region":"Dhaka Division"}},"labels":["expo","fashion","product"],"duration":289800,"start_local":"2024-09-04T10:00:00","end":"2024-09-07T12:30:00Z","end_local":"2024-09-07T18:30:00","updated":"2024-06-02T03:23:02Z"},{"title":"DIFS Bangladesh Expo","description":"Sourced from predicthq.com","category":"expos","start":"2024-09-04T03:00:00Z","geo":{"geometry":{"coordinates":[90.3814755,23.7693574],"type":"Point"},"placekey":"@7r9-w57-f2k","address":{"country_code":"BD","formatted_address":"Bir Uttom Khaled Mosharraf Avenue, Dhaka - 1207, Bangladesh","postcode":"1207","locality":"Dhaka","region":"Dhaka Division"}},"labels":["expo"],"duration":291600,"start_local":"2024-09-04T09:00:00","end":"2024-09-07T12:00:00Z","end_local":"2024-09-07T18:00:00","updated":"2024-06-16T04:18:38Z"},{"title":"Textech Bangladesh International Expo 2024","description":"Sourced from predicthq.com","category":"expos","start":"2024-09-03T18:00:00Z","geo":{"geometry":{"coordinates":[90.3815778,23.769209],"type":"Point"},"placekey":"@7r9-w57-fs5","address":{"country_code":"BD","formatted_address":"Begum Rokeya Avenue, Dhaka - 1207, Bangladesh","locality":"Dhaka","postcode":"1207","region":"Dhaka Division"}},"labels":["expo","industrial","technology"],"duration":345599,"start_local":"2024-09-04T00:00:00","end":"2024-09-07T17:59:59Z","end_local":"2024-09-07T23:59:59","updated":"2024-06-30T02:42:20Z"},{"title":"Biggest UK Education Expo 2024 - Dhaka","description":"Sourced from predicthq.com - \"Discover top UK universities, scholarships, and affordable tuition at the biggest education expo. Meet reps for undergrad and grad studies!","category":"expos","start":"2024-08-31T04:00:00Z","geo":{"geometry":{"coordinates":[90.414224,23.793442],"type":"Point"},"placekey":"@7r9-xjz-2kz","address":{"country_code":"BD","formatted_address":"QCV7+CP2, Rd 45, Dhaka 1212, Bangladesh","postcode":"1212","locality":"Dhaka","region":"Dhaka Division"}},"labels":["education","expo","family"],"duration":28800,"start_local":"2024-08-31T10:00:00","end":"2024-08-31T12:00:00Z","end_local":"2024-08-31T18:00:00","updated":"2024-07-04T08:29:42Z"},{"title":"Asia-Pacific Gastroenterology Cancer Summit","description":"Sourced from predicthq.com","category":"conferences","start":"2024-08-30T03:00:00Z","geo":{"geometry":{"coordinates":[90.36477,23.754686],"type":"Point"},"placekey":"@7r9-w5j-xt9","address":{"country_code":"BD","formatted_address":"Satmasjid Road, Dhaka -, Bangladesh","locality":"Dhaka","region":"Dhaka Division"}},"labels":["conference"],"duration":118800,"start_local":"2024-08-30T09:00:00","end":"2024-08-31T12:00:00Z","end_local":"2024-08-31T18:00:00","updated":"2024-05-31T23:27:40Z"},{"title":"PFEC Global: Australia Education Expo, 20th August 2024","description":"Sourced from predicthq.com - Discuss with more than 40 university representatives from Australia and have a chance to get up to 100% scholarships*.","category":"festivals","start":"2024-08-20T04:30:00Z","geo":{"geometry":{"coordinates":[90.3944662,23.749489],"type":"Point"},"placekey":"@7r9-w5d-d5f","address":{"country_code":"BD","formatted_address":"Kazi Nazrul Islam Avenue, Dhaka - 1215, Bangladesh","locality":"Dhaka","postcode":"1215","region":"Dhaka Division"}},"labels":["education","family","festival"],"duration":23400,"start_local":"2024-08-20T10:30:00","end":"2024-08-20T11:00:00Z","end_local":"2024-08-20T17:00:00","updated":"2024-06-22T08:28:11Z"},{"title":"Multi-Destination Education Expo, 18th Aug'24 at Radisson Blu, Chattogram","description":"Sourced from predicthq.com - Join \"PFEC Global: Multi-Destination Education Expo\" and Meet TOP University representatives from Australia, Canada, USA, UK, and Malaysia.","category":"festivals","start":"2024-08-18T05:00:00Z","geo":{"geometry":{"coordinates":[91.82298089999999,22.3475248],"type":"Point"},"placekey":"@7qt-t25-c89","address":{"country_code":"BD","formatted_address":"চট্টগ্রাম, চট্টগ্রাম বিভাগ, Bangladesh","locality":"চট্টগ্রাম","region":"চট্টগ্রাম বিভাগ"}},"labels":["education","family","festival"],"duration":18000,"start_local":"2024-08-18T11:00:00","end":"2024-08-18T10:00:00Z","end_local":"2024-08-18T16:00:00","updated":"2024-06-21T14:27:57Z"},{"title":"Bangladesh Texchem Expo","description":"Sourced from predicthq.com","category":"expos","start":"2024-08-14T03:00:00Z","geo":{"geometry":{"coordinates":[90.4273658,23.8267573],"type":"Point"},"placekey":"@7r9-xjy-r6k","address":{"country_code":"BD","formatted_address":"International Convention City Bashundhara, Joar Sahara, Khilkhet (Beside 300ft Purbachal Link Road), Purbachal Expy, Dhaka, Bangladesh","locality":"Dhaka","region":"Dhaka Division"}},"labels":["expo"],"duration":291600,"start_local":"2024-08-14T09:00:00","end":"2024-08-17T12:00:00Z","end_local":"2024-08-17T18:00:00","updated":"2024-05-27T17:13:46Z"},{"title":"YARN & FABRICS SOURCING FAIR","description":"Sourced from predicthq.com","category":"expos","start":"2024-08-13T18:00:00Z","geo":{"geometry":{"coordinates":[90.4273658,23.8267573],"type":"Point"},"placekey":"@7r9-xjy-r6k","address":{"country_code":"BD","formatted_address":"International Convention City Bashundhara, Joar Sahara, Khilkhet (Beside 300ft Purbachal Link Road), Purbachal Expy, Dhaka, Bangladesh","locality":"Dhaka","region":"Dhaka Division"}},"labels":["expo"],"duration":345599,"start_local":"2024-08-14T00:00:00","end":"2024-08-17T17:59:59Z","end_local":"2024-08-17T23:59:59","updated":"2024-05-27T15:45:24Z"},{"title":"SWEL Summer Institute (In-Person)","description":"Sourced from predicthq.com","category":"expos","start":"2024-08-04T18:00:00Z","geo":{"geometry":{"coordinates":[90.394151,23.733544],"type":"Point"},"placekey":"@7r9-zcf-6p9","address":{"country_code":"BD","formatted_address":"Dhaka, Dhaka Division, Bangladesh","locality":"Dhaka","region":"Dhaka Division"}},"labels":["expo"],"duration":345599,"start_local":"2024-08-05T00:00:00","end":"2024-08-08T17:59:59Z","end_local":"2024-08-08T23:59:59","updated":"2024-06-16T01:52:03Z"},{"title":"IELTS & UK Education Expo 2024 - Dhaka","description":"Sourced from predicthq.com - The IELTS & UK Education Expo 2024 in Bangladesh offers students direct access to top UK university representatives for admissions.","category":"expos","start":"2024-08-03T04:00:00Z","geo":{"geometry":{"coordinates":[90.3915961,23.7307155],"type":"Point"},"placekey":"@7r9-zcf-3bk","address":{"country_code":"BD","formatted_address":"Fuller Road, Dhaka - 1000, Bangladesh","locality":"Dhaka","postcode":"1000","region":"Dhaka Division"}},"labels":["education","expo","family"],"duration":32400,"start_local":"2024-08-03T10:00:00","end":"2024-08-03T13:00:00Z","end_local":"2024-08-03T19:00:00","updated":"2024-07-04T09:46:03Z"},{"title":"Papertech Expo","description":"Sourced from predicthq.com - Papertech Expo is a premier expo event showcasing the latest advancements and innovations in the paper and pulp industry. Industry professionals and enthusiasts can connect, engage, and discover cutting-edge technologies and solutions designed to enhance productivity and sustainability in this vibrant sector.","category":"expos","start":"2024-07-31T18:00:00Z","geo":{"geometry":{"coordinates":[90.4273658,23.8267573],"type":"Point"},"placekey":"@7r9-xjy-r6k","address":{"country_code":"BD","formatted_address":"International Convention City Bashundhara, Joar Sahara, Khilkhet (Beside 300ft Purbachal Link Road), Purbachal Expy, Dhaka, Bangladesh","locality":"Dhaka","region":"Dhaka Division"}},"labels":["expo"],"duration":259199,"start_local":"2024-08-01T00:00:00","end":"2024-08-03T17:59:59Z","end_local":"2024-08-03T23:59:59","updated":"2024-05-27T14:37:42Z"},{"title":"IELTS and UK Education Expo - Cumilla","description":"Sourced from predicthq.com - The IELTS and UK Education Expo 2024 in Cumilla connects students directly with UK universities for admissions and study opportunities.","category":"conferences","start":"2024-07-27T04:00:00Z","geo":{"geometry":{"coordinates":[91.1745747,23.4655064],"type":"Point"},"placekey":"@7qw-44d-87q","address":{"country_code":"BD","formatted_address":"কুমিল্লা, চট্টগ্রাম বিভাগ, Bangladesh","locality":"কুমিল্লা","region":"চট্টগ্রাম বিভাগ"}},"labels":["conference","education","family"],"duration":28800,"start_local":"2024-07-27T10:00:00","end":"2024-07-27T12:00:00Z","end_local":"2024-07-27T18:00:00","updated":"2024-06-27T01:49:11Z"},{"title":"Bangladesh Startup Summit","description":"Sourced from predicthq.com","category":"conferences","start":"2024-07-27T03:00:00Z","geo":{"geometry":{"coordinates":[90.396739,23.741226],"type":"Point"},"placekey":"@7r9-zcg-575","address":{"country_code":"BD","formatted_address":"G, 1 Minto Rd, Dhaka 1000, Bangladesh","postcode":"1000","locality":"Dhaka","region":"Dhaka Division"}},"labels":["conference"],"duration":118800,"start_local":"2024-07-27T09:00:00","end":"2024-07-28T12:00:00Z","end_local":"2024-07-28T18:00:00","updated":"2024-06-16T01:54:17Z"},{"title":"Zaber & Zubair Fabric Week","description":"Sourced from predicthq.com","category":"expos","start":"2024-07-21T18:00:00Z","geo":{"geometry":{"coordinates":[90.416957,23.788685],"type":"Point"},"placekey":"@7r9-xjz-mc5","address":{"country_code":"BD","formatted_address":"Road 115, Dhaka - 1212, Bangladesh","locality":"Dhaka","postcode":"1212","region":"Dhaka Division"}},"labels":["expo"],"duration":518399,"start_local":"2024-07-22T00:00:00","end":"2024-07-27T17:59:59Z","end_local":"2024-07-27T23:59:59","updated":"2024-06-03T20:20:33Z"},{"title":"Biggest IELTS Expo at the Westin Dhaka","description":"Sourced from predicthq.com - For the first time in Bangladesh, MIE English Academy is organizing Biggest IELTS Expo.\nSecure your spot at the expo to achieve a 100% free","category":"expos","start":"2024-07-20T04:00:00Z","geo":{"geometry":{"coordinates":[90.414224,23.793442],"type":"Point"},"placekey":"@7r9-xjz-2kz","address":{"country_code":"BD","formatted_address":"QCV7+CP2, Rd 45, Dhaka 1212, Bangladesh","postcode":"1212","locality":"Dhaka","region":"Dhaka Division"}},"labels":["education","expo","family"],"duration":25200,"start_local":"2024-07-20T10:00:00","end":"2024-07-20T11:00:00Z","end_local":"2024-07-20T17:00:00","updated":"2024-07-05T07:56:39Z"},{"title":"Kushtia ICT Freelancing Youth Conference 2024","description":"Sourced from predicthq.com - কুষ্টিয়া আইসিটি ফ্রিল্যান্সিং যুব সম্মেলন ২০২৪ - এখানে তোমাদের সবাইকে একসাথে দেখা পাওয়ার জন্য আমরা অপেক্ষা করছি।","category":"conferences","start":"2024-07-20T03:30:00Z","geo":{"geometry":{"coordinates":[89.1219843,23.9097967],"type":"Point"},"placekey":"@7r9-sn9-wp9","address":{"country_code":"BD","formatted_address":"Kushtia, Khulna Division, Bangladesh","locality":"Kushtia","region":"Khulna Division"}},"labels":["conference","science","technology"],"duration":28800,"start_local":"2024-07-20T09:30:00","end":"2024-07-20T11:30:00Z","end_local":"2024-07-20T17:30:00","updated":"2024-06-27T01:29:15Z"},{"title":"International Technology Tradeshow on Printing, Packaging, Consumables, Screen Digital & Sublimation","description":"Sourced from predicthq.com - The International Technology Tradeshow on Printing, Packaging, Consumables, Screen Digital & Sublimation is an exciting expo event showcasing the latest advancements in technology and innovative solutions for the printing, packaging, and digital sectors. Industry professionals and technology enthusiasts will gather in this immersive experience to explore cutting-edge products, network with leading experts, and gain valuable insights into the future of the industry.","category":"expos","start":"2024-07-18T03:00:00Z","geo":{"geometry":{"coordinates":[90.4273658,23.8267573],"type":"Point"},"placekey":"@7r9-xjy-r6k","address":{"country_code":"BD","formatted_address":"International Convention City Bashundhara, Joar Sahara, Khilkhet (Beside 300ft Purbachal Link Road), Purbachal Expy, Dhaka, Bangladesh","locality":"Dhaka","region":"Dhaka Division"}},"labels":["expo"],"duration":205200,"start_local":"2024-07-18T09:00:00","end":"2024-07-20T12:00:00Z","end_local":"2024-07-20T18:00:00","updated":"2024-05-27T16:04:15Z"},{"title":"Kitchen Bath Living Expo","description":"Sourced from predicthq.com","category":"expos","start":"2024-07-18T03:00:00Z","geo":{"geometry":{"coordinates":[90.4273658,23.8267573],"type":"Point"},"placekey":"@7r9-xjy-r6k","address":{"country_code":"BD","formatted_address":"International Convention City Bashundhara, Joar Sahara, Khilkhet (Beside 300ft Purbachal Link Road), Purbachal Expy, Dhaka, Bangladesh","locality":"Dhaka","region":"Dhaka Division"}},"labels":["expo"],"duration":205200,"start_local":"2024-07-18T09:00:00","end":"2024-07-20T12:00:00Z","end_local":"2024-07-20T18:00:00","updated":"2024-05-27T21:15:04Z"},{"title":"Bangladesh 3P International Expo","description":"Sourced from predicthq.com - The Bangladesh 3P International Expo is a premier expo event showcasing the latest innovations and advancements in the fields of plastics, packaging, and printing. With industry experts, manufacturers, and suppliers in attendance, it serves as a platform for networking, business collaborations, and exploring cutting-edge technologies in these sectors.","category":"expos","start":"2024-07-17T18:00:00Z","geo":{"geometry":{"coordinates":[90.4273658,23.8267573],"type":"Point"},"placekey":"@7r9-xjy-r6k","address":{"country_code":"BD","formatted_address":"International Convention City Bashundhara, Joar Sahara, Khilkhet (Beside 300ft Purbachal Link Road), Purbachal Expy, Dhaka, Bangladesh","locality":"Dhaka","region":"Dhaka Division"}},"labels":["expo"],"duration":259199,"start_local":"2024-07-18T00:00:00","end":"2024-07-20T17:59:59Z","end_local":"2024-07-20T23:59:59","updated":"2024-05-28T05:36:15Z"},{"title":"Tanim food company","description":"Sourced from predicthq.com - Ven a disfrutar de la deliciosa comida de Tanim Food Company en nuestro evento especial lleno de sabor y diversión. ¡No te lo pierdas!","category":"expos","start":"2024-07-17T04:00:00Z","geo":{"geometry":{"coordinates":[88.8480901,23.6316096],"type":"Point"},"placekey":"@7r9-mg6-f4v","address":{"country_code":"BD","formatted_address":"Chuadanga, Khulna Division, Bangladesh","locality":"Chuadanga","region":"Khulna Division"}},"labels":["expo","food"],"duration":7200,"start_local":"2024-07-17T10:00:00","end":"2024-07-17T06:00:00Z","end_local":"2024-07-17T12:00:00","updated":"2024-06-20T06:44:38Z"},{"title":"UK Education Expo 2024 | Hotel Castle Salam","description":"Sourced from predicthq.com - Top UK universities, scholarships, desired courses, affordable tuition fees, and many more offers.","category":"expos","start":"2024-07-13T04:00:00Z","geo":{"geometry":{"coordinates":[89.5625081,22.809786],"type":"Point"},"placekey":"@7rb-ncd-w8v","address":{"country_code":"BD","formatted_address":"Khulna, Khulna Division, Bangladesh","locality":"Khulna","region":"Khulna Division"}},"labels":["education","expo","family"],"duration":28800,"start_local":"2024-07-13T10:00:00","end":"2024-07-13T12:00:00Z","end_local":"2024-07-13T18:00:00","updated":"2024-06-27T01:34:30Z"},{"title":"International Conference on Business Management, Humanities and Social Science","description":"Sourced from predicthq.com","category":"conferences","start":"2024-07-13T03:00:00Z","geo":{"geometry":{"coordinates":[90.417869,23.781457],"type":"Point"},"placekey":"@7r9-xhf-bc5","address":{"country_code":"BD","formatted_address":"126, 3 Rd No:- 7, Dhaka 1212, Bangladesh","postcode":"1212","locality":"Dhaka","region":"Dhaka Division"}},"labels":["conference"],"duration":32400,"start_local":"2024-07-13T09:00:00","end":"2024-07-13T12:00:00Z","end_local":"2024-07-13T18:00:00","updated":"2024-06-16T00:24:26Z"},{"title":"Textile Sourcing Meet","description":"Sourced from predicthq.com","category":"conferences","start":"2024-07-13T03:00:00Z","geo":{"geometry":{"coordinates":[90.4273658,23.8267573],"type":"Point"},"placekey":"@7r9-xjy-r6k","address":{"country_code":"BD","formatted_address":"International Convention City Bashundhara, Joar Sahara, Khilkhet (Beside 300ft Purbachal Link Road), Purbachal Expy, Dhaka, Bangladesh","locality":"Dhaka","region":"Dhaka Division"}},"labels":["conference"],"duration":118800,"start_local":"2024-07-13T09:00:00","end":"2024-07-14T12:00:00Z","end_local":"2024-07-14T18:00:00","updated":"2024-06-16T00:39:45Z"},{"title":"UK Education Expo 2024 - Chittagong","description":"Sourced from predicthq.com - Explore top UK universities, scholarships, and courses at the UK Education Expo. Meet university reps for undergraduate and postgrad options","category":"conferences","start":"2024-07-12T04:00:00Z","geo":{"geometry":{"coordinates":[91.82152029999999,22.35999679999999],"type":"Point"},"placekey":"@7qt-t26-5s5","address":{"country_code":"BD","formatted_address":"CDA Avenue, Chittagong - 4203, Bangladesh","locality":"Chittagong","postcode":"4203","region":"Chittagong Division"}},"labels":["conference","education","family"],"duration":115200,"start_local":"2024-07-12T10:00:00","end":"2024-07-13T12:00:00Z","end_local":"2024-07-13T18:00:00","updated":"2024-06-27T05:19:41Z"},{"title":"UK University Application Day | AHZ Dhanmondi Corporate Office","description":"Sourced from predicthq.com - Meet top UK universities and apply for free! Discover your options and take the first step toward your education.","category":"conferences","start":"2024-07-12T04:00:00Z","geo":{"geometry":{"coordinates":[90.3699132,23.7528843],"type":"Point"},"placekey":"@7r9-w5c-5cq","address":{"country_code":"BD","formatted_address":"Road No. 8A, Dhaka - 1209, Bangladesh","locality":"Dhaka","postcode":"1209","region":"Dhaka Division"}},"labels":["conference","education","family"],"duration":111600,"start_local":"2024-07-12T10:00:00","end":"2024-07-13T11:00:00Z","end_local":"2024-07-13T17:00:00","updated":"2024-06-27T22:39:33Z"},{"title":"Buckinghamshire New University Assessment Day | AHZ Sylhet Dargah Gate Offi","description":"Sourced from predicthq.com - Join us at AHZ Dargah Gate for Buckinghamshire New University Assessment Day with Sam Poulton, Head of International, for admission insights","category":"expos","start":"2024-07-09T04:00:00Z","geo":{"geometry":{"coordinates":[91.86977929999999,24.901723],"type":"Point"},"placekey":"@7r6-3hq-q9f","address":{"country_code":"BD","formatted_address":"Hazrat Shahjalal Road, Sylhet -, Bangladesh","locality":"Sylhet","region":"Sylhet Division"}},"labels":["education","expo","family"],"duration":25200,"start_local":"2024-07-09T10:00:00","end":"2024-07-09T11:00:00Z","end_local":"2024-07-09T17:00:00","updated":"2024-07-04T05:12:42Z"},{"title":"Bangladesh International Aquaculture & Seafood show","description":"Sourced from predicthq.com","category":"expos","start":"2024-07-09T03:00:00Z","geo":{"geometry":{"coordinates":[90.3814755,23.7693574],"type":"Point"},"placekey":"@7r9-w57-f2k","address":{"country_code":"BD","formatted_address":"Bir Uttom Khaled Mosharraf Avenue, Dhaka - 1207, Bangladesh","postcode":"1207","locality":"Dhaka","region":"Dhaka Division"}},"labels":["expo"],"duration":205200,"start_local":"2024-07-09T09:00:00","end":"2024-07-11T12:00:00Z","end_local":"2024-07-11T18:00:00","updated":"2024-06-16T00:36:57Z"},{"title":"UK Education Expo | Uttara Club Limited","description":"Sourced from predicthq.com - Join AHZ on Saturday, June 29, 2024, from 10 am to 6 pm for an exclusive UK Education Expo at Uttara Club Limited, Dhaka.","category":"expos","start":"2024-06-29T04:00:00Z","geo":{"geometry":{"coordinates":[90.400205,23.858029],"type":"Point"},"placekey":"@7r9-vxf-ty9","address":{"country_code":"BD","formatted_address":"Road No 6, Dhaka - 1230, Bangladesh","locality":"Dhaka","postcode":"1230","region":"Dhaka Division"}},"labels":["education","expo","family"],"duration":28800,"start_local":"2024-06-29T10:00:00","end":"2024-06-29T12:00:00Z","end_local":"2024-06-29T18:00:00","updated":"2024-06-04T03:51:05Z"},{"title":"Pre-departure briefing and celebration event - Chattogram, Bangladesh","description":"Sourced from predicthq.com - Getting Ready for Session 2, 2024 at Macquarie University","category":"conferences","start":"2024-06-22T10:00:00Z","geo":{"geometry":{"coordinates":[91.82298089999999,22.3475248],"type":"Point"},"placekey":"@7qt-t25-c89","address":{"country_code":"BD","formatted_address":"চট্টগ্রাম, চট্টগ্রাম বিভাগ, Bangladesh","locality":"চট্টগ্রাম","region":"চট্টগ্রাম বিভাগ"}},"labels":["conference","education","family"],"duration":7200,"start_local":"2024-06-22T16:00:00","end":"2024-06-22T12:00:00Z","end_local":"2024-06-22T18:00:00","updated":"2024-06-06T02:38:53Z"},{"title":"Gain Real-World Experience and Grow Your Professional Network - Western's One Year Post-Degree Diploma Programs with Internships","description":"Sourced from predicthq.com","category":"expos","start":"2024-06-17T18:00:00Z","geo":{"geometry":{"coordinates":[90.406186,23.793468],"type":"Point"},"placekey":"@7r9-xjz-g49","address":{"country_code":"BD","formatted_address":"Kemal Ataturk Avenue, Dhaka - 1212, Bangladesh","locality":"Dhaka","postcode":"1212","region":"Dhaka Division"}},"labels":["expo"],"duration":86399,"start_local":"2024-06-18T00:00:00","end":"2024-06-18T17:59:59Z","end_local":"2024-06-18T23:59:59","updated":"2024-06-16T00:36:57Z"},{"title":"International Conference on Nano Science and Nanotechnology","description":"Sourced from predicthq.com","category":"conferences","start":"2024-06-14T03:00:00Z","geo":{"geometry":{"coordinates":[90.4041,23.855264],"type":"Point"},"placekey":"@7r9-vxd-q2k","address":{"country_code":"BD","formatted_address":"Road 1, Dhaka - 1230, Bangladesh","locality":"Dhaka","postcode":"1230","region":"Dhaka Division"}},"labels":["conference"],"duration":118800,"start_local":"2024-06-14T09:00:00","end":"2024-06-15T12:00:00Z","end_local":"2024-06-15T18:00:00","updated":"2024-05-23T10:47:46Z"},{"title":"International Conference on Sustainable Water Management","description":"Sourced from predicthq.com","category":"conferences","start":"2024-06-14T03:00:00Z","geo":{"geometry":{"coordinates":[90.4041,23.855264],"type":"Point"},"placekey":"@7r9-vxd-q2k","address":{"country_code":"BD","formatted_address":"Road 1, Dhaka - 1230, Bangladesh","locality":"Dhaka","postcode":"1230","region":"Dhaka Division"}},"labels":["conference"],"duration":118800,"start_local":"2024-06-14T09:00:00","end":"2024-06-15T12:00:00Z","end_local":"2024-06-15T18:00:00","updated":"2024-05-23T04:24:07Z"},{"title":"International Conference on Business Management, Humanities and Social Science","description":"Sourced from predicthq.com","category":"conferences","start":"2024-06-13T03:00:00Z","geo":{"geometry":{"coordinates":[90.417869,23.781457],"type":"Point"},"placekey":"@7r9-xhf-bc5","address":{"country_code":"BD","formatted_address":"126, 3 Rd No:- 7, Dhaka 1212, Bangladesh","postcode":"1212","locality":"Dhaka","region":"Dhaka Division"}},"labels":["conference"],"duration":118800,"start_local":"2024-06-13T09:00:00","end":"2024-06-14T12:00:00Z","end_local":"2024-06-14T18:00:00","updated":"2024-05-31T23:08:37Z"},{"title":"Study in India Expo - Rajshahi","description":"Sourced from predicthq.com - Meet Top Indian Universities and Study in India with Merit Based Scholarships! Direct Admissions Application available on spot!","category":"expos","start":"2024-06-12T04:00:00Z","geo":{"geometry":{"coordinates":[88.57938109999999,24.3687081],"type":"Point"},"placekey":"@7rb-rrz-5zz","address":{"country_code":"BD","formatted_address":"Rajshahi, Rajshahi Division, Bangladesh","locality":"Rajshahi","region":"Rajshahi Division"}},"labels":["education","expo","family"],"duration":28800,"start_local":"2024-06-12T10:00:00","end":"2024-06-12T12:00:00Z","end_local":"2024-06-12T18:00:00","updated":"2024-06-04T00:56:50Z"},{"title":"Male","description":"Sourced from predicthq.com","category":"concerts","start":"2024-06-11T14:00:00Z","geo":{"geometry":{"coordinates":[90.4086075,23.7230549],"type":"Point"},"placekey":"@7r9-zc7-vvf","address":{"country_code":"BD","formatted_address":"A H M Kamruzzaman Sharani, Dhaka - 1000, Bangladesh","locality":"Dhaka","postcode":"1000","region":"Dhaka Division"}},"labels":["concert","music"],"duration":0,"start_local":"2024-06-11T20:00:00","end":"2024-06-11T14:00:00Z","end_local":"2024-06-11T20:00:00","updated":"2024-06-28T14:09:07Z"},{"title":"Study in India Expo - Khulna","description":"Sourced from predicthq.com - Meet Top Indian Universities and Study in India with Merit Based Scholarships! Direct Admissions Application available on spot!","category":"expos","start":"2024-06-10T04:00:00Z","geo":{"geometry":{"coordinates":[89.55143369999999,22.8208741],"type":"Point"},"placekey":"@7rb-ncm-5cq","address":{"country_code":"BD","formatted_address":"Majid Sarani, Khulna - 9100, Bangladesh","locality":"Khulna","postcode":"9100","region":"Khulna Division"}},"labels":["education","expo","family"],"duration":28800,"start_local":"2024-06-10T10:00:00","end":"2024-06-10T12:00:00Z","end_local":"2024-06-10T18:00:00","updated":"2024-06-04T06:56:58Z"},{"title":"Pre-departure briefing and celebration event - Dhaka, Bangladesh","description":"Sourced from predicthq.com - Getting Ready for Session 2, 2024 at Macquarie University","category":"conferences","start":"2024-06-09T10:00:00Z","geo":{"geometry":{"coordinates":[90.41395000000001,23.79459],"type":"Point"},"placekey":"@7r9-xjz-2ff","address":{"country_code":"BD","formatted_address":"Kemal Ataturk Avenue, Dhaka - 1212, Bangladesh","locality":"Dhaka","postcode":"1212","region":"Dhaka Division"}},"labels":["conference","education","family"],"duration":7200,"start_local":"2024-06-09T16:00:00","end":"2024-06-09T12:00:00Z","end_local":"2024-06-09T18:00:00","updated":"2024-06-06T02:06:47Z"},{"title":"UK Education Expo 2024 | Grand Palace Sylhet","description":"Sourced from predicthq.com - Sylhet. If you are interested in exploring study options for UG & PG courses and guidance for your future.","category":"expos","start":"2024-06-08T04:00:00Z","geo":{"geometry":{"coordinates":[91.8656384,24.8938865],"type":"Point"},"placekey":"@7r6-3m3-xnq","address":{"country_code":"BD","formatted_address":"Sylhet - 3100, Bangladesh","locality":"Sylhet","postcode":"3100","region":"Sylhet Division"}},"labels":["education","expo","family"],"duration":28800,"start_local":"2024-06-08T10:00:00","end":"2024-06-08T12:00:00Z","end_local":"2024-06-08T18:00:00","updated":"2024-06-12T12:39:25Z"},{"title":"UK Education Expo | Royal Raj Hotel, Rajshahi","description":"Sourced from predicthq.com - Join AHZ on Saturday, June 8, 2024, from 10 am to 6 pm for an exclusive UK Education Expo at Royal Raj Hotel, Rajshahi.","category":"expos","start":"2024-06-08T04:00:00Z","geo":{"geometry":{"coordinates":[88.6007774,24.3672708],"type":"Point"},"placekey":"@7rb-rs2-kmk","address":{"country_code":"BD","formatted_address":"রাজশাহী, রাজশাহী বিভাগ, Bangladesh","locality":"রাজশাহী","region":"রাজশাহী বিভাগ"}},"labels":["education","expo","family"],"duration":28800,"start_local":"2024-06-08T10:00:00","end":"2024-06-08T12:00:00Z","end_local":"2024-06-08T18:00:00","updated":"2024-06-04T11:13:46Z"},{"title":"Study in India Expo - Dhaka Day 2","description":"Sourced from predicthq.com","category":"expos","start":"2024-06-07T18:00:00Z","geo":{"geometry":{"coordinates":[90.424157,23.813491],"type":"Point"},"placekey":"@7r9-xjw-kfz","address":{"country_code":"BD","formatted_address":"Bashundhara Road, Dhaka -, Bangladesh","locality":"Dhaka","region":"Dhaka Division"}},"labels":["expo"],"duration":86399,"start_local":"2024-06-08T00:00:00","end":"2024-06-08T17:59:59Z","end_local":"2024-06-08T23:59:59","updated":"2024-06-02T07:11:39Z"},{"title":"Study in India Expo - Dhaka","description":"Sourced from predicthq.com - Meet Top Indian Universities and Study in India with Merit Based Scholarships! Direct Admissions Application available on spot!","category":"expos","start":"2024-06-07T04:00:00Z","geo":{"geometry":{"coordinates":[90.4242393,23.81354109999999],"type":"Point"},"placekey":"@7r9-xjw-kfz","address":{"country_code":"BD","formatted_address":"Dhaka, Dhaka Division, Bangladesh","locality":"Dhaka","region":"Dhaka Division"}},"labels":["education","expo","family"],"duration":115200,"start_local":"2024-06-07T10:00:00","end":"2024-06-08T12:00:00Z","end_local":"2024-06-08T18:00:00","updated":"2024-06-04T07:19:42Z"},{"title":"Joy Bangla Half Marathon","description":"Sourced from predicthq.com","category":"sports","start":"2024-06-06T23:30:00Z","geo":{"geometry":{"coordinates":[90.4142853,23.769424],"type":"Point"},"placekey":"@7r9-xhj-249","address":{"country_code":"BD","formatted_address":"Dhaka, Dhaka Division, Bangladesh","locality":"Dhaka","region":"Dhaka Division"}},"labels":["marathon","outdoor-sports","running","sport"],"duration":0,"start_local":"2024-06-07T05:30:00","end":"2024-06-06T23:30:00Z","end_local":"2024-06-07T05:30:00","updated":"2024-06-04T01:18:39Z"},{"title":"AFC World Cup Qualifiers - 2nd Round - Bangladesh vs Australia","description":"Sourced from predicthq.com","category":"sports","start":"2024-06-06T10:45:00Z","geo":{"geometry":{"coordinates":[90.469965629,23.823884419],"type":"Point"},"placekey":"@7r9-xgj-vpv","address":{"country_code":"BD","formatted_address":"RF76+C3, Dhaka, Bangladesh","locality":"Dhaka","region":"Dhaka Division"}},"labels":["soccer","sport"],"duration":6688,"start_local":"2024-06-06T16:45:00","end":"2024-06-06T12:36:28Z","end_local":"2024-06-06T18:36:28","updated":"2024-06-07T12:12:48Z"},{"title":"GarTex Bangladesh","description":"Sourced from predicthq.com","category":"expos","start":"2024-06-05T18:00:00Z","geo":{"geometry":{"coordinates":[90.4273658,23.8267573],"type":"Point"},"placekey":"@7r9-xjy-r6k","address":{"country_code":"BD","formatted_address":"International Convention City Bashundhara, Joar Sahara, Khilkhet (Beside 300ft Purbachal Link Road), Purbachal Expy, Dhaka, Bangladesh","locality":"Dhaka","region":"Dhaka Division"}},"labels":["expo"],"duration":259199,"start_local":"2024-06-06T00:00:00","end":"2024-06-08T17:59:59Z","end_local":"2024-06-08T23:59:59","updated":"2024-05-28T04:59:51Z"},{"title":"Print Tech Bangladesh","description":"Sourced from predicthq.com","category":"expos","start":"2024-06-05T18:00:00Z","geo":{"geometry":{"coordinates":[90.4273658,23.8267573],"type":"Point"},"placekey":"@7r9-xjy-r6k","address":{"country_code":"BD","formatted_address":"International Convention City Bashundhara, Joar Sahara, Khilkhet (Beside 300ft Purbachal Link Road), Purbachal Expy, Dhaka, Bangladesh","locality":"Dhaka","region":"Dhaka Division"}},"labels":["expo"],"duration":259199,"start_local":"2024-06-06T00:00:00","end":"2024-06-08T17:59:59Z","end_local":"2024-06-08T23:59:59","updated":"2024-05-28T01:45:45Z"},{"title":"Label Expo Bangladesh","description":"Sourced from predicthq.com","category":"expos","start":"2024-06-05T18:00:00Z","geo":{"geometry":{"coordinates":[90.4273658,23.8267573],"type":"Point"},"placekey":"@7r9-xjy-r6k","address":{"country_code":"BD","formatted_address":"International Convention City Bashundhara, Joar Sahara, Khilkhet (Beside 300ft Purbachal Link Road), Purbachal Expy, Dhaka, Bangladesh","locality":"Dhaka","region":"Dhaka Division"}},"labels":["expo"],"duration":259199,"start_local":"2024-06-06T00:00:00","end":"2024-06-08T17:59:59Z","end_local":"2024-06-08T23:59:59","updated":"2024-05-27T15:39:48Z"},{"title":"Non Woven Expo Bangladesh","description":"Sourced from predicthq.com","category":"expos","start":"2024-06-05T18:00:00Z","geo":{"geometry":{"coordinates":[90.4273658,23.8267573],"type":"Point"},"placekey":"@7r9-xjy-r6k","address":{"country_code":"BD","formatted_address":"International Convention City Bashundhara, Joar Sahara, Khilkhet (Beside 300ft Purbachal Link Road), Purbachal Expy, Dhaka, Bangladesh","locality":"Dhaka","region":"Dhaka Division"}},"labels":["expo"],"duration":259199,"start_local":"2024-06-06T00:00:00","end":"2024-06-08T17:59:59Z","end_local":"2024-06-08T23:59:59","updated":"2024-05-27T15:45:30Z"},{"title":"Bangladesh Fire & Safety Expo","description":"Sourced from predicthq.com","category":"expos","start":"2024-06-05T18:00:00Z","geo":{"geometry":{"coordinates":[90.4273658,23.8267573],"type":"Point"},"placekey":"@7r9-xjy-r6k","address":{"country_code":"BD","formatted_address":"International Convention City Bashundhara, Joar Sahara, Khilkhet (Beside 300ft Purbachal Link Road), Purbachal Expy, Dhaka, Bangladesh","locality":"Dhaka","region":"Dhaka Division"}},"labels":["expo"],"duration":259199,"start_local":"2024-06-06T00:00:00","end":"2024-06-08T17:59:59Z","end_local":"2024-06-08T23:59:59","updated":"2024-05-27T16:36:52Z"},{"title":"Yarn, Fabrics, Accessories Expo Bangladesh","description":"Sourced from predicthq.com","category":"expos","start":"2024-06-05T18:00:00Z","geo":{"geometry":{"coordinates":[90.4273658,23.8267573],"type":"Point"},"placekey":"@7r9-xjy-r6k","address":{"country_code":"BD","formatted_address":"International Convention City Bashundhara, Joar Sahara, Khilkhet (Beside 300ft Purbachal Link Road), Purbachal Expy, Dhaka, Bangladesh","locality":"Dhaka","region":"Dhaka Division"}},"labels":["expo"],"duration":259199,"start_local":"2024-06-06T00:00:00","end":"2024-06-08T17:59:59Z","end_local":"2024-06-08T23:59:59","updated":"2024-05-27T16:10:01Z"},{"title":"Bangladesh Leather and Footwear Expo","description":"Sourced from predicthq.com","category":"expos","start":"2024-06-05T18:00:00Z","geo":{"geometry":{"coordinates":[90.4273658,23.8267573],"type":"Point"},"placekey":"@7r9-xjy-r6k","address":{"country_code":"BD","formatted_address":"International Convention City Bashundhara, Joar Sahara, Khilkhet (Beside 300ft Purbachal Link Road), Purbachal Expy, Dhaka, Bangladesh","locality":"Dhaka","region":"Dhaka Division"}},"labels":["expo"],"duration":259199,"start_local":"2024-06-06T00:00:00","end":"2024-06-08T17:59:59Z","end_local":"2024-06-08T23:59:59","updated":"2024-05-28T01:56:05Z"},{"title":"Attend Exclusive Offer Holder Session with University of Bridgeport","description":"Sourced from predicthq.com","category":"expos","start":"2024-06-04T18:00:00Z","geo":{"geometry":{"coordinates":[90.414759,23.795181],"type":"Point"},"placekey":"@7r9-xjz-2ff","address":{"country_code":"BD","formatted_address":"Gulshan Avenue, Dhaka - 1212, Bangladesh","locality":"Dhaka","postcode":"1212","region":"Dhaka Division"}},"labels":["expo"],"duration":86399,"start_local":"2024-06-05T00:00:00","end":"2024-06-05T17:59:59Z","end_local":"2024-06-05T23:59:59","updated":"2024-06-02T00:24:49Z"},{"title":"Study in India Expo - Chattogram Day 2","description":"Sourced from predicthq.com","category":"expos","start":"2024-06-04T18:00:00Z","geo":{"geometry":{"coordinates":[91.821892,22.357744],"type":"Point"},"placekey":"@7qt-t26-389","address":{"country_code":"BD","formatted_address":"Bulbul Center, 486/B CDA Ave, Chittagong, Bangladesh","locality":"Chittagong","region":"Chittagong Division"}},"labels":["expo"],"duration":86399,"start_local":"2024-06-05T00:00:00","end":"2024-06-05T17:59:59Z","end_local":"2024-06-05T23:59:59","updated":"2024-06-02T07:41:21Z"},{"title":"Study in India Expo - Chattogram","description":"Sourced from predicthq.com - Meet Top Indian Universities and Study in India with Merit Based Scholarships! Direct Admissions Application available on spot!","category":"expos","start":"2024-06-04T04:00:00Z","geo":{"geometry":{"coordinates":[91.821892,22.357744],"type":"Point"},"placekey":"@7qt-t26-389","address":{"country_code":"BD","formatted_address":"Bulbul Center, 486/B CDA Ave, Chittagong, Bangladesh","locality":"Chittagong","region":"Chittagong Division"}},"labels":["education","expo","family"],"duration":115200,"start_local":"2024-06-04T10:00:00","end":"2024-06-05T12:00:00Z","end_local":"2024-06-05T18:00:00","updated":"2024-06-02T07:40:24Z"},{"title":"Need to Apply for a Postgraduate Degree in Canada? (IDP Abu Dhabi)","description":"Sourced from predicthq.com","category":"expos","start":"2024-06-03T18:00:00Z","geo":{"geometry":{"coordinates":[90.414759,23.795181],"type":"Point"},"placekey":"@7r9-xjz-2ff","address":{"country_code":"BD","formatted_address":"Gulshan Avenue, Dhaka - 1212, Bangladesh","locality":"Dhaka","postcode":"1212","region":"Dhaka Division"}},"labels":["expo"],"duration":86399,"start_local":"2024-06-04T00:00:00","end":"2024-06-04T17:59:59Z","end_local":"2024-06-04T23:59:59","updated":"2024-06-02T00:43:51Z"},{"title":"Free Student Visa Application Support Webinar","description":"Sourced from predicthq.com","category":"expos","start":"2024-06-03T18:00:00Z","geo":{"geometry":{"coordinates":[90.414759,23.795181],"type":"Point"},"placekey":"@7r9-xjz-2ff","address":{"country_code":"BD","formatted_address":"Gulshan Avenue, Dhaka - 1212, Bangladesh","locality":"Dhaka","postcode":"1212","region":"Dhaka Division"}},"labels":["expo"],"duration":86399,"start_local":"2024-06-04T00:00:00","end":"2024-06-04T17:59:59Z","end_local":"2024-06-04T23:59:59","updated":"2024-06-02T00:46:09Z"},{"title":"Friendlies Women - Friendlies 2 - Bangladesh vs Chinese Taipei","description":"Sourced from predicthq.com","category":"sports","start":"2024-06-03T11:45:00Z","geo":{"geometry":{"coordinates":[90.469965629,23.823884419],"type":"Point"},"placekey":"@7r9-xgj-vpv","address":{"country_code":"BD","formatted_address":"RF76+C3, Dhaka, Bangladesh","locality":"Dhaka","region":"Dhaka Division"}},"labels":["soccer","sport"],"duration":0,"start_local":"2024-06-03T17:45:00","end":"2024-06-03T11:45:00Z","end_local":"2024-06-03T17:45:00","updated":"2024-06-12T06:18:37Z"},{"title":"UK Education Expo | Hotel Bengal Blueberry","description":"Sourced from predicthq.com - Join AHZ on Saturday, June 1, 2024, from 10 am to 6 pm for an exclusive UK Education Expo at Hotel Bengal Blueberry, Gulshan.","category":"expos","start":"2024-06-01T04:00:00Z","geo":{"geometry":{"coordinates":[90.41510770000001,23.7961357],"type":"Point"},"placekey":"@7r9-xjz-9zz","address":{"country_code":"BD","formatted_address":"Road 90, Dhaka - 1212, Bangladesh","locality":"Dhaka","postcode":"1212","region":"Dhaka Division"}},"labels":["education","expo","family"],"duration":28800,"start_local":"2024-06-01T10:00:00","end":"2024-06-01T12:00:00Z","end_local":"2024-06-01T18:00:00","updated":"2024-05-30T01:17:57Z"},{"title":"Friendlies Women - Friendlies 2 - Bangladesh vs Chinese Taipei","description":"Sourced from predicthq.com","category":"sports","start":"2024-05-31T11:45:00Z","geo":{"geometry":{"coordinates":[90.469965629,23.823884419],"type":"Point"},"placekey":"@7r9-xgj-vpv","address":{"country_code":"BD","formatted_address":"RF76+C3, Dhaka, Bangladesh","locality":"Dhaka","region":"Dhaka Division"}},"labels":["soccer","sport"],"duration":0,"start_local":"2024-05-31T17:45:00","end":"2024-05-31T11:45:00Z","end_local":"2024-05-31T17:45:00","updated":"2024-06-12T11:07:38Z"},{"title":"Intex South Asia 2024 (Bangladesh) - International Textile Sourcing Show","description":"Sourced from predicthq.com","category":"expos","start":"2024-05-29T18:00:00Z","geo":{"geometry":{"coordinates":[90.426953,23.8277687],"type":"Point"},"placekey":"@7r9-xjw-xnq","address":{"country_code":"BD","formatted_address":"Purbachal Expressway, Dhaka -, Bangladesh","locality":"Dhaka","region":"Dhaka Division"}},"labels":["expo","industrial"],"duration":259199,"start_local":"2024-05-30T00:00:00","end":"2024-06-01T17:59:59Z","end_local":"2024-06-01T23:59:59","updated":"2024-06-05T14:41:04Z"},{"title":"UK Education Expo 2024 | Grand Sylhet Hotel & Resort","description":"Sourced from predicthq.com - If you are interested to explore study options for UG & PG courses and guidance for your future, this expo is your gateway to excellence.","category":"expos","start":"2024-05-25T06:00:00Z","geo":{"geometry":{"coordinates":[91.86127119999999,24.9549039],"type":"Point"},"placekey":"@7r6-3kd-nt9","address":{"country_code":"BD","formatted_address":"Dhopagul, Sylhet Division, Bangladesh","locality":"Dhopagul","region":"Sylhet Division"}},"labels":["education","expo","family"],"duration":28800,"start_local":"2024-05-25T12:00:00","end":"2024-05-25T14:00:00Z","end_local":"2024-05-25T20:00:00","updated":"2024-06-05T04:23:40Z"},{"title":"IELTS and UK Education Expo | British Council Bangladesh","description":"Sourced from predicthq.com - Explore your pathway to excellence in UK education at the IELTS and UK Education Expo!","category":"expos","start":"2024-05-25T04:00:00Z","geo":{"geometry":{"coordinates":[90.39109479999999,23.730669],"type":"Point"},"placekey":"@7r9-zcf-3t9","address":{"country_code":"BD","formatted_address":"Fuller Road, Dhaka - 1000, Bangladesh","locality":"Dhaka","postcode":"1000","region":"Dhaka Division"}},"labels":["expo"],"duration":28800,"start_local":"2024-05-25T10:00:00","end":"2024-05-25T12:00:00Z","end_local":"2024-05-25T18:00:00","updated":"2024-06-12T06:48:08Z"},{"title":"Senora-Dhaka Women's Marathon","description":"Sourced from predicthq.com","category":"sports","start":"2024-05-23T23:00:00Z","geo":{"geometry":{"coordinates":[90.4152376,23.804093],"type":"Point"},"placekey":"@7r9-xjz-whq","address":{"country_code":"BD","formatted_address":"ঢাকা - 1212, Bangladesh","locality":"ঢাকা","postcode":"1212","region":"ঢাকা বিভাগ"}},"labels":["marathon","outdoor-sports","running","sport"],"duration":0,"start_local":"2024-05-24T05:00:00","end":"2024-05-23T23:00:00Z","end_local":"2024-05-24T05:00:00","updated":"2024-05-27T04:05:55Z"},{"title":"UK Education Expo 2024 | Anamica Community Center","description":"Sourced from predicthq.com - Join us at the UK Education Expo on Thursday, 23 May at Anamica Community Center.","category":"expos","start":"2024-05-23T04:00:00Z","geo":{"geometry":{"coordinates":[91.4117471,24.3760934],"type":"Point"},"placekey":"@7qv-cfj-3bk","address":{"country_code":"BD","formatted_address":"Habiganj, Sylhet Division, Bangladesh","locality":"Habiganj","region":"Sylhet Division"}},"labels":["education","expo","family"],"duration":28800,"start_local":"2024-05-23T10:00:00","end":"2024-05-23T12:00:00Z","end_local":"2024-05-23T18:00:00","updated":"2024-06-05T11:08:19Z"},{"title":"The Sports Sourcing Show Bangladesh","description":"Sourced from predicthq.com","category":"expos","start":"2024-05-23T03:00:00Z","geo":{"geometry":{"coordinates":[90.3814755,23.7693574],"type":"Point"},"placekey":"@7r9-w57-f2k","address":{"country_code":"BD","formatted_address":"Bir Uttom Khaled Mosharraf Avenue, Dhaka - 1207, Bangladesh","postcode":"1207","locality":"Dhaka","region":"Dhaka Division"}},"labels":["expo"],"duration":205200,"start_local":"2024-05-23T09:00:00","end":"2024-05-25T12:00:00Z","end_local":"2024-05-25T18:00:00","updated":"2024-07-02T02:43:18Z"},{"title":"MarineTech Bangladesh Expo & Summit","description":"Sourced from predicthq.com","category":"expos","start":"2024-05-23T03:00:00Z","geo":{"geometry":{"coordinates":[90.4273658,23.8267573],"type":"Point"},"placekey":"@7r9-xjy-r6k","address":{"country_code":"BD","formatted_address":"International Convention City Bashundhara, Joar Sahara, Khilkhet (Beside 300ft Purbachal Link Road), Purbachal Expy, Dhaka, Bangladesh","locality":"Dhaka","region":"Dhaka Division"}},"labels":["expo"],"duration":205200,"start_local":"2024-05-23T09:00:00","end":"2024-05-25T12:00:00Z","end_local":"2024-05-25T18:00:00","updated":"2024-05-27T17:01:31Z"},{"title":"Next-Gen Warehouse Technology Expo","description":"Sourced from predicthq.com","category":"expos","start":"2024-05-23T03:00:00Z","geo":{"geometry":{"coordinates":[90.4273658,23.8267573],"type":"Point"},"placekey":"@7r9-xjy-r6k","address":{"country_code":"BD","formatted_address":"International Convention City Bashundhara, Joar Sahara, Khilkhet (Beside 300ft Purbachal Link Road), Purbachal Expy, Dhaka, Bangladesh","locality":"Dhaka","region":"Dhaka Division"}},"labels":["expo"],"duration":205200,"start_local":"2024-05-23T09:00:00","end":"2024-05-25T12:00:00Z","end_local":"2024-05-25T18:00:00","updated":"2024-05-27T17:13:46Z"},{"title":"Regional Apparel Machinery Tradeshow","description":"Sourced from predicthq.com","category":"expos","start":"2024-05-23T03:00:00Z","geo":{"geometry":{"coordinates":[91.821097,22.358833],"type":"Point"},"placekey":"@7qt-t26-3kf","address":{"country_code":"BD","formatted_address":"GEC Convention Center, 1 Shahid Abdul Halim Rd, Chittagong, Bangladesh","locality":"Chittagong","region":"Chittagong Division"}},"labels":["expo"],"duration":205200,"start_local":"2024-05-23T09:00:00","end":"2024-05-25T12:00:00Z","end_local":"2024-05-25T18:00:00","updated":"2024-06-30T04:37:17Z"},{"title":"International Maritime Industry Expo","description":"Sourced from predicthq.com","category":"expos","start":"2024-05-23T03:00:00Z","geo":{"geometry":{"coordinates":[90.4273658,23.8267573],"type":"Point"},"placekey":"@7r9-xjy-r6k","address":{"country_code":"BD","formatted_address":"International Convention City Bashundhara, Joar Sahara, Khilkhet (Beside 300ft Purbachal Link Road), Purbachal Expy, Dhaka, Bangladesh","locality":"Dhaka","region":"Dhaka Division"}},"labels":["expo"],"duration":205200,"start_local":"2024-05-23T09:00:00","end":"2024-05-25T12:00:00Z","end_local":"2024-05-25T18:00:00","updated":"2024-05-27T18:30:15Z"},{"title":"Dhaka Commercial Automotive Show","description":"Sourced from predicthq.com - The Dhaka Commercial Automotive Show is an exciting expo event showcasing the latest advancements and innovations in the automotive industry. From cutting-edge technology to stunning vehicle designs, this show brings together industry professionals, enthusiasts, and the general public for an immersive experience like no other.","category":"expos","start":"2024-05-22T18:00:00Z","geo":{"geometry":{"coordinates":[90.53489,23.843111],"type":"Point"},"placekey":"@7r9-xjm-yqf","address":{"country_code":"BD","formatted_address":"Rupganj\nBangladesh","locality":"Rupganj"}},"labels":["expo"],"duration":259199,"start_local":"2024-05-23T00:00:00","end":"2024-05-25T17:59:59Z","end_local":"2024-05-25T23:59:59","updated":"2024-05-31T22:59:51Z"},{"title":"17th Dhaka Motor Show 2024","description":"Sourced from predicthq.com","category":"expos","start":"2024-05-22T18:00:00Z","geo":{"geometry":{"coordinates":[90.3815778,23.769209],"type":"Point"},"placekey":"@7r9-w57-fs5","address":{"country_code":"BD","formatted_address":"Begum Rokeya Avenue, Dhaka - 1207, Bangladesh","locality":"Dhaka","postcode":"1207","region":"Dhaka Division"}},"labels":["automotive","expo","industrial","packaging","technology"],"duration":259199,"start_local":"2024-05-23T00:00:00","end":"2024-05-25T17:59:59Z","end_local":"2024-05-25T23:59:59","updated":"2024-06-25T02:45:27Z"},{"title":"Garment Technology Bangladesh","description":"Sourced from predicthq.com","category":"expos","start":"2024-05-22T18:00:00Z","geo":{"geometry":{"coordinates":[91.821097,22.358833],"type":"Point"},"placekey":"@7qt-t26-3kf","address":{"country_code":"BD","formatted_address":"GEC Convention Center, 1 Shahid Abdul Halim Rd, Chittagong, Bangladesh","locality":"Chittagong","region":"Chittagong Division"}},"labels":["expo"],"duration":259199,"start_local":"2024-05-23T00:00:00","end":"2024-05-25T17:59:59Z","end_local":"2024-05-25T23:59:59","updated":"2024-06-30T04:39:43Z"},{"title":"UK Education Expo 2024 | Bengal Convention Hall","description":"Sourced from predicthq.com - Join us at the UK Education Expo on 22 May at Bengal Convention Hall.","category":"expos","start":"2024-05-22T04:00:00Z","geo":{"geometry":{"coordinates":[91.7652446,24.4824548],"type":"Point"},"placekey":"@7qv-j4t-t9z","address":{"country_code":"BD","formatted_address":"Moulvibazar, Sylhet Division, Bangladesh","locality":"Moulvibazar","region":"Sylhet Division"}},"labels":["education","expo","family"],"duration":28800,"start_local":"2024-05-22T10:00:00","end":"2024-05-22T12:00:00Z","end_local":"2024-05-22T18:00:00","updated":"2024-06-04T22:53:08Z"},{"title":"UK Education Expo | AHZ Dhanmondi Office","description":"Sourced from predicthq.com - Top UK universities, scholarships, desired courses, low tuition fees, and many more offers to grab within a minute by joining us at the UK.","category":"expos","start":"2024-05-22T04:00:00Z","geo":{"geometry":{"coordinates":[90.3699132,23.7528843],"type":"Point"},"placekey":"@7r9-w5c-5cq","address":{"country_code":"BD","formatted_address":"Road No. 8A, Dhaka - 1209, Bangladesh","locality":"Dhaka","postcode":"1209","region":"Dhaka Division"}},"labels":["education","expo","family"],"duration":28800,"start_local":"2024-05-22T10:00:00","end":"2024-05-22T12:00:00Z","end_local":"2024-05-22T18:00:00","updated":"2024-06-05T04:04:01Z"},{"title":"Male","description":"Sourced from predicthq.com","category":"concerts","start":"2024-05-20T14:00:00Z","geo":{"geometry":{"coordinates":[90.4086075,23.7230549],"type":"Point"},"placekey":"@7r9-zc7-vvf","address":{"country_code":"BD","formatted_address":"A H M Kamruzzaman Sharani, Dhaka - 1000, Bangladesh","locality":"Dhaka","postcode":"1000","region":"Dhaka Division"}},"labels":["concert","music"],"duration":0,"start_local":"2024-05-20T20:00:00","end":"2024-05-20T14:00:00Z","end_local":"2024-05-20T20:00:00","updated":"2024-06-12T09:32:39Z"},{"title":"Gearcon May 2024: Print Your Passion, Gear Up for Success!","description":"Sourced from predicthq.com - গিয়ারকনই সেই জায়গা, যেখানে স্বপ্নগুলি ডিজাইনে পরিণত হয় এবং ডিজাইনগুলি বাস্তবে পরিণত হয়! ✨","category":"conferences","start":"2024-05-19T09:00:00Z","geo":{"geometry":{"coordinates":[91.832881,22.3370886],"type":"Point"},"placekey":"@7qt-t28-75z","address":{"country_code":"BD","formatted_address":"J C Guha Road, Chittagong - 4000, Bangladesh","locality":"Chittagong","postcode":"4000","region":"Chittagong Division"}},"labels":["business","conference"],"duration":18000,"start_local":"2024-05-19T15:00:00","end":"2024-05-19T14:00:00Z","end_local":"2024-05-19T20:00:00","updated":"2024-06-05T08:39:47Z"},{"title":"Poizon Green","description":"Sourced from predicthq.com","category":"concerts","start":"2024-05-17T13:00:00Z","geo":{"geometry":{"coordinates":[90.4125181,23.810332],"type":"Point"},"placekey":"@7r9-xjw-ch5","address":{"country_code":"BD","formatted_address":"Q9GG+C22 National Library, Dhaka, Bangladesh","locality":"Dhaka","region":"Dhaka Division"}},"labels":["concert","music"],"duration":0,"start_local":"2024-05-17T19:00:00","end":"2024-05-17T13:00:00Z","end_local":"2024-05-17T19:00:00","updated":"2024-06-12T06:17:19Z"},{"title":"Buy Verified Binance Accounts","description":"Sourced from predicthq.com - Hey there! Get ready to score your very own verified Binance account at our event - no hassle, just smooth sailing into the world of cryptoc","category":"expos","start":"2024-05-17T04:00:00Z","geo":{"geometry":{"coordinates":[90.3929252,23.7339483],"type":"Point"},"placekey":"@7r9-zcf-6kz","address":{"country_code":"BD","formatted_address":"Dhaka, Dhaka Division, Bangladesh","locality":"Dhaka","region":"Dhaka Division"}},"labels":["business","expo"],"duration":7200,"start_local":"2024-05-17T10:00:00","end":"2024-05-17T06:00:00Z","end_local":"2024-05-17T12:00:00","updated":"2024-06-05T00:30:07Z"},{"title":"BuildEx","description":"Sourced from predicthq.com","category":"expos","start":"2024-05-15T18:00:00Z","geo":{"geometry":{"coordinates":[90.4273658,23.8267573],"type":"Point"},"placekey":"@7r9-xjy-r6k","address":{"country_code":"BD","formatted_address":"International Convention City Bashundhara, Joar Sahara, Khilkhet (Beside 300ft Purbachal Link Road), Purbachal Expy, Dhaka, Bangladesh","locality":"Dhaka","region":"Dhaka Division"}},"labels":["expo"],"duration":259199,"start_local":"2024-05-16T00:00:00","end":"2024-05-18T17:59:59Z","end_local":"2024-05-18T23:59:59","updated":"2024-05-28T00:39:30Z"},{"title":"Safe HVACR Show","description":"Sourced from predicthq.com - The Safe HVACR Show is a premier expo event dedicated to showcasing the latest advances and technologies in heating, ventilation, air conditioning, and refrigeration. Featuring industry-leading exhibitors and educational seminars, it offers a platform for professionals to explore new products and solutions to enhance their HVACR systems.","category":"expos","start":"2024-05-15T18:00:00Z","geo":{"geometry":{"coordinates":[90.4273658,23.8267573],"type":"Point"},"placekey":"@7r9-xjy-r6k","address":{"country_code":"BD","formatted_address":"International Convention City Bashundhara, Joar Sahara, Khilkhet (Beside 300ft Purbachal Link Road), Purbachal Expy, Dhaka, Bangladesh","locality":"Dhaka","region":"Dhaka Division"}},"labels":["expo"],"duration":259199,"start_local":"2024-05-16T00:00:00","end":"2024-05-18T17:59:59Z","end_local":"2024-05-18T23:59:59","updated":"2024-06-12T06:31:57Z"},{"title":"Water Management Show","description":"Sourced from predicthq.com - The Water Management Show is a pioneering expo event showcasing cutting-edge technologies and solutions aimed at efficiently managing and preserving the world's most valuable resource - water. It gathers industry leaders, professionals, and experts to explore the latest innovations, strategies, and best practices in water management for a sustainable future.","category":"expos","start":"2024-05-15T18:00:00Z","geo":{"geometry":{"coordinates":[90.4273658,23.8267573],"type":"Point"},"placekey":"@7r9-xjy-r6k","address":{"country_code":"BD","formatted_address":"International Convention City Bashundhara, Joar Sahara, Khilkhet (Beside 300ft Purbachal Link Road), Purbachal Expy, Dhaka, Bangladesh","locality":"Dhaka","region":"Dhaka Division"}},"labels":["expo"],"duration":259199,"start_local":"2024-05-16T00:00:00","end":"2024-05-18T17:59:59Z","end_local":"2024-05-18T23:59:59","updated":"2024-05-28T00:29:14Z"},{"title":"Renewable Energy Show","description":"Sourced from predicthq.com - The Renewable Energy Show is an exciting expo event that showcases innovative and sustainable solutions in the field of clean energy. It brings together industry professionals, experts, and enthusiasts to explore the latest advancements, foster partnerships, and promote a greener future.","category":"expos","start":"2024-05-15T18:00:00Z","geo":{"geometry":{"coordinates":[90.4273658,23.8267573],"type":"Point"},"placekey":"@7r9-xjy-r6k","address":{"country_code":"BD","formatted_address":"International Convention City Bashundhara, Joar Sahara, Khilkhet (Beside 300ft Purbachal Link Road), Purbachal Expy, Dhaka, Bangladesh","locality":"Dhaka","region":"Dhaka Division"}},"labels":["expo"],"duration":259199,"start_local":"2024-05-16T00:00:00","end":"2024-05-18T17:59:59Z","end_local":"2024-05-18T23:59:59","updated":"2024-06-05T01:42:59Z"},{"title":"Cold Chain Bangladesh","description":"Sourced from predicthq.com","category":"expos","start":"2024-05-15T18:00:00Z","geo":{"geometry":{"coordinates":[90.4273658,23.8267573],"type":"Point"},"placekey":"@7r9-xjy-r6k","address":{"country_code":"BD","formatted_address":"International Convention City Bashundhara, Joar Sahara, Khilkhet (Beside 300ft Purbachal Link Road), Purbachal Expy, Dhaka, Bangladesh","locality":"Dhaka","region":"Dhaka Division"}},"labels":["expo"],"duration":259199,"start_local":"2024-05-16T00:00:00","end":"2024-05-18T17:59:59Z","end_local":"2024-05-18T23:59:59","updated":"2024-05-27T19:25:10Z"},{"title":"Power-Gen Bangladesh Expo","description":"Sourced from predicthq.com - This expo aims to gather key stakeholders. from the Power & Energy Industry of Bangladesh in one location. The primary focus of the exhibition will be on Power Generation & Transmission, PV Power, Energy, and Renewable Energy. The event will serve as a platform for specialists.","category":"expos","start":"2024-05-15T18:00:00Z","geo":{"geometry":{"coordinates":[90.426953,23.8277687],"type":"Point"},"placekey":"@7r9-xjw-xnq","address":{"country_code":"BD","formatted_address":"International Convention City Bashundhara, Joar Sahara, Khilkhet (Beside 300ft Purbachal Link Road), Purbachal Expy, Dhaka, Bangladesh","locality":"Dhaka","region":"Dhaka Division"}},"labels":["business","expo","technology"],"duration":259199,"start_local":"2024-05-16T00:00:00","end":"2024-05-18T17:59:59Z","end_local":"2024-05-18T23:59:59","updated":"2024-05-28T00:39:27Z"},{"title":"Fashion Tech Week","description":"Sourced from predicthq.com - THE FUTURE OF FASHION TECHNOLOGY - Expo and Conference for Fashion Entrepreneurs","category":"conferences","start":"2024-05-15T04:00:00Z","geo":{"geometry":{"coordinates":[90.40872,23.816041],"type":"Point"},"placekey":"@7r9-xjx-68v","address":{"country_code":"BD","formatted_address":"Airport Rd, Dhaka 1206, Bangladesh","postcode":"1206","locality":"Dhaka","region":"Dhaka Division"}},"labels":["conference","fashion"],"duration":28800,"start_local":"2024-05-15T10:00:00","end":"2024-05-15T12:00:00Z","end_local":"2024-05-15T18:00:00","updated":"2024-05-28T13:16:11Z"},{"title":"The Canadian Prairies: Navigating Immigration and Education in Alberta & Manitoba","description":"Sourced from predicthq.com","category":"conferences","start":"2024-05-14T18:00:00Z","geo":{"geometry":{"coordinates":[91.865638,24.893887],"type":"Point"},"placekey":"@7r6-3m3-xnq","address":{"country_code":"BD","formatted_address":"Sylhet - 3100, Bangladesh","locality":"Sylhet","postcode":"3100","region":"Sylhet Division"}},"labels":["conference"],"duration":86399,"start_local":"2024-05-15T00:00:00","end":"2024-05-15T17:59:59Z","end_local":"2024-05-15T23:59:59","updated":"2024-05-27T03:35:19Z"},{"title":"Bangladesh International Trade Summit","description":"Sourced from predicthq.com","category":"conferences","start":"2024-05-13T18:00:00Z","geo":{"geometry":{"coordinates":[90.394509,23.749581],"type":"Point"},"placekey":"@7r9-w5d-d5f","address":{"country_code":"BD","formatted_address":"107 Kazi Nazrul Islam Ave, Dhaka 1215, Bangladesh","postcode":"1215","locality":"Dhaka","region":"Dhaka Division"}},"labels":["conference"],"duration":172799,"start_local":"2024-05-14T00:00:00","end":"2024-05-15T17:59:59Z","end_local":"2024-05-15T23:59:59","updated":"2024-06-05T01:58:35Z"},{"title":"International Conference on Business Management, Humanities and Social Science","description":"Sourced from predicthq.com","category":"conferences","start":"2024-05-13T03:00:00Z","geo":{"geometry":{"coordinates":[90.417869,23.781457],"type":"Point"},"placekey":"@7r9-xhf-bc5","address":{"country_code":"BD","formatted_address":"126, 3 Rd No:- 7, Dhaka 1212, Bangladesh","postcode":"1212","locality":"Dhaka","region":"Dhaka Division"}},"labels":["conference"],"duration":32400,"start_local":"2024-05-13T09:00:00","end":"2024-05-13T12:00:00Z","end_local":"2024-05-13T18:00:00","updated":"2024-05-31T23:30:02Z"},{"title":"Bangladesh vs Zimbabwe","description":"Sourced from predicthq.com","category":"sports","start":"2024-05-12T04:00:00Z","geo":{"geometry":{"coordinates":[90.3635382,23.8069415],"type":"Point"},"placekey":"@7r9-w74-skf","address":{"country_code":"BD","formatted_address":"Mirpur Rd, Dhaka 1216, Bangladesh","postcode":"1216","locality":"Dhaka","region":"Dhaka Division"}},"labels":["cricket","sport"],"duration":11499,"start_local":"2024-05-12T10:00:00","end":"2024-05-12T07:11:39Z","end_local":"2024-05-12T13:11:39","updated":"2024-06-05T20:33:15Z"},{"title":"Bangladesh vs Zimbabwe","description":"Sourced from predicthq.com","category":"sports","start":"2024-05-10T12:00:00Z","geo":{"geometry":{"coordinates":[90.3635382,23.8069415],"type":"Point"},"placekey":"@7r9-w74-skf","address":{"country_code":"BD","formatted_address":"Mirpur Rd, Dhaka 1216, Bangladesh","postcode":"1216","locality":"Dhaka","region":"Dhaka Division"}},"labels":["cricket","sport"],"duration":13337,"start_local":"2024-05-10T18:00:00","end":"2024-05-10T15:42:17Z","end_local":"2024-05-10T21:42:17","updated":"2024-06-05T00:46:39Z"},{"title":"The International Conference on Economics, Business and Technology Management","description":"Sourced from predicthq.com","category":"conferences","start":"2024-05-10T03:00:00Z","geo":{"geometry":{"coordinates":[90.414224,23.793442],"type":"Point"},"placekey":"@7r9-xjz-2kz","address":{"country_code":"BD","formatted_address":"QCV7+CP2, Rd 45, Dhaka 1212, Bangladesh","postcode":"1212","locality":"Dhaka","region":"Dhaka Division"}},"labels":["conference"],"duration":118800,"start_local":"2024-05-10T09:00:00","end":"2024-05-11T12:00:00Z","end_local":"2024-05-11T18:00:00","updated":"2024-06-03T23:06:36Z"},{"title":"Bangladesh vs India","description":"Sourced from predicthq.com","category":"sports","start":"2024-05-09T10:00:00Z","geo":{"geometry":{"coordinates":[91.8686125,24.920976],"type":"Point"},"placekey":"@7r6-3kz-sdv","address":{"country_code":"BD","formatted_address":"Airport Road, Sylhet - 3100, Bangladesh","postcode":"3100","locality":"Sylhet","region":"Sylhet Division"}},"labels":["cricket","sport"],"duration":10907,"start_local":"2024-05-09T16:00:00","end":"2024-05-09T13:01:47Z","end_local":"2024-05-09T19:01:47","updated":"2024-05-28T01:47:41Z"},{"title":"Buy Verified Binance Accounts","description":"Sourced from predicthq.com - If you want to more information just knock us — Contact US\n   24 Hours Reply/Contact\n  Skype: @usa5starit\n   Telegram: @usa5starit1","category":"expos","start":"2024-05-09T04:00:00Z","geo":{"geometry":{"coordinates":[90.4152376,23.804093],"type":"Point"},"placekey":"@7r9-xjz-whq","address":{"country_code":"BD","formatted_address":"ঢাকা - 1212, Bangladesh","locality":"ঢাকা","postcode":"1212","region":"ঢাকা বিভাগ"}},"labels":["business","expo"],"duration":7200,"start_local":"2024-05-09T10:00:00","end":"2024-05-09T06:00:00Z","end_local":"2024-05-09T12:00:00","updated":"2024-06-05T13:21:54Z"},{"title":"U.S. Trade Show","description":"Sourced from predicthq.com","category":"expos","start":"2024-05-09T03:00:00Z","geo":{"geometry":{"coordinates":[90.396739,23.741226],"type":"Point"},"placekey":"@7r9-zcg-575","address":{"country_code":"BD","formatted_address":"G, 1 Minto Rd, Dhaka 1000, Bangladesh","postcode":"1000","locality":"Dhaka","region":"Dhaka Division"}},"labels":["expo"],"duration":205200,"start_local":"2024-05-09T09:00:00","end":"2024-05-11T12:00:00Z","end_local":"2024-05-11T18:00:00","updated":"2024-05-31T23:03:28Z"},{"title":"MEDITEX","description":"Sourced from predicthq.com - Meditex Bangladesh is a prestigious expo event held at International Convention City Bashundhara, showcasing cutting-edge medical products and technologies. This premier exhibition brings together industry professionals, stakeholders, and healthcare enthusiasts to explore the latest innovations and advancements in the field of medicine.","category":"expos","start":"2024-05-08T18:00:00Z","geo":{"geometry":{"coordinates":[90.426953,23.8277687],"type":"Point"},"placekey":"@7r9-xjw-xnq","address":{"country_code":"BD","formatted_address":"International Convention City Bashundhara, Joar Sahara, Khilkhet (Beside 300ft Purbachal Link Road), Purbachal Expy, Dhaka, Bangladesh","locality":"Dhaka","region":"Dhaka Division"}},"labels":["expo"],"duration":259199,"start_local":"2024-05-09T00:00:00","end":"2024-05-11T17:59:59Z","end_local":"2024-05-11T23:59:59","updated":"2024-06-12T18:24:45Z"},{"title":"8th Bangladesh Clinical Lab Expo 2024","description":"Sourced from predicthq.com","category":"expos","start":"2024-05-08T18:00:00Z","geo":{"geometry":{"coordinates":[90.4274546,23.8282982],"type":"Point"},"placekey":"@7r9-xjy-q2k","address":{"country_code":"BD","formatted_address":"Dhaka, Dhaka Division, Bangladesh","locality":"Dhaka","region":"Dhaka Division"}},"labels":["expo","health","industrial","medical","science","technology"],"duration":259199,"start_local":"2024-05-09T00:00:00","end":"2024-05-11T17:59:59Z","end_local":"2024-05-11T23:59:59","updated":"2024-06-05T06:23:01Z"},{"title":"7th Food Bangladesh International Expo 2024","description":"Sourced from predicthq.com","category":"expos","start":"2024-05-08T18:00:00Z","geo":{"geometry":{"coordinates":[90.4274546,23.8282982],"type":"Point"},"placekey":"@7r9-xjy-q2k","address":{"country_code":"BD","formatted_address":"Dhaka, Dhaka Division, Bangladesh","locality":"Dhaka","region":"Dhaka Division"}},"labels":["agriculture","business","expo","food"],"duration":259199,"start_local":"2024-05-09T00:00:00","end":"2024-05-11T17:59:59Z","end_local":"2024-05-11T23:59:59","updated":"2024-06-05T02:12:51Z"},{"title":"International Poultry & Livestock Bangladesh Expo","description":"Sourced from predicthq.com","category":"expos","start":"2024-05-08T18:00:00Z","geo":{"geometry":{"coordinates":[90.4273658,23.8267573],"type":"Point"},"placekey":"@7r9-xjy-r6k","address":{"country_code":"BD","formatted_address":"International Convention City Bashundhara, Joar Sahara, Khilkhet (Beside 300ft Purbachal Link Road), Purbachal Expy, Dhaka, Bangladesh","locality":"Dhaka","region":"Dhaka Division"}},"labels":["expo"],"duration":259199,"start_local":"2024-05-09T00:00:00","end":"2024-05-11T17:59:59Z","end_local":"2024-05-11T23:59:59","updated":"2024-05-27T16:51:17Z"},{"title":"Dhaka International Plastic, Packaging & Printing Expo","description":"Sourced from predicthq.com","category":"expos","start":"2024-05-08T18:00:00Z","geo":{"geometry":{"coordinates":[90.4273658,23.8267573],"type":"Point"},"placekey":"@7r9-xjy-r6k","address":{"country_code":"BD","formatted_address":"International Convention City Bashundhara, Joar Sahara, Khilkhet (Beside 300ft Purbachal Link Road), Purbachal Expy, Dhaka, Bangladesh","locality":"Dhaka","region":"Dhaka Division"}},"labels":["expo"],"duration":259199,"start_local":"2024-05-09T00:00:00","end":"2024-05-11T17:59:59Z","end_local":"2024-05-11T23:59:59","updated":"2024-06-16T03:04:15Z"},{"title":"Bangladesh Infrastructure, Innovation & Development Expo & Dialouge","description":"Sourced from predicthq.com","category":"expos","start":"2024-05-08T18:00:00Z","geo":{"geometry":{"coordinates":[90.3814755,23.7693574],"type":"Point"},"placekey":"@7r9-w57-f2k","address":{"country_code":"BD","formatted_address":"Bir Uttom Khaled Mosharraf Avenue, Dhaka - 1207, Bangladesh","postcode":"1207","locality":"Dhaka","region":"Dhaka Division"}},"labels":["expo"],"duration":259199,"start_local":"2024-05-09T00:00:00","end":"2024-05-11T17:59:59Z","end_local":"2024-05-11T23:59:59","updated":"2024-07-03T15:22:10Z"},{"title":"7th International Health Tourism & Services Expo 2024","description":"Sourced from predicthq.com","category":"expos","start":"2024-05-08T18:00:00Z","geo":{"geometry":{"coordinates":[90.4274546,23.8282982],"type":"Point"},"placekey":"@7r9-xjy-q2k","address":{"country_code":"BD","formatted_address":"Dhaka, Dhaka Division, Bangladesh","locality":"Dhaka","region":"Dhaka Division"}},"labels":["business","expo","health","medical","tourism","travel"],"duration":259199,"start_local":"2024-05-09T00:00:00","end":"2024-05-11T17:59:59Z","end_local":"2024-05-11T23:59:59","updated":"2024-06-11T22:04:42Z"},{"title":"4th Food Pack Expo 2024","description":"Sourced from predicthq.com","category":"expos","start":"2024-05-08T18:00:00Z","geo":{"geometry":{"coordinates":[90.4274546,23.8282982],"type":"Point"},"placekey":"@7r9-xjy-q2k","address":{"country_code":"BD","formatted_address":"Dhaka, Dhaka Division, Bangladesh","locality":"Dhaka","region":"Dhaka Division"}},"labels":["expo","packaging"],"duration":259199,"start_local":"2024-05-09T00:00:00","end":"2024-05-11T17:59:59Z","end_local":"2024-05-11T23:59:59","updated":"2024-06-05T01:02:05Z"},{"title":"Bangladesh vs Zimbabwe","description":"Sourced from predicthq.com","category":"sports","start":"2024-05-07T09:00:00Z","geo":{"geometry":{"coordinates":[91.7677648,22.3558508],"type":"Point"},"placekey":"@7qt-szq-p35","address":{"country_code":"BD","formatted_address":"Sagorika Road, Pahartali - 4219, Bangladesh","postcode":"4219","locality":"Pahartali","region":"Chittagong Division"}},"labels":["cricket","sport"],"duration":13076,"start_local":"2024-05-07T15:00:00","end":"2024-05-07T12:37:56Z","end_local":"2024-05-07T18:37:56","updated":"2024-05-28T22:11:56Z"},{"title":"Bangladesh vs India","description":"Sourced from predicthq.com","category":"sports","start":"2024-05-06T10:00:00Z","geo":{"geometry":{"coordinates":[91.8686125,24.920976],"type":"Point"},"placekey":"@7r6-3kz-sdv","address":{"country_code":"BD","formatted_address":"Airport Road, Sylhet - 3100, Bangladesh","postcode":"3100","locality":"Sylhet","region":"Sylhet Division"}},"labels":["cricket","sport"],"duration":14704,"start_local":"2024-05-06T16:00:00","end":"2024-05-06T14:05:04Z","end_local":"2024-05-06T20:05:04","updated":"2024-05-28T03:21:25Z"},{"title":"Bangladesh Denim Expo","description":"Sourced from predicthq.com","category":"expos","start":"2024-05-05T18:00:00Z","geo":{"geometry":{"coordinates":[90.4273658,23.8267573],"type":"Point"},"placekey":"@7r9-xjy-r6k","address":{"country_code":"BD","formatted_address":"International Convention City Bashundhara, Joar Sahara, Khilkhet (Beside 300ft Purbachal Link Road), Purbachal Expy, Dhaka, Bangladesh","locality":"Dhaka","region":"Dhaka Division"}},"labels":["expo"],"duration":172799,"start_local":"2024-05-06T00:00:00","end":"2024-05-07T17:59:59Z","end_local":"2024-05-07T23:59:59","updated":"2024-05-27T20:22:03Z"},{"title":"Bangladesh vs Zimbabwe","description":"Sourced from predicthq.com","category":"sports","start":"2024-05-05T12:00:00Z","geo":{"geometry":{"coordinates":[91.7677648,22.3558508],"type":"Point"},"placekey":"@7qt-szq-p35","address":{"country_code":"BD","formatted_address":"Sagorika Road, Pahartali - 4219, Bangladesh","postcode":"4219","locality":"Pahartali","region":"Chittagong Division"}},"labels":["cricket","sport"],"duration":14262,"start_local":"2024-05-05T18:00:00","end":"2024-05-05T15:57:42Z","end_local":"2024-05-05T21:57:42","updated":"2024-05-28T22:06:14Z"},{"title":"Sun Jamuna Half Marathon","description":"Sourced from predicthq.com","category":"sports","start":"2024-05-05T00:00:00Z","geo":{"geometry":{"coordinates":[89.6816208,24.4526459],"type":"Point"},"placekey":"@7rc-26g-zj9","address":{"country_code":"BD","formatted_address":"Sirajganj, Rajshahi Division, Bangladesh","locality":"Sirajganj","region":"Rajshahi Division"}},"labels":["marathon","outdoor-sports","running","sport"],"duration":0,"start_local":"2024-05-05T06:00:00","end":"2024-05-05T00:00:00Z","end_local":"2024-05-05T06:00:00","updated":"2024-06-05T04:15:49Z"},{"title":"Bangladesh vs Zimbabwe","description":"Sourced from predicthq.com","category":"sports","start":"2024-05-03T12:00:00Z","geo":{"geometry":{"coordinates":[91.7677648,22.3558508],"type":"Point"},"placekey":"@7qt-szq-p35","address":{"country_code":"BD","formatted_address":"Sagorika Road, Pahartali - 4219, Bangladesh","postcode":"4219","locality":"Pahartali","region":"Chittagong Division"}},"labels":["cricket","sport"],"duration":15695,"start_local":"2024-05-03T18:00:00","end":"2024-05-03T16:21:35Z","end_local":"2024-05-03T22:21:35","updated":"2024-05-28T22:16:07Z"},{"title":"Bangladesh vs India","description":"Sourced from predicthq.com","category":"sports","start":"2024-05-02T10:00:00Z","geo":{"geometry":{"coordinates":[91.8686125,24.920976],"type":"Point"},"placekey":"@7r6-3kz-sdv","address":{"country_code":"BD","formatted_address":"Airport Road, Sylhet - 3100, Bangladesh","postcode":"3100","locality":"Sylhet","region":"Sylhet Division"}},"labels":["cricket","sport"],"duration":11025,"start_local":"2024-05-02T16:00:00","end":"2024-05-02T13:03:45Z","end_local":"2024-05-02T19:03:45","updated":"2024-05-28T00:30:51Z"},{"title":"International Conference on Behaviour Physiology and Genetics of Wildlife","description":"Sourced from predicthq.com","category":"conferences","start":"2024-05-01T03:00:00Z","geo":{"geometry":{"coordinates":[90.417869,23.781457],"type":"Point"},"placekey":"@7r9-xhf-bc5","address":{"country_code":"BD","formatted_address":"126, 3 Rd No:- 7, Dhaka 1212, Bangladesh","postcode":"1212","locality":"Dhaka","region":"Dhaka Division"}},"labels":["conference"],"duration":118800,"start_local":"2024-05-01T09:00:00","end":"2024-05-02T12:00:00Z","end_local":"2024-05-02T18:00:00","updated":"2024-05-31T23:17:49Z"},{"title":"International Conference on Electrical and Electronics Engineering","description":"Sourced from predicthq.com","category":"conferences","start":"2024-04-30T18:00:00Z","geo":{"geometry":{"coordinates":[90.417869,23.781457],"type":"Point"},"placekey":"@7r9-xhf-bc5","address":{"country_code":"BD","formatted_address":"126, 3 Rd No:- 7, Dhaka 1212, Bangladesh","postcode":"1212","locality":"Dhaka","region":"Dhaka Division"}},"labels":["conference"],"duration":172799,"start_local":"2024-05-01T00:00:00","end":"2024-05-02T17:59:59Z","end_local":"2024-05-02T23:59:59","updated":"2024-05-31T23:11:26Z"},{"title":"International Conference on Economics Finance and Accounting","description":"Sourced from predicthq.com","category":"conferences","start":"2024-04-30T18:00:00Z","geo":{"geometry":{"coordinates":[90.417869,23.781457],"type":"Point"},"placekey":"@7r9-xhf-bc5","address":{"country_code":"BD","formatted_address":"126, 3 Rd No:- 7, Dhaka 1212, Bangladesh","postcode":"1212","locality":"Dhaka","region":"Dhaka Division"}},"labels":["conference"],"duration":172799,"start_local":"2024-05-01T00:00:00","end":"2024-05-02T17:59:59Z","end_local":"2024-05-02T23:59:59","updated":"2024-05-31T23:06:39Z"},{"title":"Bangladesh vs India","description":"Sourced from predicthq.com","category":"sports","start":"2024-04-30T10:00:00Z","geo":{"geometry":{"coordinates":[91.8686125,24.920976],"type":"Point"},"placekey":"@7r6-3kz-sdv","address":{"country_code":"BD","formatted_address":"Airport Road, Sylhet - 3100, Bangladesh","postcode":"3100","locality":"Sylhet","region":"Sylhet Division"}},"labels":["cricket","sport"],"duration":15949,"start_local":"2024-04-30T16:00:00","end":"2024-04-30T14:25:49Z","end_local":"2024-04-30T20:25:49","updated":"2024-05-28T01:20:45Z"},{"title":"Bangladesh vs India","description":"Sourced from predicthq.com","category":"sports","start":"2024-04-28T10:00:00Z","geo":{"geometry":{"coordinates":[91.8686125,24.920976],"type":"Point"},"placekey":"@7r6-3kz-sdv","address":{"country_code":"BD","formatted_address":"Airport Road, Sylhet - 3100, Bangladesh","postcode":"3100","locality":"Sylhet","region":"Sylhet Division"}},"labels":["cricket","sport"],"duration":11549,"start_local":"2024-04-28T16:00:00","end":"2024-04-28T13:12:29Z","end_local":"2024-04-28T19:12:29","updated":"2024-05-28T04:15:23Z"},{"title":"Good","description":"Sourced from predicthq.com - Get ready for a day full of positivity, fun, and good vibes at our event \"Good\" where we celebrate all things uplifting and joyful!","category":"concerts","start":"2024-04-28T04:00:00Z","geo":{"geometry":{"coordinates":[89.2316665,25.7669469],"type":"Point"},"placekey":"@7r7-22k-zfz","address":{"country_code":"BD","formatted_address":"Central Jail, Rangpur - 5400, Bangladesh","locality":"Rangpur","postcode":"5400","region":"Rangpur Division"}},"labels":["concert","fundraiser","music"],"duration":7200,"start_local":"2024-04-28T10:00:00","end":"2024-04-28T06:00:00Z","end_local":"2024-04-28T12:00:00","updated":"2024-06-12T12:44:14Z"},{"title":"️ Gearcon April 2024: Print Your Passion, Gear Up for Success!","description":"Sourced from predicthq.com - গিয়ারকনই সেই জায়গা, যেখানে স্বপ্নগুলি ডিজাইনে পরিণত হয় এবং ডিজাইনগুলি বাস্তবে পরিণত হয়! ✨","category":"conferences","start":"2024-04-27T09:00:00Z","geo":{"geometry":{"coordinates":[91.832881,22.3370886],"type":"Point"},"placekey":"@7qt-t28-75z","address":{"country_code":"BD","formatted_address":"J C Guha Road, Chittagong - 4000, Bangladesh","locality":"Chittagong","postcode":"4000","region":"Chittagong Division"}},"labels":["business","conference"],"duration":18000,"start_local":"2024-04-27T15:00:00","end":"2024-04-27T14:00:00Z","end_local":"2024-04-27T20:00:00","updated":"2024-06-05T05:47:59Z"},{"title":"Purbachal Builders & Housing Expo","description":"Sourced from predicthq.com","category":"expos","start":"2024-04-25T18:00:00Z","geo":{"geometry":{"coordinates":[90.484938,23.839952],"type":"Point"},"placekey":"@7r9-xgm-xnq","address":{"country_code":"BD","formatted_address":"Purbacahal, Dhaka Division, Bangladesh","locality":"Purbacahal","region":"Dhaka Division"}},"labels":["expo"],"duration":172799,"start_local":"2024-04-26T00:00:00","end":"2024-04-27T17:59:59Z","end_local":"2024-04-27T23:59:59","updated":"2024-05-28T06:37:09Z"},{"title":"International Conference on Advancement in Electrical and Electronic Engineering","description":"Sourced from predicthq.com","category":"conferences","start":"2024-04-25T03:00:00Z","geo":{"geometry":{"coordinates":[90.392487,23.725992],"type":"Point"},"placekey":"@7r9-zcf-r49","address":{"country_code":"BD","formatted_address":"BUET, EME Building, BUET Central Road, Dhaka 1000, Bangladesh","postcode":"1000","locality":"Dhaka","region":"Dhaka Division"}},"labels":["conference"],"duration":205200,"start_local":"2024-04-25T09:00:00","end":"2024-04-27T12:00:00Z","end_local":"2024-04-27T18:00:00","updated":"2024-06-04T23:28:17Z"},{"title":"Sorter Expo","description":"Sourced from predicthq.com","category":"expos","start":"2024-04-24T18:00:00Z","geo":{"geometry":{"coordinates":[90.4273658,23.8267573],"type":"Point"},"placekey":"@7r9-xjy-r6k","address":{"country_code":"BD","formatted_address":"International Convention City Bashundhara, Joar Sahara, Khilkhet (Beside 300ft Purbachal Link Road), Purbachal Expy, Dhaka, Bangladesh","locality":"Dhaka","region":"Dhaka Division"}},"labels":["expo"],"duration":259199,"start_local":"2024-04-25T00:00:00","end":"2024-04-27T17:59:59Z","end_local":"2024-04-27T23:59:59","updated":"2024-05-28T03:47:10Z"},{"title":"International Technology Exhibition for Feed Industry","description":"Sourced from predicthq.com","category":"expos","start":"2024-04-24T18:00:00Z","geo":{"geometry":{"coordinates":[90.4273658,23.8267573],"type":"Point"},"placekey":"@7r9-xjy-r6k","address":{"country_code":"BD","formatted_address":"International Convention City Bashundhara, Joar Sahara, Khilkhet (Beside 300ft Purbachal Link Road), Purbachal Expy, Dhaka, Bangladesh","locality":"Dhaka","region":"Dhaka Division"}},"labels":["expo"],"duration":259199,"start_local":"2024-04-25T00:00:00","end":"2024-04-27T17:59:59Z","end_local":"2024-04-27T23:59:59","updated":"2024-05-27T17:07:10Z"},{"title":"MACHINE & HARDWARE TOOLS EXPO","description":"Sourced from predicthq.com - The MACHINE & HARDWARE TOOLS EXPO is a dynamic trade show that brings together industry professionals, manufacturers, and suppliers to showcase the latest advancements in machinery and hardware tools. With a focus on innovation, this expo offers a prime platform for networking, exploring cutting-edge technologies, and facilitating business opportunities within the sector.","category":"expos","start":"2024-04-24T18:00:00Z","geo":{"geometry":{"coordinates":[90.4273658,23.8267573],"type":"Point"},"placekey":"@7r9-xjy-r6k","address":{"country_code":"BD","formatted_address":"International Convention City Bashundhara, Joar Sahara, Khilkhet (Beside 300ft Purbachal Link Road), Purbachal Expy, Dhaka, Bangladesh","locality":"Dhaka","region":"Dhaka Division"}},"labels":["expo"],"duration":259199,"start_local":"2024-04-25T00:00:00","end":"2024-04-27T17:59:59Z","end_local":"2024-04-27T23:59:59","updated":"2024-05-27T23:26:33Z"},{"title":"Feed Tech Bangladesh 2024","description":"Sourced from predicthq.com","category":"expos","start":"2024-04-24T18:00:00Z","geo":{"geometry":{"coordinates":[90.4274546,23.8282982],"type":"Point"},"placekey":"@7r9-xjy-q2k","address":{"country_code":"BD","formatted_address":"Dhaka, Dhaka Division, Bangladesh","locality":"Dhaka","region":"Dhaka Division"}},"labels":["agriculture","expo","industrial","technology"],"duration":259199,"start_local":"2024-04-25T00:00:00","end":"2024-04-27T17:59:59Z","end_local":"2024-04-27T23:59:59","updated":"2024-06-05T16:29:54Z"},{"title":"Hardware Tools & Fastener Expo Bangladesh","description":"Sourced from predicthq.com - The Machine, Hand Tools & Fastener Expo Bangladesh is a premier expo event that showcases the latest innovations and advancements in machinery, hand tools, and fasteners from renowned national and international brands. This event is a one-stop platform for industry professionals and enthusiasts to explore cutting-edge tools, technologies, and products in a diverse range of sectors.","category":"expos","start":"2024-04-24T18:00:00Z","geo":{"geometry":{"coordinates":[90.4273658,23.8267573],"type":"Point"},"placekey":"@7r9-xjy-r6k","address":{"country_code":"BD","formatted_address":"International Convention City Bashundhara, Joar Sahara, Khilkhet (Beside 300ft Purbachal Link Road), Purbachal Expy, Dhaka, Bangladesh","locality":"Dhaka","region":"Dhaka Division"}},"labels":["expo"],"duration":259199,"start_local":"2024-04-25T00:00:00","end":"2024-04-27T17:59:59Z","end_local":"2024-04-27T23:59:59","updated":"2024-05-27T15:24:26Z"},{"title":"Grain Tech Bangladesh 2024","description":"Sourced from predicthq.com","category":"expos","start":"2024-04-24T18:00:00Z","geo":{"geometry":{"coordinates":[90.4274546,23.8282982],"type":"Point"},"placekey":"@7r9-xjy-q2k","address":{"country_code":"BD","formatted_address":"Dhaka, Dhaka Division, Bangladesh","locality":"Dhaka","region":"Dhaka Division"}},"labels":["agriculture","expo","industrial","packaging","technology"],"duration":259199,"start_local":"2024-04-25T00:00:00","end":"2024-04-27T17:59:59Z","end_local":"2024-04-27T23:59:59","updated":"2024-06-05T09:30:44Z"},{"title":"Agro Machinery Fertilizer & Seeds Expo 2024","description":"Sourced from predicthq.com","category":"expos","start":"2024-04-24T18:00:00Z","geo":{"geometry":{"coordinates":[90.4274546,23.8282982],"type":"Point"},"placekey":"@7r9-xjy-q2k","address":{"country_code":"BD","formatted_address":"Dhaka, Dhaka Division, Bangladesh","locality":"Dhaka","region":"Dhaka Division"}},"labels":["agriculture","expo","horticulture","industrial","technology"],"duration":259199,"start_local":"2024-04-25T00:00:00","end":"2024-04-27T17:59:59Z","end_local":"2024-04-27T23:59:59","updated":"2024-06-05T05:13:31Z"},{"title":"Water Expo Bangladesh","description":"Sourced from predicthq.com","category":"expos","start":"2024-04-24T18:00:00Z","geo":{"geometry":{"coordinates":[90.4273658,23.8267573],"type":"Point"},"placekey":"@7r9-xjy-r6k","address":{"country_code":"BD","formatted_address":"International Convention City Bashundhara, Joar Sahara, Khilkhet (Beside 300ft Purbachal Link Road), Purbachal Expy, Dhaka, Bangladesh","locality":"Dhaka","region":"Dhaka Division"}},"labels":["expo"],"duration":259199,"start_local":"2024-04-25T00:00:00","end":"2024-04-27T17:59:59Z","end_local":"2024-04-27T23:59:59","updated":"2024-05-27T19:44:46Z"},{"title":"Bangladesh Food Ingredients Expo 2024","description":"Sourced from predicthq.com","category":"expos","start":"2024-04-24T18:00:00Z","geo":{"geometry":{"coordinates":[90.4274546,23.8282982],"type":"Point"},"placekey":"@7r9-xjy-q2k","address":{"country_code":"BD","formatted_address":"Dhaka, Dhaka Division, Bangladesh","locality":"Dhaka","region":"Dhaka Division"}},"labels":["business","expo","food","health","medical","packaging"],"duration":259199,"start_local":"2024-04-25T00:00:00","end":"2024-04-27T17:59:59Z","end_local":"2024-04-27T23:59:59","updated":"2024-06-05T07:03:28Z"},{"title":"Food Tech Dhaka Expo 2024","description":"Sourced from predicthq.com","category":"expos","start":"2024-04-24T18:00:00Z","geo":{"geometry":{"coordinates":[90.4274546,23.8282982],"type":"Point"},"placekey":"@7r9-xjy-q2k","address":{"country_code":"BD","formatted_address":"Dhaka, Dhaka Division, Bangladesh","locality":"Dhaka","region":"Dhaka Division"}},"labels":["agriculture","expo","food","industrial","packaging","technology"],"duration":259199,"start_local":"2024-04-25T00:00:00","end":"2024-04-27T17:59:59Z","end_local":"2024-04-27T23:59:59","updated":"2024-06-05T13:14:03Z"},{"title":"Solar Expo Bangladesh 2024","description":"Sourced from predicthq.com","category":"expos","start":"2024-04-24T18:00:00Z","geo":{"geometry":{"coordinates":[90.4274546,23.8282982],"type":"Point"},"placekey":"@7r9-xjy-q2k","address":{"country_code":"BD","formatted_address":"Dhaka, Dhaka Division, Bangladesh","locality":"Dhaka","region":"Dhaka Division"}},"labels":["construction","expo","industrial","technology"],"duration":259199,"start_local":"2024-04-25T00:00:00","end":"2024-04-27T17:59:59Z","end_local":"2024-04-27T23:59:59","updated":"2024-06-05T15:41:36Z"},{"title":"Battery Solar & EV Expo Bangladesh","description":"Sourced from predicthq.com","category":"expos","start":"2024-04-24T18:00:00Z","geo":{"geometry":{"coordinates":[90.4273658,23.8267573],"type":"Point"},"placekey":"@7r9-xjy-r6k","address":{"country_code":"BD","formatted_address":"International Convention City Bashundhara, Joar Sahara, Khilkhet (Beside 300ft Purbachal Link Road), Purbachal Expy, Dhaka, Bangladesh","locality":"Dhaka","region":"Dhaka Division"}},"labels":["expo"],"duration":259199,"start_local":"2024-04-25T00:00:00","end":"2024-04-27T17:59:59Z","end_local":"2024-04-27T23:59:59","updated":"2024-05-27T15:50:24Z"},{"title":"Boiler Expo Bangladesh","description":"Sourced from predicthq.com","category":"expos","start":"2024-04-24T18:00:00Z","geo":{"geometry":{"coordinates":[90.4273658,23.8267573],"type":"Point"},"placekey":"@7r9-xjy-r6k","address":{"country_code":"BD","formatted_address":"International Convention City Bashundhara, Joar Sahara, Khilkhet (Beside 300ft Purbachal Link Road), Purbachal Expy, Dhaka, Bangladesh","locality":"Dhaka","region":"Dhaka Division"}},"labels":["expo"],"duration":259199,"start_local":"2024-04-25T00:00:00","end":"2024-04-27T17:59:59Z","end_local":"2024-04-27T23:59:59","updated":"2024-05-27T17:20:35Z"},{"title":"Oils & Fats Expo Bangladesh","description":"Sourced from predicthq.com","category":"expos","start":"2024-04-24T18:00:00Z","geo":{"geometry":{"coordinates":[90.4273658,23.8267573],"type":"Point"},"placekey":"@7r9-xjy-r6k","address":{"country_code":"BD","formatted_address":"International Convention City Bashundhara, Joar Sahara, Khilkhet (Beside 300ft Purbachal Link Road), Purbachal Expy, Dhaka, Bangladesh","locality":"Dhaka","region":"Dhaka Division"}},"labels":["expo"],"duration":259199,"start_local":"2024-04-25T00:00:00","end":"2024-04-27T17:59:59Z","end_local":"2024-04-27T23:59:59","updated":"2024-05-27T20:10:42Z"},{"title":"Bangladesh International Tea & Coffee Expo","description":"Sourced from predicthq.com - The Bangladesh International Tea & Coffee Expo is a vibrant and immersive event that brings together tea and coffee enthusiasts, industry professionals, and manufacturers from around the world. It offers a unique platform to explore the latest trends, innovations, and flavors in the tea and coffee industry, while fostering networking opportunities and promoting business growth.","category":"expos","start":"2024-04-24T18:00:00Z","geo":{"geometry":{"coordinates":[90.4273658,23.8267573],"type":"Point"},"placekey":"@7r9-xjy-r6k","address":{"country_code":"BD","formatted_address":"International Convention City Bashundhara, Joar Sahara, Khilkhet (Beside 300ft Purbachal Link Road), Purbachal Expy, Dhaka, Bangladesh","locality":"Dhaka","region":"Dhaka Division"}},"labels":["expo"],"duration":259199,"start_local":"2024-04-25T00:00:00","end":"2024-04-27T17:59:59Z","end_local":"2024-04-27T23:59:59","updated":"2024-05-27T22:59:28Z"},{"title":"Machine, Hand Tools & Fastener Expo 2024","description":"Sourced from predicthq.com","category":"expos","start":"2024-04-24T18:00:00Z","geo":{"geometry":{"coordinates":[90.4274546,23.8282982],"type":"Point"},"placekey":"@7r9-xjy-q2k","address":{"country_code":"BD","formatted_address":"Dhaka, Dhaka Division, Bangladesh","locality":"Dhaka","region":"Dhaka Division"}},"labels":["expo","industrial","technology"],"duration":259199,"start_local":"2024-04-25T00:00:00","end":"2024-04-27T17:59:59Z","end_local":"2024-04-27T23:59:59","updated":"2024-06-05T11:48:31Z"},{"title":"Bangladesh International Jute and Handicrafts Trade Fair","description":"Sourced from predicthq.com","category":"expos","start":"2024-04-24T18:00:00Z","geo":{"geometry":{"coordinates":[90.53489,23.843111],"type":"Point"},"placekey":"@7r9-xjm-yqf","address":{"country_code":"BD","formatted_address":"Rupganj\nBangladesh","locality":"Rupganj"}},"labels":["expo"],"duration":431999,"start_local":"2024-04-25T00:00:00","end":"2024-04-29T17:59:59Z","end_local":"2024-04-29T23:59:59","updated":"2024-05-31T23:19:15Z"},{"title":"Dairy & Poultry Expo Bangladesh 2024","description":"Sourced from predicthq.com","category":"expos","start":"2024-04-24T18:00:00Z","geo":{"geometry":{"coordinates":[90.4274546,23.8282982],"type":"Point"},"placekey":"@7r9-xjy-q2k","address":{"country_code":"BD","formatted_address":"Dhaka, Dhaka Division, Bangladesh","locality":"Dhaka","region":"Dhaka Division"}},"labels":["agriculture","business","expo","industrial","packaging","technology"],"duration":259199,"start_local":"2024-04-25T00:00:00","end":"2024-04-27T17:59:59Z","end_local":"2024-04-27T23:59:59","updated":"2024-06-05T02:34:21Z"},{"title":"PNSB Conference","description":"Sourced from predicthq.com","category":"conferences","start":"2024-04-20T03:00:00Z","geo":{"geometry":{"coordinates":[90.396739,23.741226],"type":"Point"},"placekey":"@7r9-zcg-575","address":{"country_code":"BD","formatted_address":"G, 1 Minto Rd, Dhaka 1000, Bangladesh","postcode":"1000","locality":"Dhaka","region":"Dhaka Division"}},"labels":["conference"],"duration":118800,"start_local":"2024-04-20T09:00:00","end":"2024-04-21T12:00:00Z","end_local":"2024-04-21T18:00:00","updated":"2024-05-31T23:17:32Z"},{"title":"Best WordPress Web Desinger 2024 | Mister Masum Rana","description":"Sourced from predicthq.com - Improve your online presence with WordPress Web Designer Mister Masum Rana's creative expertise and tailored solutions.","category":"conferences","start":"2024-04-17T04:00:00Z","geo":{"geometry":{"coordinates":[88.5997403,24.3652453],"type":"Point"},"placekey":"@7rb-rrz-mp9","address":{"country_code":"BD","formatted_address":"Rajshahi, Rajshahi Division, Bangladesh","locality":"Rajshahi","region":"Rajshahi Division"}},"labels":["business","conference"],"duration":7200,"start_local":"2024-04-17T10:00:00","end":"2024-04-17T06:00:00Z","end_local":"2024-04-17T12:00:00","updated":"2024-06-05T02:14:51Z"},{"title":"International Conference on Sustainable Water Management","description":"Sourced from predicthq.com","category":"conferences","start":"2024-04-14T03:00:00Z","geo":{"geometry":{"coordinates":[90.4041,23.855264],"type":"Point"},"placekey":"@7r9-vxd-q2k","address":{"country_code":"BD","formatted_address":"Road 1, Dhaka - 1230, Bangladesh","locality":"Dhaka","postcode":"1230","region":"Dhaka Division"}},"labels":["conference"],"duration":118800,"start_local":"2024-04-14T09:00:00","end":"2024-04-15T12:00:00Z","end_local":"2024-04-15T18:00:00","updated":"2024-06-05T11:03:43Z"},{"title":"International Conference on Nano Science and Nanotechnology","description":"Sourced from predicthq.com","category":"conferences","start":"2024-04-14T03:00:00Z","geo":{"geometry":{"coordinates":[90.4041,23.855264],"type":"Point"},"placekey":"@7r9-vxd-q2k","address":{"country_code":"BD","formatted_address":"Road 1, Dhaka - 1230, Bangladesh","locality":"Dhaka","postcode":"1230","region":"Dhaka Division"}},"labels":["conference"],"duration":118800,"start_local":"2024-04-14T09:00:00","end":"2024-04-15T12:00:00Z","end_local":"2024-04-15T18:00:00","updated":"2024-06-04T23:33:21Z"},{"title":"International Conference on Business Management, Humanities and Social Science","description":"Sourced from predicthq.com","category":"conferences","start":"2024-04-13T03:00:00Z","geo":{"geometry":{"coordinates":[90.417869,23.781457],"type":"Point"},"placekey":"@7r9-xhf-bc5","address":{"country_code":"BD","formatted_address":"126, 3 Rd No:- 7, Dhaka 1212, Bangladesh","postcode":"1212","locality":"Dhaka","region":"Dhaka Division"}},"labels":["conference"],"duration":118800,"start_local":"2024-04-13T09:00:00","end":"2024-04-14T12:00:00Z","end_local":"2024-04-14T18:00:00","updated":"2024-05-31T23:04:12Z"},{"title":"Nhà phát triển Internet","description":"Sourced from predicthq.com - Studio YouTube Facebook Tiktok https://www.youtube.com/@Earnvipmoney","category":"conferences","start":"2024-04-06T13:00:00Z","geo":{"geometry":{"coordinates":[89.2838325,25.7396923],"type":"Point"},"placekey":"@7r6-zy3-mtv","address":{"country_code":"BD","formatted_address":"Shat Matha Road, Rangpur - 5400, Bangladesh","locality":"Rangpur","postcode":"5400","region":"Rangpur Division"}},"labels":["conference","science","technology"],"duration":529200,"start_local":"2024-04-06T19:00:00","end":"2024-04-12T16:00:00Z","end_local":"2024-04-12T22:00:00","updated":"2024-06-12T06:42:05Z"}]