[{"title":"Ligue 1 - KOZAF vs Douanes","description":"Sourced from predicthq.com","category":"sports","start":"2024-06-15T16:00:00Z","geo":{"geometry":{"coordinates":[-1.5292078256607056,12.36067471831012],"type":"Point"},"placekey":"@bc7-3p8-f2k","address":{"country_code":"BF","formatted_address":"9F6C+594, Bilbalogho, Ouagadougou, Burkina Faso","locality":"Ouagadougou","region":"Centre Region"}},"labels":["soccer","sport"],"duration":0,"start_local":"2024-06-15T16:00:00","end":"2024-06-15T16:00:00Z","end_local":"2024-06-15T16:00:00","updated":"2024-06-12T18:30:34Z"},{"title":"Ligue 1 - Salitas vs Majestic","description":"Sourced from predicthq.com","category":"sports","start":"2024-06-14T16:00:00Z","geo":{"geometry":{"coordinates":[-1.4933466911315918,12.293912987620658],"type":"Point"},"placekey":"@bc7-3q9-xt9","address":{"country_code":"BF","formatted_address":"7GV4+HM Ouagadougou, Burkina Faso","locality":"Ouagadougou","region":"Centre Region"}},"labels":["soccer","sport"],"duration":0,"start_local":"2024-06-14T16:00:00","end":"2024-06-14T16:00:00Z","end_local":"2024-06-14T16:00:00","updated":"2024-06-11T18:39:22Z"},{"title":"Ligue 1 - Sporting Cascades vs EF Ouagadougou","description":"Sourced from predicthq.com","category":"sports","start":"2024-06-14T16:00:00Z","geo":{"geometry":{"coordinates":[-4.74584698677063,10.652130734057312],"type":"Point"},"placekey":"@dvk-zkh-3kf","address":{"country_code":"BF","formatted_address":"M723+VM8, Banfora, Burkina Faso","locality":"Banfora","region":"Cascades Region"}},"labels":["soccer","sport"],"duration":0,"start_local":"2024-06-14T16:00:00","end":"2024-06-14T16:00:00Z","end_local":"2024-06-14T16:00:00","updated":"2024-06-11T18:42:26Z"},{"title":"Ligue 1 - Vitesse vs RCK","description":"Sourced from predicthq.com","category":"sports","start":"2024-06-14T16:00:00Z","geo":{"geometry":{"coordinates":[-4.413202,11.373716],"type":"Point"},"placekey":"@9w3-95g-xnq","address":{"country_code":"BF","formatted_address":"9HFP+GP7 Périmètres irriguer par Chine a bama, Bama, Burkina Faso","locality":"Bama","region":"Hauts-Bassins"}},"labels":["soccer","sport"],"duration":0,"start_local":"2024-06-14T16:00:00","end":"2024-06-14T16:00:00Z","end_local":"2024-06-14T16:00:00","updated":"2024-06-11T18:50:30Z"},{"title":"Ligue 1 - ASEC-K vs Rahimo","description":"Sourced from predicthq.com","category":"sports","start":"2024-06-14T16:00:00Z","geo":{"geometry":{"coordinates":[-2.347699999809265,12.257220614075163],"type":"Point"},"placekey":"@bc6-t2k-nqz","address":{"country_code":"BF","formatted_address":"7M52+2CX, Koudougou, Burkina Faso","locality":"Koudougou","region":"Centre-Ouest Region"}},"labels":["soccer","sport"],"duration":0,"start_local":"2024-06-14T16:00:00","end":"2024-06-14T16:00:00Z","end_local":"2024-06-14T16:00:00","updated":"2024-06-11T18:44:42Z"},{"title":"Ligue 1 - Royal vs ASFA-Yennenga","description":"Sourced from predicthq.com","category":"sports","start":"2024-06-14T16:00:00Z","geo":{"geometry":{"coordinates":[-3.066462278366089,13.065698909781396],"type":"Point"},"placekey":"@bc7-wnd-sbk","address":{"country_code":"BF","formatted_address":"3W8M+78X, Tougan, Burkina Faso","locality":"Tougan","region":"Boucle du Mouhoun Region"}},"labels":["soccer","sport"],"duration":0,"start_local":"2024-06-14T16:00:00","end":"2024-06-14T16:00:00Z","end_local":"2024-06-14T16:00:00","updated":"2024-06-11T18:55:39Z"},{"title":"Ligue 1 - RC Bobo-Dioulasso vs USFA","description":"Sourced from predicthq.com","category":"sports","start":"2024-06-14T16:00:00Z","geo":{"geometry":{"coordinates":[-4.2971339,11.1823407],"type":"Point"},"placekey":"@dvk-j8x-4n5","address":{"country_code":"BF","formatted_address":"Ave de la Liberte, Bobo-Dioulasso, Burkina Faso","locality":"Bobo-Dioulasso","region":"Hauts-Bassins Region"}},"labels":["soccer","sport"],"duration":0,"start_local":"2024-06-14T16:00:00","end":"2024-06-14T16:00:00Z","end_local":"2024-06-14T16:00:00","updated":"2024-06-11T18:37:54Z"},{"title":"Ligue 1 - ASFB vs ASEC-K","description":"Sourced from predicthq.com","category":"sports","start":"2024-06-10T16:00:00Z","geo":{"geometry":{"coordinates":[-4.33136522769928,11.190405720475775],"type":"Point"},"placekey":"@9w3-97m-435","address":{"country_code":"BF","formatted_address":"5MR9+89C, Bobo-Dioulasso, Burkina Faso","locality":"Bobo-Dioulasso","region":"Hauts-Bassins Region"}},"labels":["soccer","sport"],"duration":0,"start_local":"2024-06-10T16:00:00","end":"2024-06-10T16:00:00Z","end_local":"2024-06-10T16:00:00","updated":"2024-06-12T02:38:54Z"},{"title":"Ligue 1 - Majestic vs SONABEL","description":"Sourced from predicthq.com","category":"sports","start":"2024-06-10T16:00:00Z","geo":{"geometry":{"coordinates":[-1.2874971200453729,12.592111535594157],"type":"Point"},"placekey":"@bc2-tr4-st9","address":{"country_code":"BF","formatted_address":"HPR6+VX5, Ziniare, Burkina Faso","locality":"Ziniare","region":"Plateau-Central Region"}},"labels":["soccer","sport"],"duration":0,"start_local":"2024-06-10T16:00:00","end":"2024-06-10T16:00:00Z","end_local":"2024-06-10T16:00:00","updated":"2024-06-12T14:36:28Z"},{"title":"Ligue 1 - Rahimo vs KOZAF","description":"Sourced from predicthq.com","category":"sports","start":"2024-06-10T16:00:00Z","geo":{"geometry":{"coordinates":[-4.2971339,11.1823407],"type":"Point"},"placekey":"@dvk-j8x-4n5","address":{"country_code":"BF","formatted_address":"Ave de la Liberte, Bobo-Dioulasso, Burkina Faso","locality":"Bobo-Dioulasso","region":"Hauts-Bassins Region"}},"labels":["soccer","sport"],"duration":0,"start_local":"2024-06-10T16:00:00","end":"2024-06-10T16:00:00Z","end_local":"2024-06-10T16:00:00","updated":"2024-06-12T19:00:00Z"},{"title":"Ligue 1 - Douanes vs Royal","description":"Sourced from predicthq.com","category":"sports","start":"2024-06-10T16:00:00Z","geo":{"geometry":{"coordinates":[-1.4933466911315918,12.293912987620658],"type":"Point"},"placekey":"@bc7-3q9-xt9","address":{"country_code":"BF","formatted_address":"7GV4+HM Ouagadougou, Burkina Faso","locality":"Ouagadougou","region":"Centre Region"}},"labels":["soccer","sport"],"duration":0,"start_local":"2024-06-10T16:00:00","end":"2024-06-10T16:00:00Z","end_local":"2024-06-10T16:00:00","updated":"2024-06-12T06:21:11Z"},{"title":"Ligue 1 - EF Ouagadougou vs Vitesse","description":"Sourced from predicthq.com","category":"sports","start":"2024-06-10T16:00:00Z","geo":{"geometry":{"coordinates":[-1.5292078256607056,12.36067471831012],"type":"Point"},"placekey":"@bc7-3p8-f2k","address":{"country_code":"BF","formatted_address":"9F6C+594, Bilbalogho, Ouagadougou, Burkina Faso","locality":"Ouagadougou","region":"Centre Region"}},"labels":["soccer","sport"],"duration":0,"start_local":"2024-06-10T16:00:00","end":"2024-06-10T16:00:00Z","end_local":"2024-06-10T16:00:00","updated":"2024-06-12T18:38:48Z"},{"title":"Ligue 1 - RCK vs RC Bobo-Dioulasso","description":"Sourced from predicthq.com","category":"sports","start":"2024-06-10T16:00:00Z","geo":{"geometry":{"coordinates":[-1.364538309,12.129745318],"type":"Point"},"placekey":"@bc7-3js-4sq","address":{"country_code":"BF","formatted_address":"Route de Kombissiri, Goanghin, Burkina Faso","locality":"Goanghin"}},"labels":["soccer","sport"],"duration":0,"start_local":"2024-06-10T16:00:00","end":"2024-06-10T16:00:00Z","end_local":"2024-06-10T16:00:00","updated":"2024-06-12T07:17:03Z"},{"title":"Ligue 1 - Royal vs USFA","description":"Sourced from predicthq.com","category":"sports","start":"2024-06-06T16:00:00Z","geo":{"geometry":{"coordinates":[-4.413202,11.373716],"type":"Point"},"placekey":"@9w3-95g-xnq","address":{"country_code":"BF","formatted_address":"9HFP+GP7 Périmètres irriguer par Chine a bama, Bama, Burkina Faso","locality":"Bama","region":"Hauts-Bassins"}},"labels":["soccer","sport"],"duration":0,"start_local":"2024-06-06T16:00:00","end":"2024-06-06T16:00:00Z","end_local":"2024-06-06T16:00:00","updated":"2024-06-12T02:55:31Z"},{"title":"Ligue 1 - RC Bobo-Dioulasso vs ASEC-K","description":"Sourced from predicthq.com","category":"sports","start":"2024-06-06T16:00:00Z","geo":{"geometry":{"coordinates":[-4.33136522769928,11.190405720475775],"type":"Point"},"placekey":"@9w3-97m-435","address":{"country_code":"BF","formatted_address":"5MR9+89C, Bobo-Dioulasso, Burkina Faso","locality":"Bobo-Dioulasso","region":"Hauts-Bassins Region"}},"labels":["soccer","sport"],"duration":0,"start_local":"2024-06-06T16:00:00","end":"2024-06-06T16:00:00Z","end_local":"2024-06-06T16:00:00","updated":"2024-06-12T02:17:49Z"},{"title":"Ligue 1 - Salitas vs SONABEL","description":"Sourced from predicthq.com","category":"sports","start":"2024-06-06T16:00:00Z","geo":{"geometry":{"coordinates":[-1.49204788,12.289281497],"type":"Point"},"placekey":"@bc7-3qb-fj9","address":{"country_code":"BF","formatted_address":"Unnamed Road, 7GV4+HMC, Ouaga 2000, Ouagadougou, Burkina Faso","locality":"Ouagadougou","region":"Centre Region"}},"labels":["soccer","sport"],"duration":0,"start_local":"2024-06-06T16:00:00","end":"2024-06-06T16:00:00Z","end_local":"2024-06-06T16:00:00","updated":"2024-06-12T14:25:55Z"},{"title":"Ligue 1 - Sporting Cascades vs Douanes","description":"Sourced from predicthq.com","category":"sports","start":"2024-06-06T16:00:00Z","geo":{"geometry":{"coordinates":[-4.74584698677063,10.652130734057312],"type":"Point"},"placekey":"@dvk-zkh-3kf","address":{"country_code":"BF","formatted_address":"M723+VM8, Banfora, Burkina Faso","locality":"Banfora","region":"Cascades Region"}},"labels":["soccer","sport"],"duration":0,"start_local":"2024-06-06T16:00:00","end":"2024-06-06T16:00:00Z","end_local":"2024-06-06T16:00:00","updated":"2024-06-12T04:30:35Z"},{"title":"Ligue 1 - Vitesse vs KOZAF","description":"Sourced from predicthq.com","category":"sports","start":"2024-06-06T16:00:00Z","geo":{"geometry":{"coordinates":[-4.2971339,11.1823407],"type":"Point"},"placekey":"@dvk-j8x-4n5","address":{"country_code":"BF","formatted_address":"Ave de la Liberte, Bobo-Dioulasso, Burkina Faso","locality":"Bobo-Dioulasso","region":"Hauts-Bassins Region"}},"labels":["soccer","sport"],"duration":0,"start_local":"2024-06-06T16:00:00","end":"2024-06-06T16:00:00Z","end_local":"2024-06-06T16:00:00","updated":"2024-06-12T04:33:07Z"},{"title":"Ligue 1 - ASFA-Yennenga vs Rahimo","description":"Sourced from predicthq.com","category":"sports","start":"2024-06-06T16:00:00Z","geo":{"geometry":{"coordinates":[-1.2874971200453729,12.592111535594157],"type":"Point"},"placekey":"@bc2-tr4-st9","address":{"country_code":"BF","formatted_address":"HPR6+VX5, Ziniare, Burkina Faso","locality":"Ziniare","region":"Plateau-Central Region"}},"labels":["soccer","sport"],"duration":0,"start_local":"2024-06-06T16:00:00","end":"2024-06-06T16:00:00Z","end_local":"2024-06-06T16:00:00","updated":"2024-06-11T21:47:29Z"},{"title":"Ligue 1 - USFA vs RCK","description":"Sourced from predicthq.com","category":"sports","start":"2024-05-31T16:00:00Z","geo":{"geometry":{"coordinates":[-1.491143102,12.289463592],"type":"Point"},"placekey":"@bc7-3qb-fmk","address":{"country_code":"BF","formatted_address":"7GQ5+QG Ouagadougou, Burkina Faso","locality":"Ouagadougou","region":"Centre Region"}},"labels":["soccer","sport"],"duration":0,"start_local":"2024-05-31T16:00:00","end":"2024-05-31T16:00:00Z","end_local":"2024-05-31T16:00:00","updated":"2024-06-12T18:13:43Z"},{"title":"Ligue 1 - KOZAF vs RC Bobo-Dioulasso","description":"Sourced from predicthq.com","category":"sports","start":"2024-05-31T16:00:00Z","geo":{"geometry":{"coordinates":[-1.5292078256607056,12.36067471831012],"type":"Point"},"placekey":"@bc7-3p8-f2k","address":{"country_code":"BF","formatted_address":"9F6C+594, Bilbalogho, Ouagadougou, Burkina Faso","locality":"Ouagadougou","region":"Centre Region"}},"labels":["soccer","sport"],"duration":0,"start_local":"2024-05-31T16:00:00","end":"2024-05-31T16:00:00Z","end_local":"2024-05-31T16:00:00","updated":"2024-06-12T12:45:06Z"},{"title":"Ligue 1 - Rahimo vs Sporting Cascades","description":"Sourced from predicthq.com","category":"sports","start":"2024-05-31T16:00:00Z","geo":{"geometry":{"coordinates":[-4.2971339,11.1823407],"type":"Point"},"placekey":"@dvk-j8x-4n5","address":{"country_code":"BF","formatted_address":"Ave de la Liberte, Bobo-Dioulasso, Burkina Faso","locality":"Bobo-Dioulasso","region":"Hauts-Bassins Region"}},"labels":["soccer","sport"],"duration":0,"start_local":"2024-05-31T16:00:00","end":"2024-05-31T16:00:00Z","end_local":"2024-05-31T16:00:00","updated":"2024-06-12T06:32:35Z"},{"title":"Ligue 1 - ASEC-K vs Salitas","description":"Sourced from predicthq.com","category":"sports","start":"2024-05-31T16:00:00Z","geo":{"geometry":{"coordinates":[-2.347699999809265,12.257220614075163],"type":"Point"},"placekey":"@bc6-t2k-nqz","address":{"country_code":"BF","formatted_address":"7M52+2CX, Koudougou, Burkina Faso","locality":"Koudougou","region":"Centre-Ouest Region"}},"labels":["soccer","sport"],"duration":0,"start_local":"2024-05-31T16:00:00","end":"2024-05-31T16:00:00Z","end_local":"2024-05-31T16:00:00","updated":"2024-06-12T07:19:51Z"},{"title":"Ligue 1 - Majestic vs EF Ouagadougou","description":"Sourced from predicthq.com","category":"sports","start":"2024-05-31T16:00:00Z","geo":{"geometry":{"coordinates":[-1.2874971200453729,12.592111535594157],"type":"Point"},"placekey":"@bc2-tr4-st9","address":{"country_code":"BF","formatted_address":"HPR6+VX5, Ziniare, Burkina Faso","locality":"Ziniare","region":"Plateau-Central Region"}},"labels":["soccer","sport"],"duration":0,"start_local":"2024-05-31T16:00:00","end":"2024-05-31T16:00:00Z","end_local":"2024-05-31T16:00:00","updated":"2024-06-12T01:33:32Z"},{"title":"Ligue 1 - ASFB vs ASFA-Yennenga","description":"Sourced from predicthq.com","category":"sports","start":"2024-05-30T16:00:00Z","geo":{"geometry":{"coordinates":[-4.2971339,11.1823407],"type":"Point"},"placekey":"@dvk-j8x-4n5","address":{"country_code":"BF","formatted_address":"Ave de la Liberte, Bobo-Dioulasso, Burkina Faso","locality":"Bobo-Dioulasso","region":"Hauts-Bassins Region"}},"labels":["soccer","sport"],"duration":0,"start_local":"2024-05-30T16:00:00","end":"2024-05-30T16:00:00Z","end_local":"2024-05-30T16:00:00","updated":"2024-06-12T16:12:31Z"},{"title":"Ligue 1 - SONABEL vs Royal","description":"Sourced from predicthq.com","category":"sports","start":"2024-05-30T16:00:00Z","geo":{"geometry":{"coordinates":[-1.4933466911315918,12.293912987620658],"type":"Point"},"placekey":"@bc7-3q9-xt9","address":{"country_code":"BF","formatted_address":"7GV4+HM Ouagadougou, Burkina Faso","locality":"Ouagadougou","region":"Centre Region"}},"labels":["soccer","sport"],"duration":0,"start_local":"2024-05-30T16:00:00","end":"2024-05-30T16:00:00Z","end_local":"2024-05-30T16:00:00","updated":"2024-06-11T22:07:27Z"},{"title":"Ligue 1 - RC Bobo-Dioulasso vs Douanes","description":"Sourced from predicthq.com","category":"sports","start":"2024-05-25T16:00:00Z","geo":{"geometry":{"coordinates":[-4.2971339,11.1823407],"type":"Point"},"placekey":"@dvk-j8x-4n5","address":{"country_code":"BF","formatted_address":"Ave de la Liberte, Bobo-Dioulasso, Burkina Faso","locality":"Bobo-Dioulasso","region":"Hauts-Bassins Region"}},"labels":["soccer","sport"],"duration":0,"start_local":"2024-05-25T16:00:00","end":"2024-05-25T16:00:00Z","end_local":"2024-05-25T16:00:00","updated":"2024-06-12T17:21:09Z"},{"title":"Ligue 1 - EF Ouagadougou vs USFA","description":"Sourced from predicthq.com","category":"sports","start":"2024-05-23T16:00:00Z","geo":{"geometry":{"coordinates":[-1.2874971200453729,12.592111535594157],"type":"Point"},"placekey":"@bc2-tr4-st9","address":{"country_code":"BF","formatted_address":"HPR6+VX5, Ziniare, Burkina Faso","locality":"Ziniare","region":"Plateau-Central Region"}},"labels":["soccer","sport"],"duration":0,"start_local":"2024-05-23T16:00:00","end":"2024-05-23T16:00:00Z","end_local":"2024-05-23T16:00:00","updated":"2024-06-12T06:22:53Z"},{"title":"Ligue 1 - Vitesse vs Rahimo","description":"Sourced from predicthq.com","category":"sports","start":"2024-05-23T16:00:00Z","geo":{"geometry":{"coordinates":[-4.2971339,11.1823407],"type":"Point"},"placekey":"@dvk-j8x-4n5","address":{"country_code":"BF","formatted_address":"Ave de la Liberte, Bobo-Dioulasso, Burkina Faso","locality":"Bobo-Dioulasso","region":"Hauts-Bassins Region"}},"labels":["soccer","sport"],"duration":0,"start_local":"2024-05-23T16:00:00","end":"2024-05-23T16:00:00Z","end_local":"2024-05-23T16:00:00","updated":"2024-06-12T07:22:30Z"},{"title":"Ligue 1 - SONABEL vs ASEC-K","description":"Sourced from predicthq.com","category":"sports","start":"2024-05-23T16:00:00Z","geo":{"geometry":{"coordinates":[-1.491143102,12.289463592],"type":"Point"},"placekey":"@bc7-3qb-fmk","address":{"country_code":"BF","formatted_address":"7GQ5+QG Ouagadougou, Burkina Faso","locality":"Ouagadougou","region":"Centre Region"}},"labels":["soccer","sport"],"duration":0,"start_local":"2024-05-23T16:00:00","end":"2024-05-23T16:00:00Z","end_local":"2024-05-23T16:00:00","updated":"2024-06-12T11:50:27Z"},{"title":"Ligue 1 - Sporting Cascades vs ASFB","description":"Sourced from predicthq.com","category":"sports","start":"2024-05-23T16:00:00Z","geo":{"geometry":{"coordinates":[-4.74584698677063,10.652130734057312],"type":"Point"},"placekey":"@dvk-zkh-3kf","address":{"country_code":"BF","formatted_address":"M723+VM8, Banfora, Burkina Faso","locality":"Banfora","region":"Cascades Region"}},"labels":["soccer","sport"],"duration":0,"start_local":"2024-05-23T16:00:00","end":"2024-05-23T16:00:00Z","end_local":"2024-05-23T16:00:00","updated":"2024-06-11T22:48:24Z"},{"title":"Ligue 1 - Royal vs RCK","description":"Sourced from predicthq.com","category":"sports","start":"2024-05-22T16:00:00Z","geo":{"geometry":{"coordinates":[-4.2971339,11.1823407],"type":"Point"},"placekey":"@dvk-j8x-4n5","address":{"country_code":"BF","formatted_address":"Ave de la Liberte, Bobo-Dioulasso, Burkina Faso","locality":"Bobo-Dioulasso","region":"Hauts-Bassins Region"}},"labels":["soccer","sport"],"duration":0,"start_local":"2024-05-22T16:00:00","end":"2024-05-22T16:00:00Z","end_local":"2024-05-22T16:00:00","updated":"2024-06-12T09:17:13Z"},{"title":"Ligue 1 - Salitas vs KOZAF","description":"Sourced from predicthq.com","category":"sports","start":"2024-05-22T16:00:00Z","geo":{"geometry":{"coordinates":[-1.5292078256607056,12.36067471831012],"type":"Point"},"placekey":"@bc7-3p8-f2k","address":{"country_code":"BF","formatted_address":"9F6C+594, Bilbalogho, Ouagadougou, Burkina Faso","locality":"Ouagadougou","region":"Centre Region"}},"labels":["soccer","sport"],"duration":0,"start_local":"2024-05-22T16:00:00","end":"2024-05-22T16:00:00Z","end_local":"2024-05-22T16:00:00","updated":"2024-06-11T23:27:48Z"},{"title":"Ligue 1 - USFA vs ASFA-Yennenga","description":"Sourced from predicthq.com","category":"sports","start":"2024-05-19T16:00:00Z","geo":{"geometry":{"coordinates":[-1.5292078256607056,12.36067471831012],"type":"Point"},"placekey":"@bc7-3p8-f2k","address":{"country_code":"BF","formatted_address":"9F6C+594, Bilbalogho, Ouagadougou, Burkina Faso","locality":"Ouagadougou","region":"Centre Region"}},"labels":["soccer","sport"],"duration":0,"start_local":"2024-05-19T16:00:00","end":"2024-05-19T16:00:00Z","end_local":"2024-05-19T16:00:00","updated":"2024-06-11T21:27:31Z"},{"title":"Ligue 1 - ASEC-K vs Royal","description":"Sourced from predicthq.com","category":"sports","start":"2024-05-18T16:00:00Z","geo":{"geometry":{"coordinates":[-2.347699999809265,12.257220614075163],"type":"Point"},"placekey":"@bc6-t2k-nqz","address":{"country_code":"BF","formatted_address":"7M52+2CX, Koudougou, Burkina Faso","locality":"Koudougou","region":"Centre-Ouest Region"}},"labels":["soccer","sport"],"duration":0,"start_local":"2024-05-18T16:00:00","end":"2024-05-18T16:00:00Z","end_local":"2024-05-18T16:00:00","updated":"2024-06-12T20:17:12Z"},{"title":"Ligue 1 - Majestic vs Sporting Cascades","description":"Sourced from predicthq.com","category":"sports","start":"2024-05-18T16:00:00Z","geo":{"geometry":{"coordinates":[-1.2874971200453729,12.592111535594157],"type":"Point"},"placekey":"@bc2-tr4-st9","address":{"country_code":"BF","formatted_address":"HPR6+VX5, Ziniare, Burkina Faso","locality":"Ziniare","region":"Plateau-Central Region"}},"labels":["soccer","sport"],"duration":0,"start_local":"2024-05-18T16:00:00","end":"2024-05-18T16:00:00Z","end_local":"2024-05-18T16:00:00","updated":"2024-06-12T04:07:37Z"},{"title":"Ligue 1 - ASFB vs Vitesse","description":"Sourced from predicthq.com","category":"sports","start":"2024-05-18T16:00:00Z","geo":{"geometry":{"coordinates":[-4.2971339,11.1823407],"type":"Point"},"placekey":"@dvk-j8x-4n5","address":{"country_code":"BF","formatted_address":"Ave de la Liberte, Bobo-Dioulasso, Burkina Faso","locality":"Bobo-Dioulasso","region":"Hauts-Bassins Region"}},"labels":["soccer","sport"],"duration":0,"start_local":"2024-05-18T16:00:00","end":"2024-05-18T16:00:00Z","end_local":"2024-05-18T16:00:00","updated":"2024-06-12T08:52:54Z"},{"title":"Ligue 1 - RCK vs EF Ouagadougou","description":"Sourced from predicthq.com","category":"sports","start":"2024-05-18T16:00:00Z","geo":{"geometry":{"coordinates":[-1.5292078256607056,12.36067471831012],"type":"Point"},"placekey":"@bc7-3p8-f2k","address":{"country_code":"BF","formatted_address":"9F6C+594, Bilbalogho, Ouagadougou, Burkina Faso","locality":"Ouagadougou","region":"Centre Region"}},"labels":["soccer","sport"],"duration":0,"start_local":"2024-05-18T16:00:00","end":"2024-05-18T16:00:00Z","end_local":"2024-05-18T16:00:00","updated":"2024-06-12T02:30:12Z"},{"title":"Ligue 1 - KOZAF vs SONABEL","description":"Sourced from predicthq.com","category":"sports","start":"2024-05-17T16:00:00Z","geo":{"geometry":{"coordinates":[-1.4933466911315918,12.293912987620658],"type":"Point"},"placekey":"@bc7-3q9-xt9","address":{"country_code":"BF","formatted_address":"7GV4+HM Ouagadougou, Burkina Faso","locality":"Ouagadougou","region":"Centre Region"}},"labels":["soccer","sport"],"duration":0,"start_local":"2024-05-17T16:00:00","end":"2024-05-17T16:00:00Z","end_local":"2024-05-17T16:00:00","updated":"2024-06-12T06:12:46Z"},{"title":"Ligue 1 - Douanes vs Salitas","description":"Sourced from predicthq.com","category":"sports","start":"2024-05-17T16:00:00Z","geo":{"geometry":{"coordinates":[-1.5292078256607056,12.36067471831012],"type":"Point"},"placekey":"@bc7-3p8-f2k","address":{"country_code":"BF","formatted_address":"9F6C+594, Bilbalogho, Ouagadougou, Burkina Faso","locality":"Ouagadougou","region":"Centre Region"}},"labels":["soccer","sport"],"duration":0,"start_local":"2024-05-17T16:00:00","end":"2024-05-17T16:00:00Z","end_local":"2024-05-17T16:00:00","updated":"2024-06-12T10:36:07Z"},{"title":"Ligue 1 - Rahimo vs RC Bobo-Dioulasso","description":"Sourced from predicthq.com","category":"sports","start":"2024-05-17T16:00:00Z","geo":{"geometry":{"coordinates":[-4.2971339,11.1823407],"type":"Point"},"placekey":"@dvk-j8x-4n5","address":{"country_code":"BF","formatted_address":"Ave de la Liberte, Bobo-Dioulasso, Burkina Faso","locality":"Bobo-Dioulasso","region":"Hauts-Bassins Region"}},"labels":["soccer","sport"],"duration":0,"start_local":"2024-05-17T16:00:00","end":"2024-05-17T16:00:00Z","end_local":"2024-05-17T16:00:00","updated":"2024-06-12T08:51:59Z"},{"title":"Ligue 1 - Royal vs EF Ouagadougou","description":"Sourced from predicthq.com","category":"sports","start":"2024-05-13T16:00:00Z","geo":{"geometry":{"coordinates":[-4.2971339,11.1823407],"type":"Point"},"placekey":"@dvk-j8x-4n5","address":{"country_code":"BF","formatted_address":"Ave de la Liberte, Bobo-Dioulasso, Burkina Faso","locality":"Bobo-Dioulasso","region":"Hauts-Bassins Region"}},"labels":["soccer","sport"],"duration":0,"start_local":"2024-05-13T16:00:00","end":"2024-05-13T16:00:00Z","end_local":"2024-05-13T16:00:00","updated":"2024-06-12T09:38:59Z"},{"title":"Ligue 1 - ASFA-Yennenga vs RCK","description":"Sourced from predicthq.com","category":"sports","start":"2024-05-12T16:00:00Z","geo":{"geometry":{"coordinates":[-1.4933466911315918,12.293912987620658],"type":"Point"},"placekey":"@bc7-3q9-xt9","address":{"country_code":"BF","formatted_address":"7GV4+HM Ouagadougou, Burkina Faso","locality":"Ouagadougou","region":"Centre Region"}},"labels":["soccer","sport"],"duration":0,"start_local":"2024-05-12T16:00:00","end":"2024-05-12T16:00:00Z","end_local":"2024-05-12T16:00:00","updated":"2024-06-12T14:00:34Z"},{"title":"Ligue 1 - SONABEL vs Douanes","description":"Sourced from predicthq.com","category":"sports","start":"2024-05-12T16:00:00Z","geo":{"geometry":{"coordinates":[-1.5292078256607056,12.36067471831012],"type":"Point"},"placekey":"@bc7-3p8-f2k","address":{"country_code":"BF","formatted_address":"9F6C+594, Bilbalogho, Ouagadougou, Burkina Faso","locality":"Ouagadougou","region":"Centre Region"}},"labels":["soccer","sport"],"duration":0,"start_local":"2024-05-12T16:00:00","end":"2024-05-12T16:00:00Z","end_local":"2024-05-12T16:00:00","updated":"2024-06-12T00:37:53Z"},{"title":"Ligue 1 - ASEC-K vs KOZAF","description":"Sourced from predicthq.com","category":"sports","start":"2024-05-12T16:00:00Z","geo":{"geometry":{"coordinates":[-2.347699999809265,12.257220614075163],"type":"Point"},"placekey":"@bc6-t2k-nqz","address":{"country_code":"BF","formatted_address":"7M52+2CX, Koudougou, Burkina Faso","locality":"Koudougou","region":"Centre-Ouest Region"}},"labels":["soccer","sport"],"duration":0,"start_local":"2024-05-12T16:00:00","end":"2024-05-12T16:00:00Z","end_local":"2024-05-12T16:00:00","updated":"2024-06-12T15:07:27Z"},{"title":"Ligue 1 - Vitesse vs Majestic","description":"Sourced from predicthq.com","category":"sports","start":"2024-05-12T16:00:00Z","geo":{"geometry":{"coordinates":[-4.2971339,11.1823407],"type":"Point"},"placekey":"@dvk-j8x-4n5","address":{"country_code":"BF","formatted_address":"Ave de la Liberte, Bobo-Dioulasso, Burkina Faso","locality":"Bobo-Dioulasso","region":"Hauts-Bassins Region"}},"labels":["soccer","sport"],"duration":0,"start_local":"2024-05-12T16:00:00","end":"2024-05-12T16:00:00Z","end_local":"2024-05-12T16:00:00","updated":"2024-06-12T10:12:35Z"},{"title":"Ligue 1 - Sporting Cascades vs USFA","description":"Sourced from predicthq.com","category":"sports","start":"2024-05-12T16:00:00Z","geo":{"geometry":{"coordinates":[-4.74584698677063,10.652130734057312],"type":"Point"},"placekey":"@dvk-zkh-3kf","address":{"country_code":"BF","formatted_address":"M723+VM8, Banfora, Burkina Faso","locality":"Banfora","region":"Cascades Region"}},"labels":["soccer","sport"],"duration":0,"start_local":"2024-05-12T16:00:00","end":"2024-05-12T16:00:00Z","end_local":"2024-05-12T16:00:00","updated":"2024-06-12T05:10:47Z"},{"title":"Ligue 1 - Salitas vs Rahimo","description":"Sourced from predicthq.com","category":"sports","start":"2024-05-11T16:00:00Z","geo":{"geometry":{"coordinates":[-1.4933466911315918,12.293912987620658],"type":"Point"},"placekey":"@bc7-3q9-xt9","address":{"country_code":"BF","formatted_address":"7GV4+HM Ouagadougou, Burkina Faso","locality":"Ouagadougou","region":"Centre Region"}},"labels":["soccer","sport"],"duration":0,"start_local":"2024-05-11T16:00:00","end":"2024-05-11T16:00:00Z","end_local":"2024-05-11T16:00:00","updated":"2024-06-12T02:35:03Z"},{"title":"Ligue 1 - RC Bobo-Dioulasso vs ASFB","description":"Sourced from predicthq.com","category":"sports","start":"2024-05-11T16:00:00Z","geo":{"geometry":{"coordinates":[-4.2971339,11.1823407],"type":"Point"},"placekey":"@dvk-j8x-4n5","address":{"country_code":"BF","formatted_address":"Ave de la Liberte, Bobo-Dioulasso, Burkina Faso","locality":"Bobo-Dioulasso","region":"Hauts-Bassins Region"}},"labels":["soccer","sport"],"duration":0,"start_local":"2024-05-11T16:00:00","end":"2024-05-11T16:00:00Z","end_local":"2024-05-11T16:00:00","updated":"2024-06-12T00:59:07Z"},{"title":"Ligue 1 - KOZAF vs Sporting Cascades","description":"Sourced from predicthq.com","category":"sports","start":"2024-05-05T16:00:00Z","geo":{"geometry":{"coordinates":[-1.4933466911315918,12.293912987620658],"type":"Point"},"placekey":"@bc7-3q9-xt9","address":{"country_code":"BF","formatted_address":"7GV4+HM Ouagadougou, Burkina Faso","locality":"Ouagadougou","region":"Centre Region"}},"labels":["soccer","sport"],"duration":0,"start_local":"2024-05-05T16:00:00","end":"2024-05-05T16:00:00Z","end_local":"2024-05-05T16:00:00","updated":"2024-06-12T08:54:57Z"},{"title":"Ligue 1 - ASEC-K vs Vitesse","description":"Sourced from predicthq.com","category":"sports","start":"2024-05-05T16:00:00Z","geo":{"geometry":{"coordinates":[-2.347699999809265,12.257220614075163],"type":"Point"},"placekey":"@bc6-t2k-nqz","address":{"country_code":"BF","formatted_address":"7M52+2CX, Koudougou, Burkina Faso","locality":"Koudougou","region":"Centre-Ouest Region"}},"labels":["soccer","sport"],"duration":0,"start_local":"2024-05-05T16:00:00","end":"2024-05-05T16:00:00Z","end_local":"2024-05-05T16:00:00","updated":"2024-06-12T19:07:20Z"},{"title":"Ligue 1 - Majestic vs USFA","description":"Sourced from predicthq.com","category":"sports","start":"2024-05-05T16:00:00Z","geo":{"geometry":{"coordinates":[-1.2874971200453729,12.592111535594157],"type":"Point"},"placekey":"@bc2-tr4-st9","address":{"country_code":"BF","formatted_address":"HPR6+VX5, Ziniare, Burkina Faso","locality":"Ziniare","region":"Plateau-Central Region"}},"labels":["soccer","sport"],"duration":0,"start_local":"2024-05-05T16:00:00","end":"2024-05-05T16:00:00Z","end_local":"2024-05-05T16:00:00","updated":"2024-06-12T03:43:21Z"},{"title":"Ligue 1 - Salitas vs Royal","description":"Sourced from predicthq.com","category":"sports","start":"2024-05-05T16:00:00Z","geo":{"geometry":{"coordinates":[-1.5292078256607056,12.36067471831012],"type":"Point"},"placekey":"@bc7-3p8-f2k","address":{"country_code":"BF","formatted_address":"9F6C+594, Bilbalogho, Ouagadougou, Burkina Faso","locality":"Ouagadougou","region":"Centre Region"}},"labels":["soccer","sport"],"duration":0,"start_local":"2024-05-05T16:00:00","end":"2024-05-05T16:00:00Z","end_local":"2024-05-05T16:00:00","updated":"2024-06-11T21:31:53Z"},{"title":"Ligue 1 - ASFB vs RCK","description":"Sourced from predicthq.com","category":"sports","start":"2024-05-05T16:00:00Z","geo":{"geometry":{"coordinates":[-4.2971339,11.1823407],"type":"Point"},"placekey":"@dvk-j8x-4n5","address":{"country_code":"BF","formatted_address":"Ave de la Liberte, Bobo-Dioulasso, Burkina Faso","locality":"Bobo-Dioulasso","region":"Hauts-Bassins Region"}},"labels":["soccer","sport"],"duration":0,"start_local":"2024-05-05T16:00:00","end":"2024-05-05T16:00:00Z","end_local":"2024-05-05T16:00:00","updated":"2024-06-12T09:02:48Z"},{"title":"Ligue 1 - SONABEL vs RC Bobo-Dioulasso","description":"Sourced from predicthq.com","category":"sports","start":"2024-05-04T16:00:00Z","geo":{"geometry":{"coordinates":[-1.4933466911315918,12.293912987620658],"type":"Point"},"placekey":"@bc7-3q9-xt9","address":{"country_code":"BF","formatted_address":"7GV4+HM Ouagadougou, Burkina Faso","locality":"Ouagadougou","region":"Centre Region"}},"labels":["soccer","sport"],"duration":0,"start_local":"2024-05-04T16:00:00","end":"2024-05-04T16:00:00Z","end_local":"2024-05-04T16:00:00","updated":"2024-06-12T16:42:29Z"},{"title":"Ligue 1 - Rahimo vs EF Ouagadougou","description":"Sourced from predicthq.com","category":"sports","start":"2024-05-04T16:00:00Z","geo":{"geometry":{"coordinates":[-4.2971339,11.1823407],"type":"Point"},"placekey":"@dvk-j8x-4n5","address":{"country_code":"BF","formatted_address":"Ave de la Liberte, Bobo-Dioulasso, Burkina Faso","locality":"Bobo-Dioulasso","region":"Hauts-Bassins Region"}},"labels":["soccer","sport"],"duration":0,"start_local":"2024-05-04T16:00:00","end":"2024-05-04T16:00:00Z","end_local":"2024-05-04T16:00:00","updated":"2024-06-12T05:41:34Z"},{"title":"Ligue 1 - Douanes vs ASFA-Yennenga","description":"Sourced from predicthq.com","category":"sports","start":"2024-05-04T16:00:00Z","geo":{"geometry":{"coordinates":[-1.5292078256607056,12.36067471831012],"type":"Point"},"placekey":"@bc7-3p8-f2k","address":{"country_code":"BF","formatted_address":"9F6C+594, Bilbalogho, Ouagadougou, Burkina Faso","locality":"Ouagadougou","region":"Centre Region"}},"labels":["soccer","sport"],"duration":0,"start_local":"2024-05-04T16:00:00","end":"2024-05-04T16:00:00Z","end_local":"2024-05-04T16:00:00","updated":"2024-06-12T14:12:37Z"},{"title":"Ligue 1 - Vitesse vs SONABEL","description":"Sourced from predicthq.com","category":"sports","start":"2024-04-29T16:00:00Z","geo":{"geometry":{"coordinates":[-4.2971339,11.1823407],"type":"Point"},"placekey":"@dvk-j8x-4n5","address":{"country_code":"BF","formatted_address":"Ave de la Liberte, Bobo-Dioulasso, Burkina Faso","locality":"Bobo-Dioulasso","region":"Hauts-Bassins Region"}},"labels":["soccer","sport"],"duration":0,"start_local":"2024-04-29T16:00:00","end":"2024-04-29T16:00:00Z","end_local":"2024-04-29T16:00:00","updated":"2024-06-12T06:14:29Z"},{"title":"Ligue 1 - ASFA-Yennenga vs KOZAF","description":"Sourced from predicthq.com","category":"sports","start":"2024-04-28T16:00:00Z","geo":{"geometry":{"coordinates":[-1.4933466911315918,12.293912987620658],"type":"Point"},"placekey":"@bc7-3q9-xt9","address":{"country_code":"BF","formatted_address":"7GV4+HM Ouagadougou, Burkina Faso","locality":"Ouagadougou","region":"Centre Region"}},"labels":["soccer","sport"],"duration":0,"start_local":"2024-04-28T16:00:00","end":"2024-04-28T16:00:00Z","end_local":"2024-04-28T16:00:00","updated":"2024-06-12T03:56:30Z"},{"title":"Ligue 1 - USFA vs ASFB","description":"Sourced from predicthq.com","category":"sports","start":"2024-04-28T16:00:00Z","geo":{"geometry":{"coordinates":[-1.5292078256607056,12.36067471831012],"type":"Point"},"placekey":"@bc7-3p8-f2k","address":{"country_code":"BF","formatted_address":"9F6C+594, Bilbalogho, Ouagadougou, Burkina Faso","locality":"Ouagadougou","region":"Centre Region"}},"labels":["soccer","sport"],"duration":0,"start_local":"2024-04-28T16:00:00","end":"2024-04-28T16:00:00Z","end_local":"2024-04-28T16:00:00","updated":"2024-06-12T06:59:10Z"},{"title":"Ligue 1 - Royal vs Majestic","description":"Sourced from predicthq.com","category":"sports","start":"2024-04-28T16:00:00Z","geo":{"geometry":{"coordinates":[-4.2971339,11.1823407],"type":"Point"},"placekey":"@dvk-j8x-4n5","address":{"country_code":"BF","formatted_address":"Ave de la Liberte, Bobo-Dioulasso, Burkina Faso","locality":"Bobo-Dioulasso","region":"Hauts-Bassins Region"}},"labels":["soccer","sport"],"duration":0,"start_local":"2024-04-28T16:00:00","end":"2024-04-28T16:00:00Z","end_local":"2024-04-28T16:00:00","updated":"2024-06-12T11:26:22Z"},{"title":"Ligue 1 - EF Ouagadougou vs Douanes","description":"Sourced from predicthq.com","category":"sports","start":"2024-04-27T16:00:00Z","geo":{"geometry":{"coordinates":[-1.5292078256607056,12.36067471831012],"type":"Point"},"placekey":"@bc7-3p8-f2k","address":{"country_code":"BF","formatted_address":"9F6C+594, Bilbalogho, Ouagadougou, Burkina Faso","locality":"Ouagadougou","region":"Centre Region"}},"labels":["soccer","sport"],"duration":0,"start_local":"2024-04-27T16:00:00","end":"2024-04-27T16:00:00Z","end_local":"2024-04-27T16:00:00","updated":"2024-06-12T05:13:40Z"},{"title":"Ligue 1 - RC Bobo-Dioulasso vs Salitas","description":"Sourced from predicthq.com","category":"sports","start":"2024-04-27T16:00:00Z","geo":{"geometry":{"coordinates":[-4.2971339,11.1823407],"type":"Point"},"placekey":"@dvk-j8x-4n5","address":{"country_code":"BF","formatted_address":"Ave de la Liberte, Bobo-Dioulasso, Burkina Faso","locality":"Bobo-Dioulasso","region":"Hauts-Bassins Region"}},"labels":["soccer","sport"],"duration":0,"start_local":"2024-04-27T16:00:00","end":"2024-04-27T16:00:00Z","end_local":"2024-04-27T16:00:00","updated":"2024-06-12T07:07:33Z"},{"title":"Ligue 1 - Sporting Cascades vs ASEC-K","description":"Sourced from predicthq.com","category":"sports","start":"2024-04-27T16:00:00Z","geo":{"geometry":{"coordinates":[-4.74584698677063,10.652130734057312],"type":"Point"},"placekey":"@dvk-zkh-3kf","address":{"country_code":"BF","formatted_address":"M723+VM8, Banfora, Burkina Faso","locality":"Banfora","region":"Cascades Region"}},"labels":["soccer","sport"],"duration":0,"start_local":"2024-04-27T16:00:00","end":"2024-04-27T16:00:00Z","end_local":"2024-04-27T16:00:00","updated":"2024-06-12T01:42:53Z"},{"title":"Ligue 1 - RCK vs Rahimo","description":"Sourced from predicthq.com","category":"sports","start":"2024-04-27T16:00:00Z","geo":{"geometry":{"coordinates":[-1.491143102,12.289463592],"type":"Point"},"placekey":"@bc7-3qb-fmk","address":{"country_code":"BF","formatted_address":"7GQ5+QG Ouagadougou, Burkina Faso","locality":"Ouagadougou","region":"Centre Region"}},"labels":["soccer","sport"],"duration":0,"start_local":"2024-04-27T16:00:00","end":"2024-04-27T16:00:00Z","end_local":"2024-04-27T16:00:00","updated":"2024-06-12T08:23:16Z"},{"title":"Ligue 1 - Majestic vs RC Bobo-Dioulasso","description":"Sourced from predicthq.com","category":"sports","start":"2024-04-23T16:00:00Z","geo":{"geometry":{"coordinates":[-1.2874971200453729,12.592111535594157],"type":"Point"},"placekey":"@bc2-tr4-st9","address":{"country_code":"BF","formatted_address":"HPR6+VX5, Ziniare, Burkina Faso","locality":"Ziniare","region":"Plateau-Central Region"}},"labels":["soccer","sport"],"duration":0,"start_local":"2024-04-23T16:00:00","end":"2024-04-23T16:00:00Z","end_local":"2024-04-23T16:00:00","updated":"2024-06-12T00:39:48Z"},{"title":"Ligue 1 - Rahimo vs SONABEL","description":"Sourced from predicthq.com","category":"sports","start":"2024-04-23T16:00:00Z","geo":{"geometry":{"coordinates":[-4.2971339,11.1823407],"type":"Point"},"placekey":"@dvk-j8x-4n5","address":{"country_code":"BF","formatted_address":"Ave de la Liberte, Bobo-Dioulasso, Burkina Faso","locality":"Bobo-Dioulasso","region":"Hauts-Bassins Region"}},"labels":["soccer","sport"],"duration":0,"start_local":"2024-04-23T16:00:00","end":"2024-04-23T16:00:00Z","end_local":"2024-04-23T16:00:00","updated":"2024-06-12T13:37:58Z"},{"title":"Ligue 1 - USFA vs Vitesse","description":"Sourced from predicthq.com","category":"sports","start":"2024-04-23T16:00:00Z","geo":{"geometry":{"coordinates":[-1.5182,12.3705],"type":"Point"},"placekey":"@bc7-3r8-hyv","address":{"country_code":"BF","formatted_address":"57, Ouaga 2000, Ouagadougou, Burkina Faso","locality":"Ouagadougou","region":"Centre"}},"labels":["soccer","sport"],"duration":0,"start_local":"2024-04-23T16:00:00","end":"2024-04-23T16:00:00Z","end_local":"2024-04-23T16:00:00","updated":"2024-06-12T02:14:33Z"},{"title":"Ligue 1 - EF Ouagadougou vs ASFA-Yennenga","description":"Sourced from predicthq.com","category":"sports","start":"2024-04-23T16:00:00Z","geo":{"geometry":{"coordinates":[-1.5292078256607056,12.36067471831012],"type":"Point"},"placekey":"@bc7-3p8-f2k","address":{"country_code":"BF","formatted_address":"9F6C+594, Bilbalogho, Ouagadougou, Burkina Faso","locality":"Ouagadougou","region":"Centre Region"}},"labels":["soccer","sport"],"duration":0,"start_local":"2024-04-23T16:00:00","end":"2024-04-23T16:00:00Z","end_local":"2024-04-23T16:00:00","updated":"2024-06-12T04:06:50Z"},{"title":"Ligue 1 - KOZAF vs Royal","description":"Sourced from predicthq.com","category":"sports","start":"2024-04-22T16:00:00Z","geo":{"geometry":{"coordinates":[-1.4933466911315918,12.293912987620658],"type":"Point"},"placekey":"@bc7-3q9-xt9","address":{"country_code":"BF","formatted_address":"7GV4+HM Ouagadougou, Burkina Faso","locality":"Ouagadougou","region":"Centre Region"}},"labels":["soccer","sport"],"duration":0,"start_local":"2024-04-22T16:00:00","end":"2024-04-22T16:00:00Z","end_local":"2024-04-22T16:00:00","updated":"2024-06-12T02:56:33Z"},{"title":"Ligue 1 - Douanes vs ASEC-K","description":"Sourced from predicthq.com","category":"sports","start":"2024-04-22T16:00:00Z","geo":{"geometry":{"coordinates":[-1.5292078256607056,12.36067471831012],"type":"Point"},"placekey":"@bc7-3p8-f2k","address":{"country_code":"BF","formatted_address":"9F6C+594, Bilbalogho, Ouagadougou, Burkina Faso","locality":"Ouagadougou","region":"Centre Region"}},"labels":["soccer","sport"],"duration":0,"start_local":"2024-04-22T16:00:00","end":"2024-04-22T16:00:00Z","end_local":"2024-04-22T16:00:00","updated":"2024-06-12T09:18:11Z"},{"title":"Ligue 1 - ASFB vs Salitas","description":"Sourced from predicthq.com","category":"sports","start":"2024-04-22T16:00:00Z","geo":{"geometry":{"coordinates":[-4.2971339,11.1823407],"type":"Point"},"placekey":"@dvk-j8x-4n5","address":{"country_code":"BF","formatted_address":"Ave de la Liberte, Bobo-Dioulasso, Burkina Faso","locality":"Bobo-Dioulasso","region":"Hauts-Bassins Region"}},"labels":["soccer","sport"],"duration":0,"start_local":"2024-04-22T16:00:00","end":"2024-04-22T16:00:00Z","end_local":"2024-04-22T16:00:00","updated":"2024-06-12T00:41:55Z"},{"title":"Ligue 1 - Vitesse vs ASFA-Yennenga","description":"Sourced from predicthq.com","category":"sports","start":"2024-04-19T16:00:00Z","geo":{"geometry":{"coordinates":[-4.2971339,11.1823407],"type":"Point"},"placekey":"@dvk-j8x-4n5","address":{"country_code":"BF","formatted_address":"Ave de la Liberte, Bobo-Dioulasso, Burkina Faso","locality":"Bobo-Dioulasso","region":"Hauts-Bassins Region"}},"labels":["soccer","sport"],"duration":0,"start_local":"2024-04-19T16:00:00","end":"2024-04-19T16:00:00Z","end_local":"2024-04-19T16:00:00","updated":"2024-06-12T04:59:17Z"},{"title":"Ligue 1 - Douanes vs Rahimo","description":"Sourced from predicthq.com","category":"sports","start":"2024-04-18T16:00:00Z","geo":{"geometry":{"coordinates":[-1.4933466911315918,12.293912987620658],"type":"Point"},"placekey":"@bc7-3q9-xt9","address":{"country_code":"BF","formatted_address":"7GV4+HM Ouagadougou, Burkina Faso","locality":"Ouagadougou","region":"Centre Region"}},"labels":["soccer","sport"],"duration":0,"start_local":"2024-04-18T16:00:00","end":"2024-04-18T16:00:00Z","end_local":"2024-04-18T16:00:00","updated":"2024-06-11T22:08:10Z"},{"title":"Ligue 1 - Salitas vs RCK","description":"Sourced from predicthq.com","category":"sports","start":"2024-04-18T16:00:00Z","geo":{"geometry":{"coordinates":[-1.5292078256607056,12.36067471831012],"type":"Point"},"placekey":"@bc7-3p8-f2k","address":{"country_code":"BF","formatted_address":"9F6C+594, Bilbalogho, Ouagadougou, Burkina Faso","locality":"Ouagadougou","region":"Centre Region"}},"labels":["soccer","sport"],"duration":0,"start_local":"2024-04-18T16:00:00","end":"2024-04-18T16:00:00Z","end_local":"2024-04-18T16:00:00","updated":"2024-06-12T04:31:59Z"},{"title":"Ligue 1 - RC Bobo-Dioulasso vs EF Ouagadougou","description":"Sourced from predicthq.com","category":"sports","start":"2024-04-18T16:00:00Z","geo":{"geometry":{"coordinates":[-4.2971339,11.1823407],"type":"Point"},"placekey":"@dvk-j8x-4n5","address":{"country_code":"BF","formatted_address":"Ave de la Liberte, Bobo-Dioulasso, Burkina Faso","locality":"Bobo-Dioulasso","region":"Hauts-Bassins Region"}},"labels":["soccer","sport"],"duration":0,"start_local":"2024-04-18T16:00:00","end":"2024-04-18T16:00:00Z","end_local":"2024-04-18T16:00:00","updated":"2024-06-12T01:01:31Z"},{"title":"Ligue 1 - KOZAF vs ASFB","description":"Sourced from predicthq.com","category":"sports","start":"2024-04-17T16:00:00Z","geo":{"geometry":{"coordinates":[-1.4933466911315918,12.293912987620658],"type":"Point"},"placekey":"@bc7-3q9-xt9","address":{"country_code":"BF","formatted_address":"7GV4+HM Ouagadougou, Burkina Faso","locality":"Ouagadougou","region":"Centre Region"}},"labels":["soccer","sport"],"duration":0,"start_local":"2024-04-17T16:00:00","end":"2024-04-17T16:00:00Z","end_local":"2024-04-17T16:00:00","updated":"2024-06-12T09:29:21Z"},{"title":"Ligue 1 - Royal vs Sporting Cascades","description":"Sourced from predicthq.com","category":"sports","start":"2024-04-17T16:00:00Z","geo":{"geometry":{"coordinates":[-4.2971339,11.1823407],"type":"Point"},"placekey":"@dvk-j8x-4n5","address":{"country_code":"BF","formatted_address":"Ave de la Liberte, Bobo-Dioulasso, Burkina Faso","locality":"Bobo-Dioulasso","region":"Hauts-Bassins Region"}},"labels":["soccer","sport"],"duration":0,"start_local":"2024-04-17T16:00:00","end":"2024-04-17T16:00:00Z","end_local":"2024-04-17T16:00:00","updated":"2024-06-12T16:32:39Z"},{"title":"Ligue 1 - ASEC-K vs Majestic","description":"Sourced from predicthq.com","category":"sports","start":"2024-04-17T16:00:00Z","geo":{"geometry":{"coordinates":[-2.347699999809265,12.257220614075163],"type":"Point"},"placekey":"@bc6-t2k-nqz","address":{"country_code":"BF","formatted_address":"7M52+2CX, Koudougou, Burkina Faso","locality":"Koudougou","region":"Centre-Ouest Region"}},"labels":["soccer","sport"],"duration":0,"start_local":"2024-04-17T16:00:00","end":"2024-04-17T16:00:00Z","end_local":"2024-04-17T16:00:00","updated":"2024-06-12T05:47:36Z"},{"title":"Ligue 1 - SONABEL vs USFA","description":"Sourced from predicthq.com","category":"sports","start":"2024-04-17T16:00:00Z","geo":{"geometry":{"coordinates":[-1.5292078256607056,12.36067471831012],"type":"Point"},"placekey":"@bc7-3p8-f2k","address":{"country_code":"BF","formatted_address":"9F6C+594, Bilbalogho, Ouagadougou, Burkina Faso","locality":"Ouagadougou","region":"Centre Region"}},"labels":["soccer","sport"],"duration":0,"start_local":"2024-04-17T16:00:00","end":"2024-04-17T16:00:00Z","end_local":"2024-04-17T16:00:00","updated":"2024-06-12T11:48:52Z"}]