[{"title":"AFA International Technical Conference and Exhibition","description":"Sourced from predicthq.com","category":"expos","start":"2024-10-01T06:00:00Z","geo":{"geometry":{"coordinates":[50.5902229,26.2437179],"type":"Point"},"placekey":"@9sk-byx-w49","address":{"country_code":"BH","formatted_address":"Diplomatic Area 317, المنامة، Bahrain","locality":"المنامة","region":"محافظة العاصمة"}},"labels":["expo"],"duration":205200,"start_local":"2024-10-01T09:00:00","end":"2024-10-03T15:00:00Z","end_local":"2024-10-03T18:00:00","updated":"2024-06-30T09:22:36Z"},{"title":"International Conference on Recent Advances in Medical and Health Sciences","description":"Sourced from predicthq.com","category":"conferences","start":"2024-09-10T06:00:00Z","geo":{"geometry":{"coordinates":[50.582798000000025,26.226644],"type":"Point"},"placekey":"@9sk-c2b-j7q","address":{"country_code":"BH","formatted_address":"شارع الشيخ عيسى, المنامة, Bahrain","locality":"المنامة","region":"محافظة العاصمة"}},"labels":["conference"],"duration":118800,"start_local":"2024-09-10T09:00:00","end":"2024-09-11T15:00:00Z","end_local":"2024-09-11T18:00:00","updated":"2024-06-04T00:59:39Z"},{"title":"International Conference on Management and Information Technology","description":"Sourced from predicthq.com","category":"conferences","start":"2024-09-10T06:00:00Z","geo":{"geometry":{"coordinates":[50.582798000000025,26.226644],"type":"Point"},"placekey":"@9sk-c2b-j7q","address":{"country_code":"BH","formatted_address":"شارع الشيخ عيسى, المنامة, Bahrain","locality":"المنامة","region":"محافظة العاصمة"}},"labels":["conference"],"duration":118800,"start_local":"2024-09-10T09:00:00","end":"2024-09-11T15:00:00Z","end_local":"2024-09-11T18:00:00","updated":"2024-06-04T01:40:54Z"},{"title":"BDA Conference & Exhibition - Dermatology Conference","description":"Sourced from predicthq.com","category":"expos","start":"2024-09-05T06:00:00Z","geo":{"geometry":{"coordinates":[50.592117,26.241219],"type":"Point"},"placekey":"@9sk-byz-mx5","address":{"country_code":"BH","formatted_address":"Road 1701، Manama, Bahrain","locality":"Manama","region":"Muḥāfaẓat al-ʿĀṣimah"}},"labels":["expo"],"duration":205200,"start_local":"2024-09-05T09:00:00","end":"2024-09-07T15:00:00Z","end_local":"2024-09-07T18:00:00","updated":"2024-06-30T09:46:12Z"},{"title":"Apply for U.S. Green Card. $800K EB-5 Investment – Manama, Bahrain","description":"Sourced from predicthq.com - Get all the details on how to apply for a U.S. Green Card through an $800K EB-5 Investment at our in-person event in Manama on July 27, 2024","category":"conferences","start":"2024-07-27T07:30:00Z","geo":{"geometry":{"coordinates":[50.55271,26.233296],"type":"Point"},"placekey":"@9sk-bzp-s89","address":{"country_code":"BH","formatted_address":"Manama, Muḥāfaẓat al-ʿĀṣimah, Bahrain","locality":"Manama","region":"Muḥāfaẓat al-ʿĀṣimah"}},"labels":["business","conference"],"duration":27000,"start_local":"2024-07-27T10:30:00","end":"2024-07-27T15:00:00Z","end_local":"2024-07-27T18:00:00","updated":"2024-06-28T08:52:02Z"},{"title":"Samer Soltan","description":"Sourced from predicthq.com","category":"concerts","start":"2024-06-28T20:00:00Z","geo":{"geometry":{"coordinates":[50.5789444,26.2476667],"type":"Point"},"placekey":"@9sk-byx-p35","address":{"country_code":"BH","formatted_address":"خليج البحرين/2، المنامة،، Manama, Bahrain","locality":"Manama","region":"Muḥāfaẓat al-ʿĀṣimah"}},"labels":["concert","music"],"duration":0,"start_local":"2024-06-28T23:00:00","end":"2024-06-28T20:00:00Z","end_local":"2024-06-28T23:00:00","updated":"2024-06-11T01:15:10Z"},{"title":"Friendlies Women - Friendlies 2 - Bahrain vs Indonesia","description":"Sourced from predicthq.com","category":"sports","start":"2024-06-11T15:45:00Z","geo":{"geometry":{"coordinates":[50.5745869,26.2058927],"type":"Point"},"placekey":"@9sk-c2f-q2k","address":{"country_code":"BH","formatted_address":"6H4F+9R4, Manama, Bahrain","locality":"Manama","region":"Capital Governorate"}},"labels":["soccer","sport"],"duration":0,"start_local":"2024-06-11T18:45:00","end":"2024-06-11T15:45:00Z","end_local":"2024-06-11T18:45:00","updated":"2024-06-11T08:25:23Z"},{"title":"Friendlies Women - Friendlies 2 - Bahrain vs Indonesia","description":"Sourced from predicthq.com","category":"sports","start":"2024-06-08T15:45:00Z","geo":{"geometry":{"coordinates":[50.5745869,26.2058927],"type":"Point"},"placekey":"@9sk-c2f-q2k","address":{"country_code":"BH","formatted_address":"6H4F+9R4, Manama, Bahrain","locality":"Manama","region":"Capital Governorate"}},"labels":["soccer","sport"],"duration":0,"start_local":"2024-06-08T18:45:00","end":"2024-06-08T15:45:00Z","end_local":"2024-06-08T18:45:00","updated":"2024-06-12T15:19:14Z"},{"title":"AFC World Cup Qualifiers - 2nd Round - Bahrain vs Yemen","description":"Sourced from predicthq.com","category":"sports","start":"2024-06-06T17:30:00Z","geo":{"geometry":{"coordinates":[50.5436453,26.153794],"type":"Point"},"placekey":"@9sk-g4f-vvf","address":{"country_code":"BH","formatted_address":"شارع المحرق, Riffa, Bahrain","locality":"Riffa","region":"Central Governorate"}},"labels":["soccer","sport"],"duration":7126,"start_local":"2024-06-06T20:30:00","end":"2024-06-06T19:28:46Z","end_local":"2024-06-06T22:28:46","updated":"2024-06-06T23:49:10Z"},{"title":"Friendlies Women - Friendlies 2 - Bahrain vs Palestine","description":"Sourced from predicthq.com","category":"sports","start":"2024-06-04T15:45:00Z","geo":{"geometry":{"coordinates":[50.5745869,26.2058927],"type":"Point"},"placekey":"@9sk-c2f-q2k","address":{"country_code":"BH","formatted_address":"6H4F+9R4, Manama, Bahrain","locality":"Manama","region":"Capital Governorate"}},"labels":["soccer","sport"],"duration":0,"start_local":"2024-06-04T18:45:00","end":"2024-06-04T15:45:00Z","end_local":"2024-06-04T18:45:00","updated":"2024-06-12T12:57:19Z"},{"title":"Friendlies Women - Friendlies 2 - Bahrain vs Palestine","description":"Sourced from predicthq.com","category":"sports","start":"2024-06-01T15:45:00Z","geo":{"geometry":{"coordinates":[50.5745869,26.2058927],"type":"Point"},"placekey":"@9sk-c2f-q2k","address":{"country_code":"BH","formatted_address":"6H4F+9R4, Manama, Bahrain","locality":"Manama","region":"Capital Governorate"}},"labels":["soccer","sport"],"duration":0,"start_local":"2024-06-01T18:45:00","end":"2024-06-01T15:45:00Z","end_local":"2024-06-01T18:45:00","updated":"2024-06-12T06:19:03Z"},{"title":"How the latest Aus Budget will impact the property market & investors","description":"Sourced from predicthq.com - Find out what's in store for investors in the coming year from the Federal & Vic Budgets (8pm SIN/KUL, 5:30pm IST)","category":"conferences","start":"2024-05-30T12:00:00Z","geo":{"geometry":{"coordinates":[50.5875935,26.2235305],"type":"Point"},"placekey":"@9sk-c2b-st9","address":{"country_code":"BH","formatted_address":"Manama, Capital Governorate, Bahrain","locality":"Manama","region":"Capital Governorate"}},"labels":["business","conference"],"duration":2700,"start_local":"2024-05-30T15:00:00","end":"2024-05-30T12:45:00Z","end_local":"2024-05-30T15:45:00","updated":"2024-06-12T15:40:40Z"},{"title":"R/E Agents - partner with us to make upto $1m in Bonus with AU property","description":"Sourced from predicthq.com - Find out how partnering with the right Australian Property Developer can earn your business upto AU$1m in bonuses every year","category":"conferences","start":"2024-05-28T07:00:00Z","geo":{"geometry":{"coordinates":[50.5875935,26.2235305],"type":"Point"},"placekey":"@9sk-c2b-st9","address":{"country_code":"BH","formatted_address":"Manama, Capital Governorate, Bahrain","locality":"Manama","region":"Capital Governorate"}},"labels":["business","conference"],"duration":2700,"start_local":"2024-05-28T10:00:00","end":"2024-05-28T07:45:00Z","end_local":"2024-05-28T10:45:00","updated":"2024-06-12T05:47:20Z"},{"title":"Jo Koy live in Al Dana Amphitheatre, Bahrain","description":"Sourced from predicthq.com","category":"performing-arts","start":"2024-05-24T15:00:00Z","geo":{"geometry":{"coordinates":[50.51697,26.03706],"type":"Point"},"placekey":"@9sk-fjq-mff","address":{"country_code":"BH","formatted_address":"Zallaq, Southern Governorate, Bahrain","locality":"Zallaq","region":"Southern Governorate"}},"labels":["entertainment","music","performing-arts"],"duration":21540,"start_local":"2024-05-24T18:00:00","end":"2024-05-24T20:59:00Z","end_local":"2024-05-24T23:59:00","updated":"2024-06-05T17:05:02Z"},{"title":"DISCOVER ENDLESS BEAUTY AT SAKS","description":"Sourced from predicthq.com - Awaken Your Senses, Embrace Your Beauty at Saks | May 23 - June 9","category":"expos","start":"2024-05-23T16:00:00Z","geo":{"geometry":{"coordinates":[50.5520372,26.2327382],"type":"Point"},"placekey":"@9sk-bzp-rx5","address":{"country_code":"BH","formatted_address":"Manama, Muḥāfaẓat al-ʿĀṣimah, Bahrain","locality":"Manama","region":"Muḥāfaẓat al-ʿĀṣimah"}},"labels":["expo","fashion"],"duration":10800,"start_local":"2024-05-23T19:00:00","end":"2024-05-23T19:00:00Z","end_local":"2024-05-23T22:00:00","updated":"2024-06-04T23:31:01Z"},{"title":"Scorpions","description":"Sourced from predicthq.com","category":"concerts","start":"2024-05-20T16:00:00Z","geo":{"geometry":{"coordinates":[50.5175156,26.0375125],"type":"Point"},"placekey":"@9sk-fjq-mff","address":{"country_code":"BH","formatted_address":"Zallaq, Southern Governorate, Bahrain","locality":"Zallaq","region":"Southern Governorate"}},"labels":["concert","music"],"duration":0,"start_local":"2024-05-20T19:00:00","end":"2024-05-20T16:00:00Z","end_local":"2024-05-20T19:00:00","updated":"2024-06-11T21:47:07Z"},{"title":"Premier League - Al Riffa vs Manama","description":"Sourced from predicthq.com","category":"sports","start":"2024-05-20T16:00:00Z","geo":{"geometry":{"coordinates":[50.5436453,26.153794],"type":"Point"},"placekey":"@9sk-g4f-vvf","address":{"country_code":"BH","formatted_address":"شارع المحرق, Riffa, Bahrain","locality":"Riffa","region":"Central Governorate"}},"labels":["soccer","sport"],"duration":0,"start_local":"2024-05-20T19:00:00","end":"2024-05-20T16:00:00Z","end_local":"2024-05-20T19:00:00","updated":"2024-06-12T06:43:32Z"},{"title":"Premier League - Al Shabab vs Busaiteen","description":"Sourced from predicthq.com","category":"sports","start":"2024-05-19T16:00:00Z","geo":{"geometry":{"coordinates":[50.6087203,26.2253845],"type":"Point"},"placekey":"@9sk-c2d-3yv","address":{"country_code":"BH","formatted_address":"Manama, Capital Governorate, Bahrain","locality":"Manama","region":"Capital Governorate"}},"labels":["soccer","sport"],"duration":0,"start_local":"2024-05-19T19:00:00","end":"2024-05-19T16:00:00Z","end_local":"2024-05-19T19:00:00","updated":"2024-06-12T15:05:48Z"},{"title":"Premier League - East Riffa vs Al Khaldiya","description":"Sourced from predicthq.com","category":"sports","start":"2024-05-19T16:00:00Z","geo":{"geometry":{"coordinates":[50.5436453,26.153794],"type":"Point"},"placekey":"@9sk-g4f-vvf","address":{"country_code":"BH","formatted_address":"شارع المحرق, Riffa, Bahrain","locality":"Riffa","region":"Central Governorate"}},"labels":["soccer","sport"],"duration":0,"start_local":"2024-05-19T19:00:00","end":"2024-05-19T16:00:00Z","end_local":"2024-05-19T19:00:00","updated":"2024-06-22T00:05:29Z"},{"title":"Premier League - Al Hidd vs Al Najma","description":"Sourced from predicthq.com","category":"sports","start":"2024-05-19T16:00:00Z","geo":{"geometry":{"coordinates":[50.5745869,26.2058927],"type":"Point"},"placekey":"@9sk-c2f-q2k","address":{"country_code":"BH","formatted_address":"6H4F+9R4, Manama, Bahrain","locality":"Manama","region":"Capital Governorate"}},"labels":["soccer","sport"],"duration":0,"start_local":"2024-05-19T19:00:00","end":"2024-05-19T16:00:00Z","end_local":"2024-05-19T19:00:00","updated":"2024-06-12T20:13:16Z"},{"title":"Premier League - Muharraq vs Sitra","description":"Sourced from predicthq.com","category":"sports","start":"2024-05-19T16:00:00Z","geo":{"geometry":{"coordinates":[50.548492670059204,26.175029004130664],"type":"Point"},"placekey":"@9sk-g4b-pvz","address":{"country_code":"BH","formatted_address":"Demascus Avenue / Road No. 1008, Madinat 'Isa, al-Manāma (Manama), Bahrain","locality":"al-Manāma (Manama)"}},"labels":["soccer","sport"],"duration":0,"start_local":"2024-05-19T19:00:00","end":"2024-05-19T16:00:00Z","end_local":"2024-05-19T19:00:00","updated":"2024-06-12T17:11:28Z"},{"title":"Premier League - Al Hala vs Al Ahli","description":"Sourced from predicthq.com","category":"sports","start":"2024-05-19T16:00:00Z","geo":{"geometry":{"coordinates":[50.62758028507233,26.25783922000263],"type":"Point"},"placekey":"@9sk-bzh-v9f","address":{"country_code":"BH","formatted_address":"Al-Hidd Highway / Avenue 40, Al Hidd, Muharraq, Bahrain","locality":"Muharraq"}},"labels":["soccer","sport"],"duration":0,"start_local":"2024-05-19T19:00:00","end":"2024-05-19T16:00:00Z","end_local":"2024-05-19T19:00:00","updated":"2024-06-12T02:14:26Z"},{"title":"Premier League - Manama vs Al Hidd","description":"Sourced from predicthq.com","category":"sports","start":"2024-05-15T16:30:00Z","geo":{"geometry":{"coordinates":[50.5436453,26.153794],"type":"Point"},"placekey":"@9sk-g4f-vvf","address":{"country_code":"BH","formatted_address":"شارع المحرق, Riffa, Bahrain","locality":"Riffa","region":"Central Governorate"}},"labels":["soccer","sport"],"duration":0,"start_local":"2024-05-15T19:30:00","end":"2024-05-15T16:30:00Z","end_local":"2024-05-15T19:30:00","updated":"2024-06-12T02:22:01Z"},{"title":"Premier League - Sitra vs East Riffa","description":"Sourced from predicthq.com","category":"sports","start":"2024-05-15T16:30:00Z","geo":{"geometry":{"coordinates":[50.548492670059204,26.175029004130664],"type":"Point"},"placekey":"@9sk-g4b-pvz","address":{"country_code":"BH","formatted_address":"Demascus Avenue / Road No. 1008, Madinat 'Isa, al-Manāma (Manama), Bahrain","locality":"al-Manāma (Manama)"}},"labels":["soccer","sport"],"duration":0,"start_local":"2024-05-15T19:30:00","end":"2024-05-15T16:30:00Z","end_local":"2024-05-15T19:30:00","updated":"2024-06-12T12:05:14Z"},{"title":"Premier League - Al Ahli vs Al Shabab","description":"Sourced from predicthq.com","category":"sports","start":"2024-05-15T16:30:00Z","geo":{"geometry":{"coordinates":[50.62758028507233,26.25783922000263],"type":"Point"},"placekey":"@9sk-bzh-v9f","address":{"country_code":"BH","formatted_address":"Al-Hidd Highway / Avenue 40, Al Hidd, Muharraq, Bahrain","locality":"Muharraq"}},"labels":["soccer","sport"],"duration":0,"start_local":"2024-05-15T19:30:00","end":"2024-05-15T16:30:00Z","end_local":"2024-05-15T19:30:00","updated":"2024-06-12T10:20:06Z"},{"title":"Premier League - Busaiteen vs Al Riffa","description":"Sourced from predicthq.com","category":"sports","start":"2024-05-15T16:30:00Z","geo":{"geometry":{"coordinates":[50.5745869,26.2058927],"type":"Point"},"placekey":"@9sk-c2f-q2k","address":{"country_code":"BH","formatted_address":"6H4F+9R4, Manama, Bahrain","locality":"Manama","region":"Capital Governorate"}},"labels":["soccer","sport"],"duration":0,"start_local":"2024-05-15T19:30:00","end":"2024-05-15T16:30:00Z","end_local":"2024-05-15T19:30:00","updated":"2024-06-12T02:08:10Z"},{"title":"Premier League - Al Najma vs Muharraq","description":"Sourced from predicthq.com","category":"sports","start":"2024-05-14T16:00:00Z","geo":{"geometry":{"coordinates":[50.548492670059204,26.175029004130664],"type":"Point"},"placekey":"@9sk-g4b-pvz","address":{"country_code":"BH","formatted_address":"Demascus Avenue / Road No. 1008, Madinat 'Isa, al-Manāma (Manama), Bahrain","locality":"al-Manāma (Manama)"}},"labels":["soccer","sport"],"duration":0,"start_local":"2024-05-14T19:00:00","end":"2024-05-14T16:00:00Z","end_local":"2024-05-14T19:00:00","updated":"2024-06-21T23:44:01Z"},{"title":"Reboot01 Open Day","description":"Sourced from predicthq.com - Get ready to reboot your life at Reboot01 Open Day - come join us for a day of fun, learning, and new beginnings!","category":"expos","start":"2024-05-14T15:00:00Z","geo":{"geometry":{"coordinates":[50.5325634,26.2361888],"type":"Point"},"placekey":"@9sk-bzq-28v","address":{"country_code":"BH","formatted_address":"Jidhafs, Muḥāfaẓat al-ʿĀṣimah, Bahrain","locality":"Jidhafs","region":"Muḥāfaẓat al-ʿĀṣimah"}},"labels":["expo","science","technology"],"duration":5400,"start_local":"2024-05-14T18:00:00","end":"2024-05-14T16:30:00Z","end_local":"2024-05-14T19:30:00","updated":"2024-06-05T02:40:27Z"},{"title":"How to save AND protect your money when buying an investment property","description":"Sourced from predicthq.com - Learn the right legalities to save  tens of thousands when buying and holding an Inv property in Australia (5:30pm IST, 7pm JKT, 8pm SIN/KL)","category":"conferences","start":"2024-05-14T12:00:00Z","geo":{"geometry":{"coordinates":[50.5875935,26.2235305],"type":"Point"},"placekey":"@9sk-c2b-st9","address":{"country_code":"BH","formatted_address":"Manama, Capital Governorate, Bahrain","locality":"Manama","region":"Capital Governorate"}},"labels":["business","conference"],"duration":2700,"start_local":"2024-05-14T15:00:00","end":"2024-05-14T12:45:00Z","end_local":"2024-05-14T15:45:00","updated":"2024-06-12T19:43:20Z"},{"title":"Premier League - Al Najma vs Manama","description":"Sourced from predicthq.com","category":"sports","start":"2024-05-09T16:00:00Z","geo":{"geometry":{"coordinates":[50.5436453,26.153794],"type":"Point"},"placekey":"@9sk-g4f-vvf","address":{"country_code":"BH","formatted_address":"شارع المحرق, Riffa, Bahrain","locality":"Riffa","region":"Central Governorate"}},"labels":["soccer","sport"],"duration":0,"start_local":"2024-05-09T19:00:00","end":"2024-05-09T16:00:00Z","end_local":"2024-05-09T19:00:00","updated":"2024-06-12T02:04:06Z"},{"title":"Premier League - Al Hidd vs Busaiteen","description":"Sourced from predicthq.com","category":"sports","start":"2024-05-09T16:00:00Z","geo":{"geometry":{"coordinates":[50.62758028507233,26.25783922000263],"type":"Point"},"placekey":"@9sk-bzh-v9f","address":{"country_code":"BH","formatted_address":"Al-Hidd Highway / Avenue 40, Al Hidd, Muharraq, Bahrain","locality":"Muharraq"}},"labels":["soccer","sport"],"duration":0,"start_local":"2024-05-09T19:00:00","end":"2024-05-09T16:00:00Z","end_local":"2024-05-09T19:00:00","updated":"2024-06-12T15:07:47Z"},{"title":"Premier League - Al Shabab vs Al Khaldiya","description":"Sourced from predicthq.com","category":"sports","start":"2024-05-08T16:00:00Z","geo":{"geometry":{"coordinates":[50.62758028507233,26.25783922000263],"type":"Point"},"placekey":"@9sk-bzh-v9f","address":{"country_code":"BH","formatted_address":"Al-Hidd Highway / Avenue 40, Al Hidd, Muharraq, Bahrain","locality":"Muharraq"}},"labels":["soccer","sport"],"duration":0,"start_local":"2024-05-08T19:00:00","end":"2024-05-08T16:00:00Z","end_local":"2024-05-08T19:00:00","updated":"2024-06-21T23:33:47Z"},{"title":"Premier League - Al Riffa vs Al Ahli","description":"Sourced from predicthq.com","category":"sports","start":"2024-05-08T16:00:00Z","geo":{"geometry":{"coordinates":[50.548492670059204,26.175029004130664],"type":"Point"},"placekey":"@9sk-g4b-pvz","address":{"country_code":"BH","formatted_address":"Demascus Avenue / Road No. 1008, Madinat 'Isa, al-Manāma (Manama), Bahrain","locality":"al-Manāma (Manama)"}},"labels":["soccer","sport"],"duration":0,"start_local":"2024-05-08T19:00:00","end":"2024-05-08T16:00:00Z","end_local":"2024-05-08T19:00:00","updated":"2024-06-12T19:43:56Z"},{"title":"West Asia Super League - Gulf Final - Manama vs Kuwait","description":"Sourced from predicthq.com","category":"sports","start":"2024-05-06T17:00:00Z","geo":{"geometry":{"coordinates":[50.5484293,26.1740598],"type":"Point"},"placekey":"@9sk-g4b-pjv","address":{"country_code":"BH","formatted_address":"Road No 1008, Isa, Bahrain","locality":"Isa","region":"Central Governorate"}},"labels":["basketball","sport"],"duration":0,"start_local":"2024-05-06T20:00:00","end":"2024-05-06T17:00:00Z","end_local":"2024-05-06T20:00:00","updated":"2024-06-12T11:18:15Z"},{"title":"Infection Prevention Control Forum","description":"Sourced from predicthq.com - Healthcare professionals! Join us at the Infection Prevention Forum, discussing industry standards in keeping your facilities safe.","category":"conferences","start":"2024-05-06T05:30:00Z","geo":{"geometry":{"coordinates":[50.543838,26.1632084],"type":"Point"},"placekey":"@9sk-g4f-bhq","address":{"country_code":"BH","formatted_address":"Isa Town, Bahrain","locality":"Isa Town","region":"Central Governorate"}},"labels":["conference","health"],"duration":10800,"start_local":"2024-05-06T08:30:00","end":"2024-05-06T08:30:00Z","end_local":"2024-05-06T11:30:00","updated":"2024-06-05T07:00:39Z"},{"title":"Premier League - Manama vs Muharraq","description":"Sourced from predicthq.com","category":"sports","start":"2024-05-04T16:00:00Z","geo":{"geometry":{"coordinates":[50.5436453,26.153794],"type":"Point"},"placekey":"@9sk-g4f-vvf","address":{"country_code":"BH","formatted_address":"شارع المحرق, Riffa, Bahrain","locality":"Riffa","region":"Central Governorate"}},"labels":["soccer","sport"],"duration":0,"start_local":"2024-05-04T19:00:00","end":"2024-05-04T16:00:00Z","end_local":"2024-05-04T19:00:00","updated":"2024-06-12T09:36:42Z"},{"title":"Premier League - Busaiteen vs Al Najma","description":"Sourced from predicthq.com","category":"sports","start":"2024-05-04T16:00:00Z","geo":{"geometry":{"coordinates":[50.62758028507233,26.25783922000263],"type":"Point"},"placekey":"@9sk-bzh-v9f","address":{"country_code":"BH","formatted_address":"Al-Hidd Highway / Avenue 40, Al Hidd, Muharraq, Bahrain","locality":"Muharraq"}},"labels":["soccer","sport"],"duration":0,"start_local":"2024-05-04T19:00:00","end":"2024-05-04T16:00:00Z","end_local":"2024-05-04T19:00:00","updated":"2024-06-12T01:30:47Z"},{"title":"Premier League - Al Ahli vs Al Hidd","description":"Sourced from predicthq.com","category":"sports","start":"2024-05-04T16:00:00Z","geo":{"geometry":{"coordinates":[50.548492670059204,26.175029004130664],"type":"Point"},"placekey":"@9sk-g4b-pvz","address":{"country_code":"BH","formatted_address":"Demascus Avenue / Road No. 1008, Madinat 'Isa, al-Manāma (Manama), Bahrain","locality":"al-Manāma (Manama)"}},"labels":["soccer","sport"],"duration":0,"start_local":"2024-05-04T19:00:00","end":"2024-05-04T16:00:00Z","end_local":"2024-05-04T19:00:00","updated":"2024-06-12T12:33:15Z"},{"title":"Premier League - Al Khaldiya vs Al Riffa","description":"Sourced from predicthq.com","category":"sports","start":"2024-05-03T16:00:00Z","geo":{"geometry":{"coordinates":[50.5436453,26.153794],"type":"Point"},"placekey":"@9sk-g4f-vvf","address":{"country_code":"BH","formatted_address":"شارع المحرق, Riffa, Bahrain","locality":"Riffa","region":"Central Governorate"}},"labels":["soccer","sport"],"duration":0,"start_local":"2024-05-03T19:00:00","end":"2024-05-03T16:00:00Z","end_local":"2024-05-03T19:00:00","updated":"2024-06-21T23:34:14Z"},{"title":"Premier League - East Riffa vs Al Hala","description":"Sourced from predicthq.com","category":"sports","start":"2024-05-03T16:00:00Z","geo":{"geometry":{"coordinates":[50.62758028507233,26.25783922000263],"type":"Point"},"placekey":"@9sk-bzh-v9f","address":{"country_code":"BH","formatted_address":"Al-Hidd Highway / Avenue 40, Al Hidd, Muharraq, Bahrain","locality":"Muharraq"}},"labels":["soccer","sport"],"duration":0,"start_local":"2024-05-03T19:00:00","end":"2024-05-03T16:00:00Z","end_local":"2024-05-03T19:00:00","updated":"2024-06-12T00:57:36Z"},{"title":"Bahrain International Women Health Conference & Exhibition","description":"Sourced from predicthq.com","category":"expos","start":"2024-05-01T21:00:00Z","geo":{"geometry":{"coordinates":[50.59154,26.242408],"type":"Point"},"placekey":"@9sk-byz-mtv","address":{"country_code":"BH","formatted_address":"Diplomatic Area Manama Manama\nBahrain","locality":"Bahrain"}},"labels":["expo"],"duration":259199,"start_local":"2024-05-02T00:00:00","end":"2024-05-04T20:59:59Z","end_local":"2024-05-04T23:59:59","updated":"2024-06-03T20:07:16Z"},{"title":"Premier League - Manama vs Busaiteen","description":"Sourced from predicthq.com","category":"sports","start":"2024-04-28T16:00:00Z","geo":{"geometry":{"coordinates":[50.62758028507233,26.25783922000263],"type":"Point"},"placekey":"@9sk-bzh-v9f","address":{"country_code":"BH","formatted_address":"Al-Hidd Highway / Avenue 40, Al Hidd, Muharraq, Bahrain","locality":"Muharraq"}},"labels":["soccer","sport"],"duration":0,"start_local":"2024-04-28T19:00:00","end":"2024-04-28T16:00:00Z","end_local":"2024-04-28T19:00:00","updated":"2024-06-12T12:47:31Z"},{"title":"Premier League - Al Najma vs Al Ahli","description":"Sourced from predicthq.com","category":"sports","start":"2024-04-28T16:00:00Z","geo":{"geometry":{"coordinates":[50.5436453,26.153794],"type":"Point"},"placekey":"@9sk-g4f-vvf","address":{"country_code":"BH","formatted_address":"شارع المحرق, Riffa, Bahrain","locality":"Riffa","region":"Central Governorate"}},"labels":["soccer","sport"],"duration":0,"start_local":"2024-04-28T19:00:00","end":"2024-04-28T16:00:00Z","end_local":"2024-04-28T19:00:00","updated":"2024-06-21T23:20:44Z"},{"title":"Premier League - Al Shabab vs East Riffa","description":"Sourced from predicthq.com","category":"sports","start":"2024-04-27T16:00:00Z","geo":{"geometry":{"coordinates":[50.5436453,26.153794],"type":"Point"},"placekey":"@9sk-g4f-vvf","address":{"country_code":"BH","formatted_address":"شارع المحرق, Riffa, Bahrain","locality":"Riffa","region":"Central Governorate"}},"labels":["soccer","sport"],"duration":0,"start_local":"2024-04-27T19:00:00","end":"2024-04-27T16:00:00Z","end_local":"2024-04-27T19:00:00","updated":"2024-06-12T08:23:08Z"},{"title":"Premier League - Muharraq vs Al Hala","description":"Sourced from predicthq.com","category":"sports","start":"2024-04-27T16:00:00Z","geo":{"geometry":{"coordinates":[50.62758028507233,26.25783922000263],"type":"Point"},"placekey":"@9sk-bzh-v9f","address":{"country_code":"BH","formatted_address":"Al-Hidd Highway / Avenue 40, Al Hidd, Muharraq, Bahrain","locality":"Muharraq"}},"labels":["soccer","sport"],"duration":0,"start_local":"2024-04-27T19:00:00","end":"2024-04-27T16:00:00Z","end_local":"2024-04-27T19:00:00","updated":"2024-06-12T06:38:42Z"},{"title":"Amr Diab Live at Al Dana Amphitheatre","description":"Sourced from predicthq.com","category":"concerts","start":"2024-04-26T15:00:00Z","geo":{"geometry":{"coordinates":[50.5175156,26.0375125],"type":"Point"},"placekey":"@9sk-fjq-mff","address":{"country_code":"BH","formatted_address":"Zallaq, Southern Governorate, Bahrain","locality":"Zallaq","region":"Southern Governorate"}},"labels":["concert","music"],"duration":14400,"start_local":"2024-04-26T18:00:00","end":"2024-04-26T19:00:00Z","end_local":"2024-04-26T22:00:00","updated":"2024-06-04T23:17:06Z"},{"title":"BNP Paribas Bahrain Jazz Fest","description":"Sourced from predicthq.com","category":"festivals","start":"2024-04-26T10:00:00Z","geo":{"geometry":{"coordinates":[50.56653,26.09168],"type":"Point"},"placekey":"@9sk-g6q-mhq","address":{"country_code":"BH","formatted_address":"Al Mazrowiah, Southern Governorate, Bahrain","locality":"Al Mazrowiah","region":"Southern Governorate"}},"labels":["festival","music"],"duration":39540,"start_local":"2024-04-26T13:00:00","end":"2024-04-26T20:59:00Z","end_local":"2024-04-26T23:59:00","updated":"2024-06-05T11:39:53Z"},{"title":"BNP Paribas Bahrain Jazz Fest 2024","description":"Sourced from predicthq.com","category":"festivals","start":"2024-04-25T21:00:00Z","geo":{"geometry":{"coordinates":[50.5769507,26.2343237],"type":"Point"},"placekey":"@9sk-c2c-pqf","address":{"country_code":"BH","formatted_address":"302، Yateem Centre، Road 385، Manama 304, Bahrain","postcode":"304","locality":"Manama","region":"Muḥāfaẓat al-ʿĀṣimah"}},"labels":["festival","music"],"duration":86399,"start_local":"2024-04-26T00:00:00","end":"2024-04-26T20:59:59Z","end_local":"2024-04-26T23:59:59","updated":"2024-06-05T10:31:23Z"},{"title":"West Asia Super League - Gulf Final - Manama vs Kuwait","description":"Sourced from predicthq.com","category":"sports","start":"2024-04-23T17:00:00Z","geo":{"geometry":{"coordinates":[50.5484293,26.1740598],"type":"Point"},"placekey":"@9sk-g4b-pjv","address":{"country_code":"BH","formatted_address":"Road No 1008, Isa, Bahrain","locality":"Isa","region":"Central Governorate"}},"labels":["basketball","sport"],"duration":0,"start_local":"2024-04-23T20:00:00","end":"2024-04-23T17:00:00Z","end_local":"2024-04-23T20:00:00","updated":"2024-06-11T23:06:55Z"},{"title":"Premier League - East Riffa vs Al Riffa","description":"Sourced from predicthq.com","category":"sports","start":"2024-04-23T16:00:00Z","geo":{"geometry":{"coordinates":[50.5436453,26.153794],"type":"Point"},"placekey":"@9sk-g4f-vvf","address":{"country_code":"BH","formatted_address":"شارع المحرق, Riffa, Bahrain","locality":"Riffa","region":"Central Governorate"}},"labels":["soccer","sport"],"duration":0,"start_local":"2024-04-23T19:00:00","end":"2024-04-23T16:00:00Z","end_local":"2024-04-23T19:00:00","updated":"2024-06-12T10:13:32Z"},{"title":"Premier League - Sitra vs Al Hidd","description":"Sourced from predicthq.com","category":"sports","start":"2024-04-23T16:00:00Z","geo":{"geometry":{"coordinates":[50.62758028507233,26.25783922000263],"type":"Point"},"placekey":"@9sk-bzh-v9f","address":{"country_code":"BH","formatted_address":"Al-Hidd Highway / Avenue 40, Al Hidd, Muharraq, Bahrain","locality":"Muharraq"}},"labels":["soccer","sport"],"duration":0,"start_local":"2024-04-23T19:00:00","end":"2024-04-23T16:00:00Z","end_local":"2024-04-23T19:00:00","updated":"2024-06-12T17:10:03Z"},{"title":"Premier League - Al Hala vs Al Shabab","description":"Sourced from predicthq.com","category":"sports","start":"2024-04-23T16:00:00Z","geo":{"geometry":{"coordinates":[50.548492670059204,26.175029004130664],"type":"Point"},"placekey":"@9sk-g4b-pvz","address":{"country_code":"BH","formatted_address":"Demascus Avenue / Road No. 1008, Madinat 'Isa, al-Manāma (Manama), Bahrain","locality":"al-Manāma (Manama)"}},"labels":["soccer","sport"],"duration":0,"start_local":"2024-04-23T19:00:00","end":"2024-04-23T16:00:00Z","end_local":"2024-04-23T19:00:00","updated":"2024-06-12T15:16:27Z"},{"title":"Everything an  o/s buyer needs to know about financing an Aus Inv Property","description":"Sourced from predicthq.com - Finance is a critical aspect of property investment, it can make a significant impact on your investment journey (3pm AST, 8pm SIN/KUL)","category":"conferences","start":"2024-04-23T12:00:00Z","geo":{"geometry":{"coordinates":[50.5875935,26.2235305],"type":"Point"},"placekey":"@9sk-c2b-st9","address":{"country_code":"BH","formatted_address":"Manama, Capital Governorate, Bahrain","locality":"Manama","region":"Capital Governorate"}},"labels":["business","conference"],"duration":2700,"start_local":"2024-04-23T15:00:00","end":"2024-04-23T12:45:00Z","end_local":"2024-04-23T15:45:00","updated":"2024-06-12T03:44:54Z"},{"title":"Premier League - Al Ahli vs Manama","description":"Sourced from predicthq.com","category":"sports","start":"2024-04-22T16:00:00Z","geo":{"geometry":{"coordinates":[50.548492670059204,26.175029004130664],"type":"Point"},"placekey":"@9sk-g4b-pvz","address":{"country_code":"BH","formatted_address":"Demascus Avenue / Road No. 1008, Madinat 'Isa, al-Manāma (Manama), Bahrain","locality":"al-Manāma (Manama)"}},"labels":["soccer","sport"],"duration":0,"start_local":"2024-04-22T19:00:00","end":"2024-04-22T16:00:00Z","end_local":"2024-04-22T19:00:00","updated":"2024-06-21T23:20:45Z"},{"title":"Premier League - Busaiteen vs Muharraq","description":"Sourced from predicthq.com","category":"sports","start":"2024-04-22T16:00:00Z","geo":{"geometry":{"coordinates":[50.62758028507233,26.25783922000263],"type":"Point"},"placekey":"@9sk-bzh-v9f","address":{"country_code":"BH","formatted_address":"Al-Hidd Highway / Avenue 40, Al Hidd, Muharraq, Bahrain","locality":"Muharraq"}},"labels":["soccer","sport"],"duration":0,"start_local":"2024-04-22T19:00:00","end":"2024-04-22T16:00:00Z","end_local":"2024-04-22T19:00:00","updated":"2024-06-12T06:32:44Z"},{"title":"Opening Ceremony of Manama Entrepreneurship Week 2024","description":"Sourced from predicthq.com - The highly-anticipated opening ceremony of Manama Entrepreneurship Week 2024 takes place on 21 April at Gulf Convention Centre, Gulf Hotel.","category":"conferences","start":"2024-04-21T14:00:00Z","geo":{"geometry":{"coordinates":[50.5958927,26.2152696],"type":"Point"},"placekey":"@9sk-c2d-d9z","address":{"country_code":"BH","formatted_address":"Manama, Capital Governorate, Bahrain","locality":"Manama","region":"Capital Governorate"}},"labels":["business","conference"],"duration":18000,"start_local":"2024-04-21T17:00:00","end":"2024-04-21T19:00:00Z","end_local":"2024-04-21T22:00:00","updated":"2024-06-05T02:15:33Z"},{"title":"Private, International & Boarding Schools Expo","description":"Sourced from predicthq.com","category":"expos","start":"2024-04-21T06:00:00Z","geo":{"geometry":{"coordinates":[50.499622,26.027261],"type":"Point"},"placekey":"@9sk-fn4-8vz","address":{"country_code":"BH","formatted_address":"2FGX+WR5\nZallaq\nBahrain","locality":"Bahrain"}},"labels":["expo"],"duration":118800,"start_local":"2024-04-21T09:00:00","end":"2024-04-22T15:00:00Z","end_local":"2024-04-22T18:00:00","updated":"2024-06-30T09:45:55Z"},{"title":"The C3 'Davos of Healthcare' Summit","description":"Sourced from predicthq.com - A unique gathering of global and middle eastern leaders in healthcare, business, and technology on - 'The Evolution of Global Healthcare'","category":"conferences","start":"2024-04-21T05:00:00Z","geo":{"geometry":{"coordinates":[50.59154,26.242408],"type":"Point"},"placekey":"@9sk-byz-mtv","address":{"country_code":"BH","formatted_address":"Diplomatic Area Manama Manama\nBahrain","locality":"Bahrain"}},"labels":["conference","health"],"duration":118800,"start_local":"2024-04-21T08:00:00","end":"2024-04-22T14:00:00Z","end_local":"2024-04-22T17:00:00","updated":"2024-06-05T03:58:32Z"},{"title":"Global Higher Education Exhibition","description":"Sourced from predicthq.com","category":"expos","start":"2024-04-20T21:00:00Z","geo":{"geometry":{"coordinates":[50.499622,26.027261],"type":"Point"},"placekey":"@9sk-fn4-8vz","address":{"country_code":"BH","formatted_address":"2FGX+WR5\nZallaq\nBahrain","locality":"Bahrain"}},"labels":["expo"],"duration":172799,"start_local":"2024-04-21T00:00:00","end":"2024-04-22T20:59:59Z","end_local":"2024-04-22T23:59:59","updated":"2024-06-30T09:46:28Z"},{"title":"Premier League - Manama vs Al Khaldiya","description":"Sourced from predicthq.com","category":"sports","start":"2024-04-18T16:00:00Z","geo":{"geometry":{"coordinates":[50.5436453,26.153794],"type":"Point"},"placekey":"@9sk-g4f-vvf","address":{"country_code":"BH","formatted_address":"شارع المحرق, Riffa, Bahrain","locality":"Riffa","region":"Central Governorate"}},"labels":["soccer","sport"],"duration":0,"start_local":"2024-04-18T19:00:00","end":"2024-04-18T16:00:00Z","end_local":"2024-04-18T19:00:00","updated":"2024-06-21T23:58:10Z"},{"title":"Premier League - Busaiteen vs Al Ahli","description":"Sourced from predicthq.com","category":"sports","start":"2024-04-18T16:00:00Z","geo":{"geometry":{"coordinates":[50.62758028507233,26.25783922000263],"type":"Point"},"placekey":"@9sk-bzh-v9f","address":{"country_code":"BH","formatted_address":"Al-Hidd Highway / Avenue 40, Al Hidd, Muharraq, Bahrain","locality":"Muharraq"}},"labels":["soccer","sport"],"duration":0,"start_local":"2024-04-18T19:00:00","end":"2024-04-18T16:00:00Z","end_local":"2024-04-18T19:00:00","updated":"2024-06-11T23:46:36Z"},{"title":"Premier League - Al Hidd vs East Riffa","description":"Sourced from predicthq.com","category":"sports","start":"2024-04-15T16:00:00Z","geo":{"geometry":{"coordinates":[50.62758028507233,26.25783922000263],"type":"Point"},"placekey":"@9sk-bzh-v9f","address":{"country_code":"BH","formatted_address":"Al-Hidd Highway / Avenue 40, Al Hidd, Muharraq, Bahrain","locality":"Muharraq"}},"labels":["soccer","sport"],"duration":0,"start_local":"2024-04-15T19:00:00","end":"2024-04-15T16:00:00Z","end_local":"2024-04-15T19:00:00","updated":"2024-06-11T22:44:22Z"},{"title":"Premier League - Al Riffa vs Al Hala","description":"Sourced from predicthq.com","category":"sports","start":"2024-04-15T16:00:00Z","geo":{"geometry":{"coordinates":[50.5436453,26.153794],"type":"Point"},"placekey":"@9sk-g4f-vvf","address":{"country_code":"BH","formatted_address":"شارع المحرق, Riffa, Bahrain","locality":"Riffa","region":"Central Governorate"}},"labels":["soccer","sport"],"duration":0,"start_local":"2024-04-15T19:00:00","end":"2024-04-15T16:00:00Z","end_local":"2024-04-15T19:00:00","updated":"2024-06-12T10:44:47Z"},{"title":"Eid Party Baisakhi Special","description":"Sourced from predicthq.com","category":"performing-arts","start":"2024-04-12T17:00:00Z","geo":{"geometry":{"coordinates":[50.61019,26.22006],"type":"Point"},"placekey":"@9sk-c2d-9s5","address":{"country_code":"BH","formatted_address":"Road 2414, Manama, Bahrain","locality":"Manama","region":"Muḥāfaẓat al-ʿĀṣimah"}},"labels":["comedy","entertainment","performing-arts"],"duration":14340,"start_local":"2024-04-12T20:00:00","end":"2024-04-12T20:59:00Z","end_local":"2024-04-12T23:59:00","updated":"2024-06-05T09:01:54Z"},{"title":"Kirtan Fest Bahrain","description":"Sourced from predicthq.com","category":"festivals","start":"2024-04-10T17:00:00Z","geo":{"geometry":{"coordinates":[50.57564,26.20859],"type":"Point"},"placekey":"@9sk-c2f-nnq","address":{"country_code":"BH","formatted_address":"Abdulrahman Jassim Kanoo Avenue, Manama, Bahrain","locality":"Manama","region":"Muḥāfaẓat al-ʿĀṣimah"}},"labels":["festival"],"duration":266400,"start_local":"2024-04-10T20:00:00","end":"2024-04-13T19:00:00Z","end_local":"2024-04-13T22:00:00","updated":"2024-06-04T23:18:33Z"},{"title":"International Conference on Management, Economics & Social Science","description":"Sourced from predicthq.com","category":"conferences","start":"2024-04-10T06:00:00Z","geo":{"geometry":{"coordinates":[50.582798000000025,26.226644],"type":"Point"},"placekey":"@9sk-c2b-j7q","address":{"country_code":"BH","formatted_address":"شارع الشيخ عيسى, المنامة, Bahrain","locality":"المنامة","region":"محافظة العاصمة"}},"labels":["conference"],"duration":118800,"start_local":"2024-04-10T09:00:00","end":"2024-04-11T15:00:00Z","end_local":"2024-04-11T18:00:00","updated":"2024-06-05T00:47:58Z"},{"title":"International Conference on Medical & Health Science","description":"Sourced from predicthq.com","category":"conferences","start":"2024-04-10T06:00:00Z","geo":{"geometry":{"coordinates":[50.582798000000025,26.226644],"type":"Point"},"placekey":"@9sk-c2b-j7q","address":{"country_code":"BH","formatted_address":"شارع الشيخ عيسى, المنامة, Bahrain","locality":"المنامة","region":"محافظة العاصمة"}},"labels":["conference"],"duration":118800,"start_local":"2024-04-10T09:00:00","end":"2024-04-11T15:00:00Z","end_local":"2024-04-11T18:00:00","updated":"2024-06-05T05:04:48Z"},{"title":"International Conference on Science, Engineering & Technology","description":"Sourced from predicthq.com","category":"conferences","start":"2024-04-10T06:00:00Z","geo":{"geometry":{"coordinates":[50.582798000000025,26.226644],"type":"Point"},"placekey":"@9sk-c2b-j7q","address":{"country_code":"BH","formatted_address":"شارع الشيخ عيسى, المنامة, Bahrain","locality":"المنامة","region":"محافظة العاصمة"}},"labels":["conference"],"duration":118800,"start_local":"2024-04-10T09:00:00","end":"2024-04-11T15:00:00Z","end_local":"2024-04-11T18:00:00","updated":"2024-06-05T04:24:51Z"},{"title":"Premier League - Al Ahli vs Muharraq","description":"Sourced from predicthq.com","category":"sports","start":"2024-04-08T18:45:00Z","geo":{"geometry":{"coordinates":[50.5436453,26.153794],"type":"Point"},"placekey":"@9sk-g4f-vvf","address":{"country_code":"BH","formatted_address":"شارع المحرق, Riffa, Bahrain","locality":"Riffa","region":"Central Governorate"}},"labels":["soccer","sport"],"duration":0,"start_local":"2024-04-08T21:45:00","end":"2024-04-08T18:45:00Z","end_local":"2024-04-08T21:45:00","updated":"2024-06-12T09:48:38Z"},{"title":"Premier League - East Riffa vs Al Najma","description":"Sourced from predicthq.com","category":"sports","start":"2024-04-08T18:45:00Z","geo":{"geometry":{"coordinates":[50.62758028507233,26.25783922000263],"type":"Point"},"placekey":"@9sk-bzh-v9f","address":{"country_code":"BH","formatted_address":"Al-Hidd Highway / Avenue 40, Al Hidd, Muharraq, Bahrain","locality":"Muharraq"}},"labels":["soccer","sport"],"duration":0,"start_local":"2024-04-08T21:45:00","end":"2024-04-08T18:45:00Z","end_local":"2024-04-08T21:45:00","updated":"2024-06-12T02:38:49Z"},{"title":"Premier League - Al Khaldiya vs Busaiteen","description":"Sourced from predicthq.com","category":"sports","start":"2024-04-07T18:45:00Z","geo":{"geometry":{"coordinates":[50.5436453,26.153794],"type":"Point"},"placekey":"@9sk-g4f-vvf","address":{"country_code":"BH","formatted_address":"شارع المحرق, Riffa, Bahrain","locality":"Riffa","region":"Central Governorate"}},"labels":["soccer","sport"],"duration":0,"start_local":"2024-04-07T21:45:00","end":"2024-04-07T18:45:00Z","end_local":"2024-04-07T21:45:00","updated":"2024-06-21T23:20:23Z"},{"title":"Premier League - Al Hala vs Al Hidd","description":"Sourced from predicthq.com","category":"sports","start":"2024-04-07T18:45:00Z","geo":{"geometry":{"coordinates":[50.62758028507233,26.25783922000263],"type":"Point"},"placekey":"@9sk-bzh-v9f","address":{"country_code":"BH","formatted_address":"Al-Hidd Highway / Avenue 40, Al Hidd, Muharraq, Bahrain","locality":"Muharraq"}},"labels":["soccer","sport"],"duration":0,"start_local":"2024-04-07T21:45:00","end":"2024-04-07T18:45:00Z","end_local":"2024-04-07T21:45:00","updated":"2024-06-12T06:48:07Z"},{"title":"Premier League - Sitra vs Manama","description":"Sourced from predicthq.com","category":"sports","start":"2024-04-07T18:45:00Z","geo":{"geometry":{"coordinates":[50.548492670059204,26.175029004130664],"type":"Point"},"placekey":"@9sk-g4b-pvz","address":{"country_code":"BH","formatted_address":"Demascus Avenue / Road No. 1008, Madinat 'Isa, al-Manāma (Manama), Bahrain","locality":"al-Manāma (Manama)"}},"labels":["soccer","sport"],"duration":0,"start_local":"2024-04-07T21:45:00","end":"2024-04-07T18:45:00Z","end_local":"2024-04-07T21:45:00","updated":"2024-06-11T23:32:01Z"}]