[{"title":"GACS 2024 opening ceremony","description":"Sourced from predicthq.com - Get ready for the ultimate kickoff event at GACS 2024 opening ceremony!","category":"conferences","start":"2024-08-01T06:30:00Z","geo":{"geometry":{"coordinates":[29.3512995,-3.707558],"type":"Point"},"placekey":"@hx7-mdy-59f","address":{"country_code":"BI","formatted_address":"Bugarama, Bujumbura Rural, Burundi","locality":"Bugarama","region":"Bujumbura Rural"}},"labels":["conference"],"duration":12600,"start_local":"2024-08-01T08:30:00","end":"2024-08-01T10:00:00Z","end_local":"2024-08-01T12:00:00","updated":"2024-06-11T05:25:22Z"},{"title":"Odoo Roadshow Bujumbura","description":"Sourced from predicthq.com - Discover Odoo with our experts and partners in Bujumbura!","category":"conferences","start":"2024-05-30T16:00:00Z","geo":{"geometry":{"coordinates":[29.350597,-3.403940199999999],"type":"Point"},"placekey":"@cx7-ffc-y9z","address":{"country_code":"BI","formatted_address":"Bujumbura, Bujumbura Mairie, Burundi","locality":"Bujumbura","region":"Bujumbura Mairie"}},"labels":["business","conference"],"duration":10800,"start_local":"2024-05-30T18:00:00","end":"2024-05-30T19:00:00Z","end_local":"2024-05-30T21:00:00","updated":"2024-05-31T23:03:53Z"},{"title":"Ligue A - Bumamuru vs Magara Young Boys","description":"Sourced from predicthq.com","category":"sports","start":"2024-05-05T13:00:00Z","geo":{"geometry":{"coordinates":[29.19194924218904,-2.9636844597664367],"type":"Point"},"placekey":"@cx7-k7n-vj9","address":{"country_code":"BI","formatted_address":"25PR+FPX, Buganda, Burundi","locality":"Buganda","region":"Cibitoke"}},"labels":["soccer","sport"],"duration":0,"start_local":"2024-05-05T15:00:00","end":"2024-05-05T13:00:00Z","end_local":"2024-05-05T15:00:00","updated":"2024-06-12T04:39:32Z"},{"title":"Ligue A - Le Messager Ngozi vs LLB Amasipiri","description":"Sourced from predicthq.com","category":"sports","start":"2024-05-04T13:00:00Z","geo":{"geometry":{"coordinates":[29.826756358310735,-2.865077686091011],"type":"Point"},"placekey":"@cx7-j8t-4n5","address":{"country_code":"BI","formatted_address":"Mwumba, Burundi","locality":"Mwumba"}},"labels":["soccer","sport"],"duration":0,"start_local":"2024-05-04T15:00:00","end":"2024-05-04T13:00:00Z","end_local":"2024-05-04T15:00:00","updated":"2024-06-12T05:30:40Z"},{"title":"Ligue A - Telaviv vs Vital'O","description":"Sourced from predicthq.com","category":"sports","start":"2024-05-04T13:00:00Z","geo":{"geometry":{"coordinates":[29.9249743,-3.4211211],"type":"Point"},"placekey":"@cx7-dm4-389","address":{"country_code":"BI","formatted_address":"HWHF+HX5, Gitega, Burundi","locality":"Gitega","region":"Gitega"}},"labels":["soccer","sport"],"duration":0,"start_local":"2024-05-04T15:00:00","end":"2024-05-04T13:00:00Z","end_local":"2024-05-04T15:00:00","updated":"2024-06-12T15:50:39Z"},{"title":"Ligue A - Aigle Noir vs Tigre Noir","description":"Sourced from predicthq.com","category":"sports","start":"2024-05-04T13:00:00Z","geo":{"geometry":{"coordinates":[29.799116194412267,-4.1879811297738705],"type":"Point"},"placekey":"@hwg-tgv-ckf","address":{"country_code":"BI","formatted_address":"Colline Gisenyi, Makamba, Burundi","locality":"Makamba"}},"labels":["soccer","sport"],"duration":0,"start_local":"2024-05-04T15:00:00","end":"2024-05-04T13:00:00Z","end_local":"2024-05-04T15:00:00","updated":"2024-06-11T21:18:32Z"},{"title":"Ligue A - Rukinzo vs Flambeau du Centre","description":"Sourced from predicthq.com","category":"sports","start":"2024-05-04T13:00:00Z","geo":{"geometry":{"coordinates":[29.19194924218904,-2.9636844597664367],"type":"Point"},"placekey":"@cx7-k7n-vj9","address":{"country_code":"BI","formatted_address":"25PR+FPX, Buganda, Burundi","locality":"Buganda","region":"Cibitoke"}},"labels":["soccer","sport"],"duration":0,"start_local":"2024-05-04T15:00:00","end":"2024-05-04T13:00:00Z","end_local":"2024-05-04T15:00:00","updated":"2024-06-12T07:09:05Z"},{"title":"Ligue A - Moso Sugar vs Musongati","description":"Sourced from predicthq.com","category":"sports","start":"2024-05-04T13:00:00Z","geo":{"geometry":{"coordinates":[30.248129357,-3.458577675],"type":"Point"},"placekey":"@cx7-qv4-3wk","address":{"country_code":"BI","formatted_address":"G6RX+H72, Ruyigi, Burundi","locality":"Ruyigi","region":"Ruyigi"}},"labels":["soccer","sport"],"duration":0,"start_local":"2024-05-04T15:00:00","end":"2024-05-04T13:00:00Z","end_local":"2024-05-04T15:00:00","updated":"2024-06-12T15:59:57Z"},{"title":"Ligue A - Olympic Star vs Dynamik","description":"Sourced from predicthq.com","category":"sports","start":"2024-05-04T13:00:00Z","geo":{"geometry":{"coordinates":[30.338275360118814,-2.8437030312490386],"type":"Point"},"placekey":"@cx7-vq9-ch5","address":{"country_code":"BI","formatted_address":"584Q+G8F, Muyinga, Burundi","locality":"Muyinga","region":"Muyinga"}},"labels":["soccer","sport"],"duration":0,"start_local":"2024-05-04T15:00:00","end":"2024-05-04T13:00:00Z","end_local":"2024-05-04T15:00:00","updated":"2024-06-12T05:27:34Z"},{"title":"Ligue A - Kayanza United vs Inter Star","description":"Sourced from predicthq.com","category":"sports","start":"2024-05-04T13:00:00Z","geo":{"geometry":{"coordinates":[29.637153473555017,-2.9283799251614235],"type":"Point"},"placekey":"@cx7-d23-kfz","address":{"country_code":"BI","formatted_address":"3JCQ+C25, Kayanza, Burundi","locality":"Kayanza","region":"Kayanza"}},"labels":["soccer","sport"],"duration":0,"start_local":"2024-05-04T15:00:00","end":"2024-05-04T13:00:00Z","end_local":"2024-05-04T15:00:00","updated":"2024-06-12T01:28:43Z"},{"title":"Ligue A - Dynamik vs Aigle Noir","description":"Sourced from predicthq.com","category":"sports","start":"2024-04-28T13:00:00Z","geo":{"geometry":{"coordinates":[29.19194924218904,-2.9636844597664367],"type":"Point"},"placekey":"@cx7-k7n-vj9","address":{"country_code":"BI","formatted_address":"25PR+FPX, Buganda, Burundi","locality":"Buganda","region":"Cibitoke"}},"labels":["soccer","sport"],"duration":0,"start_local":"2024-04-28T15:00:00","end":"2024-04-28T13:00:00Z","end_local":"2024-04-28T15:00:00","updated":"2024-06-12T11:45:37Z"},{"title":"Ligue A - Kayanza United vs Bumamuru","description":"Sourced from predicthq.com","category":"sports","start":"2024-04-28T13:00:00Z","geo":{"geometry":{"coordinates":[29.637153473555017,-2.9283799251614235],"type":"Point"},"placekey":"@cx7-d23-kfz","address":{"country_code":"BI","formatted_address":"3JCQ+C25, Kayanza, Burundi","locality":"Kayanza","region":"Kayanza"}},"labels":["soccer","sport"],"duration":0,"start_local":"2024-04-28T15:00:00","end":"2024-04-28T13:00:00Z","end_local":"2024-04-28T15:00:00","updated":"2024-06-12T07:33:56Z"},{"title":"Ligue A - Flambeau du Centre vs Le Messager Ngozi","description":"Sourced from predicthq.com","category":"sports","start":"2024-04-28T13:00:00Z","geo":{"geometry":{"coordinates":[29.9249743,-3.4211211],"type":"Point"},"placekey":"@cx7-dm4-389","address":{"country_code":"BI","formatted_address":"HWHF+HX5, Gitega, Burundi","locality":"Gitega","region":"Gitega"}},"labels":["soccer","sport"],"duration":0,"start_local":"2024-04-28T15:00:00","end":"2024-04-28T13:00:00Z","end_local":"2024-04-28T15:00:00","updated":"2024-06-11T22:49:23Z"},{"title":"Ligue A - LLB Amasipiri vs Olympic Star","description":"Sourced from predicthq.com","category":"sports","start":"2024-04-28T13:00:00Z","geo":{"geometry":{"coordinates":[29.365780109678663,-3.356480761661393],"type":"Point"},"placekey":"@cx7-fh4-j35","address":{"country_code":"BI","formatted_address":"J9W8+3CV Muncipal Police Camp, Bujumbura, Burundi","locality":"Bujumbura","region":"Bujumbura Mairie"}},"labels":["soccer","sport"],"duration":0,"start_local":"2024-04-28T15:00:00","end":"2024-04-28T13:00:00Z","end_local":"2024-04-28T15:00:00","updated":"2024-06-12T00:13:17Z"},{"title":"Ligue A - Musongati vs Rukinzo","description":"Sourced from predicthq.com","category":"sports","start":"2024-04-27T13:00:00Z","geo":{"geometry":{"coordinates":[29.9249743,-3.4211211],"type":"Point"},"placekey":"@cx7-dm4-389","address":{"country_code":"BI","formatted_address":"HWHF+HX5, Gitega, Burundi","locality":"Gitega","region":"Gitega"}},"labels":["soccer","sport"],"duration":0,"start_local":"2024-04-27T15:00:00","end":"2024-04-27T13:00:00Z","end_local":"2024-04-27T15:00:00","updated":"2024-06-12T16:33:40Z"},{"title":"Ligue A - Vital'O vs Moso Sugar","description":"Sourced from predicthq.com","category":"sports","start":"2024-04-27T13:00:00Z","geo":{"geometry":{"coordinates":[29.19194924218904,-2.9636844597664367],"type":"Point"},"placekey":"@cx7-k7n-vj9","address":{"country_code":"BI","formatted_address":"25PR+FPX, Buganda, Burundi","locality":"Buganda","region":"Cibitoke"}},"labels":["soccer","sport"],"duration":0,"start_local":"2024-04-27T15:00:00","end":"2024-04-27T13:00:00Z","end_local":"2024-04-27T15:00:00","updated":"2024-06-12T12:46:23Z"},{"title":"Ligue A - Inter Star vs Telaviv","description":"Sourced from predicthq.com","category":"sports","start":"2024-04-27T13:00:00Z","geo":{"geometry":{"coordinates":[29.365780109678663,-3.356480761661393],"type":"Point"},"placekey":"@cx7-fh4-j35","address":{"country_code":"BI","formatted_address":"J9W8+3CV Muncipal Police Camp, Bujumbura, Burundi","locality":"Bujumbura","region":"Bujumbura Mairie"}},"labels":["soccer","sport"],"duration":0,"start_local":"2024-04-27T15:00:00","end":"2024-04-27T13:00:00Z","end_local":"2024-04-27T15:00:00","updated":"2024-06-12T06:32:50Z"},{"title":"Ligue A - Tigre Noir vs Magara Young Boys","description":"Sourced from predicthq.com","category":"sports","start":"2024-04-27T13:00:00Z","geo":{"geometry":{"coordinates":[30.248129357,-3.458577675],"type":"Point"},"placekey":"@cx7-qv4-3wk","address":{"country_code":"BI","formatted_address":"G6RX+H72, Ruyigi, Burundi","locality":"Ruyigi","region":"Ruyigi"}},"labels":["soccer","sport"],"duration":0,"start_local":"2024-04-27T15:00:00","end":"2024-04-27T13:00:00Z","end_local":"2024-04-27T15:00:00","updated":"2024-06-11T20:44:59Z"},{"title":"Ligue A - Rukinzo vs Vital'O","description":"Sourced from predicthq.com","category":"sports","start":"2024-04-21T13:00:00Z","geo":{"geometry":{"coordinates":[29.19194924218904,-2.9636844597664367],"type":"Point"},"placekey":"@cx7-k7n-vj9","address":{"country_code":"BI","formatted_address":"25PR+FPX, Buganda, Burundi","locality":"Buganda","region":"Cibitoke"}},"labels":["soccer","sport"],"duration":0,"start_local":"2024-04-21T15:00:00","end":"2024-04-21T13:00:00Z","end_local":"2024-04-21T15:00:00","updated":"2024-06-12T06:11:25Z"},{"title":"Ligue A - Bumamuru vs Tigre Noir","description":"Sourced from predicthq.com","category":"sports","start":"2024-04-20T13:30:00Z","geo":{"geometry":{"coordinates":[29.19194924218904,-2.9636844597664367],"type":"Point"},"placekey":"@cx7-k7n-vj9","address":{"country_code":"BI","formatted_address":"25PR+FPX, Buganda, Burundi","locality":"Buganda","region":"Cibitoke"}},"labels":["soccer","sport"],"duration":0,"start_local":"2024-04-20T15:30:00","end":"2024-04-20T13:30:00Z","end_local":"2024-04-20T15:30:00","updated":"2024-06-12T14:33:20Z"},{"title":"Ligue A - Olympic Star vs Flambeau du Centre","description":"Sourced from predicthq.com","category":"sports","start":"2024-04-20T13:00:00Z","geo":{"geometry":{"coordinates":[30.338275360118814,-2.8437030312490386],"type":"Point"},"placekey":"@cx7-vq9-ch5","address":{"country_code":"BI","formatted_address":"584Q+G8F, Muyinga, Burundi","locality":"Muyinga","region":"Muyinga"}},"labels":["soccer","sport"],"duration":0,"start_local":"2024-04-20T15:00:00","end":"2024-04-20T13:00:00Z","end_local":"2024-04-20T15:00:00","updated":"2024-06-12T05:45:29Z"},{"title":"Ligue A - Le Messager Ngozi vs Musongati","description":"Sourced from predicthq.com","category":"sports","start":"2024-04-20T13:00:00Z","geo":{"geometry":{"coordinates":[29.826756358310735,-2.865077686091011],"type":"Point"},"placekey":"@cx7-j8t-4n5","address":{"country_code":"BI","formatted_address":"Mwumba, Burundi","locality":"Mwumba"}},"labels":["soccer","sport"],"duration":0,"start_local":"2024-04-20T15:00:00","end":"2024-04-20T13:00:00Z","end_local":"2024-04-20T15:00:00","updated":"2024-06-11T20:58:43Z"},{"title":"Ligue A - Telaviv vs Kayanza United","description":"Sourced from predicthq.com","category":"sports","start":"2024-04-20T13:00:00Z","geo":{"geometry":{"coordinates":[29.9249743,-3.4211211],"type":"Point"},"placekey":"@cx7-dm4-389","address":{"country_code":"BI","formatted_address":"HWHF+HX5, Gitega, Burundi","locality":"Gitega","region":"Gitega"}},"labels":["soccer","sport"],"duration":0,"start_local":"2024-04-20T15:00:00","end":"2024-04-20T13:00:00Z","end_local":"2024-04-20T15:00:00","updated":"2024-06-12T03:18:44Z"},{"title":"Ligue A - Aigle Noir vs LLB Amasipiri","description":"Sourced from predicthq.com","category":"sports","start":"2024-04-20T13:00:00Z","geo":{"geometry":{"coordinates":[29.799116194412267,-4.1879811297738705],"type":"Point"},"placekey":"@hwg-tgv-ckf","address":{"country_code":"BI","formatted_address":"Colline Gisenyi, Makamba, Burundi","locality":"Makamba"}},"labels":["soccer","sport"],"duration":0,"start_local":"2024-04-20T15:00:00","end":"2024-04-20T13:00:00Z","end_local":"2024-04-20T15:00:00","updated":"2024-06-12T15:21:22Z"},{"title":"Ligue A - Magara Young Boys vs Dynamik","description":"Sourced from predicthq.com","category":"sports","start":"2024-04-20T11:00:00Z","geo":{"geometry":{"coordinates":[29.19194924218904,-2.9636844597664367],"type":"Point"},"placekey":"@cx7-k7n-vj9","address":{"country_code":"BI","formatted_address":"25PR+FPX, Buganda, Burundi","locality":"Buganda","region":"Cibitoke"}},"labels":["soccer","sport"],"duration":0,"start_local":"2024-04-20T13:00:00","end":"2024-04-20T11:00:00Z","end_local":"2024-04-20T13:00:00","updated":"2024-06-11T23:24:24Z"},{"title":"Ligue A - Moso Sugar vs Inter Star","description":"Sourced from predicthq.com","category":"sports","start":"2024-04-19T13:00:00Z","geo":{"geometry":{"coordinates":[29.799116194412267,-4.1879811297738705],"type":"Point"},"placekey":"@hwg-tgv-ckf","address":{"country_code":"BI","formatted_address":"Colline Gisenyi, Makamba, Burundi","locality":"Makamba"}},"labels":["soccer","sport"],"duration":0,"start_local":"2024-04-19T15:00:00","end":"2024-04-19T13:00:00Z","end_local":"2024-04-19T15:00:00","updated":"2024-06-12T08:55:21Z"},{"title":"Ligue A - Vital'O vs Le Messager Ngozi","description":"Sourced from predicthq.com","category":"sports","start":"2024-04-14T13:30:00Z","geo":{"geometry":{"coordinates":[29.19194924218904,-2.9636844597664367],"type":"Point"},"placekey":"@cx7-k7n-vj9","address":{"country_code":"BI","formatted_address":"25PR+FPX, Buganda, Burundi","locality":"Buganda","region":"Cibitoke"}},"labels":["soccer","sport"],"duration":0,"start_local":"2024-04-14T15:30:00","end":"2024-04-14T13:30:00Z","end_local":"2024-04-14T15:30:00","updated":"2024-06-12T04:34:42Z"},{"title":"Ligue A - Musongati vs Olympic Star","description":"Sourced from predicthq.com","category":"sports","start":"2024-04-14T13:00:00Z","geo":{"geometry":{"coordinates":[29.9249743,-3.4211211],"type":"Point"},"placekey":"@cx7-dm4-389","address":{"country_code":"BI","formatted_address":"HWHF+HX5, Gitega, Burundi","locality":"Gitega","region":"Gitega"}},"labels":["soccer","sport"],"duration":0,"start_local":"2024-04-14T15:00:00","end":"2024-04-14T13:00:00Z","end_local":"2024-04-14T15:00:00","updated":"2024-06-12T19:06:22Z"},{"title":"Ligue A - Dynamik vs Tigre Noir","description":"Sourced from predicthq.com","category":"sports","start":"2024-04-14T11:00:00Z","geo":{"geometry":{"coordinates":[29.19194924218904,-2.9636844597664367],"type":"Point"},"placekey":"@cx7-k7n-vj9","address":{"country_code":"BI","formatted_address":"25PR+FPX, Buganda, Burundi","locality":"Buganda","region":"Cibitoke"}},"labels":["soccer","sport"],"duration":0,"start_local":"2024-04-14T13:00:00","end":"2024-04-14T11:00:00Z","end_local":"2024-04-14T13:00:00","updated":"2024-06-12T01:49:18Z"},{"title":"Ligue A - Inter Star vs Rukinzo","description":"Sourced from predicthq.com","category":"sports","start":"2024-04-13T13:30:00Z","geo":{"geometry":{"coordinates":[29.19194924218904,-2.9636844597664367],"type":"Point"},"placekey":"@cx7-k7n-vj9","address":{"country_code":"BI","formatted_address":"25PR+FPX, Buganda, Burundi","locality":"Buganda","region":"Cibitoke"}},"labels":["soccer","sport"],"duration":0,"start_local":"2024-04-13T15:30:00","end":"2024-04-13T13:30:00Z","end_local":"2024-04-13T15:30:00","updated":"2024-06-12T17:00:56Z"},{"title":"Ligue A - Flambeau du Centre vs Aigle Noir","description":"Sourced from predicthq.com","category":"sports","start":"2024-04-13T13:30:00Z","geo":{"geometry":{"coordinates":[29.9249743,-3.4211211],"type":"Point"},"placekey":"@cx7-dm4-389","address":{"country_code":"BI","formatted_address":"HWHF+HX5, Gitega, Burundi","locality":"Gitega","region":"Gitega"}},"labels":["soccer","sport"],"duration":0,"start_local":"2024-04-13T15:30:00","end":"2024-04-13T13:30:00Z","end_local":"2024-04-13T15:30:00","updated":"2024-06-12T00:09:44Z"},{"title":"Ligue A - Moso Sugar vs Kayanza United","description":"Sourced from predicthq.com","category":"sports","start":"2024-04-13T13:00:00Z","geo":{"geometry":{"coordinates":[29.799116194412267,-4.1879811297738705],"type":"Point"},"placekey":"@hwg-tgv-ckf","address":{"country_code":"BI","formatted_address":"Colline Gisenyi, Makamba, Burundi","locality":"Makamba"}},"labels":["soccer","sport"],"duration":0,"start_local":"2024-04-13T15:00:00","end":"2024-04-13T13:00:00Z","end_local":"2024-04-13T15:00:00","updated":"2024-06-11T21:46:36Z"},{"title":"Ligue A - Telaviv vs Bumamuru","description":"Sourced from predicthq.com","category":"sports","start":"2024-04-13T11:00:00Z","geo":{"geometry":{"coordinates":[29.9249743,-3.4211211],"type":"Point"},"placekey":"@cx7-dm4-389","address":{"country_code":"BI","formatted_address":"HWHF+HX5, Gitega, Burundi","locality":"Gitega","region":"Gitega"}},"labels":["soccer","sport"],"duration":0,"start_local":"2024-04-13T13:00:00","end":"2024-04-13T11:00:00Z","end_local":"2024-04-13T13:00:00","updated":"2024-06-12T00:35:04Z"},{"title":"Ligue A - LLB Amasipiri vs Magara Young Boys","description":"Sourced from predicthq.com","category":"sports","start":"2024-04-13T11:00:00Z","geo":{"geometry":{"coordinates":[29.19194924218904,-2.9636844597664367],"type":"Point"},"placekey":"@cx7-k7n-vj9","address":{"country_code":"BI","formatted_address":"25PR+FPX, Buganda, Burundi","locality":"Buganda","region":"Cibitoke"}},"labels":["soccer","sport"],"duration":0,"start_local":"2024-04-13T13:00:00","end":"2024-04-13T11:00:00Z","end_local":"2024-04-13T13:00:00","updated":"2024-06-12T07:38:12Z"}]