[{"title":"Championnat National - Championship Round - Coton Sport Ouidah vs Dadjè","description":"Sourced from predicthq.com","category":"sports","start":"2024-06-23T15:00:00Z","geo":{"geometry":{"coordinates":[2.074035509,6.358693439],"type":"Point"},"placekey":"@b8n-h2r-575","address":{"country_code":"BJ","formatted_address":"935F+FJ3, Ouidah, Benin","locality":"Ouidah","region":"Atlantique Department"}},"labels":["soccer","sport"],"duration":0,"start_local":"2024-06-23T16:00:00","end":"2024-06-23T15:00:00Z","end_local":"2024-06-23T16:00:00","updated":"2024-06-11T06:38:26Z"},{"title":"Championnat National - Championship Round - Dynamo Abomey vs Requins","description":"Sourced from predicthq.com","category":"sports","start":"2024-06-22T15:00:00Z","geo":{"geometry":{"coordinates":[2.3411231390425926,6.410897870827214],"type":"Point"},"placekey":"@b8n-tcr-2kz","address":{"country_code":"BJ","formatted_address":"Abomey Calavi, Benin","locality":"Abomey Calavi"}},"labels":["soccer","sport"],"duration":0,"start_local":"2024-06-22T16:00:00","end":"2024-06-22T15:00:00Z","end_local":"2024-06-22T16:00:00","updated":"2024-06-21T18:09:11Z"},{"title":"Championnat National - Championship Round - AS Cotonou vs Espoir Savalou","description":"Sourced from predicthq.com","category":"sports","start":"2024-06-22T15:00:00Z","geo":{"geometry":{"coordinates":[2.4489806,6.3670331],"type":"Point"},"placekey":"@b8n-r25-wtv","address":{"country_code":"BJ","formatted_address":"9C8X+JJ4, Cotonou, Benin","locality":"Cotonou","region":"Littoral Department"}},"labels":["soccer","sport"],"duration":0,"start_local":"2024-06-22T16:00:00","end":"2024-06-22T15:00:00Z","end_local":"2024-06-22T16:00:00","updated":"2024-06-21T17:54:28Z"},{"title":"Championnat National - Championship Round - Sobemap vs Takunnin","description":"Sourced from predicthq.com","category":"sports","start":"2024-06-22T15:00:00Z","geo":{"geometry":{"coordinates":[2.6531124114,6.5567536431],"type":"Point"},"placekey":"@b8n-qxq-wff","address":{"country_code":"BJ","formatted_address":"Avrankou, Benin","locality":"Avrankou"}},"labels":["soccer","sport"],"duration":0,"start_local":"2024-06-22T16:00:00","end":"2024-06-22T15:00:00Z","end_local":"2024-06-22T16:00:00","updated":"2024-06-21T17:44:28Z"},{"title":"Championnat National - Championship Round - Dragons vs Cavaliers","description":"Sourced from predicthq.com","category":"sports","start":"2024-06-22T15:00:00Z","geo":{"geometry":{"coordinates":[2.617996900000001,6.477273800000001],"type":"Point"},"placekey":"@b8n-qrr-pvz","address":{"country_code":"BJ","formatted_address":"Porto-Novo, Ouémé Department, Benin","locality":"Porto-Novo","region":"Ouémé Department"}},"labels":["soccer","sport"],"duration":0,"start_local":"2024-06-22T16:00:00","end":"2024-06-22T15:00:00Z","end_local":"2024-06-22T16:00:00","updated":"2024-06-21T17:49:18Z"},{"title":"Championnat National - Championship Round - Loto Popo vs ASPAC","description":"Sourced from predicthq.com","category":"sports","start":"2024-06-22T15:00:00Z","geo":{"geometry":{"coordinates":[1.82837103,6.280550627],"type":"Point"},"placekey":"@b8n-h8m-xkf","address":{"country_code":"BJ","formatted_address":"7RHH+V32, Grand Popo, Benin","locality":"Grand Popo","region":"Mono Department"}},"labels":["soccer","sport"],"duration":0,"start_local":"2024-06-22T16:00:00","end":"2024-06-22T15:00:00Z","end_local":"2024-06-22T16:00:00","updated":"2024-06-21T18:16:02Z"},{"title":"Championnat National - Championship Round - Ayema vs Damissa","description":"Sourced from predicthq.com","category":"sports","start":"2024-06-22T15:00:00Z","geo":{"geometry":{"coordinates":[2.650692061,6.955772858],"type":"Point"},"placekey":"@b8h-myz-nyv","address":{"country_code":"BJ","formatted_address":"Unnamed Road, XM42+877, Pobe, Benin","locality":"Pobe","region":"Plateau Department"}},"labels":["soccer","sport"],"duration":0,"start_local":"2024-06-22T16:00:00","end":"2024-06-22T15:00:00Z","end_local":"2024-06-22T16:00:00","updated":"2024-06-21T17:44:46Z"},{"title":"Championnat National - Championship Round - Bani Gansè vs JSP","description":"Sourced from predicthq.com","category":"sports","start":"2024-06-22T15:00:00Z","geo":{"geometry":{"coordinates":[2.435417937,11.302327356],"type":"Point"},"placekey":"@b8t-xpj-52k","address":{"country_code":"BJ","formatted_address":"8C2P+W42, Banikoara, Benin","locality":"Banikoara","region":"Alibori Department"}},"labels":["soccer","sport"],"duration":0,"start_local":"2024-06-22T16:00:00","end":"2024-06-22T15:00:00Z","end_local":"2024-06-22T16:00:00","updated":"2024-06-21T17:40:26Z"},{"title":"Championnat National - Championship Round - Takunnin vs Loto Popo","description":"Sourced from predicthq.com","category":"sports","start":"2024-06-19T15:00:00Z","geo":{"geometry":{"coordinates":[2.937456822090132,11.137462736612378],"type":"Point"},"placekey":"@b8v-64q-t7q","address":{"country_code":"BJ","formatted_address":"4WPP+XXW, Kandi, Benin","locality":"Kandi","region":"Alibori Department"}},"labels":["soccer","sport"],"duration":0,"start_local":"2024-06-19T16:00:00","end":"2024-06-19T15:00:00Z","end_local":"2024-06-19T16:00:00","updated":"2024-06-11T02:28:52Z"},{"title":"Championnat National - Championship Round - Dragons vs Coton Sport Ouidah","description":"Sourced from predicthq.com","category":"sports","start":"2024-06-19T15:00:00Z","geo":{"geometry":{"coordinates":[2.617996900000001,6.477273800000001],"type":"Point"},"placekey":"@b8n-qrr-pvz","address":{"country_code":"BJ","formatted_address":"Porto-Novo, Ouémé Department, Benin","locality":"Porto-Novo","region":"Ouémé Department"}},"labels":["soccer","sport"],"duration":0,"start_local":"2024-06-19T16:00:00","end":"2024-06-19T15:00:00Z","end_local":"2024-06-19T16:00:00","updated":"2024-06-11T08:31:04Z"},{"title":"Championnat National - Championship Round - Dadjè vs Cavaliers","description":"Sourced from predicthq.com","category":"sports","start":"2024-06-19T15:00:00Z","geo":{"geometry":{"coordinates":[1.681492805,6.964684458],"type":"Point"},"placekey":"@b8p-x5s-bhq","address":{"country_code":"BJ","formatted_address":"XM7J+VH Aplahoue, Benin","locality":"Aplahoue","region":"Kouffo Department"}},"labels":["soccer","sport"],"duration":0,"start_local":"2024-06-19T16:00:00","end":"2024-06-19T15:00:00Z","end_local":"2024-06-19T16:00:00","updated":"2024-06-11T02:37:11Z"},{"title":"Championnat National - Championship Round - Requins vs Ayema","description":"Sourced from predicthq.com","category":"sports","start":"2024-06-19T15:00:00Z","geo":{"geometry":{"coordinates":[2.3411231390425926,6.410897870827214],"type":"Point"},"placekey":"@b8n-tcr-2kz","address":{"country_code":"BJ","formatted_address":"Abomey Calavi, Benin","locality":"Abomey Calavi"}},"labels":["soccer","sport"],"duration":0,"start_local":"2024-06-19T16:00:00","end":"2024-06-19T15:00:00Z","end_local":"2024-06-19T16:00:00","updated":"2024-06-18T18:54:32Z"},{"title":"Championnat National - Championship Round - ASPAC vs Sobemap","description":"Sourced from predicthq.com","category":"sports","start":"2024-06-19T15:00:00Z","geo":{"geometry":{"coordinates":[2.110468752,6.84310389],"type":"Point"},"placekey":"@b8p-qfv-rc5","address":{"country_code":"BJ","formatted_address":"Toffo, Benin","locality":"Toffo"}},"labels":["soccer","sport"],"duration":0,"start_local":"2024-06-19T16:00:00","end":"2024-06-19T15:00:00Z","end_local":"2024-06-19T16:00:00","updated":"2024-06-11T10:08:16Z"},{"title":"Championnat National - Championship Round - Damissa vs Dynamo Abomey","description":"Sourced from predicthq.com","category":"sports","start":"2024-06-19T15:00:00Z","geo":{"geometry":{"coordinates":[2.7106583040360874,9.85464464528479],"type":"Point"},"placekey":"@b8t-tmy-vj9","address":{"country_code":"BJ","formatted_address":"VP36+V7 N’Dali, Benin","locality":"N’Dali","region":"Borgou Department"}},"labels":["soccer","sport"],"duration":0,"start_local":"2024-06-19T16:00:00","end":"2024-06-19T15:00:00Z","end_local":"2024-06-19T16:00:00","updated":"2024-06-11T04:56:43Z"},{"title":"Championnat National - Championship Round - JSP vs AS Cotonou","description":"Sourced from predicthq.com","category":"sports","start":"2024-06-19T15:00:00Z","geo":{"geometry":{"coordinates":[2.669806480407715,6.993243556012034],"type":"Point"},"placekey":"@b8h-n2j-xdv","address":{"country_code":"BJ","formatted_address":"XMV9+7W3, Pobe, Benin","locality":"Pobe","region":"Plateau Department"}},"labels":["soccer","sport"],"duration":0,"start_local":"2024-06-19T16:00:00","end":"2024-06-19T15:00:00Z","end_local":"2024-06-19T16:00:00","updated":"2024-06-10T23:30:11Z"},{"title":"Championnat National - Championship Round - Espoir Savalou vs Bani Gansè","description":"Sourced from predicthq.com","category":"sports","start":"2024-06-19T15:00:00Z","geo":{"geometry":{"coordinates":[1.9834613800048828,7.926671743780086],"type":"Point"},"placekey":"@b8j-rp2-vpv","address":{"country_code":"BJ","formatted_address":"WXGM+97, Savalou, Benin","locality":"Savalou","region":"Collines Department"}},"labels":["soccer","sport"],"duration":0,"start_local":"2024-06-19T16:00:00","end":"2024-06-19T15:00:00Z","end_local":"2024-06-19T16:00:00","updated":"2024-06-11T00:02:11Z"},{"title":"Championnat National - Championship Round - Ayema vs ASPAC","description":"Sourced from predicthq.com","category":"sports","start":"2024-06-15T15:00:00Z","geo":{"geometry":{"coordinates":[2.650692061,6.955772858],"type":"Point"},"placekey":"@b8h-myz-nyv","address":{"country_code":"BJ","formatted_address":"Unnamed Road, XM42+877, Pobe, Benin","locality":"Pobe","region":"Plateau Department"}},"labels":["soccer","sport"],"duration":0,"start_local":"2024-06-15T16:00:00","end":"2024-06-15T15:00:00Z","end_local":"2024-06-15T16:00:00","updated":"2024-06-11T01:21:30Z"},{"title":"Championnat National - Championship Round - Damissa vs Loto Popo","description":"Sourced from predicthq.com","category":"sports","start":"2024-06-15T15:00:00Z","geo":{"geometry":{"coordinates":[2.7106583040360874,9.85464464528479],"type":"Point"},"placekey":"@b8t-tmy-vj9","address":{"country_code":"BJ","formatted_address":"VP36+V7 N’Dali, Benin","locality":"N’Dali","region":"Borgou Department"}},"labels":["soccer","sport"],"duration":0,"start_local":"2024-06-15T16:00:00","end":"2024-06-15T15:00:00Z","end_local":"2024-06-15T16:00:00","updated":"2024-06-11T06:37:50Z"},{"title":"Championnat National - Championship Round - Coton Sport Ouidah vs JSP","description":"Sourced from predicthq.com","category":"sports","start":"2024-06-15T15:00:00Z","geo":{"geometry":{"coordinates":[2.074035509,6.358693439],"type":"Point"},"placekey":"@b8n-h2r-575","address":{"country_code":"BJ","formatted_address":"935F+FJ3, Ouidah, Benin","locality":"Ouidah","region":"Atlantique Department"}},"labels":["soccer","sport"],"duration":0,"start_local":"2024-06-15T16:00:00","end":"2024-06-15T15:00:00Z","end_local":"2024-06-15T16:00:00","updated":"2024-06-11T00:51:45Z"},{"title":"Championnat National - Championship Round - AS Cotonou vs Dragons","description":"Sourced from predicthq.com","category":"sports","start":"2024-06-15T15:00:00Z","geo":{"geometry":{"coordinates":[2.4489806,6.3670331],"type":"Point"},"placekey":"@b8n-r25-wtv","address":{"country_code":"BJ","formatted_address":"9C8X+JJ4, Cotonou, Benin","locality":"Cotonou","region":"Littoral Department"}},"labels":["soccer","sport"],"duration":0,"start_local":"2024-06-15T16:00:00","end":"2024-06-15T15:00:00Z","end_local":"2024-06-15T16:00:00","updated":"2024-06-11T00:20:38Z"},{"title":"Championnat National - Championship Round - Takunnin vs Dynamo Abomey","description":"Sourced from predicthq.com","category":"sports","start":"2024-06-15T15:00:00Z","geo":{"geometry":{"coordinates":[2.937456822090132,11.137462736612378],"type":"Point"},"placekey":"@b8v-64q-t7q","address":{"country_code":"BJ","formatted_address":"4WPP+XXW, Kandi, Benin","locality":"Kandi","region":"Alibori Department"}},"labels":["soccer","sport"],"duration":0,"start_local":"2024-06-15T16:00:00","end":"2024-06-15T15:00:00Z","end_local":"2024-06-15T16:00:00","updated":"2024-06-11T02:35:28Z"},{"title":"Championnat National - Championship Round - Sobemap vs Requins","description":"Sourced from predicthq.com","category":"sports","start":"2024-06-15T15:00:00Z","geo":{"geometry":{"coordinates":[2.6531124114,6.5567536431],"type":"Point"},"placekey":"@b8n-qxq-wff","address":{"country_code":"BJ","formatted_address":"Avrankou, Benin","locality":"Avrankou"}},"labels":["soccer","sport"],"duration":0,"start_local":"2024-06-15T16:00:00","end":"2024-06-15T15:00:00Z","end_local":"2024-06-15T16:00:00","updated":"2024-06-11T02:16:17Z"},{"title":"Championnat National - Championship Round - Cavaliers vs Espoir Savalou","description":"Sourced from predicthq.com","category":"sports","start":"2024-06-15T15:00:00Z","geo":{"geometry":{"coordinates":[3.209650034,9.940377049],"type":"Point"},"placekey":"@b8t-r8f-s3q","address":{"country_code":"BJ","formatted_address":"W6R5+6CJ, Nikki, Benin","locality":"Nikki","region":"Borgou Department"}},"labels":["soccer","sport"],"duration":0,"start_local":"2024-06-15T16:00:00","end":"2024-06-15T15:00:00Z","end_local":"2024-06-15T16:00:00","updated":"2024-06-11T09:59:38Z"},{"title":"Championnat National - Championship Round - Dadjè vs Bani Gansè","description":"Sourced from predicthq.com","category":"sports","start":"2024-06-15T15:00:00Z","geo":{"geometry":{"coordinates":[1.681492805,6.964684458],"type":"Point"},"placekey":"@b8p-x5s-bhq","address":{"country_code":"BJ","formatted_address":"XM7J+VH Aplahoue, Benin","locality":"Aplahoue","region":"Kouffo Department"}},"labels":["soccer","sport"],"duration":0,"start_local":"2024-06-15T16:00:00","end":"2024-06-15T15:00:00Z","end_local":"2024-06-15T16:00:00","updated":"2024-06-11T00:01:17Z"},{"title":"Fête Nationale du Luxembourg","description":"Sourced from predicthq.com - L'Ambassade de Luxembourg à Cotonou souhaite vous inviter à sa fête nationale qu'elle organise le 13 juin 2024 dans ses locaux.","category":"festivals","start":"2024-06-13T16:00:00Z","geo":{"geometry":{"coordinates":[2.4277995,6.3562425],"type":"Point"},"placekey":"@b8n-tbj-gzf","address":{"country_code":"BJ","formatted_address":"Cotonou, Littoral, Benin","locality":"Cotonou","region":"Littoral"}},"labels":["community","festival"],"duration":18000,"start_local":"2024-06-13T17:00:00","end":"2024-06-13T21:00:00Z","end_local":"2024-06-13T22:00:00","updated":"2024-06-10T23:53:39Z"},{"title":"Conférence de lancement de la formation en analyse des données massives","description":"Sourced from predicthq.com - La conférence de lancement de la formation en Analyse des données massive jeudi 13 juin 2024 à Sèmè One.","category":"conferences","start":"2024-06-13T07:00:00Z","geo":{"geometry":{"coordinates":[2.3948361,6.3527122],"type":"Point"},"placekey":"@b8n-tbh-6kz","address":{"country_code":"BJ","formatted_address":"Cotonou, Littoral Department, Benin","locality":"Cotonou","region":"Littoral Department"}},"labels":["conference","science","technology"],"duration":18000,"start_local":"2024-06-13T08:00:00","end":"2024-06-13T12:00:00Z","end_local":"2024-06-13T13:00:00","updated":"2024-06-13T11:13:24Z"},{"title":"Championnat National - Championship Round - Dynamo Abomey vs ASPAC","description":"Sourced from predicthq.com","category":"sports","start":"2024-06-12T15:00:00Z","geo":{"geometry":{"coordinates":[1.98943734169,7.1876963794],"type":"Point"},"placekey":"@b8p-vc2-4jv","address":{"country_code":"BJ","formatted_address":"52M5+P44, RNIE4, Abomey, Benin","locality":"Abomey","region":"Zou Department"}},"labels":["soccer","sport"],"duration":0,"start_local":"2024-06-12T16:00:00","end":"2024-06-12T15:00:00Z","end_local":"2024-06-12T16:00:00","updated":"2024-06-11T04:43:35Z"},{"title":"Championnat National - Championship Round - Ayema vs Takunnin","description":"Sourced from predicthq.com","category":"sports","start":"2024-06-12T15:00:00Z","geo":{"geometry":{"coordinates":[2.650692061,6.955772858],"type":"Point"},"placekey":"@b8h-myz-nyv","address":{"country_code":"BJ","formatted_address":"Unnamed Road, XM42+877, Pobe, Benin","locality":"Pobe","region":"Plateau Department"}},"labels":["soccer","sport"],"duration":0,"start_local":"2024-06-12T16:00:00","end":"2024-06-12T15:00:00Z","end_local":"2024-06-12T16:00:00","updated":"2024-06-11T01:13:20Z"},{"title":"Championnat National - Championship Round - AS Cotonou vs Dadjè","description":"Sourced from predicthq.com","category":"sports","start":"2024-06-12T15:00:00Z","geo":{"geometry":{"coordinates":[2.4489806,6.3670331],"type":"Point"},"placekey":"@b8n-r25-wtv","address":{"country_code":"BJ","formatted_address":"9C8X+JJ4, Cotonou, Benin","locality":"Cotonou","region":"Littoral Department"}},"labels":["soccer","sport"],"duration":0,"start_local":"2024-06-12T16:00:00","end":"2024-06-12T15:00:00Z","end_local":"2024-06-12T16:00:00","updated":"2024-06-11T03:44:36Z"},{"title":"Championnat National - Championship Round - Sobemap vs Damissa","description":"Sourced from predicthq.com","category":"sports","start":"2024-06-12T15:00:00Z","geo":{"geometry":{"coordinates":[2.6531124114,6.5567536431],"type":"Point"},"placekey":"@b8n-qxq-wff","address":{"country_code":"BJ","formatted_address":"Avrankou, Benin","locality":"Avrankou"}},"labels":["soccer","sport"],"duration":0,"start_local":"2024-06-12T16:00:00","end":"2024-06-12T15:00:00Z","end_local":"2024-06-12T16:00:00","updated":"2024-06-11T08:46:53Z"},{"title":"Championnat National - Championship Round - Cavaliers vs JSP","description":"Sourced from predicthq.com","category":"sports","start":"2024-06-12T15:00:00Z","geo":{"geometry":{"coordinates":[3.209650034,9.940377049],"type":"Point"},"placekey":"@b8t-r8f-s3q","address":{"country_code":"BJ","formatted_address":"W6R5+6CJ, Nikki, Benin","locality":"Nikki","region":"Borgou Department"}},"labels":["soccer","sport"],"duration":0,"start_local":"2024-06-12T16:00:00","end":"2024-06-12T15:00:00Z","end_local":"2024-06-12T16:00:00","updated":"2024-06-11T07:51:15Z"},{"title":"Championnat National - Championship Round - Loto Popo vs Requins","description":"Sourced from predicthq.com","category":"sports","start":"2024-06-12T15:00:00Z","geo":{"geometry":{"coordinates":[1.82837103,6.280550627],"type":"Point"},"placekey":"@b8n-h8m-xkf","address":{"country_code":"BJ","formatted_address":"7RHH+V32, Grand Popo, Benin","locality":"Grand Popo","region":"Mono Department"}},"labels":["soccer","sport"],"duration":0,"start_local":"2024-06-12T16:00:00","end":"2024-06-12T15:00:00Z","end_local":"2024-06-12T16:00:00","updated":"2024-06-11T06:58:31Z"},{"title":"Championnat National - Championship Round - Coton Sport Ouidah vs Espoir Savalou","description":"Sourced from predicthq.com","category":"sports","start":"2024-06-12T15:00:00Z","geo":{"geometry":{"coordinates":[2.074035509,6.358693439],"type":"Point"},"placekey":"@b8n-h2r-575","address":{"country_code":"BJ","formatted_address":"935F+FJ3, Ouidah, Benin","locality":"Ouidah","region":"Atlantique Department"}},"labels":["soccer","sport"],"duration":0,"start_local":"2024-06-12T16:00:00","end":"2024-06-12T15:00:00Z","end_local":"2024-06-12T16:00:00","updated":"2024-06-11T02:05:37Z"},{"title":"Championnat National - Championship Round - Bani Gansè vs Dragons","description":"Sourced from predicthq.com","category":"sports","start":"2024-06-12T15:00:00Z","geo":{"geometry":{"coordinates":[2.435417937,11.302327356],"type":"Point"},"placekey":"@b8t-xpj-52k","address":{"country_code":"BJ","formatted_address":"8C2P+W42, Banikoara, Benin","locality":"Banikoara","region":"Alibori Department"}},"labels":["soccer","sport"],"duration":0,"start_local":"2024-06-12T16:00:00","end":"2024-06-12T15:00:00Z","end_local":"2024-06-12T16:00:00","updated":"2024-06-11T04:19:11Z"},{"title":"R.I.S.E: Renewal. Inspiration. Self love. Elevation.","description":"Sourced from predicthq.com - Élevez votre esprit. Enflammez votre passion. R.I.S.E avec nous !","category":"conferences","start":"2024-06-09T12:00:00Z","geo":{"geometry":{"coordinates":[2.398266999999999,6.3481988],"type":"Point"},"placekey":"@b8n-tbh-5xq","address":{"country_code":"BJ","formatted_address":"Cotonou, Littoral Department, Benin","locality":"Cotonou","region":"Littoral Department"}},"labels":["conference","health"],"duration":18000,"start_local":"2024-06-09T13:00:00","end":"2024-06-09T17:00:00Z","end_local":"2024-06-09T18:00:00","updated":"2024-06-04T09:34:05Z"},{"title":"ACADEMY TWENTY ONE: DEVELOPPEZ VOTRE AVENIR ENTREPREUNERIAL A COTONOU.","description":"Sourced from predicthq.com - Viens à l'Académie Twenty One pour apprendre à développer ton avenir entrepreneurial à Cotonou!","category":"conferences","start":"2024-06-08T09:00:00Z","geo":{"geometry":{"coordinates":[2.435767100000001,6.3518051],"type":"Point"},"placekey":"@b8n-r29-vzz","address":{"country_code":"BJ","formatted_address":"Cotonou, Littoral, Benin","locality":"Cotonou","region":"Littoral"}},"labels":["business","conference"],"duration":10800,"start_local":"2024-06-08T10:00:00","end":"2024-06-08T12:00:00Z","end_local":"2024-06-08T13:00:00","updated":"2024-06-06T02:33:50Z"},{"title":"Championnat National - Championship Round - Damissa vs Coton Sport Ouidah","description":"Sourced from predicthq.com","category":"sports","start":"2024-06-02T15:00:00Z","geo":{"geometry":{"coordinates":[2.7106583040360874,9.85464464528479],"type":"Point"},"placekey":"@b8t-tmy-vj9","address":{"country_code":"BJ","formatted_address":"VP36+V7 N’Dali, Benin","locality":"N’Dali","region":"Borgou Department"}},"labels":["soccer","sport"],"duration":0,"start_local":"2024-06-02T16:00:00","end":"2024-06-02T15:00:00Z","end_local":"2024-06-02T16:00:00","updated":"2024-06-12T00:11:32Z"},{"title":"Championnat National - Championship Round - ASPAC vs Bani Gansè","description":"Sourced from predicthq.com","category":"sports","start":"2024-06-02T15:00:00Z","geo":{"geometry":{"coordinates":[2.110468752,6.84310389],"type":"Point"},"placekey":"@b8p-qfv-rc5","address":{"country_code":"BJ","formatted_address":"Toffo, Benin","locality":"Toffo"}},"labels":["soccer","sport"],"duration":0,"start_local":"2024-06-02T16:00:00","end":"2024-06-02T15:00:00Z","end_local":"2024-06-02T16:00:00","updated":"2024-06-11T22:12:35Z"},{"title":"Championnat National - Championship Round - Dadjè vs Ayema","description":"Sourced from predicthq.com","category":"sports","start":"2024-06-02T15:00:00Z","geo":{"geometry":{"coordinates":[2.348551139486763,7.223653515657631],"type":"Point"},"placekey":"@b8p-vxp-fs5","address":{"country_code":"BJ","formatted_address":"68FX+FC5, Cove, Benin","locality":"Cove","region":"Zou Department"}},"labels":["soccer","sport"],"duration":0,"start_local":"2024-06-02T16:00:00","end":"2024-06-02T15:00:00Z","end_local":"2024-06-02T16:00:00","updated":"2024-06-12T00:34:32Z"},{"title":"Championnat National - Championship Round - Takunnin vs AS Cotonou","description":"Sourced from predicthq.com","category":"sports","start":"2024-06-02T15:00:00Z","geo":{"geometry":{"coordinates":[2.937456822090132,11.137462736612378],"type":"Point"},"placekey":"@b8v-64q-t7q","address":{"country_code":"BJ","formatted_address":"4WPP+XXW, Kandi, Benin","locality":"Kandi","region":"Alibori Department"}},"labels":["soccer","sport"],"duration":0,"start_local":"2024-06-02T16:00:00","end":"2024-06-02T15:00:00Z","end_local":"2024-06-02T16:00:00","updated":"2024-06-12T13:07:28Z"},{"title":"Championnat National - Championship Round - Requins vs Cavaliers","description":"Sourced from predicthq.com","category":"sports","start":"2024-06-01T15:00:00Z","geo":{"geometry":{"coordinates":[2.354124634,6.501251413],"type":"Point"},"placekey":"@b8n-rkd-pn5","address":{"country_code":"BJ","formatted_address":"G923+PRG, Akassato, Benin","locality":"Akassato","region":"Atlantique Department"}},"labels":["soccer","sport"],"duration":0,"start_local":"2024-06-01T16:00:00","end":"2024-06-01T15:00:00Z","end_local":"2024-06-01T16:00:00","updated":"2024-06-12T02:07:52Z"},{"title":"Championnat National - Championship Round - Dragons vs Dynamo Abomey","description":"Sourced from predicthq.com","category":"sports","start":"2024-06-01T15:00:00Z","geo":{"geometry":{"coordinates":[2.617996900000001,6.477273800000001],"type":"Point"},"placekey":"@b8n-qrr-pvz","address":{"country_code":"BJ","formatted_address":"Porto-Novo, Ouémé Department, Benin","locality":"Porto-Novo","region":"Ouémé Department"}},"labels":["soccer","sport"],"duration":0,"start_local":"2024-06-01T16:00:00","end":"2024-06-01T15:00:00Z","end_local":"2024-06-01T16:00:00","updated":"2024-06-12T01:46:59Z"},{"title":"Championnat National - Championship Round - Espoir Savalou vs Sobemap","description":"Sourced from predicthq.com","category":"sports","start":"2024-06-01T15:00:00Z","geo":{"geometry":{"coordinates":[1.9834613800048828,7.926671743780086],"type":"Point"},"placekey":"@b8j-rp2-vpv","address":{"country_code":"BJ","formatted_address":"WXGM+97, Savalou, Benin","locality":"Savalou","region":"Collines Department"}},"labels":["soccer","sport"],"duration":0,"start_local":"2024-06-01T16:00:00","end":"2024-06-01T15:00:00Z","end_local":"2024-06-01T16:00:00","updated":"2024-06-12T01:44:12Z"},{"title":"Championnat National - Championship Round - JSP vs Loto Popo","description":"Sourced from predicthq.com","category":"sports","start":"2024-06-01T15:00:00Z","geo":{"geometry":{"coordinates":[2.650692061,6.955772858],"type":"Point"},"placekey":"@b8h-myz-nyv","address":{"country_code":"BJ","formatted_address":"Unnamed Road, XM42+877, Pobe, Benin","locality":"Pobe","region":"Plateau Department"}},"labels":["soccer","sport"],"duration":0,"start_local":"2024-06-01T16:00:00","end":"2024-06-01T15:00:00Z","end_local":"2024-06-01T16:00:00","updated":"2024-06-12T01:03:56Z"},{"title":"XO NUNGBO : Notre Histoire Autrement","description":"Sourced from predicthq.com - Une célébration de l'histoire du Bénin et de l'Afrique à travers une narration captivante et inspirante à ne pas manquer !","category":"conferences","start":"2024-05-31T16:00:00Z","geo":{"geometry":{"coordinates":[2.4490879,6.3665213],"type":"Point"},"placekey":"@b8n-r25-wtv","address":{"country_code":"BJ","formatted_address":"Cotonou, Littoral Department, Benin","locality":"Cotonou","region":"Littoral Department"}},"labels":["community","conference"],"duration":14400,"start_local":"2024-05-31T17:00:00","end":"2024-05-31T20:00:00Z","end_local":"2024-05-31T21:00:00","updated":"2024-06-05T00:41:18Z"},{"title":"Championnat National - Championship Round - Coton Sport Ouidah vs Takunnin","description":"Sourced from predicthq.com","category":"sports","start":"2024-05-26T15:00:00Z","geo":{"geometry":{"coordinates":[2.074035509,6.358693439],"type":"Point"},"placekey":"@b8n-h2r-575","address":{"country_code":"BJ","formatted_address":"935F+FJ3, Ouidah, Benin","locality":"Ouidah","region":"Atlantique Department"}},"labels":["soccer","sport"],"duration":0,"start_local":"2024-05-26T16:00:00","end":"2024-05-26T15:00:00Z","end_local":"2024-05-26T16:00:00","updated":"2024-06-12T06:37:22Z"},{"title":"Championnat National - Championship Round - Espoir Savalou vs Ayema","description":"Sourced from predicthq.com","category":"sports","start":"2024-05-26T15:00:00Z","geo":{"geometry":{"coordinates":[1.9834613800048828,7.926671743780086],"type":"Point"},"placekey":"@b8j-rp2-vpv","address":{"country_code":"BJ","formatted_address":"WXGM+97, Savalou, Benin","locality":"Savalou","region":"Collines Department"}},"labels":["soccer","sport"],"duration":0,"start_local":"2024-05-26T16:00:00","end":"2024-05-26T15:00:00Z","end_local":"2024-05-26T16:00:00","updated":"2024-06-12T08:31:59Z"},{"title":"Championnat National - Championship Round - Cavaliers vs ASPAC","description":"Sourced from predicthq.com","category":"sports","start":"2024-05-26T15:00:00Z","geo":{"geometry":{"coordinates":[3.209650034,9.940377049],"type":"Point"},"placekey":"@b8t-r8f-s3q","address":{"country_code":"BJ","formatted_address":"W6R5+6CJ, Nikki, Benin","locality":"Nikki","region":"Borgou Department"}},"labels":["soccer","sport"],"duration":0,"start_local":"2024-05-26T16:00:00","end":"2024-05-26T15:00:00Z","end_local":"2024-05-26T16:00:00","updated":"2024-06-11T22:29:12Z"},{"title":"Championnat National - Championship Round - Bani Gansè vs Requins","description":"Sourced from predicthq.com","category":"sports","start":"2024-05-25T15:00:00Z","geo":{"geometry":{"coordinates":[3.209650034,9.940377049],"type":"Point"},"placekey":"@b8t-r8f-s3q","address":{"country_code":"BJ","formatted_address":"W6R5+6CJ, Nikki, Benin","locality":"Nikki","region":"Borgou Department"}},"labels":["soccer","sport"],"duration":0,"start_local":"2024-05-25T16:00:00","end":"2024-05-25T15:00:00Z","end_local":"2024-05-25T16:00:00","updated":"2024-06-12T04:04:50Z"},{"title":"Championnat National - Championship Round - AS Cotonou vs Damissa","description":"Sourced from predicthq.com","category":"sports","start":"2024-05-25T15:00:00Z","geo":{"geometry":{"coordinates":[2.4489806,6.3670331],"type":"Point"},"placekey":"@b8n-r25-wtv","address":{"country_code":"BJ","formatted_address":"9C8X+JJ4, Cotonou, Benin","locality":"Cotonou","region":"Littoral Department"}},"labels":["soccer","sport"],"duration":0,"start_local":"2024-05-25T16:00:00","end":"2024-05-25T15:00:00Z","end_local":"2024-05-25T16:00:00","updated":"2024-06-12T14:21:31Z"},{"title":"Championnat National - Championship Round - JSP vs Dynamo Abomey","description":"Sourced from predicthq.com","category":"sports","start":"2024-05-25T15:00:00Z","geo":{"geometry":{"coordinates":[2.650692061,6.955772858],"type":"Point"},"placekey":"@b8h-myz-nyv","address":{"country_code":"BJ","formatted_address":"Unnamed Road, XM42+877, Pobe, Benin","locality":"Pobe","region":"Plateau Department"}},"labels":["soccer","sport"],"duration":0,"start_local":"2024-05-25T16:00:00","end":"2024-05-25T15:00:00Z","end_local":"2024-05-25T16:00:00","updated":"2024-06-12T09:45:52Z"},{"title":"Championnat National - Championship Round - Dadjè vs Sobemap","description":"Sourced from predicthq.com","category":"sports","start":"2024-05-25T15:00:00Z","geo":{"geometry":{"coordinates":[1.681492805,6.964684458],"type":"Point"},"placekey":"@b8p-x5s-bhq","address":{"country_code":"BJ","formatted_address":"XM7J+VH Aplahoue, Benin","locality":"Aplahoue","region":"Kouffo Department"}},"labels":["soccer","sport"],"duration":0,"start_local":"2024-05-25T16:00:00","end":"2024-05-25T15:00:00Z","end_local":"2024-05-25T16:00:00","updated":"2024-06-12T01:11:37Z"},{"title":"Championnat National - Championship Round - Dragons vs Loto Popo","description":"Sourced from predicthq.com","category":"sports","start":"2024-05-25T15:00:00Z","geo":{"geometry":{"coordinates":[2.617996900000001,6.477273800000001],"type":"Point"},"placekey":"@b8n-qrr-pvz","address":{"country_code":"BJ","formatted_address":"Porto-Novo, Ouémé Department, Benin","locality":"Porto-Novo","region":"Ouémé Department"}},"labels":["soccer","sport"],"duration":0,"start_local":"2024-05-25T16:00:00","end":"2024-05-25T15:00:00Z","end_local":"2024-05-25T16:00:00","updated":"2024-06-11T21:32:31Z"},{"title":"SPELINFO 2024 : Innovations et perspectives dans les métiers de l'INFODOC","description":"Sourced from predicthq.com - Spelinfo offre une plateforme où les professionnels, les étudiants et les passionnés du domaine se réunissent pour discuter de leur domaine.","category":"conferences","start":"2024-05-23T08:00:00Z","geo":{"geometry":{"coordinates":[2.3397278,6.3914903],"type":"Point"},"placekey":"@b8n-tb8-vj9","address":{"country_code":"BJ","formatted_address":"Cotonou, Atlantique Department, Benin","locality":"Cotonou","region":"Atlantique Department"}},"labels":["conference","science","technology"],"duration":113400,"start_local":"2024-05-23T09:00:00","end":"2024-05-24T15:30:00Z","end_local":"2024-05-24T16:30:00","updated":"2024-05-22T09:16:08Z"},{"title":"Championnat National - Championship Round - Dynamo Abomey vs Cavaliers","description":"Sourced from predicthq.com","category":"sports","start":"2024-05-22T15:00:00Z","geo":{"geometry":{"coordinates":[1.98943734169,7.1876963794],"type":"Point"},"placekey":"@b8p-vc2-4jv","address":{"country_code":"BJ","formatted_address":"52M5+P44, RNIE4, Abomey, Benin","locality":"Abomey","region":"Zou Department"}},"labels":["soccer","sport"],"duration":0,"start_local":"2024-05-22T16:00:00","end":"2024-05-22T15:00:00Z","end_local":"2024-05-22T16:00:00","updated":"2024-06-12T02:59:11Z"},{"title":"Championnat National - Championship Round - Sobemap vs AS Cotonou","description":"Sourced from predicthq.com","category":"sports","start":"2024-05-22T15:00:00Z","geo":{"geometry":{"coordinates":[2.6531124114,6.5567536431],"type":"Point"},"placekey":"@b8n-qxq-wff","address":{"country_code":"BJ","formatted_address":"Avrankou, Benin","locality":"Avrankou"}},"labels":["soccer","sport"],"duration":0,"start_local":"2024-05-22T16:00:00","end":"2024-05-22T15:00:00Z","end_local":"2024-05-22T16:00:00","updated":"2024-06-12T13:15:35Z"},{"title":"Championnat National - Championship Round - Damissa vs Dadjè","description":"Sourced from predicthq.com","category":"sports","start":"2024-05-22T15:00:00Z","geo":{"geometry":{"coordinates":[2.7106583040360874,9.85464464528479],"type":"Point"},"placekey":"@b8t-tmy-vj9","address":{"country_code":"BJ","formatted_address":"VP36+V7 N’Dali, Benin","locality":"N’Dali","region":"Borgou Department"}},"labels":["soccer","sport"],"duration":0,"start_local":"2024-05-22T16:00:00","end":"2024-05-22T15:00:00Z","end_local":"2024-05-22T16:00:00","updated":"2024-06-12T05:12:50Z"},{"title":"Championnat National - Championship Round - Ayema vs Coton Sport Ouidah","description":"Sourced from predicthq.com","category":"sports","start":"2024-05-22T15:00:00Z","geo":{"geometry":{"coordinates":[2.650692061,6.955772858],"type":"Point"},"placekey":"@b8h-myz-nyv","address":{"country_code":"BJ","formatted_address":"Unnamed Road, XM42+877, Pobe, Benin","locality":"Pobe","region":"Plateau Department"}},"labels":["soccer","sport"],"duration":0,"start_local":"2024-05-22T16:00:00","end":"2024-05-22T15:00:00Z","end_local":"2024-05-22T16:00:00","updated":"2024-06-12T06:17:54Z"},{"title":"Championnat National - Championship Round - Loto Popo vs Bani Gansè","description":"Sourced from predicthq.com","category":"sports","start":"2024-05-22T15:00:00Z","geo":{"geometry":{"coordinates":[1.82837103,6.280550627],"type":"Point"},"placekey":"@b8n-h8m-xkf","address":{"country_code":"BJ","formatted_address":"7RHH+V32, Grand Popo, Benin","locality":"Grand Popo","region":"Mono Department"}},"labels":["soccer","sport"],"duration":0,"start_local":"2024-05-22T16:00:00","end":"2024-05-22T15:00:00Z","end_local":"2024-05-22T16:00:00","updated":"2024-06-12T03:51:19Z"},{"title":"Championnat National - Championship Round - Requins vs Dragons","description":"Sourced from predicthq.com","category":"sports","start":"2024-05-22T15:00:00Z","geo":{"geometry":{"coordinates":[2.3411231390425926,6.410897870827214],"type":"Point"},"placekey":"@b8n-tcr-2kz","address":{"country_code":"BJ","formatted_address":"Abomey Calavi, Benin","locality":"Abomey Calavi"}},"labels":["soccer","sport"],"duration":0,"start_local":"2024-05-22T16:00:00","end":"2024-05-22T15:00:00Z","end_local":"2024-05-22T16:00:00","updated":"2024-06-12T05:15:08Z"},{"title":"Championnat National - Championship Round - ASPAC vs JSP","description":"Sourced from predicthq.com","category":"sports","start":"2024-05-22T15:00:00Z","geo":{"geometry":{"coordinates":[2.110468752,6.84310389],"type":"Point"},"placekey":"@b8p-qfv-rc5","address":{"country_code":"BJ","formatted_address":"Toffo, Benin","locality":"Toffo"}},"labels":["soccer","sport"],"duration":0,"start_local":"2024-05-22T16:00:00","end":"2024-05-22T15:00:00Z","end_local":"2024-05-22T16:00:00","updated":"2024-06-12T08:28:57Z"},{"title":"Championnat National - Championship Round - Takunnin vs Espoir Savalou","description":"Sourced from predicthq.com","category":"sports","start":"2024-05-22T15:00:00Z","geo":{"geometry":{"coordinates":[2.937456822090132,11.137462736612378],"type":"Point"},"placekey":"@b8v-64q-t7q","address":{"country_code":"BJ","formatted_address":"4WPP+XXW, Kandi, Benin","locality":"Kandi","region":"Alibori Department"}},"labels":["soccer","sport"],"duration":0,"start_local":"2024-05-22T16:00:00","end":"2024-05-22T15:00:00Z","end_local":"2024-05-22T16:00:00","updated":"2024-06-12T04:57:07Z"},{"title":"Championnat National - Championship Round - Damissa vs Espoir Savalou","description":"Sourced from predicthq.com","category":"sports","start":"2024-05-19T15:00:00Z","geo":{"geometry":{"coordinates":[2.7106583040360874,9.85464464528479],"type":"Point"},"placekey":"@b8t-tmy-vj9","address":{"country_code":"BJ","formatted_address":"VP36+V7 N’Dali, Benin","locality":"N’Dali","region":"Borgou Department"}},"labels":["soccer","sport"],"duration":0,"start_local":"2024-05-19T16:00:00","end":"2024-05-19T15:00:00Z","end_local":"2024-05-19T16:00:00","updated":"2024-06-12T05:01:58Z"},{"title":"Championnat National - Championship Round - Dynamo Abomey vs Bani Gansè","description":"Sourced from predicthq.com","category":"sports","start":"2024-05-19T15:00:00Z","geo":{"geometry":{"coordinates":[1.98943734169,7.1876963794],"type":"Point"},"placekey":"@b8p-vc2-4jv","address":{"country_code":"BJ","formatted_address":"52M5+P44, RNIE4, Abomey, Benin","locality":"Abomey","region":"Zou Department"}},"labels":["soccer","sport"],"duration":0,"start_local":"2024-05-19T16:00:00","end":"2024-05-19T15:00:00Z","end_local":"2024-05-19T16:00:00","updated":"2024-06-12T04:23:09Z"},{"title":"Championnat National - Championship Round - Takunnin vs Dadjè","description":"Sourced from predicthq.com","category":"sports","start":"2024-05-19T15:00:00Z","geo":{"geometry":{"coordinates":[2.937456822090132,11.137462736612378],"type":"Point"},"placekey":"@b8v-64q-t7q","address":{"country_code":"BJ","formatted_address":"4WPP+XXW, Kandi, Benin","locality":"Kandi","region":"Alibori Department"}},"labels":["soccer","sport"],"duration":0,"start_local":"2024-05-19T16:00:00","end":"2024-05-19T15:00:00Z","end_local":"2024-05-19T16:00:00","updated":"2024-06-11T21:41:36Z"},{"title":"Championnat National - Championship Round - Loto Popo vs Cavaliers","description":"Sourced from predicthq.com","category":"sports","start":"2024-05-19T15:00:00Z","geo":{"geometry":{"coordinates":[1.82837103,6.280550627],"type":"Point"},"placekey":"@b8n-h8m-xkf","address":{"country_code":"BJ","formatted_address":"7RHH+V32, Grand Popo, Benin","locality":"Grand Popo","region":"Mono Department"}},"labels":["soccer","sport"],"duration":0,"start_local":"2024-05-19T16:00:00","end":"2024-05-19T15:00:00Z","end_local":"2024-05-19T16:00:00","updated":"2024-06-12T13:12:44Z"},{"title":"Championnat National - Championship Round - Requins vs JSP","description":"Sourced from predicthq.com","category":"sports","start":"2024-05-18T15:00:00Z","geo":{"geometry":{"coordinates":[2.3411231390425926,6.410897870827214],"type":"Point"},"placekey":"@b8n-tcr-2kz","address":{"country_code":"BJ","formatted_address":"Abomey Calavi, Benin","locality":"Abomey Calavi"}},"labels":["soccer","sport"],"duration":0,"start_local":"2024-05-18T16:00:00","end":"2024-05-18T15:00:00Z","end_local":"2024-05-18T16:00:00","updated":"2024-06-12T07:16:26Z"},{"title":"Championnat National - Championship Round - Ayema vs AS Cotonou","description":"Sourced from predicthq.com","category":"sports","start":"2024-05-18T15:00:00Z","geo":{"geometry":{"coordinates":[2.650692061,6.955772858],"type":"Point"},"placekey":"@b8h-myz-nyv","address":{"country_code":"BJ","formatted_address":"Unnamed Road, XM42+877, Pobe, Benin","locality":"Pobe","region":"Plateau Department"}},"labels":["soccer","sport"],"duration":0,"start_local":"2024-05-18T16:00:00","end":"2024-05-18T15:00:00Z","end_local":"2024-05-18T16:00:00","updated":"2024-06-12T04:15:08Z"},{"title":"Championnat National - Championship Round - Sobemap vs Coton Sport Ouidah","description":"Sourced from predicthq.com","category":"sports","start":"2024-05-18T15:00:00Z","geo":{"geometry":{"coordinates":[2.6531124114,6.5567536431],"type":"Point"},"placekey":"@b8n-qxq-wff","address":{"country_code":"BJ","formatted_address":"Avrankou, Benin","locality":"Avrankou"}},"labels":["soccer","sport"],"duration":0,"start_local":"2024-05-18T16:00:00","end":"2024-05-18T15:00:00Z","end_local":"2024-05-18T16:00:00","updated":"2024-06-11T22:45:53Z"},{"title":"Championnat National - Championship Round - ASPAC vs Dragons","description":"Sourced from predicthq.com","category":"sports","start":"2024-05-18T15:00:00Z","geo":{"geometry":{"coordinates":[2.110468752,6.84310389],"type":"Point"},"placekey":"@b8p-qfv-rc5","address":{"country_code":"BJ","formatted_address":"Toffo, Benin","locality":"Toffo"}},"labels":["soccer","sport"],"duration":0,"start_local":"2024-05-18T16:00:00","end":"2024-05-18T15:00:00Z","end_local":"2024-05-18T16:00:00","updated":"2024-06-12T11:19:47Z"},{"title":"Championnat National - Championship Round - Cavaliers vs Sobemap","description":"Sourced from predicthq.com","category":"sports","start":"2024-05-12T15:00:00Z","geo":{"geometry":{"coordinates":[3.209650034,9.940377049],"type":"Point"},"placekey":"@b8t-r8f-s3q","address":{"country_code":"BJ","formatted_address":"W6R5+6CJ, Nikki, Benin","locality":"Nikki","region":"Borgou Department"}},"labels":["soccer","sport"],"duration":0,"start_local":"2024-05-12T16:00:00","end":"2024-05-12T15:00:00Z","end_local":"2024-05-12T16:00:00","updated":"2024-06-12T04:08:42Z"},{"title":"Championnat National - Relegation Round - ASVO vs Adjidja","description":"Sourced from predicthq.com","category":"sports","start":"2024-05-12T15:00:00Z","geo":{"geometry":{"coordinates":[2.486598905,6.713357242],"type":"Point"},"placekey":"@b8p-rf6-yy9","address":{"country_code":"BJ","formatted_address":"Adjohoun, Benin","locality":"Adjohoun"}},"labels":["soccer","sport"],"duration":0,"start_local":"2024-05-12T16:00:00","end":"2024-05-12T15:00:00Z","end_local":"2024-05-12T16:00:00","updated":"2024-06-12T09:05:19Z"},{"title":"Championnat National - Championship Round - Dragons vs Takunnin","description":"Sourced from predicthq.com","category":"sports","start":"2024-05-12T15:00:00Z","geo":{"geometry":{"coordinates":[2.617996900000001,6.477273800000001],"type":"Point"},"placekey":"@b8n-qrr-pvz","address":{"country_code":"BJ","formatted_address":"Porto-Novo, Ouémé Department, Benin","locality":"Porto-Novo","region":"Ouémé Department"}},"labels":["soccer","sport"],"duration":0,"start_local":"2024-05-12T16:00:00","end":"2024-05-12T15:00:00Z","end_local":"2024-05-12T16:00:00","updated":"2024-06-11T21:27:53Z"},{"title":"Championnat National - Relegation Round - Aïnonvi vs JAK","description":"Sourced from predicthq.com","category":"sports","start":"2024-05-12T15:00:00Z","geo":{"geometry":{"coordinates":[2.6072895526885986,6.380764351257562],"type":"Point"},"placekey":"@b8n-r77-rff","address":{"country_code":"BJ","formatted_address":"Seme-Kpodji, Benin","locality":"Seme-Kpodji"}},"labels":["soccer","sport"],"duration":0,"start_local":"2024-05-12T16:00:00","end":"2024-05-12T15:00:00Z","end_local":"2024-05-12T16:00:00","updated":"2024-06-12T17:01:28Z"},{"title":"Championnat National - Relegation Round - Etoile Filante vs JSO","description":"Sourced from predicthq.com","category":"sports","start":"2024-05-12T15:00:00Z","geo":{"geometry":{"coordinates":[2.3411231390425926,6.410897870827214],"type":"Point"},"placekey":"@b8n-tcr-2kz","address":{"country_code":"BJ","formatted_address":"Abomey Calavi, Benin","locality":"Abomey Calavi"}},"labels":["soccer","sport"],"duration":0,"start_local":"2024-05-12T16:00:00","end":"2024-05-12T15:00:00Z","end_local":"2024-05-12T16:00:00","updated":"2024-06-12T04:04:44Z"},{"title":"Championnat National - Championship Round - Coton Sport Ouidah vs Loto Popo","description":"Sourced from predicthq.com","category":"sports","start":"2024-05-12T15:00:00Z","geo":{"geometry":{"coordinates":[2.074035509,6.358693439],"type":"Point"},"placekey":"@b8n-h2r-575","address":{"country_code":"BJ","formatted_address":"935F+FJ3, Ouidah, Benin","locality":"Ouidah","region":"Atlantique Department"}},"labels":["soccer","sport"],"duration":0,"start_local":"2024-05-12T16:00:00","end":"2024-05-12T15:00:00Z","end_local":"2024-05-12T16:00:00","updated":"2024-06-11T21:34:10Z"},{"title":"Championnat National - Relegation Round - Avrankou Omnisport vs Aziza","description":"Sourced from predicthq.com","category":"sports","start":"2024-05-12T15:00:00Z","geo":{"geometry":{"coordinates":[2.6531124114,6.5567536431],"type":"Point"},"placekey":"@b8n-qxq-wff","address":{"country_code":"BJ","formatted_address":"Avrankou, Benin","locality":"Avrankou"}},"labels":["soccer","sport"],"duration":0,"start_local":"2024-05-12T16:00:00","end":"2024-05-12T15:00:00Z","end_local":"2024-05-12T16:00:00","updated":"2024-06-12T05:45:46Z"},{"title":"Championnat National - Relegation Round - Djeffa vs Police","description":"Sourced from predicthq.com","category":"sports","start":"2024-05-12T15:00:00Z","geo":{"geometry":{"coordinates":[2.4489806,6.3670331],"type":"Point"},"placekey":"@b8n-r25-wtv","address":{"country_code":"BJ","formatted_address":"9C8X+JJ4, Cotonou, Benin","locality":"Cotonou","region":"Littoral Department"}},"labels":["soccer","sport"],"duration":0,"start_local":"2024-05-12T16:00:00","end":"2024-05-12T15:00:00Z","end_local":"2024-05-12T16:00:00","updated":"2024-06-12T19:11:48Z"},{"title":"Championnat National - Championship Round - Dadjè vs ASPAC","description":"Sourced from predicthq.com","category":"sports","start":"2024-05-11T15:00:00Z","geo":{"geometry":{"coordinates":[1.681492805,6.964684458],"type":"Point"},"placekey":"@b8p-x5s-bhq","address":{"country_code":"BJ","formatted_address":"XM7J+VH Aplahoue, Benin","locality":"Aplahoue","region":"Kouffo Department"}},"labels":["soccer","sport"],"duration":0,"start_local":"2024-05-11T16:00:00","end":"2024-05-11T15:00:00Z","end_local":"2024-05-11T16:00:00","updated":"2024-06-12T15:03:52Z"},{"title":"Championnat National - Championship Round - JSP vs Damissa","description":"Sourced from predicthq.com","category":"sports","start":"2024-05-11T15:00:00Z","geo":{"geometry":{"coordinates":[2.669806480407715,6.993243556012034],"type":"Point"},"placekey":"@b8h-n2j-xdv","address":{"country_code":"BJ","formatted_address":"XMV9+7W3, Pobe, Benin","locality":"Pobe","region":"Plateau Department"}},"labels":["soccer","sport"],"duration":0,"start_local":"2024-05-11T16:00:00","end":"2024-05-11T15:00:00Z","end_local":"2024-05-11T16:00:00","updated":"2024-06-12T10:35:04Z"},{"title":"Championnat National - Relegation Round - Béké Bembèrèkè vs Soleil","description":"Sourced from predicthq.com","category":"sports","start":"2024-05-11T15:00:00Z","geo":{"geometry":{"coordinates":[2.6781813390311893,10.243057064138837],"type":"Point"},"placekey":"@b8s-s88-n89","address":{"country_code":"BJ","formatted_address":"6MVJ+FC7, Bembereke, Benin","locality":"Bembereke","region":"Borgou Department"}},"labels":["soccer","sport"],"duration":0,"start_local":"2024-05-11T16:00:00","end":"2024-05-11T15:00:00Z","end_local":"2024-05-11T16:00:00","updated":"2024-06-12T01:21:03Z"},{"title":"Championnat National - Relegation Round - Panthères vs Hodio","description":"Sourced from predicthq.com","category":"sports","start":"2024-05-11T15:00:00Z","geo":{"geometry":{"coordinates":[1.66109547,9.673626224],"type":"Point"},"placekey":"@b8t-k37-d5f","address":{"country_code":"BJ","formatted_address":"MMF6+FC Djougou, Benin","locality":"Djougou","region":"Donga Department"}},"labels":["soccer","sport"],"duration":0,"start_local":"2024-05-11T16:00:00","end":"2024-05-11T15:00:00Z","end_local":"2024-05-11T16:00:00","updated":"2024-06-12T15:32:22Z"},{"title":"Championnat National - Championship Round - AS Cotonou vs Dynamo Abomey","description":"Sourced from predicthq.com","category":"sports","start":"2024-05-11T15:00:00Z","geo":{"geometry":{"coordinates":[2.4489806,6.3670331],"type":"Point"},"placekey":"@b8n-r25-wtv","address":{"country_code":"BJ","formatted_address":"9C8X+JJ4, Cotonou, Benin","locality":"Cotonou","region":"Littoral Department"}},"labels":["soccer","sport"],"duration":0,"start_local":"2024-05-11T16:00:00","end":"2024-05-11T15:00:00Z","end_local":"2024-05-11T16:00:00","updated":"2024-06-12T05:06:39Z"},{"title":"Championnat National - Championship Round - Espoir Savalou vs Requins","description":"Sourced from predicthq.com","category":"sports","start":"2024-05-11T15:00:00Z","geo":{"geometry":{"coordinates":[1.9834613800048828,7.926671743780086],"type":"Point"},"placekey":"@b8j-rp2-vpv","address":{"country_code":"BJ","formatted_address":"WXGM+97, Savalou, Benin","locality":"Savalou","region":"Collines Department"}},"labels":["soccer","sport"],"duration":0,"start_local":"2024-05-11T16:00:00","end":"2024-05-11T15:00:00Z","end_local":"2024-05-11T16:00:00","updated":"2024-06-12T06:34:12Z"},{"title":"Championnat National - Relegation Round - Dynamo Parakou vs Réal Sport","description":"Sourced from predicthq.com","category":"sports","start":"2024-05-11T15:00:00Z","geo":{"geometry":{"coordinates":[2.6365746,9.3431448],"type":"Point"},"placekey":"@b8t-cth-rx5","address":{"country_code":"BJ","formatted_address":"Parakou, Borgou, Benin","locality":"Parakou","region":"Borgou"}},"labels":["soccer","sport"],"duration":0,"start_local":"2024-05-11T16:00:00","end":"2024-05-11T15:00:00Z","end_local":"2024-05-11T16:00:00","updated":"2024-06-12T17:13:50Z"},{"title":"Championnat National - Relegation Round - Abeilles vs Dynamique Djougou","description":"Sourced from predicthq.com","category":"sports","start":"2024-05-11T15:00:00Z","geo":{"geometry":{"coordinates":[2.5929082393646308,8.890318726886274],"type":"Point"},"placekey":"@b8j-4ng-fj9","address":{"country_code":"BJ","formatted_address":"VHRV+335, Tchaourou, Benin","locality":"Tchaourou","region":"Borgou Department"}},"labels":["soccer","sport"],"duration":0,"start_local":"2024-05-11T16:00:00","end":"2024-05-11T15:00:00Z","end_local":"2024-05-11T16:00:00","updated":"2024-06-12T07:42:38Z"},{"title":"Championnat National - Relegation Round - Tonnerre vs Buffles","description":"Sourced from predicthq.com","category":"sports","start":"2024-05-11T15:00:00Z","geo":{"geometry":{"coordinates":[2.080216093,7.17452585],"type":"Point"},"placekey":"@b8p-vbh-92k","address":{"country_code":"BJ","formatted_address":"53FH+7XW, Bohicon, Benin","locality":"Bohicon","region":"Zou Department"}},"labels":["soccer","sport"],"duration":0,"start_local":"2024-05-11T16:00:00","end":"2024-05-11T15:00:00Z","end_local":"2024-05-11T16:00:00","updated":"2024-06-12T06:49:27Z"},{"title":"Championnat National - Championship Round - Bani Gansè vs Ayema","description":"Sourced from predicthq.com","category":"sports","start":"2024-05-11T15:00:00Z","geo":{"geometry":{"coordinates":[3.209650034,9.940377049],"type":"Point"},"placekey":"@b8t-r8f-s3q","address":{"country_code":"BJ","formatted_address":"W6R5+6CJ, Nikki, Benin","locality":"Nikki","region":"Borgou Department"}},"labels":["soccer","sport"],"duration":0,"start_local":"2024-05-11T16:00:00","end":"2024-05-11T15:00:00Z","end_local":"2024-05-11T16:00:00","updated":"2024-06-11T23:34:03Z"},{"title":"Championnat National - Relegation Round - Hodio vs Béké Bembèrèkè","description":"Sourced from predicthq.com","category":"sports","start":"2024-05-05T15:00:00Z","geo":{"geometry":{"coordinates":[1.868146516,6.428616528],"type":"Point"},"placekey":"@b8n-hg7-yy9","address":{"country_code":"BJ","formatted_address":"Unnamed Road, CVH9+C5W, Come, Benin","locality":"Come","region":"Mono Department"}},"labels":["soccer","sport"],"duration":0,"start_local":"2024-05-05T16:00:00","end":"2024-05-05T15:00:00Z","end_local":"2024-05-05T16:00:00","updated":"2024-06-12T07:41:01Z"},{"title":"Championnat National - Championship Round - Coton Sport Ouidah vs Dynamo Abomey","description":"Sourced from predicthq.com","category":"sports","start":"2024-05-05T15:00:00Z","geo":{"geometry":{"coordinates":[2.074035509,6.358693439],"type":"Point"},"placekey":"@b8n-h2r-575","address":{"country_code":"BJ","formatted_address":"935F+FJ3, Ouidah, Benin","locality":"Ouidah","region":"Atlantique Department"}},"labels":["soccer","sport"],"duration":0,"start_local":"2024-05-05T16:00:00","end":"2024-05-05T15:00:00Z","end_local":"2024-05-05T16:00:00","updated":"2024-06-11T22:14:31Z"},{"title":"Championnat National - Relegation Round - Panthères vs Abeilles","description":"Sourced from predicthq.com","category":"sports","start":"2024-05-05T15:00:00Z","geo":{"geometry":{"coordinates":[1.670286655,9.706423842],"type":"Point"},"placekey":"@b8t-k3h-b8v","address":{"country_code":"BJ","formatted_address":"Djougou, Benin","locality":"Djougou","region":"Donga Department"}},"labels":["soccer","sport"],"duration":0,"start_local":"2024-05-05T16:00:00","end":"2024-05-05T15:00:00Z","end_local":"2024-05-05T16:00:00","updated":"2024-06-12T04:37:51Z"},{"title":"Championnat National - Championship Round - Damissa vs Dragons","description":"Sourced from predicthq.com","category":"sports","start":"2024-05-05T15:00:00Z","geo":{"geometry":{"coordinates":[2.7106583040360874,9.85464464528479],"type":"Point"},"placekey":"@b8t-tmy-vj9","address":{"country_code":"BJ","formatted_address":"VP36+V7 N’Dali, Benin","locality":"N’Dali","region":"Borgou Department"}},"labels":["soccer","sport"],"duration":0,"start_local":"2024-05-05T16:00:00","end":"2024-05-05T15:00:00Z","end_local":"2024-05-05T16:00:00","updated":"2024-06-12T12:26:02Z"},{"title":"Championnat National - Championship Round - Ayema vs Cavaliers","description":"Sourced from predicthq.com","category":"sports","start":"2024-05-05T15:00:00Z","geo":{"geometry":{"coordinates":[2.650692061,6.955772858],"type":"Point"},"placekey":"@b8h-myz-nyv","address":{"country_code":"BJ","formatted_address":"Unnamed Road, XM42+877, Pobe, Benin","locality":"Pobe","region":"Plateau Department"}},"labels":["soccer","sport"],"duration":0,"start_local":"2024-05-05T16:00:00","end":"2024-05-05T15:00:00Z","end_local":"2024-05-05T16:00:00","updated":"2024-06-12T05:46:08Z"},{"title":"Championnat National - Relegation Round - Soleil vs Dynamo Parakou","description":"Sourced from predicthq.com","category":"sports","start":"2024-05-05T15:00:00Z","geo":{"geometry":{"coordinates":[2.348551139486763,7.223653515657631],"type":"Point"},"placekey":"@b8p-vxp-fs5","address":{"country_code":"BJ","formatted_address":"68FX+FC5, Cove, Benin","locality":"Cove","region":"Zou Department"}},"labels":["soccer","sport"],"duration":0,"start_local":"2024-05-05T16:00:00","end":"2024-05-05T15:00:00Z","end_local":"2024-05-05T16:00:00","updated":"2024-06-12T00:09:49Z"},{"title":"Championnat National - Championship Round - Takunnin vs JSP","description":"Sourced from predicthq.com","category":"sports","start":"2024-05-05T15:00:00Z","geo":{"geometry":{"coordinates":[2.937456822090132,11.137462736612378],"type":"Point"},"placekey":"@b8v-64q-t7q","address":{"country_code":"BJ","formatted_address":"4WPP+XXW, Kandi, Benin","locality":"Kandi","region":"Alibori Department"}},"labels":["soccer","sport"],"duration":0,"start_local":"2024-05-05T16:00:00","end":"2024-05-05T15:00:00Z","end_local":"2024-05-05T16:00:00","updated":"2024-06-12T12:11:18Z"},{"title":"Championnat National - Championship Round - AS Cotonou vs Loto Popo","description":"Sourced from predicthq.com","category":"sports","start":"2024-05-05T15:00:00Z","geo":{"geometry":{"coordinates":[2.6231575012,6.476167677],"type":"Point"},"placekey":"@b8n-qrw-b8v","address":{"country_code":"BJ","formatted_address":"GJ79+2WC, Porto-Novo, Benin","locality":"Porto-Novo","region":"Ouémé Department"}},"labels":["soccer","sport"],"duration":0,"start_local":"2024-05-05T16:00:00","end":"2024-05-05T15:00:00Z","end_local":"2024-05-05T16:00:00","updated":"2024-06-12T06:57:23Z"},{"title":"Championnat National - Championship Round - Sobemap vs Bani Gansè","description":"Sourced from predicthq.com","category":"sports","start":"2024-05-05T15:00:00Z","geo":{"geometry":{"coordinates":[2.6531124114,6.5567536431],"type":"Point"},"placekey":"@b8n-qxq-wff","address":{"country_code":"BJ","formatted_address":"Avrankou, Benin","locality":"Avrankou"}},"labels":["soccer","sport"],"duration":0,"start_local":"2024-05-05T16:00:00","end":"2024-05-05T15:00:00Z","end_local":"2024-05-05T16:00:00","updated":"2024-06-12T04:39:15Z"},{"title":"Championnat National - Relegation Round - Buffles vs Réal Sport","description":"Sourced from predicthq.com","category":"sports","start":"2024-05-05T15:00:00Z","geo":{"geometry":{"coordinates":[2.6365746,9.3431448],"type":"Point"},"placekey":"@b8t-cth-rx5","address":{"country_code":"BJ","formatted_address":"Parakou, Borgou, Benin","locality":"Parakou","region":"Borgou"}},"labels":["soccer","sport"],"duration":0,"start_local":"2024-05-05T16:00:00","end":"2024-05-05T15:00:00Z","end_local":"2024-05-05T16:00:00","updated":"2024-06-12T02:05:48Z"},{"title":"Concurrent session 1","description":"Sourced from predicthq.com - Hey there! Get ready for a jam-packed session where multiple awesome activities will be happening at the same time - don't miss out on the f","category":"conferences","start":"2024-05-05T09:00:00Z","geo":{"geometry":{"coordinates":[2.4049963,6.3476683],"type":"Point"},"placekey":"@b8n-tbf-yqf","address":{"country_code":"BJ","formatted_address":"Cotonou, Littoral Department, Benin","locality":"Cotonou","region":"Littoral Department"}},"labels":["business","conference"],"duration":7200,"start_local":"2024-05-05T10:00:00","end":"2024-05-05T11:00:00Z","end_local":"2024-05-05T12:00:00","updated":"2024-06-05T12:38:00Z"},{"title":"Championnat National - Championship Round - Espoir Savalou vs ASPAC","description":"Sourced from predicthq.com","category":"sports","start":"2024-05-04T15:00:00Z","geo":{"geometry":{"coordinates":[1.9834613800048828,7.926671743780086],"type":"Point"},"placekey":"@b8j-rp2-vpv","address":{"country_code":"BJ","formatted_address":"WXGM+97, Savalou, Benin","locality":"Savalou","region":"Collines Department"}},"labels":["soccer","sport"],"duration":0,"start_local":"2024-05-04T16:00:00","end":"2024-05-04T15:00:00Z","end_local":"2024-05-04T16:00:00","updated":"2024-06-11T21:31:21Z"},{"title":"Championnat National - Championship Round - Dadjè vs Requins","description":"Sourced from predicthq.com","category":"sports","start":"2024-05-04T15:00:00Z","geo":{"geometry":{"coordinates":[1.681492805,6.964684458],"type":"Point"},"placekey":"@b8p-x5s-bhq","address":{"country_code":"BJ","formatted_address":"XM7J+VH Aplahoue, Benin","locality":"Aplahoue","region":"Kouffo Department"}},"labels":["soccer","sport"],"duration":0,"start_local":"2024-05-04T16:00:00","end":"2024-05-04T15:00:00Z","end_local":"2024-05-04T16:00:00","updated":"2024-06-11T21:50:41Z"},{"title":"Championnat National - Relegation Round - ASVO vs Aïnonvi","description":"Sourced from predicthq.com","category":"sports","start":"2024-05-04T15:00:00Z","geo":{"geometry":{"coordinates":[2.486598905,6.713357242],"type":"Point"},"placekey":"@b8p-rf6-yy9","address":{"country_code":"BJ","formatted_address":"Adjohoun, Benin","locality":"Adjohoun"}},"labels":["soccer","sport"],"duration":0,"start_local":"2024-05-04T16:00:00","end":"2024-05-04T15:00:00Z","end_local":"2024-05-04T16:00:00","updated":"2024-06-12T14:36:51Z"},{"title":"Championnat National - Relegation Round - JAK vs Etoile Filante","description":"Sourced from predicthq.com","category":"sports","start":"2024-05-04T15:00:00Z","geo":{"geometry":{"coordinates":[2.610854847,7.370093985],"type":"Point"},"placekey":"@b8j-ng2-wkz","address":{"country_code":"BJ","formatted_address":"Unnamed Road, Ketou, Benin","locality":"Ketou","region":"Plateau Department"}},"labels":["soccer","sport"],"duration":0,"start_local":"2024-05-04T16:00:00","end":"2024-05-04T15:00:00Z","end_local":"2024-05-04T16:00:00","updated":"2024-06-12T06:28:30Z"},{"title":"Championnat National - Relegation Round - Aziza vs Djeffa","description":"Sourced from predicthq.com","category":"sports","start":"2024-05-04T15:00:00Z","geo":{"geometry":{"coordinates":[2.3411231390425926,6.410897870827214],"type":"Point"},"placekey":"@b8n-tcr-2kz","address":{"country_code":"BJ","formatted_address":"Abomey Calavi, Benin","locality":"Abomey Calavi"}},"labels":["soccer","sport"],"duration":0,"start_local":"2024-05-04T16:00:00","end":"2024-05-04T15:00:00Z","end_local":"2024-05-04T16:00:00","updated":"2024-06-12T11:11:30Z"},{"title":"Championnat National - Relegation Round - JSO vs Police","description":"Sourced from predicthq.com","category":"sports","start":"2024-05-04T15:00:00Z","geo":{"geometry":{"coordinates":[2.074035509,6.358693439],"type":"Point"},"placekey":"@b8n-h2r-575","address":{"country_code":"BJ","formatted_address":"935F+FJ3, Ouidah, Benin","locality":"Ouidah","region":"Atlantique Department"}},"labels":["soccer","sport"],"duration":0,"start_local":"2024-05-04T16:00:00","end":"2024-05-04T15:00:00Z","end_local":"2024-05-04T16:00:00","updated":"2024-06-12T02:56:42Z"},{"title":"Championnat National - Relegation Round - Dynamique Djougou vs Tonnerre","description":"Sourced from predicthq.com","category":"sports","start":"2024-05-04T15:00:00Z","geo":{"geometry":{"coordinates":[1.670286655,9.706423842],"type":"Point"},"placekey":"@b8t-k3h-b8v","address":{"country_code":"BJ","formatted_address":"Djougou, Benin","locality":"Djougou","region":"Donga Department"}},"labels":["soccer","sport"],"duration":0,"start_local":"2024-05-04T16:00:00","end":"2024-05-04T15:00:00Z","end_local":"2024-05-04T16:00:00","updated":"2024-06-12T04:04:01Z"},{"title":"Championnat National - Relegation Round - Adjidja vs Avrankou Omnisport","description":"Sourced from predicthq.com","category":"sports","start":"2024-05-04T15:00:00Z","geo":{"geometry":{"coordinates":[2.110468752,6.84310389],"type":"Point"},"placekey":"@b8p-qfv-rc5","address":{"country_code":"BJ","formatted_address":"Toffo, Benin","locality":"Toffo"}},"labels":["soccer","sport"],"duration":0,"start_local":"2024-05-04T16:00:00","end":"2024-05-04T15:00:00Z","end_local":"2024-05-04T16:00:00","updated":"2024-06-12T00:26:16Z"},{"title":"Championnat National - Championship Round - Requins vs Takunnin","description":"Sourced from predicthq.com","category":"sports","start":"2024-05-01T15:00:00Z","geo":{"geometry":{"coordinates":[2.3411231390425926,6.410897870827214],"type":"Point"},"placekey":"@b8n-tcr-2kz","address":{"country_code":"BJ","formatted_address":"Abomey Calavi, Benin","locality":"Abomey Calavi"}},"labels":["soccer","sport"],"duration":0,"start_local":"2024-05-01T16:00:00","end":"2024-05-01T15:00:00Z","end_local":"2024-05-01T16:00:00","updated":"2024-06-12T09:49:24Z"},{"title":"Championnat National - Championship Round - Loto Popo vs Ayema","description":"Sourced from predicthq.com","category":"sports","start":"2024-05-01T15:00:00Z","geo":{"geometry":{"coordinates":[1.82837103,6.280550627],"type":"Point"},"placekey":"@b8n-h8m-xkf","address":{"country_code":"BJ","formatted_address":"7RHH+V32, Grand Popo, Benin","locality":"Grand Popo","region":"Mono Department"}},"labels":["soccer","sport"],"duration":0,"start_local":"2024-05-01T16:00:00","end":"2024-05-01T15:00:00Z","end_local":"2024-05-01T16:00:00","updated":"2024-06-12T09:48:57Z"},{"title":"Championnat National - Championship Round - ASPAC vs Damissa","description":"Sourced from predicthq.com","category":"sports","start":"2024-05-01T15:00:00Z","geo":{"geometry":{"coordinates":[2.110468752,6.84310389],"type":"Point"},"placekey":"@b8p-qfv-rc5","address":{"country_code":"BJ","formatted_address":"Toffo, Benin","locality":"Toffo"}},"labels":["soccer","sport"],"duration":0,"start_local":"2024-05-01T16:00:00","end":"2024-05-01T15:00:00Z","end_local":"2024-05-01T16:00:00","updated":"2024-06-12T01:11:13Z"},{"title":"Championnat National - Championship Round - Bani Gansè vs Coton Sport Ouidah","description":"Sourced from predicthq.com","category":"sports","start":"2024-05-01T15:00:00Z","geo":{"geometry":{"coordinates":[2.435417937,11.302327356],"type":"Point"},"placekey":"@b8t-xpj-52k","address":{"country_code":"BJ","formatted_address":"8C2P+W42, Banikoara, Benin","locality":"Banikoara","region":"Alibori Department"}},"labels":["soccer","sport"],"duration":0,"start_local":"2024-05-01T16:00:00","end":"2024-05-01T15:00:00Z","end_local":"2024-05-01T16:00:00","updated":"2024-06-11T22:08:15Z"},{"title":"Championnat National - Championship Round - Espoir Savalou vs Dragons","description":"Sourced from predicthq.com","category":"sports","start":"2024-05-01T15:00:00Z","geo":{"geometry":{"coordinates":[1.9834613800048828,7.926671743780086],"type":"Point"},"placekey":"@b8j-rp2-vpv","address":{"country_code":"BJ","formatted_address":"WXGM+97, Savalou, Benin","locality":"Savalou","region":"Collines Department"}},"labels":["soccer","sport"],"duration":0,"start_local":"2024-05-01T16:00:00","end":"2024-05-01T15:00:00Z","end_local":"2024-05-01T16:00:00","updated":"2024-06-12T06:15:38Z"},{"title":"Championnat National - Championship Round - Dynamo Abomey vs Sobemap","description":"Sourced from predicthq.com","category":"sports","start":"2024-05-01T15:00:00Z","geo":{"geometry":{"coordinates":[1.98943734169,7.1876963794],"type":"Point"},"placekey":"@b8p-vc2-4jv","address":{"country_code":"BJ","formatted_address":"52M5+P44, RNIE4, Abomey, Benin","locality":"Abomey","region":"Zou Department"}},"labels":["soccer","sport"],"duration":0,"start_local":"2024-05-01T16:00:00","end":"2024-05-01T15:00:00Z","end_local":"2024-05-01T16:00:00","updated":"2024-06-12T13:08:52Z"},{"title":"Championnat National - Championship Round - Cavaliers vs AS Cotonou","description":"Sourced from predicthq.com","category":"sports","start":"2024-05-01T15:00:00Z","geo":{"geometry":{"coordinates":[3.209650034,9.940377049],"type":"Point"},"placekey":"@b8t-r8f-s3q","address":{"country_code":"BJ","formatted_address":"W6R5+6CJ, Nikki, Benin","locality":"Nikki","region":"Borgou Department"}},"labels":["soccer","sport"],"duration":0,"start_local":"2024-05-01T16:00:00","end":"2024-05-01T15:00:00Z","end_local":"2024-05-01T16:00:00","updated":"2024-06-12T14:24:03Z"},{"title":"Championnat National - Championship Round - JSP vs Dadjè","description":"Sourced from predicthq.com","category":"sports","start":"2024-05-01T15:00:00Z","geo":{"geometry":{"coordinates":[2.669806480407715,6.993243556012034],"type":"Point"},"placekey":"@b8h-n2j-xdv","address":{"country_code":"BJ","formatted_address":"XMV9+7W3, Pobe, Benin","locality":"Pobe","region":"Plateau Department"}},"labels":["soccer","sport"],"duration":0,"start_local":"2024-05-01T16:00:00","end":"2024-05-01T15:00:00Z","end_local":"2024-05-01T16:00:00","updated":"2024-06-12T05:18:37Z"},{"title":"Championnat National - Championship Round - JSP vs Espoir Savalou","description":"Sourced from predicthq.com","category":"sports","start":"2024-04-28T15:00:00Z","geo":{"geometry":{"coordinates":[2.669806480407715,6.993243556012034],"type":"Point"},"placekey":"@b8h-n2j-xdv","address":{"country_code":"BJ","formatted_address":"XMV9+7W3, Pobe, Benin","locality":"Pobe","region":"Plateau Department"}},"labels":["soccer","sport"],"duration":0,"start_local":"2024-04-28T16:00:00","end":"2024-04-28T15:00:00Z","end_local":"2024-04-28T16:00:00","updated":"2024-06-12T09:32:40Z"},{"title":"Championnat National - Relegation Round - Avrankou Omnisport vs Aïnonvi","description":"Sourced from predicthq.com","category":"sports","start":"2024-04-28T15:00:00Z","geo":{"geometry":{"coordinates":[2.6531124114,6.5567536431],"type":"Point"},"placekey":"@b8n-qxq-wff","address":{"country_code":"BJ","formatted_address":"Avrankou, Benin","locality":"Avrankou"}},"labels":["soccer","sport"],"duration":0,"start_local":"2024-04-28T16:00:00","end":"2024-04-28T15:00:00Z","end_local":"2024-04-28T16:00:00","updated":"2024-06-12T15:08:45Z"},{"title":"Championnat National - Championship Round - Loto Popo vs Sobemap","description":"Sourced from predicthq.com","category":"sports","start":"2024-04-28T15:00:00Z","geo":{"geometry":{"coordinates":[1.82837103,6.280550627],"type":"Point"},"placekey":"@b8n-h8m-xkf","address":{"country_code":"BJ","formatted_address":"7RHH+V32, Grand Popo, Benin","locality":"Grand Popo","region":"Mono Department"}},"labels":["soccer","sport"],"duration":0,"start_local":"2024-04-28T16:00:00","end":"2024-04-28T15:00:00Z","end_local":"2024-04-28T16:00:00","updated":"2024-06-11T23:54:55Z"},{"title":"Championnat National - Championship Round - ASPAC vs Takunnin","description":"Sourced from predicthq.com","category":"sports","start":"2024-04-28T15:00:00Z","geo":{"geometry":{"coordinates":[2.110468752,6.84310389],"type":"Point"},"placekey":"@b8p-qfv-rc5","address":{"country_code":"BJ","formatted_address":"Toffo, Benin","locality":"Toffo"}},"labels":["soccer","sport"],"duration":0,"start_local":"2024-04-28T16:00:00","end":"2024-04-28T15:00:00Z","end_local":"2024-04-28T16:00:00","updated":"2024-06-12T11:06:19Z"},{"title":"Championnat National - Relegation Round - Etoile Filante vs ASVO","description":"Sourced from predicthq.com","category":"sports","start":"2024-04-28T15:00:00Z","geo":{"geometry":{"coordinates":[2.3411231390425926,6.410897870827214],"type":"Point"},"placekey":"@b8n-tcr-2kz","address":{"country_code":"BJ","formatted_address":"Abomey Calavi, Benin","locality":"Abomey Calavi"}},"labels":["soccer","sport"],"duration":0,"start_local":"2024-04-28T16:00:00","end":"2024-04-28T15:00:00Z","end_local":"2024-04-28T16:00:00","updated":"2024-06-12T06:00:14Z"},{"title":"Championnat National - Relegation Round - Djeffa vs Adjidja","description":"Sourced from predicthq.com","category":"sports","start":"2024-04-28T15:00:00Z","geo":{"geometry":{"coordinates":[2.4489806,6.3670331],"type":"Point"},"placekey":"@b8n-r25-wtv","address":{"country_code":"BJ","formatted_address":"9C8X+JJ4, Cotonou, Benin","locality":"Cotonou","region":"Littoral Department"}},"labels":["soccer","sport"],"duration":0,"start_local":"2024-04-28T16:00:00","end":"2024-04-28T15:00:00Z","end_local":"2024-04-28T16:00:00","updated":"2024-06-12T11:45:33Z"},{"title":"Championnat National - Championship Round - Cavaliers vs Coton Sport Ouidah","description":"Sourced from predicthq.com","category":"sports","start":"2024-04-28T15:00:00Z","geo":{"geometry":{"coordinates":[3.209650034,9.940377049],"type":"Point"},"placekey":"@b8t-r8f-s3q","address":{"country_code":"BJ","formatted_address":"W6R5+6CJ, Nikki, Benin","locality":"Nikki","region":"Borgou Department"}},"labels":["soccer","sport"],"duration":0,"start_local":"2024-04-28T16:00:00","end":"2024-04-28T15:00:00Z","end_local":"2024-04-28T16:00:00","updated":"2024-06-12T03:00:39Z"},{"title":"Championnat National - Relegation Round - Béké Bembèrèkè vs Abeilles","description":"Sourced from predicthq.com","category":"sports","start":"2024-04-28T15:00:00Z","geo":{"geometry":{"coordinates":[2.6781813390311893,10.243057064138837],"type":"Point"},"placekey":"@b8s-s88-n89","address":{"country_code":"BJ","formatted_address":"6MVJ+FC7, Bembereke, Benin","locality":"Bembereke","region":"Borgou Department"}},"labels":["soccer","sport"],"duration":0,"start_local":"2024-04-28T16:00:00","end":"2024-04-28T15:00:00Z","end_local":"2024-04-28T16:00:00","updated":"2024-06-11T22:59:01Z"},{"title":"Championnat National - Relegation Round - Dynamo Parakou vs Hodio","description":"Sourced from predicthq.com","category":"sports","start":"2024-04-28T15:00:00Z","geo":{"geometry":{"coordinates":[2.6365746,9.3431448],"type":"Point"},"placekey":"@b8t-cth-rx5","address":{"country_code":"BJ","formatted_address":"Parakou, Borgou, Benin","locality":"Parakou","region":"Borgou"}},"labels":["soccer","sport"],"duration":0,"start_local":"2024-04-28T16:00:00","end":"2024-04-28T15:00:00Z","end_local":"2024-04-28T16:00:00","updated":"2024-06-12T13:26:20Z"},{"title":"CONCERT GRATUIT FRA FRA SOUND POUR LA FETE DU ROI DES PAYS-BAS","description":"Sourced from predicthq.com - L'Ambassade des Pays-Bas au Bénin en partenariat avec le Ministére des Arts et de la Culture organisent un concert gratuit pour tous !","category":"concerts","start":"2024-04-27T19:00:00Z","geo":{"geometry":{"coordinates":[2.4049963,6.3476683],"type":"Point"},"placekey":"@b8n-tbf-yqf","address":{"country_code":"BJ","formatted_address":"Cotonou, Littoral Department, Benin","locality":"Cotonou","region":"Littoral Department"}},"labels":["concert","music"],"duration":9000,"start_local":"2024-04-27T20:00:00","end":"2024-04-27T21:30:00Z","end_local":"2024-04-27T22:30:00","updated":"2024-06-05T11:29:58Z"},{"title":"Championnat National - Relegation Round - Tonnerre vs Panthères","description":"Sourced from predicthq.com","category":"sports","start":"2024-04-27T15:00:00Z","geo":{"geometry":{"coordinates":[2.080216093,7.17452585],"type":"Point"},"placekey":"@b8p-vbh-92k","address":{"country_code":"BJ","formatted_address":"53FH+7XW, Bohicon, Benin","locality":"Bohicon","region":"Zou Department"}},"labels":["soccer","sport"],"duration":0,"start_local":"2024-04-27T16:00:00","end":"2024-04-27T15:00:00Z","end_local":"2024-04-27T16:00:00","updated":"2024-06-12T04:37:58Z"},{"title":"Championnat National - Championship Round - Requins vs Damissa","description":"Sourced from predicthq.com","category":"sports","start":"2024-04-27T15:00:00Z","geo":{"geometry":{"coordinates":[2.3411231390425926,6.410897870827214],"type":"Point"},"placekey":"@b8n-tcr-2kz","address":{"country_code":"BJ","formatted_address":"Abomey Calavi, Benin","locality":"Abomey Calavi"}},"labels":["soccer","sport"],"duration":0,"start_local":"2024-04-27T16:00:00","end":"2024-04-27T15:00:00Z","end_local":"2024-04-27T16:00:00","updated":"2024-06-12T17:05:20Z"},{"title":"Championnat National - Championship Round - Dragons vs Dadjè","description":"Sourced from predicthq.com","category":"sports","start":"2024-04-27T15:00:00Z","geo":{"geometry":{"coordinates":[2.617996900000001,6.477273800000001],"type":"Point"},"placekey":"@b8n-qrr-pvz","address":{"country_code":"BJ","formatted_address":"Porto-Novo, Ouémé Department, Benin","locality":"Porto-Novo","region":"Ouémé Department"}},"labels":["soccer","sport"],"duration":0,"start_local":"2024-04-27T16:00:00","end":"2024-04-27T15:00:00Z","end_local":"2024-04-27T16:00:00","updated":"2024-06-12T06:43:30Z"},{"title":"Championnat National - Championship Round - Dynamo Abomey vs Ayema","description":"Sourced from predicthq.com","category":"sports","start":"2024-04-27T15:00:00Z","geo":{"geometry":{"coordinates":[1.98943734169,7.1876963794],"type":"Point"},"placekey":"@b8p-vc2-4jv","address":{"country_code":"BJ","formatted_address":"52M5+P44, RNIE4, Abomey, Benin","locality":"Abomey","region":"Zou Department"}},"labels":["soccer","sport"],"duration":0,"start_local":"2024-04-27T16:00:00","end":"2024-04-27T15:00:00Z","end_local":"2024-04-27T16:00:00","updated":"2024-06-12T01:50:31Z"},{"title":"Championnat National - Relegation Round - Soleil vs Buffles","description":"Sourced from predicthq.com","category":"sports","start":"2024-04-27T15:00:00Z","geo":{"geometry":{"coordinates":[2.348551139486763,7.223653515657631],"type":"Point"},"placekey":"@b8p-vxp-fs5","address":{"country_code":"BJ","formatted_address":"68FX+FC5, Cove, Benin","locality":"Cove","region":"Zou Department"}},"labels":["soccer","sport"],"duration":0,"start_local":"2024-04-27T16:00:00","end":"2024-04-27T15:00:00Z","end_local":"2024-04-27T16:00:00","updated":"2024-06-12T13:00:07Z"},{"title":"Championnat National - Relegation Round - Police vs JAK","description":"Sourced from predicthq.com","category":"sports","start":"2024-04-27T15:00:00Z","geo":{"geometry":{"coordinates":[2.4489806,6.3670331],"type":"Point"},"placekey":"@b8n-r25-wtv","address":{"country_code":"BJ","formatted_address":"9C8X+JJ4, Cotonou, Benin","locality":"Cotonou","region":"Littoral Department"}},"labels":["soccer","sport"],"duration":0,"start_local":"2024-04-27T16:00:00","end":"2024-04-27T15:00:00Z","end_local":"2024-04-27T16:00:00","updated":"2024-06-12T10:11:01Z"},{"title":"Championnat National - Relegation Round - Réal Sport vs Dynamique Djougou","description":"Sourced from predicthq.com","category":"sports","start":"2024-04-27T15:00:00Z","geo":{"geometry":{"coordinates":[2.431084515,8.496414998],"type":"Point"},"placekey":"@b8j-2xm-73q","address":{"country_code":"BJ","formatted_address":"FCVJ+VC, Ouesse, Benin","locality":"Ouesse","region":"Collines Department"}},"labels":["soccer","sport"],"duration":0,"start_local":"2024-04-27T16:00:00","end":"2024-04-27T15:00:00Z","end_local":"2024-04-27T16:00:00","updated":"2024-06-12T07:59:52Z"},{"title":"Championnat National - Championship Round - Bani Gansè vs AS Cotonou","description":"Sourced from predicthq.com","category":"sports","start":"2024-04-27T15:00:00Z","geo":{"geometry":{"coordinates":[2.435417937,11.302327356],"type":"Point"},"placekey":"@b8t-xpj-52k","address":{"country_code":"BJ","formatted_address":"8C2P+W42, Banikoara, Benin","locality":"Banikoara","region":"Alibori Department"}},"labels":["soccer","sport"],"duration":0,"start_local":"2024-04-27T16:00:00","end":"2024-04-27T15:00:00Z","end_local":"2024-04-27T16:00:00","updated":"2024-06-12T07:36:35Z"},{"title":"SALON DES UNIVERSITIES DE TURQUIE AU BENIN (SUTAB) TURKISH UNIVERSITIES FAIR  IN BENIN","description":"Sourced from predicthq.com - Salon des Universités de Turquie au Bénin (SUTAB) est un événement où les universités turques viennent rencontrer les étudiants béninois en","category":"festivals","start":"2024-04-26T08:00:00Z","geo":{"geometry":{"coordinates":[2.435767100000001,6.3518051],"type":"Point"},"placekey":"@b8n-r29-vzz","address":{"country_code":"BJ","formatted_address":"Cotonou, Littoral, Benin","locality":"Cotonou","region":"Littoral"}},"labels":["festival"],"duration":115200,"start_local":"2024-04-26T09:00:00","end":"2024-04-27T16:00:00Z","end_local":"2024-04-27T17:00:00","updated":"2024-06-05T18:20:50Z"},{"title":"Championnat National - Relegation Round - Réal Sport vs Panthères","description":"Sourced from predicthq.com","category":"sports","start":"2024-04-21T15:00:00Z","geo":{"geometry":{"coordinates":[2.431084515,8.496414998],"type":"Point"},"placekey":"@b8j-2xm-73q","address":{"country_code":"BJ","formatted_address":"FCVJ+VC, Ouesse, Benin","locality":"Ouesse","region":"Collines Department"}},"labels":["soccer","sport"],"duration":0,"start_local":"2024-04-21T16:00:00","end":"2024-04-21T15:00:00Z","end_local":"2024-04-21T16:00:00","updated":"2024-06-12T16:49:58Z"},{"title":"Championnat National - Relegation Round - JSO vs Adjidja","description":"Sourced from predicthq.com","category":"sports","start":"2024-04-21T15:00:00Z","geo":{"geometry":{"coordinates":[2.074035509,6.358693439],"type":"Point"},"placekey":"@b8n-h2r-575","address":{"country_code":"BJ","formatted_address":"935F+FJ3, Ouidah, Benin","locality":"Ouidah","region":"Atlantique Department"}},"labels":["soccer","sport"],"duration":0,"start_local":"2024-04-21T16:00:00","end":"2024-04-21T15:00:00Z","end_local":"2024-04-21T16:00:00","updated":"2024-06-12T18:09:13Z"},{"title":"Championnat National - Relegation Round - Tonnerre vs Béké Bembèrèkè","description":"Sourced from predicthq.com","category":"sports","start":"2024-04-21T15:00:00Z","geo":{"geometry":{"coordinates":[2.080216093,7.17452585],"type":"Point"},"placekey":"@b8p-vbh-92k","address":{"country_code":"BJ","formatted_address":"53FH+7XW, Bohicon, Benin","locality":"Bohicon","region":"Zou Department"}},"labels":["soccer","sport"],"duration":0,"start_local":"2024-04-21T16:00:00","end":"2024-04-21T15:00:00Z","end_local":"2024-04-21T16:00:00","updated":"2024-06-11T22:10:23Z"},{"title":"Championnat National - Relegation Round - Buffles vs Hodio","description":"Sourced from predicthq.com","category":"sports","start":"2024-04-21T15:00:00Z","geo":{"geometry":{"coordinates":[2.6365746,9.3431448],"type":"Point"},"placekey":"@b8t-cth-rx5","address":{"country_code":"BJ","formatted_address":"Parakou, Borgou, Benin","locality":"Parakou","region":"Borgou"}},"labels":["soccer","sport"],"duration":0,"start_local":"2024-04-21T16:00:00","end":"2024-04-21T15:00:00Z","end_local":"2024-04-21T16:00:00","updated":"2024-06-12T19:06:00Z"},{"title":"Championnat National - Relegation Round - JAK vs Aziza","description":"Sourced from predicthq.com","category":"sports","start":"2024-04-21T15:00:00Z","geo":{"geometry":{"coordinates":[2.610854847,7.370093985],"type":"Point"},"placekey":"@b8j-ng2-wkz","address":{"country_code":"BJ","formatted_address":"Unnamed Road, Ketou, Benin","locality":"Ketou","region":"Plateau Department"}},"labels":["soccer","sport"],"duration":0,"start_local":"2024-04-21T16:00:00","end":"2024-04-21T15:00:00Z","end_local":"2024-04-21T16:00:00","updated":"2024-06-12T18:35:52Z"},{"title":"Championnat National - Relegation Round - Etoile Filante vs Avrankou Omnisport","description":"Sourced from predicthq.com","category":"sports","start":"2024-04-21T15:00:00Z","geo":{"geometry":{"coordinates":[2.3411231390425926,6.410897870827214],"type":"Point"},"placekey":"@b8n-tcr-2kz","address":{"country_code":"BJ","formatted_address":"Abomey Calavi, Benin","locality":"Abomey Calavi"}},"labels":["soccer","sport"],"duration":0,"start_local":"2024-04-21T16:00:00","end":"2024-04-21T15:00:00Z","end_local":"2024-04-21T16:00:00","updated":"2024-06-11T22:12:04Z"},{"title":"Championnat National - Relegation Round - Aïnonvi vs Djeffa","description":"Sourced from predicthq.com","category":"sports","start":"2024-04-20T15:00:00Z","geo":{"geometry":{"coordinates":[2.6072895526885986,6.380764351257562],"type":"Point"},"placekey":"@b8n-r77-rff","address":{"country_code":"BJ","formatted_address":"Seme-Kpodji, Benin","locality":"Seme-Kpodji"}},"labels":["soccer","sport"],"duration":0,"start_local":"2024-04-20T16:00:00","end":"2024-04-20T15:00:00Z","end_local":"2024-04-20T16:00:00","updated":"2024-06-12T02:03:22Z"},{"title":"Championnat National - Relegation Round - Dynamique Djougou vs Soleil","description":"Sourced from predicthq.com","category":"sports","start":"2024-04-20T15:00:00Z","geo":{"geometry":{"coordinates":[1.670286655,9.706423842],"type":"Point"},"placekey":"@b8t-k3h-b8v","address":{"country_code":"BJ","formatted_address":"Djougou, Benin","locality":"Djougou","region":"Donga Department"}},"labels":["soccer","sport"],"duration":0,"start_local":"2024-04-20T16:00:00","end":"2024-04-20T15:00:00Z","end_local":"2024-04-20T16:00:00","updated":"2024-06-11T22:01:57Z"},{"title":"Championnat National - Relegation Round - Police vs ASVO","description":"Sourced from predicthq.com","category":"sports","start":"2024-04-20T15:00:00Z","geo":{"geometry":{"coordinates":[2.4489806,6.3670331],"type":"Point"},"placekey":"@b8n-r25-wtv","address":{"country_code":"BJ","formatted_address":"9C8X+JJ4, Cotonou, Benin","locality":"Cotonou","region":"Littoral Department"}},"labels":["soccer","sport"],"duration":0,"start_local":"2024-04-20T16:00:00","end":"2024-04-20T15:00:00Z","end_local":"2024-04-20T16:00:00","updated":"2024-06-12T16:39:43Z"},{"title":"Championnat National - Relegation Round - Abeilles vs Dynamo Parakou","description":"Sourced from predicthq.com","category":"sports","start":"2024-04-20T15:00:00Z","geo":{"geometry":{"coordinates":[2.5929082393646308,8.890318726886274],"type":"Point"},"placekey":"@b8j-4ng-fj9","address":{"country_code":"BJ","formatted_address":"VHRV+335, Tchaourou, Benin","locality":"Tchaourou","region":"Borgou Department"}},"labels":["soccer","sport"],"duration":0,"start_local":"2024-04-20T16:00:00","end":"2024-04-20T15:00:00Z","end_local":"2024-04-20T16:00:00","updated":"2024-06-12T03:15:32Z"},{"title":"Salon National d'Orientation et de Stages Professionnels ( SaNOSPro)","description":"Sourced from predicthq.com - Le SaNOSPro  vise à créer une plateforme dynamique de collaboration entre des entreprises et les jeunes diplômés en quête de stages","category":"conferences","start":"2024-04-18T08:00:00Z","geo":{"geometry":{"coordinates":[2.346815299999999,6.450289499999999],"type":"Point"},"placekey":"@b8n-tcw-fcq","address":{"country_code":"BJ","formatted_address":"Abomey Calavi, Atlantique, Benin","locality":"Abomey Calavi","region":"Atlantique"}},"labels":["business","conference"],"duration":28800,"start_local":"2024-04-18T09:00:00","end":"2024-04-18T16:00:00Z","end_local":"2024-04-18T17:00:00","updated":"2024-06-04T22:12:28Z"},{"title":"Championnat National - Relegation Round - ASVO vs Aziza","description":"Sourced from predicthq.com","category":"sports","start":"2024-04-17T15:00:00Z","geo":{"geometry":{"coordinates":[2.486598905,6.713357242],"type":"Point"},"placekey":"@b8p-rf6-yy9","address":{"country_code":"BJ","formatted_address":"Adjohoun, Benin","locality":"Adjohoun"}},"labels":["soccer","sport"],"duration":0,"start_local":"2024-04-17T16:00:00","end":"2024-04-17T15:00:00Z","end_local":"2024-04-17T16:00:00","updated":"2024-06-12T04:22:35Z"},{"title":"Championnat National - Relegation Round - Dynamo Parakou vs Tonnerre","description":"Sourced from predicthq.com","category":"sports","start":"2024-04-17T15:00:00Z","geo":{"geometry":{"coordinates":[2.6365746,9.3431448],"type":"Point"},"placekey":"@b8t-cth-rx5","address":{"country_code":"BJ","formatted_address":"Parakou, Borgou, Benin","locality":"Parakou","region":"Borgou"}},"labels":["soccer","sport"],"duration":0,"start_local":"2024-04-17T16:00:00","end":"2024-04-17T15:00:00Z","end_local":"2024-04-17T16:00:00","updated":"2024-06-12T08:46:58Z"},{"title":"Championnat National - Relegation Round - Panthères vs Soleil","description":"Sourced from predicthq.com","category":"sports","start":"2024-04-17T15:00:00Z","geo":{"geometry":{"coordinates":[1.670286655,9.706423842],"type":"Point"},"placekey":"@b8t-k3h-b8v","address":{"country_code":"BJ","formatted_address":"Djougou, Benin","locality":"Djougou","region":"Donga Department"}},"labels":["soccer","sport"],"duration":0,"start_local":"2024-04-17T16:00:00","end":"2024-04-17T15:00:00Z","end_local":"2024-04-17T16:00:00","updated":"2024-06-12T00:09:40Z"},{"title":"Championnat National - Relegation Round - Aïnonvi vs JSO","description":"Sourced from predicthq.com","category":"sports","start":"2024-04-17T15:00:00Z","geo":{"geometry":{"coordinates":[2.6072895526885986,6.380764351257562],"type":"Point"},"placekey":"@b8n-r77-rff","address":{"country_code":"BJ","formatted_address":"Seme-Kpodji, Benin","locality":"Seme-Kpodji"}},"labels":["soccer","sport"],"duration":0,"start_local":"2024-04-17T16:00:00","end":"2024-04-17T15:00:00Z","end_local":"2024-04-17T16:00:00","updated":"2024-06-12T06:03:20Z"},{"title":"Championnat National - Relegation Round - Djeffa vs Etoile Filante","description":"Sourced from predicthq.com","category":"sports","start":"2024-04-17T15:00:00Z","geo":{"geometry":{"coordinates":[2.4489806,6.3670331],"type":"Point"},"placekey":"@b8n-r25-wtv","address":{"country_code":"BJ","formatted_address":"9C8X+JJ4, Cotonou, Benin","locality":"Cotonou","region":"Littoral Department"}},"labels":["soccer","sport"],"duration":0,"start_local":"2024-04-17T16:00:00","end":"2024-04-17T15:00:00Z","end_local":"2024-04-17T16:00:00","updated":"2024-06-11T22:43:19Z"},{"title":"Championnat National - Relegation Round - Hodio vs Dynamique Djougou","description":"Sourced from predicthq.com","category":"sports","start":"2024-04-17T15:00:00Z","geo":{"geometry":{"coordinates":[1.868146516,6.428616528],"type":"Point"},"placekey":"@b8n-hg7-yy9","address":{"country_code":"BJ","formatted_address":"Unnamed Road, CVH9+C5W, Come, Benin","locality":"Come","region":"Mono Department"}},"labels":["soccer","sport"],"duration":0,"start_local":"2024-04-17T16:00:00","end":"2024-04-17T15:00:00Z","end_local":"2024-04-17T16:00:00","updated":"2024-06-12T04:49:34Z"},{"title":"Championnat National - Relegation Round - Avrankou Omnisport vs Police","description":"Sourced from predicthq.com","category":"sports","start":"2024-04-17T15:00:00Z","geo":{"geometry":{"coordinates":[2.6531124114,6.5567536431],"type":"Point"},"placekey":"@b8n-qxq-wff","address":{"country_code":"BJ","formatted_address":"Avrankou, Benin","locality":"Avrankou"}},"labels":["soccer","sport"],"duration":0,"start_local":"2024-04-17T16:00:00","end":"2024-04-17T15:00:00Z","end_local":"2024-04-17T16:00:00","updated":"2024-06-11T21:37:34Z"},{"title":"Championnat National - Relegation Round - Béké Bembèrèkè vs Réal Sport","description":"Sourced from predicthq.com","category":"sports","start":"2024-04-17T15:00:00Z","geo":{"geometry":{"coordinates":[2.6781813390311893,10.243057064138837],"type":"Point"},"placekey":"@b8s-s88-n89","address":{"country_code":"BJ","formatted_address":"6MVJ+FC7, Bembereke, Benin","locality":"Bembereke","region":"Borgou Department"}},"labels":["soccer","sport"],"duration":0,"start_local":"2024-04-17T16:00:00","end":"2024-04-17T15:00:00Z","end_local":"2024-04-17T16:00:00","updated":"2024-06-12T01:34:49Z"},{"title":"Championnat National - Relegation Round - Adjidja vs JAK","description":"Sourced from predicthq.com","category":"sports","start":"2024-04-17T15:00:00Z","geo":{"geometry":{"coordinates":[2.110468752,6.84310389],"type":"Point"},"placekey":"@b8p-qfv-rc5","address":{"country_code":"BJ","formatted_address":"Toffo, Benin","locality":"Toffo"}},"labels":["soccer","sport"],"duration":0,"start_local":"2024-04-17T16:00:00","end":"2024-04-17T15:00:00Z","end_local":"2024-04-17T16:00:00","updated":"2024-06-12T17:39:43Z"},{"title":"Championnat National - Relegation Round - Abeilles vs Buffles","description":"Sourced from predicthq.com","category":"sports","start":"2024-04-17T15:00:00Z","geo":{"geometry":{"coordinates":[2.5929082393646308,8.890318726886274],"type":"Point"},"placekey":"@b8j-4ng-fj9","address":{"country_code":"BJ","formatted_address":"VHRV+335, Tchaourou, Benin","locality":"Tchaourou","region":"Borgou Department"}},"labels":["soccer","sport"],"duration":0,"start_local":"2024-04-17T16:00:00","end":"2024-04-17T15:00:00Z","end_local":"2024-04-17T16:00:00","updated":"2024-06-12T04:57:01Z"},{"title":"Cotonou à Vélo 2024","description":"Sourced from predicthq.com - L'Ambassade des Pays-Bas est de retour avec la 6eme édition de Cotonou à vélo. Faire du velo c'est sain et sportif! Rejoignez Nous le 14/4","category":"community","start":"2024-04-14T06:00:00Z","geo":{"geometry":{"coordinates":[2.4196804,6.352473],"type":"Point"},"placekey":"@b8n-tbj-mkz","address":{"country_code":"BJ","formatted_address":"Avenue Jean-Paul II, Cotonou, Benin","locality":"Cotonou","region":"Littoral Department"}},"labels":["community","sport"],"duration":10800,"start_local":"2024-04-14T07:00:00","end":"2024-04-14T09:00:00Z","end_local":"2024-04-14T10:00:00","updated":"2024-06-05T04:42:56Z"},{"title":"Championnat National - Championship Round - Damissa vs Requins","description":"Sourced from predicthq.com","category":"sports","start":"2024-04-07T15:00:00Z","geo":{"geometry":{"coordinates":[2.7106583040360874,9.85464464528479],"type":"Point"},"placekey":"@b8t-tmy-vj9","address":{"country_code":"BJ","formatted_address":"VP36+V7 N’Dali, Benin","locality":"N’Dali","region":"Borgou Department"}},"labels":["soccer","sport"],"duration":0,"start_local":"2024-04-07T16:00:00","end":"2024-04-07T15:00:00Z","end_local":"2024-04-07T16:00:00","updated":"2024-06-11T22:19:26Z"},{"title":"Championnat National - Championship Round - Espoir Savalou vs JSP","description":"Sourced from predicthq.com","category":"sports","start":"2024-04-07T15:00:00Z","geo":{"geometry":{"coordinates":[1.9834613800048828,7.926671743780086],"type":"Point"},"placekey":"@b8j-rp2-vpv","address":{"country_code":"BJ","formatted_address":"WXGM+97, Savalou, Benin","locality":"Savalou","region":"Collines Department"}},"labels":["soccer","sport"],"duration":0,"start_local":"2024-04-07T16:00:00","end":"2024-04-07T15:00:00Z","end_local":"2024-04-07T16:00:00","updated":"2024-06-12T02:43:40Z"},{"title":"Championnat National - Championship Round - Sobemap vs Loto Popo","description":"Sourced from predicthq.com","category":"sports","start":"2024-04-07T15:00:00Z","geo":{"geometry":{"coordinates":[2.6531124114,6.5567536431],"type":"Point"},"placekey":"@b8n-qxq-wff","address":{"country_code":"BJ","formatted_address":"Avrankou, Benin","locality":"Avrankou"}},"labels":["soccer","sport"],"duration":0,"start_local":"2024-04-07T16:00:00","end":"2024-04-07T15:00:00Z","end_local":"2024-04-07T16:00:00","updated":"2024-06-12T19:15:47Z"},{"title":"Championnat National - Championship Round - Takunnin vs ASPAC","description":"Sourced from predicthq.com","category":"sports","start":"2024-04-07T15:00:00Z","geo":{"geometry":{"coordinates":[2.937456822090132,11.137462736612378],"type":"Point"},"placekey":"@b8v-64q-t7q","address":{"country_code":"BJ","formatted_address":"4WPP+XXW, Kandi, Benin","locality":"Kandi","region":"Alibori Department"}},"labels":["soccer","sport"],"duration":0,"start_local":"2024-04-07T16:00:00","end":"2024-04-07T15:00:00Z","end_local":"2024-04-07T16:00:00","updated":"2024-06-12T02:31:57Z"},{"title":"Championnat National - Championship Round - Dadjè vs Dragons","description":"Sourced from predicthq.com","category":"sports","start":"2024-04-06T15:00:00Z","geo":{"geometry":{"coordinates":[1.681492805,6.964684458],"type":"Point"},"placekey":"@b8p-x5s-bhq","address":{"country_code":"BJ","formatted_address":"XM7J+VH Aplahoue, Benin","locality":"Aplahoue","region":"Kouffo Department"}},"labels":["soccer","sport"],"duration":0,"start_local":"2024-04-06T16:00:00","end":"2024-04-06T15:00:00Z","end_local":"2024-04-06T16:00:00","updated":"2024-06-12T01:41:09Z"},{"title":"Championnat National - Championship Round - Coton Sport Ouidah vs Cavaliers","description":"Sourced from predicthq.com","category":"sports","start":"2024-04-06T15:00:00Z","geo":{"geometry":{"coordinates":[2.074035509,6.358693439],"type":"Point"},"placekey":"@b8n-h2r-575","address":{"country_code":"BJ","formatted_address":"935F+FJ3, Ouidah, Benin","locality":"Ouidah","region":"Atlantique Department"}},"labels":["soccer","sport"],"duration":0,"start_local":"2024-04-06T16:00:00","end":"2024-04-06T15:00:00Z","end_local":"2024-04-06T16:00:00","updated":"2024-06-12T11:19:52Z"},{"title":"Championnat National - Championship Round - AS Cotonou vs Bani Gansè","description":"Sourced from predicthq.com","category":"sports","start":"2024-04-06T15:00:00Z","geo":{"geometry":{"coordinates":[2.4489806,6.3670331],"type":"Point"},"placekey":"@b8n-r25-wtv","address":{"country_code":"BJ","formatted_address":"9C8X+JJ4, Cotonou, Benin","locality":"Cotonou","region":"Littoral Department"}},"labels":["soccer","sport"],"duration":0,"start_local":"2024-04-06T16:00:00","end":"2024-04-06T15:00:00Z","end_local":"2024-04-06T16:00:00","updated":"2024-06-12T02:09:33Z"},{"title":"Championnat National - Championship Round - Ayema vs Dynamo Abomey","description":"Sourced from predicthq.com","category":"sports","start":"2024-04-06T15:00:00Z","geo":{"geometry":{"coordinates":[2.650692061,6.955772858],"type":"Point"},"placekey":"@b8h-myz-nyv","address":{"country_code":"BJ","formatted_address":"Unnamed Road, XM42+877, Pobe, Benin","locality":"Pobe","region":"Plateau Department"}},"labels":["soccer","sport"],"duration":0,"start_local":"2024-04-06T16:00:00","end":"2024-04-06T15:00:00Z","end_local":"2024-04-06T16:00:00","updated":"2024-06-11T21:33:52Z"}]