[{"title":"Powerade 5K Run and Walk","description":"Sourced from predicthq.com","category":"sports","start":"2024-07-07T10:45:00Z","geo":{"geometry":{"coordinates":[-64.7612372,32.3009992],"type":"Point"},"placekey":"@62t-hdc-gkz","address":{"country_code":"BM","formatted_address":"Orange Valley Road, Bermuda","region":"Devonshire Parish"}},"labels":["outdoor-sports","running","sport"],"duration":0,"start_local":"2024-07-07T07:45:00","end":"2024-07-07T10:45:00Z","end_local":"2024-07-07T07:45:00","updated":"2024-06-04T05:23:44Z"},{"title":"Race for Grace Island","description":"Sourced from predicthq.com","category":"sports","start":"2024-06-30T11:30:00Z","geo":{"geometry":{"coordinates":[-64.7505,32.3078],"type":"Point"},"placekey":"@62t-hfx-sqz","address":{"country_code":"BM","formatted_address":"Margarita Lane, Devonshire, Bermuda","locality":"Devonshire","region":"Devonshire Parish"}},"labels":["outdoor-sports","running","sport"],"duration":0,"start_local":"2024-06-30T08:30:00","end":"2024-06-30T11:30:00Z","end_local":"2024-06-30T08:30:00","updated":"2024-05-31T23:12:52Z"},{"title":"Soca In The City Featuring Destra and Mical Teja","description":"Sourced from predicthq.com - Envy Productions and Back2Basics presents Soca In The City on Saturday, June 15 at BAA Car Park.  Performing live is Destra and Mical Teja.","category":"concerts","start":"2024-06-28T13:00:00Z","geo":{"geometry":{"coordinates":[-64.7888478,32.2967661],"type":"Point"},"placekey":"@62t-hdg-skf","address":{"country_code":"BM","formatted_address":"Par-La-Ville Road, Hamilton, Bermuda","locality":"Hamilton","region":"Pembroke Parish"}},"labels":["concert","music"],"duration":7200,"start_local":"2024-06-28T10:00:00","end":"2024-06-28T15:00:00Z","end_local":"2024-06-28T12:00:00","updated":"2024-05-23T05:28:40Z"},{"title":"Devil's Mile","description":"Sourced from predicthq.com","category":"sports","start":"2024-06-23T14:00:00Z","geo":{"geometry":{"coordinates":[-64.7269839,32.3333988],"type":"Point"},"placekey":"@62t-n3t-btv","address":{"country_code":"BM","formatted_address":"Trunk Island, Hamilton, Bermuda","locality":"Hamilton","region":"Hamilton Parish"}},"labels":["outdoor-sports","running","sport"],"duration":0,"start_local":"2024-06-23T11:00:00","end":"2024-06-23T14:00:00Z","end_local":"2024-06-23T11:00:00","updated":"2024-06-04T00:36:26Z"},{"title":"The Island Fresh 5k Food Run","description":"Sourced from predicthq.com","category":"sports","start":"2024-06-23T11:30:00Z","geo":{"geometry":{"coordinates":[-64.7606954,32.3038062],"type":"Point"},"placekey":"@62t-hdc-ecq","address":{"country_code":"BM","formatted_address":"Devonshire Parish, Bermuda","region":"Devonshire Parish"}},"labels":["outdoor-sports","running","sport"],"duration":0,"start_local":"2024-06-23T08:30:00","end":"2024-06-23T11:30:00Z","end_local":"2024-06-23T08:30:00","updated":"2024-06-04T10:45:27Z"},{"title":"You Go Girl!","description":"Sourced from predicthq.com","category":"sports","start":"2024-06-02T11:30:00Z","geo":{"geometry":{"coordinates":[-64.7842417,32.2950716],"type":"Point"},"placekey":"@62t-hdg-nt9","address":{"country_code":"BM","formatted_address":"Cedar Avenue, Hamilton, Bermuda","locality":"Hamilton","region":"Pembroke Parish"}},"labels":["outdoor-sports","running","sport"],"duration":0,"start_local":"2024-06-02T08:30:00","end":"2024-06-02T11:30:00Z","end_local":"2024-06-02T08:30:00","updated":"2024-06-04T07:32:52Z"},{"title":"Rugby Union Internationals - Friendlies 3 - Bermuda vs Bahamas","description":"Sourced from predicthq.com","category":"sports","start":"2024-06-01T20:00:00Z","geo":{"geometry":{"coordinates":[-64.77005730677095,32.30079584164746],"type":"Point"},"placekey":"@62t-hdc-vxq","address":{"country_code":"BM","formatted_address":"Frog Lane, Devonshire, Bermuda","locality":"Devonshire","region":"Devonshire Parish"}},"labels":["rugby","sport"],"duration":0,"start_local":"2024-06-01T17:00:00","end":"2024-06-01T20:00:00Z","end_local":"2024-06-01T17:00:00","updated":"2024-06-12T16:33:50Z"},{"title":"MSA Color Me 5K - Hamilton","description":"Sourced from predicthq.com","category":"sports","start":"2024-05-31T21:00:00Z","geo":{"geometry":{"coordinates":[-64.7852759,32.2966033],"type":"Point"},"placekey":"@62t-hdg-r8v","address":{"country_code":"BM","formatted_address":"Dundonald Street, Hamilton, Bermuda","locality":"Hamilton","region":"Pembroke Parish"}},"labels":["outdoor-sports","running","sport"],"duration":0,"start_local":"2024-05-31T18:00:00","end":"2024-05-31T21:00:00Z","end_local":"2024-05-31T18:00:00","updated":"2024-06-04T22:41:20Z"},{"title":"Bermuda Half Marathon Derby","description":"Sourced from predicthq.com","category":"sports","start":"2024-05-24T12:00:00Z","geo":{"geometry":{"coordinates":[-64.8659279,32.3009651],"type":"Point"},"placekey":"@62t-hf3-r8v","address":{"country_code":"BM","formatted_address":"Mount Pleasant Road, Sandys MA 02, Bermuda","locality":"Sandys","postcode":"MA 02","region":"Sandys Parish"}},"labels":["marathon","outdoor-sports","running","sport"],"duration":0,"start_local":"2024-05-24T09:00:00","end":"2024-05-24T12:00:00Z","end_local":"2024-05-24T09:00:00","updated":"2024-05-31T23:15:00Z"},{"title":"Sinclair Packwood Memorial Race","description":"Sourced from predicthq.com","category":"sports","start":"2024-05-24T11:20:00Z","geo":{"geometry":{"coordinates":[-64.8729375,32.296578],"type":"Point"},"placekey":"@62t-hf4-9xq","address":{"country_code":"BM","formatted_address":"Somerset Road, Sandys MA 04, Bermuda","locality":"Sandys","postcode":"MA 04","region":"Sandys Parish"}},"labels":["outdoor-sports","running","sport"],"duration":0,"start_local":"2024-05-24T08:20:00","end":"2024-05-24T11:20:00Z","end_local":"2024-05-24T08:20:00","updated":"2024-06-05T13:02:33Z"},{"title":"Waterfront Wellness 5K Run + Walk","description":"Sourced from predicthq.com","category":"sports","start":"2024-05-12T11:30:00Z","geo":{"geometry":{"coordinates":[-64.7842417,32.2950716],"type":"Point"},"placekey":"@62t-hdg-nt9","address":{"country_code":"BM","formatted_address":"Cedar Avenue, Hamilton, Bermuda","locality":"Hamilton","region":"Pembroke Parish"}},"labels":["outdoor-sports","running","sport"],"duration":0,"start_local":"2024-05-12T08:30:00","end":"2024-05-12T11:30:00Z","end_local":"2024-05-12T08:30:00","updated":"2024-06-05T01:57:06Z"},{"title":"VT Construction Criterium","description":"Sourced from predicthq.com","category":"sports","start":"2024-05-12T11:00:00Z","geo":{"geometry":{"coordinates":[-64.7505,32.3078],"type":"Point"},"placekey":"@62t-hfx-sqz","address":{"country_code":"BM","formatted_address":"Margarita Lane, Devonshire, Bermuda","locality":"Devonshire","region":"Devonshire Parish"}},"labels":["outdoor-sports","running","sport"],"duration":0,"start_local":"2024-05-12T08:00:00","end":"2024-05-12T11:00:00Z","end_local":"2024-05-12T08:00:00","updated":"2024-06-05T13:03:33Z"},{"title":"Swan's Sir Stanley Burgess 5K Run/Walk","description":"Sourced from predicthq.com","category":"sports","start":"2024-05-05T11:00:00Z","geo":{"geometry":{"coordinates":[-64.7688048,32.3010307],"type":"Point"},"placekey":"@62t-hdc-vpv","address":{"country_code":"BM","formatted_address":"BFA Way, Devonshire, Bermuda","locality":"Devonshire","region":"Devonshire Parish"}},"labels":["outdoor-sports","running","sport"],"duration":0,"start_local":"2024-05-05T08:00:00","end":"2024-05-05T11:00:00Z","end_local":"2024-05-05T08:00:00","updated":"2024-06-04T22:05:52Z"},{"title":"Rugby Union Internationals - Friendlies 3 - Bermuda vs Cayman Islands","description":"Sourced from predicthq.com","category":"sports","start":"2024-05-04T20:30:00Z","geo":{"geometry":{"coordinates":[-64.77005730677095,32.30079584164746],"type":"Point"},"placekey":"@62t-hdc-vxq","address":{"country_code":"BM","formatted_address":"Frog Lane, Devonshire, Bermuda","locality":"Devonshire","region":"Devonshire Parish"}},"labels":["rugby","sport"],"duration":0,"start_local":"2024-05-04T17:30:00","end":"2024-05-04T20:30:00Z","end_local":"2024-05-04T17:30:00","updated":"2024-06-12T06:55:18Z"},{"title":"The Warwick Academy Fun Run and Walk","description":"Sourced from predicthq.com","category":"sports","start":"2024-04-28T11:30:00Z","geo":{"geometry":{"coordinates":[-64.794117,32.276172],"type":"Point"},"placekey":"@62t-hd5-dn5","address":{"country_code":"BM","formatted_address":"Middle Road, PG 01, Bermuda","postcode":"PG 01","region":"Warwick Parish"}},"labels":["outdoor-sports","running","sport"],"duration":0,"start_local":"2024-04-28T08:30:00","end":"2024-04-28T11:30:00Z","end_local":"2024-04-28T08:30:00","updated":"2024-06-05T13:40:34Z"},{"title":"BNG Run for the Arts 5k Run & Walk","description":"Sourced from predicthq.com","category":"sports","start":"2024-04-21T11:30:00Z","geo":{"geometry":{"coordinates":[-64.7736188,32.2995277],"type":"Point"},"placekey":"@62t-hdc-7qz","address":{"country_code":"BM","formatted_address":"Parson's Road, Bermuda","region":"Pembroke Parish"}},"labels":["outdoor-sports","running","sport"],"duration":0,"start_local":"2024-04-21T08:30:00","end":"2024-04-21T11:30:00Z","end_local":"2024-04-21T08:30:00","updated":"2024-06-05T02:00:32Z"},{"title":"Winners Edge Individual Time Trial","description":"Sourced from predicthq.com","category":"sports","start":"2024-04-21T10:15:00Z","geo":{"geometry":{"coordinates":[-64.7760893,32.278035],"type":"Point"},"placekey":"@62t-hd5-pqf","address":{"country_code":"BM","formatted_address":"Cataract Hill, PG 04, Bermuda","postcode":"PG 04","region":"Paget Parish"}},"labels":["outdoor-sports","running","sport"],"duration":0,"start_local":"2024-04-21T07:15:00","end":"2024-04-21T10:15:00Z","end_local":"2024-04-21T07:15:00","updated":"2024-06-05T12:17:57Z"},{"title":"CBA 5K Run/Walk","description":"Sourced from predicthq.com","category":"sports","start":"2024-04-14T12:00:00Z","geo":{"geometry":{"coordinates":[-64.7669935,32.3028272],"type":"Point"},"placekey":"@62t-hdc-yd9","address":{"country_code":"BM","formatted_address":"Devonshire Parish, Bermuda","region":"Devonshire Parish"}},"labels":["outdoor-sports","running","sport"],"duration":0,"start_local":"2024-04-14T09:00:00","end":"2024-04-14T12:00:00Z","end_local":"2024-04-14T09:00:00","updated":"2024-06-12T10:11:38Z"},{"title":"RenaissanceRe 5/10 Mile Challenge","description":"Sourced from predicthq.com","category":"sports","start":"2024-04-14T11:30:00Z","geo":{"geometry":{"coordinates":[-64.7606954,32.3038062],"type":"Point"},"placekey":"@62t-hdc-ecq","address":{"country_code":"BM","formatted_address":"Devonshire Parish, Bermuda","region":"Devonshire Parish"}},"labels":["outdoor-sports","running","sport"],"duration":0,"start_local":"2024-04-14T08:30:00","end":"2024-04-14T11:30:00Z","end_local":"2024-04-14T08:30:00","updated":"2024-06-04T23:20:59Z"},{"title":"Winners Edge Road Race","description":"Sourced from predicthq.com","category":"sports","start":"2024-04-14T11:00:00Z","geo":{"geometry":{"coordinates":[-64.7505,32.3078],"type":"Point"},"placekey":"@62t-hfx-sqz","address":{"country_code":"BM","formatted_address":"Margarita Lane, Devonshire, Bermuda","locality":"Devonshire","region":"Devonshire Parish"}},"labels":["outdoor-sports","running","sport"],"duration":0,"start_local":"2024-04-14T08:00:00","end":"2024-04-14T11:00:00Z","end_local":"2024-04-14T08:00:00","updated":"2024-06-05T07:49:37Z"},{"title":"The Ludwig Cann 5K Road Race","description":"Sourced from predicthq.com","category":"sports","start":"2024-04-07T11:00:00Z","geo":{"geometry":{"coordinates":[-64.800303,32.2624681],"type":"Point"},"placekey":"@62t-hd9-9xq","address":{"country_code":"BM","formatted_address":"South Road, Warwick, Bermuda","locality":"Warwick","region":"Warwick Parish"}},"labels":["outdoor-sports","running","sport"],"duration":0,"start_local":"2024-04-07T08:00:00","end":"2024-04-07T11:00:00Z","end_local":"2024-04-07T08:00:00","updated":"2024-06-05T00:49:06Z"}]