[{"title":"Premier League - DPMM vs Tampines Rovers","description":"Sourced from predicthq.com","category":"sports","start":"2024-09-22T12:15:00Z","geo":{"geometry":{"coordinates":[114.94545578956604,4.929044733592593],"type":"Point"},"placekey":"@cp6-78c-gc5","address":{"country_code":"BN","formatted_address":"Jalan Stadium, Bandar Seri Begawan BB4313, Brunei","postcode":"BB4313","locality":"Bandar Seri Begawan","region":"Daerah Brunei-Muara"}},"labels":["soccer","sport"],"duration":0,"start_local":"2024-09-22T20:15:00","end":"2024-09-22T12:15:00Z","end_local":"2024-09-22T20:15:00","updated":"2024-06-10T23:52:00Z"},{"title":"September Equinox","description":"Sourced from predicthq.com","category":"observances","start":"2024-09-22T00:00:00Z","geo":{"geometry":{"coordinates":[114.727669,4.535277],"type":"Point"},"address":{"country_code":"BN","formatted_address":"Brunei Darussalam"}},"labels":["holiday","observance","observance-season"],"duration":86399,"start_local":"2024-09-22T00:00:00","end":"2024-09-22T23:59:59Z","end_local":"2024-09-22T23:59:59","updated":"2024-06-11T01:20:39Z"},{"title":"Milad un Nabi (Mawlid)","description":"Sourced from predicthq.com - Mawlid, or Milad, marks the birth of the Islamic prophet Muhammed, or Mohamed, in the year 570 of the Gregorian calendar.","category":"public-holidays","start":"2024-09-16T00:00:00Z","geo":{"geometry":{"coordinates":[114.727669,4.535277],"type":"Point"},"address":{"country_code":"BN","formatted_address":"Brunei Darussalam"}},"labels":["holiday","holiday-national"],"duration":86399,"start_local":"2024-09-16T00:00:00","end":"2024-09-16T23:59:59Z","end_local":"2024-09-16T23:59:59","updated":"2024-06-11T06:57:20Z"},{"title":"Premier League - DPMM vs Balestier Khalsa","description":"Sourced from predicthq.com","category":"sports","start":"2024-09-15T12:15:00Z","geo":{"geometry":{"coordinates":[114.94545578956604,4.929044733592593],"type":"Point"},"placekey":"@cp6-78c-gc5","address":{"country_code":"BN","formatted_address":"Jalan Stadium, Bandar Seri Begawan BB4313, Brunei","postcode":"BB4313","locality":"Bandar Seri Begawan","region":"Daerah Brunei-Muara"}},"labels":["soccer","sport"],"duration":0,"start_local":"2024-09-15T20:15:00","end":"2024-09-15T12:15:00Z","end_local":"2024-09-15T20:15:00","updated":"2024-06-11T00:13:06Z"},{"title":"Premier League - DPMM vs Tanjong Pagar","description":"Sourced from predicthq.com","category":"sports","start":"2024-08-31T12:15:00Z","geo":{"geometry":{"coordinates":[114.94545578956604,4.929044733592593],"type":"Point"},"placekey":"@cp6-78c-gc5","address":{"country_code":"BN","formatted_address":"Jalan Stadium, Bandar Seri Begawan BB4313, Brunei","postcode":"BB4313","locality":"Bandar Seri Begawan","region":"Daerah Brunei-Muara"}},"labels":["soccer","sport"],"duration":0,"start_local":"2024-08-31T20:15:00","end":"2024-08-31T12:15:00Z","end_local":"2024-08-31T20:15:00","updated":"2024-06-11T03:00:36Z"},{"title":"Premier League - DPMM vs Albirex Niigata S","description":"Sourced from predicthq.com","category":"sports","start":"2024-08-10T12:15:00Z","geo":{"geometry":{"coordinates":[114.94545578956604,4.929044733592593],"type":"Point"},"placekey":"@cp6-78c-gc5","address":{"country_code":"BN","formatted_address":"Jalan Stadium, Bandar Seri Begawan BB4313, Brunei","postcode":"BB4313","locality":"Bandar Seri Begawan","region":"Daerah Brunei-Muara"}},"labels":["soccer","sport"],"duration":0,"start_local":"2024-08-10T20:15:00","end":"2024-08-10T12:15:00Z","end_local":"2024-08-10T20:15:00","updated":"2024-06-11T01:47:44Z"},{"title":"Borneo Run Half Marathon","description":"Sourced from predicthq.com","category":"sports","start":"2024-08-03T22:05:00Z","geo":{"geometry":{"coordinates":[114.194839,4.5891911],"type":"Point"},"placekey":"@cp6-84p-mp9","address":{"country_code":"BN","formatted_address":"Jalan Carey, Kuala Belait, Daerah Belait, Brunei Darussalam","locality":"Kuala Belait","region":"Daerah Belait"}},"labels":["marathon","outdoor-sports","running","sport"],"duration":0,"start_local":"2024-08-04T06:05:00","end":"2024-08-03T22:05:00Z","end_local":"2024-08-04T06:05:00","updated":"2024-06-10T01:13:52Z"},{"title":"Digital Future Conference 2024","description":"Sourced from predicthq.com - Join us to discuss 'Digital Innovation for Sustainable Development' exploring how digital innovation can promote sustainability in Brunei.","category":"conferences","start":"2024-07-30T00:30:00Z","geo":{"geometry":{"coordinates":[114.835235,4.949443599999999],"type":"Point"},"placekey":"@cp6-773-y35","address":{"country_code":"BN","formatted_address":"WRXP+M52 BRIDEX International Conference Centre, Jerudong, Brunei","locality":"Jerudong","region":"Brunei-Muara District"}},"labels":["conference","science","technology"],"duration":117000,"start_local":"2024-07-30T08:30:00","end":"2024-07-31T09:00:00Z","end_local":"2024-07-31T17:00:00","updated":"2024-07-04T11:32:15Z"},{"title":"Premier League - DPMM vs Young Lions","description":"Sourced from predicthq.com","category":"sports","start":"2024-07-27T12:15:00Z","geo":{"geometry":{"coordinates":[114.94545578956604,4.929044733592593],"type":"Point"},"placekey":"@cp6-78c-gc5","address":{"country_code":"BN","formatted_address":"Jalan Stadium, Bandar Seri Begawan BB4313, Brunei","postcode":"BB4313","locality":"Bandar Seri Begawan","region":"Daerah Brunei-Muara"}},"labels":["soccer","sport"],"duration":0,"start_local":"2024-07-27T20:15:00","end":"2024-07-27T12:15:00Z","end_local":"2024-07-27T20:15:00","updated":"2024-06-11T02:19:08Z"},{"title":"Premier League - DPMM vs Hougang United","description":"Sourced from predicthq.com","category":"sports","start":"2024-07-19T12:15:00Z","geo":{"geometry":{"coordinates":[114.94545578956604,4.929044733592593],"type":"Point"},"placekey":"@cp6-78c-gc5","address":{"country_code":"BN","formatted_address":"Jalan Stadium, Bandar Seri Begawan BB4313, Brunei","postcode":"BB4313","locality":"Bandar Seri Begawan","region":"Daerah Brunei-Muara"}},"labels":["soccer","sport"],"duration":0,"start_local":"2024-07-19T20:15:00","end":"2024-07-19T12:15:00Z","end_local":"2024-07-19T20:15:00","updated":"2024-06-10T23:29:31Z"},{"title":"Sultan's Birthday","description":"Sourced from predicthq.com","category":"public-holidays","start":"2024-07-15T00:00:00Z","geo":{"geometry":{"coordinates":[114.727669,4.535277],"type":"Point"},"address":{"country_code":"BN","formatted_address":"Brunei Darussalam"}},"labels":["holiday","holiday-national"],"duration":86399,"start_local":"2024-07-15T00:00:00","end":"2024-07-15T23:59:59Z","end_local":"2024-07-15T23:59:59","updated":"2024-06-11T04:04:58Z"},{"title":"ISTQB® Foundation Training Course for your Testing team - Brunei","description":"Sourced from predicthq.com - ISTQB® FOUNDATION TRAINING COURSE FOR THE TEAM \nThe aim of this course is to provide you with the knowledge and skills to pass an exam certi","category":"conferences","start":"2024-07-08T01:00:00Z","geo":{"geometry":{"coordinates":[114.727669,4.535277],"type":"Point"},"placekey":"@cp6-987-dqf","address":{"country_code":"BN","formatted_address":"Tutong District, Brunei Darussalam","region":"Tutong District"}},"labels":["business","conference"],"duration":28800,"start_local":"2024-07-08T09:00:00","end":"2024-07-08T09:00:00Z","end_local":"2024-07-08T17:00:00","updated":"2024-06-13T01:08:29Z"},{"title":"Day off for Muharram (Muslim New Year)","description":"Sourced from predicthq.com - Muharram is the first month of the Islamic calendar and a time of remembrance or mourning.","category":"public-holidays","start":"2024-07-08T00:00:00Z","geo":{"geometry":{"coordinates":[114.727669,4.535277],"type":"Point"},"address":{"country_code":"BN","formatted_address":"Brunei Darussalam"}},"labels":["holiday","holiday-national","holiday-observed"],"duration":86399,"start_local":"2024-07-08T00:00:00","end":"2024-07-08T23:59:59Z","end_local":"2024-07-08T23:59:59","updated":"2024-06-10T23:53:51Z"},{"title":"Muharram (Muslim New Year)","description":"Sourced from predicthq.com - Muharram is the first month of the Islamic calendar and a time of remembrance or mourning.","category":"public-holidays","start":"2024-07-07T00:00:00Z","geo":{"geometry":{"coordinates":[114.727669,4.535277],"type":"Point"},"address":{"country_code":"BN","formatted_address":"Brunei Darussalam"}},"labels":["holiday","holiday-national"],"duration":86399,"start_local":"2024-07-07T00:00:00","end":"2024-07-07T23:59:59Z","end_local":"2024-07-07T23:59:59","updated":"2024-06-11T02:03:32Z"},{"title":"Moderate Delays - Brunei International Airport (BWN)","description":"Sourced from predicthq.com","category":"airport-delays","start":"2024-07-05T05:30:00Z","geo":{"geometry":{"coordinates":[114.93375,4.945197],"type":"Point"},"address":{"country_code":"BN","formatted_address":"Departure Hall, Brunei International Airport, WWVM+WHF, Jalan Lapangan Terbang Antarabangsa, Bandar Seri Begawan, Brunei","locality":"Bandar Seri Begawan","region":"Daerah Brunei-Muara"}},"labels":["airport","delay"],"duration":5400,"start_local":"2024-07-05T13:30:00","end":"2024-07-05T07:00:00Z","end_local":"2024-07-05T15:00:00","updated":"2024-07-05T08:21:14Z"},{"title":"MAJLIS PENGANUGERAHAN BRUNEI ICT AWARD (BICTA) 2024","description":"Sourced from predicthq.com - An annual event organised to stimulate innovation and creativity in the ICT industry amongst individuals, students and organisations.","category":"conferences","start":"2024-07-03T00:00:00Z","geo":{"geometry":{"coordinates":[114.9490913,4.9249797],"type":"Point"},"placekey":"@cp6-79r-gx5","address":{"country_code":"BN","formatted_address":"Jalan Stadium, Bandar Seri Begawan, Daerah Brunei-Muara BB3910, Brunei Darussalam","postcode":"BB3910","locality":"Bandar Seri Begawan","region":"Daerah Brunei-Muara"}},"labels":["conference","science","technology"],"duration":14400,"start_local":"2024-07-03T08:00:00","end":"2024-07-03T04:00:00Z","end_local":"2024-07-03T12:00:00","updated":"2024-06-26T05:19:23Z"},{"title":"Moderate Delays - Brunei International Airport (BWN)","description":"Sourced from predicthq.com","category":"airport-delays","start":"2024-07-02T03:00:00Z","geo":{"geometry":{"coordinates":[114.93375,4.945197],"type":"Point"},"address":{"country_code":"BN","formatted_address":"Departure Hall, Brunei International Airport, WWVM+WHF, Jalan Lapangan Terbang Antarabangsa, Bandar Seri Begawan, Brunei","locality":"Bandar Seri Begawan","region":"Daerah Brunei-Muara"}},"labels":["airport","delay"],"duration":14400,"start_local":"2024-07-02T11:00:00","end":"2024-07-02T07:00:00Z","end_local":"2024-07-02T15:00:00","updated":"2024-07-02T05:50:45Z"},{"title":"Moderate to Severe Delays - Brunei International Airport (BWN)","description":"Sourced from predicthq.com - * Upgraded to Severe (+1hr)","category":"airport-delays","start":"2024-06-29T03:00:00Z","geo":{"geometry":{"coordinates":[114.93375,4.945197],"type":"Point"},"address":{"country_code":"BN","formatted_address":"Departure Hall, Brunei International Airport, WWVM+WHF, Jalan Lapangan Terbang Antarabangsa, Bandar Seri Begawan, Brunei","locality":"Bandar Seri Begawan","region":"Daerah Brunei-Muara"}},"labels":["airport","delay"],"duration":14400,"start_local":"2024-06-29T11:00:00","end":"2024-06-29T07:00:00Z","end_local":"2024-06-29T15:00:00","updated":"2024-06-29T05:07:15Z"},{"title":"Moderate Delays - Brunei International Airport (BWN)","description":"Sourced from predicthq.com","category":"airport-delays","start":"2024-06-28T05:30:00Z","geo":{"geometry":{"coordinates":[114.93375,4.945197],"type":"Point"},"address":{"country_code":"BN","formatted_address":"Departure Hall, Brunei International Airport, WWVM+WHF, Jalan Lapangan Terbang Antarabangsa, Bandar Seri Begawan, Brunei","locality":"Bandar Seri Begawan","region":"Daerah Brunei-Muara"}},"labels":["airport","delay"],"duration":5400,"start_local":"2024-06-28T13:30:00","end":"2024-06-28T07:00:00Z","end_local":"2024-06-28T15:00:00","updated":"2024-06-28T08:14:11Z"},{"title":"Storm - Asia - Brunei Darussalam","description":"Sourced from predicthq.com - This is the detail for a severe weather event that has occurred. The original alert for this event is listed below. \n\nDetails of the original alert: \n\n Speed: 29m/s (56knots); Direction: NNE","category":"severe-weather","start":"2024-06-23T18:00:00Z","geo":{"geometry":{"coordinates":[114.93,4.93],"type":"Point"},"address":{"country_code":"BN","formatted_address":"Daerah Brunei-Muara, Brunei Darussalam","region":"Daerah Brunei-Muara"}},"labels":["storm","weather"],"duration":0,"start_local":"2024-06-24T02:00:00","end":"2024-06-23T18:00:00Z","end_local":"2024-06-24T02:00:00","updated":"2024-06-23T22:41:01Z"},{"title":"Premier League - DPMM vs Geylang International","description":"Sourced from predicthq.com","category":"sports","start":"2024-06-22T12:15:00Z","geo":{"geometry":{"coordinates":[114.94545578956604,4.929044733592593],"type":"Point"},"placekey":"@cp6-78c-gc5","address":{"country_code":"BN","formatted_address":"Jalan Stadium, Bandar Seri Begawan BB4313, Brunei","postcode":"BB4313","locality":"Bandar Seri Begawan","region":"Daerah Brunei-Muara"}},"labels":["soccer","sport"],"duration":6913,"start_local":"2024-06-22T20:15:00","end":"2024-06-22T14:10:13Z","end_local":"2024-06-22T22:10:13","updated":"2024-06-22T17:45:59Z"},{"title":"June Solstice","description":"Sourced from predicthq.com","category":"observances","start":"2024-06-21T00:00:00Z","geo":{"geometry":{"coordinates":[114.727669,4.535277],"type":"Point"},"address":{"country_code":"BN","formatted_address":"Brunei Darussalam"}},"labels":["holiday","observance","observance-season"],"duration":86399,"start_local":"2024-06-21T00:00:00","end":"2024-06-21T23:59:59Z","end_local":"2024-06-21T23:59:59","updated":"2024-06-11T02:36:26Z"},{"title":"Eid al-Adha","description":"Sourced from predicthq.com - Eid al-Adha (Id ul-Adha) is an Islamic festival falling on the 10th day of the month of Dhul Hijja (Thou al-Hijja) to commemorate the willingness of Ibrahim (Abraham) to sacrifice his son.","category":"public-holidays","start":"2024-06-17T00:00:00Z","geo":{"geometry":{"coordinates":[114.727669,4.535277],"type":"Point"},"address":{"country_code":"BN","formatted_address":"Brunei Darussalam"}},"labels":["holiday","holiday-national"],"duration":86399,"start_local":"2024-06-17T00:00:00","end":"2024-06-17T23:59:59Z","end_local":"2024-06-17T23:59:59","updated":"2024-06-11T08:42:33Z"},{"title":"Moderate to Severe Delays - Brunei International Airport (BWN)","description":"Sourced from predicthq.com - * Downgraded to Moderate (+30m)","category":"airport-delays","start":"2024-06-16T05:00:00Z","geo":{"geometry":{"coordinates":[114.93375,4.945197],"type":"Point"},"address":{"country_code":"BN","formatted_address":"Departure Hall, Brunei International Airport, WWVM+WHF, Jalan Lapangan Terbang Antarabangsa, Bandar Seri Begawan, Brunei","locality":"Bandar Seri Begawan","region":"Daerah Brunei-Muara"}},"labels":["airport","delay"],"duration":7200,"start_local":"2024-06-16T13:00:00","end":"2024-06-16T07:00:00Z","end_local":"2024-06-16T15:00:00","updated":"2024-06-16T08:01:39Z"},{"title":"Moderate to Severe Delays - Brunei International Airport (BWN)","description":"Sourced from predicthq.com - * Upgraded to Severe (+30m)","category":"airport-delays","start":"2024-06-15T03:30:00Z","geo":{"geometry":{"coordinates":[114.93375,4.945197],"type":"Point"},"address":{"country_code":"BN","formatted_address":"Departure Hall, Brunei International Airport, WWVM+WHF, Jalan Lapangan Terbang Antarabangsa, Bandar Seri Begawan, Brunei","locality":"Bandar Seri Begawan","region":"Daerah Brunei-Muara"}},"labels":["airport","delay"],"duration":12600,"start_local":"2024-06-15T11:30:00","end":"2024-06-15T07:00:00Z","end_local":"2024-06-15T15:00:00","updated":"2024-06-15T05:05:41Z"},{"title":"Friendlies - Friendlies 3 - Brunei vs Sri Lanka","description":"Sourced from predicthq.com","category":"sports","start":"2024-06-11T12:15:00Z","geo":{"geometry":{"coordinates":[114.94545578956604,4.929044733592593],"type":"Point"},"placekey":"@cp6-78c-gc5","address":{"country_code":"BN","formatted_address":"Jalan Stadium, Bandar Seri Begawan BB4313, Brunei","postcode":"BB4313","locality":"Bandar Seri Begawan","region":"Daerah Brunei-Muara"}},"labels":["soccer","sport"],"duration":0,"start_local":"2024-06-11T20:15:00","end":"2024-06-11T12:15:00Z","end_local":"2024-06-11T20:15:00","updated":"2024-06-11T08:24:35Z"},{"title":"ISTQB® Foundation Training Course for your Testing team - Brunei","description":"Sourced from predicthq.com - ISTQB® FOUNDATION TRAINING COURSE FOR THE TEAM \nThe aim of this course is to provide you with the knowledge and skills to pass an exam certi","category":"conferences","start":"2024-06-10T01:00:00Z","geo":{"geometry":{"coordinates":[114.727669,4.535277],"type":"Point"},"placekey":"@cp6-987-dqf","address":{"country_code":"BN","formatted_address":"Tutong District, Brunei Darussalam","region":"Tutong District"}},"labels":["business","conference"],"duration":28800,"start_local":"2024-06-10T09:00:00","end":"2024-06-10T09:00:00Z","end_local":"2024-06-10T17:00:00","updated":"2024-06-04T06:24:48Z"},{"title":"Friendlies - Friendlies 3 - Brunei vs Sri Lanka","description":"Sourced from predicthq.com","category":"sports","start":"2024-06-08T12:15:00Z","geo":{"geometry":{"coordinates":[114.94545578956604,4.929044733592593],"type":"Point"},"placekey":"@cp6-78c-gc5","address":{"country_code":"BN","formatted_address":"Jalan Stadium, Bandar Seri Begawan BB4313, Brunei","postcode":"BB4313","locality":"Bandar Seri Begawan","region":"Daerah Brunei-Muara"}},"labels":["soccer","sport"],"duration":0,"start_local":"2024-06-08T20:15:00","end":"2024-06-08T12:15:00Z","end_local":"2024-06-08T20:15:00","updated":"2024-06-11T22:23:21Z"},{"title":"Simpur Ultra Run","description":"Sourced from predicthq.com","category":"sports","start":"2024-06-07T16:00:00Z","geo":{"geometry":{"coordinates":[114.9433438,4.8867173],"type":"Point"},"placekey":"@cp6-79t-xyv","address":{"country_code":"BN","formatted_address":"Bandar Seri Begawan, Brunei-Muara District BS8811, Brunei Darussalam","locality":"Bandar Seri Begawan","postcode":"BS8811","region":"Brunei-Muara District"}},"labels":["outdoor-sports","running","sport"],"duration":86399,"start_local":"2024-06-08T00:00:00","end":"2024-06-08T15:59:59Z","end_local":"2024-06-08T23:59:59","updated":"2024-06-17T07:57:30Z"},{"title":"Moderate to Severe Delays - Brunei International Airport (BWN)","description":"Sourced from predicthq.com - * Downgraded to Moderate (+30m)","category":"airport-delays","start":"2024-06-02T05:00:00Z","geo":{"geometry":{"coordinates":[114.93375,4.945197],"type":"Point"},"address":{"country_code":"BN","formatted_address":"Departure Hall, Brunei International Airport, WWVM+WHF, Jalan Lapangan Terbang Antarabangsa, Bandar Seri Begawan, Brunei","locality":"Bandar Seri Begawan","region":"Daerah Brunei-Muara"}},"labels":["airport","delay"],"duration":7200,"start_local":"2024-06-02T13:00:00","end":"2024-06-02T07:00:00Z","end_local":"2024-06-02T15:00:00","updated":"2024-06-02T08:01:45Z"},{"title":"Moderate to Severe Delays - Brunei International Airport (BWN)","description":"Sourced from predicthq.com - * Upgraded to Severe (+1hr)","category":"airport-delays","start":"2024-06-01T03:00:00Z","geo":{"geometry":{"coordinates":[114.93375,4.945197],"type":"Point"},"address":{"country_code":"BN","formatted_address":"Departure Hall, Brunei International Airport, WWVM+WHF, Jalan Lapangan Terbang Antarabangsa, Bandar Seri Begawan, Brunei","locality":"Bandar Seri Begawan","region":"Daerah Brunei-Muara"}},"labels":["airport","delay"],"duration":14400,"start_local":"2024-06-01T11:00:00","end":"2024-06-01T07:00:00Z","end_local":"2024-06-01T15:00:00","updated":"2024-06-01T05:01:12Z"},{"title":"Day off for Royal Brunei Armed Forces Day","description":"Sourced from predicthq.com","category":"public-holidays","start":"2024-06-01T00:00:00Z","geo":{"geometry":{"coordinates":[114.727669,4.535277],"type":"Point"},"address":{"country_code":"BN","formatted_address":"Brunei Darussalam"}},"labels":["holiday","holiday-national","holiday-observed"],"duration":86399,"start_local":"2024-06-01T00:00:00","end":"2024-06-01T23:59:59Z","end_local":"2024-06-01T23:59:59","updated":"2024-06-25T04:47:28Z"},{"title":"Royal Brunei Armed Forces Day","description":"Sourced from predicthq.com","category":"public-holidays","start":"2024-05-31T00:00:00Z","geo":{"geometry":{"coordinates":[114.727669,4.535277],"type":"Point"},"address":{"country_code":"BN","formatted_address":"Brunei Darussalam"}},"labels":["holiday","holiday-national"],"duration":86399,"start_local":"2024-05-31T00:00:00","end":"2024-05-31T23:59:59Z","end_local":"2024-05-31T23:59:59","updated":"2024-06-12T16:50:28Z"},{"title":"How the latest Aus Budget will impact the property market & investors","description":"Sourced from predicthq.com - Find out what's in store for investors in the coming year from the Federal & Vic Budgets (8pm SIN/KUL, 5:30pm IST)","category":"conferences","start":"2024-05-30T12:00:00Z","geo":{"geometry":{"coordinates":[114.939821,4.903052199999999],"type":"Point"},"placekey":"@cp6-795-rhq","address":{"country_code":"BN","formatted_address":"Jalan Mabohai, Bandar Seri Begawan, Brunei-Muara District BA1111, Brunei Darussalam","locality":"Bandar Seri Begawan","postcode":"BA1111","region":"Brunei-Muara District"}},"labels":["business","conference"],"duration":2700,"start_local":"2024-05-30T20:00:00","end":"2024-05-30T12:45:00Z","end_local":"2024-05-30T20:45:00","updated":"2024-05-30T01:01:24Z"},{"title":"Data Analytics in Retail and E-Commerce","description":"Sourced from predicthq.com - Explore how data analytics is revolutionizing the retail and e-commerce industries at our event!","category":"conferences","start":"2024-05-29T01:00:00Z","geo":{"geometry":{"coordinates":[114.9501954,4.9374269],"type":"Point"},"placekey":"@cp6-78f-j9z","address":{"country_code":"BN","formatted_address":"Bandar Seri Begawan, Brunei-Muara District BB3713, Brunei Darussalam","locality":"Bandar Seri Begawan","postcode":"BB3713","region":"Brunei-Muara District"}},"labels":["business","conference"],"duration":10800,"start_local":"2024-05-29T09:00:00","end":"2024-05-29T04:00:00Z","end_local":"2024-05-29T12:00:00","updated":"2024-06-04T23:22:36Z"},{"title":"R/E Agents - partner with us to make upto $1m in Bonus with AU property","description":"Sourced from predicthq.com - Find out how partnering with the right Australian Property Developer can earn your business upto AU$1m in bonuses every year","category":"conferences","start":"2024-05-28T07:00:00Z","geo":{"geometry":{"coordinates":[114.939821,4.903052199999999],"type":"Point"},"placekey":"@cp6-795-rhq","address":{"country_code":"BN","formatted_address":"Jalan Mabohai, Bandar Seri Begawan, Brunei-Muara District BA1111, Brunei Darussalam","locality":"Bandar Seri Begawan","postcode":"BA1111","region":"Brunei-Muara District"}},"labels":["business","conference"],"duration":2700,"start_local":"2024-05-28T15:00:00","end":"2024-05-28T07:45:00Z","end_local":"2024-05-28T15:45:00","updated":"2024-05-23T02:16:46Z"},{"title":"Moderate to Severe Delays - Brunei International Airport (BWN)","description":"Sourced from predicthq.com - * Downgraded to Moderate (+30m)","category":"airport-delays","start":"2024-05-28T06:30:00Z","geo":{"geometry":{"coordinates":[114.93375,4.945197],"type":"Point"},"address":{"country_code":"BN","formatted_address":"Departure Hall, Brunei International Airport, WWVM+WHF, Jalan Lapangan Terbang Antarabangsa, Bandar Seri Begawan, Brunei","locality":"Bandar Seri Begawan","region":"Daerah Brunei-Muara"}},"labels":["airport","delay"],"duration":5400,"start_local":"2024-05-28T14:30:00","end":"2024-05-28T08:00:00Z","end_local":"2024-05-28T16:00:00","updated":"2024-05-28T09:16:27Z"},{"title":"Artificial Intelligence in Entertainment and Gaming","description":"Sourced from predicthq.com - Discover how AI is revolutionizing the entertainment and gaming industry at our event!","category":"conferences","start":"2024-05-27T01:00:00Z","geo":{"geometry":{"coordinates":[114.9501954,4.9374269],"type":"Point"},"placekey":"@cp6-78f-j9z","address":{"country_code":"BN","formatted_address":"Bandar Seri Begawan, Brunei-Muara District BB3713, Brunei Darussalam","locality":"Bandar Seri Begawan","postcode":"BB3713","region":"Brunei-Muara District"}},"labels":["conference","entertainment"],"duration":10800,"start_local":"2024-05-27T09:00:00","end":"2024-05-27T04:00:00Z","end_local":"2024-05-27T12:00:00","updated":"2024-06-05T17:15:28Z"},{"title":"Moderate Delays - Brunei International Airport (BWN)","description":"Sourced from predicthq.com","category":"airport-delays","start":"2024-05-25T03:00:00Z","geo":{"geometry":{"coordinates":[114.93375,4.945197],"type":"Point"},"address":{"country_code":"BN","formatted_address":"Departure Hall, Brunei International Airport, WWVM+WHF, Jalan Lapangan Terbang Antarabangsa, Bandar Seri Begawan, Brunei","locality":"Bandar Seri Begawan","region":"Daerah Brunei-Muara"}},"labels":["airport","delay"],"duration":12600,"start_local":"2024-05-25T11:00:00","end":"2024-05-25T06:30:00Z","end_local":"2024-05-25T14:30:00","updated":"2024-05-25T04:47:38Z"},{"title":"YEAB POWER COFFEE","description":"Sourced from predicthq.com - Brunei to Regional - Identifying Opportunities and Overcoming Obstacles","category":"conferences","start":"2024-05-24T06:30:00Z","geo":{"geometry":{"coordinates":[114.9447648,4.943874999999999],"type":"Point"},"placekey":"@cp6-788-835","address":{"country_code":"BN","formatted_address":"Bandar Seri Begawan, Brunei-Muara District, Brunei Darussalam","locality":"Bandar Seri Begawan","region":"Brunei-Muara District"}},"labels":["conference","food"],"duration":9000,"start_local":"2024-05-24T14:30:00","end":"2024-05-24T09:00:00Z","end_local":"2024-05-24T17:00:00","updated":"2024-06-05T07:50:39Z"},{"title":"Circular Harmony 2024","description":"Sourced from predicthq.com - Let's dive into Circular Harmony 2024, where we'll explore sustainability, innovation, and collaboration for a brighter future!","category":"expos","start":"2024-05-24T02:00:00Z","geo":{"geometry":{"coordinates":[114.9425094,4.8946988],"type":"Point"},"placekey":"@cp6-79v-rzf","address":{"country_code":"BN","formatted_address":"Jalan Tasek 2203, Bandar Seri Begawan BS8674, Brunei","postcode":"BS8674","locality":"Bandar Seri Begawan","region":"Daerah Brunei-Muara"}},"labels":["expo","household"],"duration":115200,"start_local":"2024-05-24T10:00:00","end":"2024-05-25T10:00:00Z","end_local":"2024-05-25T18:00:00","updated":"2024-06-05T05:12:45Z"},{"title":"Moderate Delays - Brunei International Airport (BWN)","description":"Sourced from predicthq.com","category":"airport-delays","start":"2024-05-21T03:00:00Z","geo":{"geometry":{"coordinates":[114.93375,4.945197],"type":"Point"},"address":{"country_code":"BN","formatted_address":"Departure Hall, Brunei International Airport, WWVM+WHF, Jalan Lapangan Terbang Antarabangsa, Bandar Seri Begawan, Brunei","locality":"Bandar Seri Begawan","region":"Daerah Brunei-Muara"}},"labels":["airport","delay"],"duration":12600,"start_local":"2024-05-21T11:00:00","end":"2024-05-21T06:30:00Z","end_local":"2024-05-21T14:30:00","updated":"2024-06-05T05:49:43Z"},{"title":"Moderate Delays - Brunei International Airport (BWN)","description":"Sourced from predicthq.com","category":"airport-delays","start":"2024-05-17T06:00:00Z","geo":{"geometry":{"coordinates":[114.93375,4.945197],"type":"Point"},"address":{"country_code":"BN","formatted_address":"Departure Hall, Brunei International Airport, WWVM+WHF, Jalan Lapangan Terbang Antarabangsa, Bandar Seri Begawan, Brunei","locality":"Bandar Seri Begawan","region":"Daerah Brunei-Muara"}},"labels":["airport","delay"],"duration":3600,"start_local":"2024-05-17T14:00:00","end":"2024-05-17T07:00:00Z","end_local":"2024-05-17T15:00:00","updated":"2024-06-05T17:38:28Z"},{"title":"Moderate to Severe Delays - Brunei International Airport (BWN)","description":"Sourced from predicthq.com - * Downgraded to Moderate (+30m)","category":"airport-delays","start":"2024-05-16T06:30:00Z","geo":{"geometry":{"coordinates":[114.93375,4.945197],"type":"Point"},"address":{"country_code":"BN","formatted_address":"Departure Hall, Brunei International Airport, WWVM+WHF, Jalan Lapangan Terbang Antarabangsa, Bandar Seri Begawan, Brunei","locality":"Bandar Seri Begawan","region":"Daerah Brunei-Muara"}},"labels":["airport","delay"],"duration":3600,"start_local":"2024-05-16T14:30:00","end":"2024-05-16T07:30:00Z","end_local":"2024-05-16T15:30:00","updated":"2024-06-05T10:01:10Z"},{"title":"How to save AND protect your money when buying an investment property","description":"Sourced from predicthq.com - Learn the right legalities to save  tens of thousands when buying and holding an Inv property in Australia (5:30pm IST, 7pm JKT, 8pm SIN/KL)","category":"conferences","start":"2024-05-14T12:00:00Z","geo":{"geometry":{"coordinates":[114.939821,4.903052199999999],"type":"Point"},"placekey":"@cp6-795-rhq","address":{"country_code":"BN","formatted_address":"Jalan Mabohai, Bandar Seri Begawan, Brunei-Muara District BA1111, Brunei Darussalam","locality":"Bandar Seri Begawan","postcode":"BA1111","region":"Brunei-Muara District"}},"labels":["business","conference"],"duration":2700,"start_local":"2024-05-14T20:00:00","end":"2024-05-14T12:45:00Z","end_local":"2024-05-14T20:45:00","updated":"2024-06-05T03:47:05Z"},{"title":"ISTQB® Foundation Training Course for your Testing team - Brunei","description":"Sourced from predicthq.com - ISTQB® FOUNDATION TRAINING COURSE FOR THE TEAM \nThe aim of this course is to provide you with the knowledge and skills to pass an exam certi","category":"conferences","start":"2024-05-13T01:00:00Z","geo":{"geometry":{"coordinates":[114.727669,4.535277],"type":"Point"},"placekey":"@cp6-987-dqf","address":{"country_code":"BN","formatted_address":"Tutong District, Brunei Darussalam","region":"Tutong District"}},"labels":["business","conference"],"duration":28800,"start_local":"2024-05-13T09:00:00","end":"2024-05-13T09:00:00Z","end_local":"2024-05-13T17:00:00","updated":"2024-06-05T04:31:47Z"},{"title":"Moderate Delays - Brunei International Airport (BWN)","description":"Sourced from predicthq.com","category":"airport-delays","start":"2024-05-12T05:30:00Z","geo":{"geometry":{"coordinates":[114.93375,4.945197],"type":"Point"},"address":{"country_code":"BN","formatted_address":"Departure Hall, Brunei International Airport, WWVM+WHF, Jalan Lapangan Terbang Antarabangsa, Bandar Seri Begawan, Brunei","locality":"Bandar Seri Begawan","region":"Daerah Brunei-Muara"}},"labels":["airport","delay"],"duration":5400,"start_local":"2024-05-12T13:30:00","end":"2024-05-12T07:00:00Z","end_local":"2024-05-12T15:00:00","updated":"2024-06-05T00:19:44Z"},{"title":"Data Analytics in Finance","description":"Sourced from predicthq.com - Join us on 11th May 2024 at  9:00am - 12:00pm  to learn the fundamentals of Data Analytics in Finance at The 101 Workshop!","category":"conferences","start":"2024-05-11T01:00:00Z","geo":{"geometry":{"coordinates":[114.9501954,4.9374269],"type":"Point"},"placekey":"@cp6-78f-j9z","address":{"country_code":"BN","formatted_address":"Bandar Seri Begawan, Brunei-Muara District BB3713, Brunei Darussalam","locality":"Bandar Seri Begawan","postcode":"BB3713","region":"Brunei-Muara District"}},"labels":["business","conference"],"duration":10800,"start_local":"2024-05-11T09:00:00","end":"2024-05-11T04:00:00Z","end_local":"2024-05-11T12:00:00","updated":"2024-06-05T08:29:47Z"},{"title":"Moderate to Severe Delays - Brunei International Airport (BWN)","description":"Sourced from predicthq.com - * Upgraded to Severe (+30m)","category":"airport-delays","start":"2024-05-06T01:30:00Z","geo":{"geometry":{"coordinates":[114.93375,4.945197],"type":"Point"},"address":{"country_code":"BN","formatted_address":"Departure Hall, Brunei International Airport, WWVM+WHF, Jalan Lapangan Terbang Antarabangsa, Bandar Seri Begawan, Brunei","locality":"Bandar Seri Begawan","region":"Daerah Brunei-Muara"}},"labels":["airport","delay"],"duration":16200,"start_local":"2024-05-06T09:30:00","end":"2024-05-06T06:00:00Z","end_local":"2024-05-06T14:00:00","updated":"2024-06-05T09:35:27Z"},{"title":"Moderate to Severe Delays - Brunei International Airport (BWN)","description":"Sourced from predicthq.com - * Upgraded to Severe (+1hr)","category":"airport-delays","start":"2024-05-04T03:00:00Z","geo":{"geometry":{"coordinates":[114.93375,4.945197],"type":"Point"},"address":{"country_code":"BN","formatted_address":"Departure Hall, Brunei International Airport, WWVM+WHF, Jalan Lapangan Terbang Antarabangsa, Bandar Seri Begawan, Brunei","locality":"Bandar Seri Begawan","region":"Daerah Brunei-Muara"}},"labels":["airport","delay"],"duration":14400,"start_local":"2024-05-04T11:00:00","end":"2024-05-04T07:00:00Z","end_local":"2024-05-04T15:00:00","updated":"2024-06-05T02:02:07Z"},{"title":"Moderate to Severe Delays - Brunei International Airport (BWN)","description":"Sourced from predicthq.com - * Downgraded to Moderate (+2hr)","category":"airport-delays","start":"2024-04-30T05:30:00Z","geo":{"geometry":{"coordinates":[114.93375,4.945197],"type":"Point"},"address":{"country_code":"BN","formatted_address":"Departure Hall, Brunei International Airport, WWVM+WHF, Jalan Lapangan Terbang Antarabangsa, Bandar Seri Begawan, Brunei","locality":"Bandar Seri Begawan","region":"Daerah Brunei-Muara"}},"labels":["airport","delay"],"duration":18000,"start_local":"2024-04-30T13:30:00","end":"2024-04-30T10:30:00Z","end_local":"2024-04-30T18:30:00","updated":"2024-06-05T08:48:34Z"},{"title":"Severe Delays - Brunei International Airport (BWN)","description":"Sourced from predicthq.com","category":"airport-delays","start":"2024-04-29T02:30:00Z","geo":{"geometry":{"coordinates":[114.93375,4.945197],"type":"Point"},"address":{"country_code":"BN","formatted_address":"Departure Hall, Brunei International Airport, WWVM+WHF, Jalan Lapangan Terbang Antarabangsa, Bandar Seri Begawan, Brunei","locality":"Bandar Seri Begawan","region":"Daerah Brunei-Muara"}},"labels":["airport","delay"],"duration":16200,"start_local":"2024-04-29T10:30:00","end":"2024-04-29T07:00:00Z","end_local":"2024-04-29T15:00:00","updated":"2024-06-05T12:57:00Z"},{"title":"Storm - Asia - Brunei Darussalam","description":"Sourced from predicthq.com - This is the detail for a severe weather event that has occurred. The original alert for this event is listed below. \n\nDetails of the original alert: \n\n Speed: 35m/s (69knots); Direction: NNE","category":"severe-weather","start":"2024-04-28T18:00:00Z","geo":{"geometry":{"coordinates":[114.93,4.93],"type":"Point"},"address":{"country_code":"BN","formatted_address":"Daerah Brunei-Muara, Brunei Darussalam","region":"Daerah Brunei-Muara"}},"labels":["storm","weather"],"duration":0,"start_local":"2024-04-29T02:00:00","end":"2024-04-28T18:00:00Z","end_local":"2024-04-29T02:00:00","updated":"2024-06-05T04:17:55Z"},{"title":"Moderate Delays - Brunei International Airport (BWN)","description":"Sourced from predicthq.com","category":"airport-delays","start":"2024-04-26T06:30:00Z","geo":{"geometry":{"coordinates":[114.93375,4.945197],"type":"Point"},"address":{"country_code":"BN","formatted_address":"Departure Hall, Brunei International Airport, WWVM+WHF, Jalan Lapangan Terbang Antarabangsa, Bandar Seri Begawan, Brunei","locality":"Bandar Seri Begawan","region":"Daerah Brunei-Muara"}},"labels":["airport","delay"],"duration":1800,"start_local":"2024-04-26T14:30:00","end":"2024-04-26T07:00:00Z","end_local":"2024-04-26T15:00:00","updated":"2024-06-05T21:54:21Z"},{"title":"Everything an  o/s buyer needs to know about financing an Aus Inv Property","description":"Sourced from predicthq.com - Finance is a critical aspect of property investment, it can make a significant impact on your investment journey (8pm BWN/KUL/SIN)","category":"conferences","start":"2024-04-23T12:00:00Z","geo":{"geometry":{"coordinates":[114.939821,4.903052199999999],"type":"Point"},"placekey":"@cp6-795-rhq","address":{"country_code":"BN","formatted_address":"Jalan Mabohai, Bandar Seri Begawan, Brunei-Muara District BA1111, Brunei Darussalam","locality":"Bandar Seri Begawan","postcode":"BA1111","region":"Brunei-Muara District"}},"labels":["business","conference"],"duration":2700,"start_local":"2024-04-23T20:00:00","end":"2024-04-23T12:45:00Z","end_local":"2024-04-23T20:45:00","updated":"2024-06-04T23:32:20Z"},{"title":"Moderate Delays - Brunei International Airport (BWN)","description":"Sourced from predicthq.com","category":"airport-delays","start":"2024-04-19T05:30:00Z","geo":{"geometry":{"coordinates":[114.93375,4.945197],"type":"Point"},"address":{"country_code":"BN","formatted_address":"Departure Hall, Brunei International Airport, WWVM+WHF, Jalan Lapangan Terbang Antarabangsa, Bandar Seri Begawan, Brunei","locality":"Bandar Seri Begawan","region":"Daerah Brunei-Muara"}},"labels":["airport","delay"],"duration":5400,"start_local":"2024-04-19T13:30:00","end":"2024-04-19T07:00:00Z","end_local":"2024-04-19T15:00:00","updated":"2024-06-05T02:53:12Z"},{"title":"Moderate to Severe Delays - Brunei International Airport (BWN)","description":"Sourced from predicthq.com - * Downgraded to Moderate (+2hr)","category":"airport-delays","start":"2024-04-18T05:30:00Z","geo":{"geometry":{"coordinates":[114.93375,4.945197],"type":"Point"},"address":{"country_code":"BN","formatted_address":"Departure Hall, Brunei International Airport, WWVM+WHF, Jalan Lapangan Terbang Antarabangsa, Bandar Seri Begawan, Brunei","locality":"Bandar Seri Begawan","region":"Daerah Brunei-Muara"}},"labels":["airport","delay"],"duration":7200,"start_local":"2024-04-18T13:30:00","end":"2024-04-18T07:30:00Z","end_local":"2024-04-18T15:30:00","updated":"2024-06-05T05:09:40Z"},{"title":"Severe Delays - Brunei International Airport (BWN)","description":"Sourced from predicthq.com","category":"airport-delays","start":"2024-04-15T02:30:00Z","geo":{"geometry":{"coordinates":[114.93375,4.945197],"type":"Point"},"address":{"country_code":"BN","formatted_address":"Departure Hall, Brunei International Airport, WWVM+WHF, Jalan Lapangan Terbang Antarabangsa, Bandar Seri Begawan, Brunei","locality":"Bandar Seri Begawan","region":"Daerah Brunei-Muara"}},"labels":["airport","delay"],"duration":16200,"start_local":"2024-04-15T10:30:00","end":"2024-04-15T07:00:00Z","end_local":"2024-04-15T15:00:00","updated":"2024-06-05T03:36:28Z"},{"title":"Eid al-Fitr Holiday","description":"Sourced from predicthq.com","category":"public-holidays","start":"2024-04-13T00:00:00Z","geo":{"geometry":{"coordinates":[114.727669,4.535277],"type":"Point"},"address":{"country_code":"BN","formatted_address":"Brunei Darussalam"}},"labels":["holiday","holiday-national","holiday-observed"],"duration":86399,"start_local":"2024-04-13T00:00:00","end":"2024-04-13T23:59:59Z","end_local":"2024-04-13T23:59:59","updated":"2024-06-12T04:11:06Z"},{"title":"Eid al-Fitr Holiday","description":"Sourced from predicthq.com","category":"public-holidays","start":"2024-04-12T00:00:00Z","geo":{"geometry":{"coordinates":[114.727669,4.535277],"type":"Point"},"address":{"country_code":"BN","formatted_address":"Brunei Darussalam"}},"labels":["holiday","holiday-national"],"duration":86399,"start_local":"2024-04-12T00:00:00","end":"2024-04-12T23:59:59Z","end_local":"2024-04-12T23:59:59","updated":"2024-06-12T02:13:22Z"},{"title":"Eid al-Fitr Holiday","description":"Sourced from predicthq.com","category":"public-holidays","start":"2024-04-11T00:00:00Z","geo":{"geometry":{"coordinates":[114.727669,4.535277],"type":"Point"},"address":{"country_code":"BN","formatted_address":"Brunei Darussalam"}},"labels":["holiday","holiday-national"],"duration":86399,"start_local":"2024-04-11T00:00:00","end":"2024-04-11T23:59:59Z","end_local":"2024-04-11T23:59:59","updated":"2024-06-11T21:50:02Z"},{"title":"Eid al-Fitr","description":"Sourced from predicthq.com - Eid al-Fitr is a holiday to mark the end of the Islamic month of Ramadan, during which Muslims fast during the hours of daylight.","category":"public-holidays","start":"2024-04-10T00:00:00Z","geo":{"geometry":{"coordinates":[114.727669,4.535277],"type":"Point"},"address":{"country_code":"BN","formatted_address":"Brunei Darussalam"}},"labels":["holiday","holiday-national"],"duration":86399,"start_local":"2024-04-10T00:00:00","end":"2024-04-10T23:59:59Z","end_local":"2024-04-10T23:59:59","updated":"2024-06-12T00:54:51Z"},{"title":"Moderate to Severe Delays - Brunei International Airport (BWN)","description":"Sourced from predicthq.com - * Upgraded to Severe (+30m)","category":"airport-delays","start":"2024-04-08T01:30:00Z","geo":{"geometry":{"coordinates":[114.93375,4.945197],"type":"Point"},"address":{"country_code":"BN","formatted_address":"Departure Hall, Brunei International Airport, WWVM+WHF, Jalan Lapangan Terbang Antarabangsa, Bandar Seri Begawan, Brunei","locality":"Bandar Seri Begawan","region":"Daerah Brunei-Muara"}},"labels":["airport","delay"],"duration":19800,"start_local":"2024-04-08T09:30:00","end":"2024-04-08T07:00:00Z","end_local":"2024-04-08T15:00:00","updated":"2024-06-05T12:57:00Z"},{"title":"ISTQB® Foundation Training Course for your Testing team - Brunei","description":"Sourced from predicthq.com - ISTQB® FOUNDATION TRAINING COURSE FOR THE TEAM \nThe aim of this course is to provide you with the knowledge and skills to pass an exam certi","category":"conferences","start":"2024-04-08T01:00:00Z","geo":{"geometry":{"coordinates":[114.727669,4.535277],"type":"Point"},"placekey":"@cp6-987-dqf","address":{"country_code":"BN","formatted_address":"Tutong District, Brunei Darussalam","region":"Tutong District"}},"labels":["business","conference"],"duration":28800,"start_local":"2024-04-08T09:00:00","end":"2024-04-08T09:00:00Z","end_local":"2024-04-08T17:00:00","updated":"2024-06-05T15:02:32Z"},{"title":"Severe Delays - Brunei International Airport (BWN)","description":"Sourced from predicthq.com","category":"airport-delays","start":"2024-04-06T04:00:00Z","geo":{"geometry":{"coordinates":[114.93375,4.945197],"type":"Point"},"address":{"country_code":"BN","formatted_address":"Departure Hall, Brunei International Airport, WWVM+WHF, Jalan Lapangan Terbang Antarabangsa, Bandar Seri Begawan, Brunei","locality":"Bandar Seri Begawan","region":"Daerah Brunei-Muara"}},"labels":["airport","delay"],"duration":10800,"start_local":"2024-04-06T12:00:00","end":"2024-04-06T07:00:00Z","end_local":"2024-04-06T15:00:00","updated":"2024-06-05T06:21:44Z"}]