[{"title":"Ultra BOLIVIA Race","description":"Sourced from predicthq.com","category":"sports","start":"2024-09-23T04:00:00Z","geo":{"geometry":{"coordinates":[-64.2350841,-21.8074156],"type":"Point"},"placekey":"@mj3-739-s89","address":{"country_code":"BO","formatted_address":"Salinas, Departamento de Tarija, Bolivia, Plurinational State of","locality":"Salinas","region":"Departamento de Tarija"}},"labels":["outdoor-sports","running","sport"],"duration":86399,"start_local":"2024-09-23T00:00:00","end":"2024-09-24T03:59:59Z","end_local":"2024-09-23T23:59:59","updated":"2024-06-04T01:05:00Z"},{"title":"EXPOCRUZ","description":"Sourced from predicthq.com - International Industrial and Agricultural Trade Fair","category":"expos","start":"2024-09-20T04:00:00Z","geo":{"geometry":{"coordinates":[-63.2089464,-17.7851036],"type":"Point"},"placekey":"@gvf-3yj-ghq","address":{"country_code":"BO","formatted_address":"Avenida Roca y Coronado, Santa Cruz de la Sierra, Bolivia, Plurinational State of","locality":"Santa Cruz de la Sierra","region":"Departamento de Santa Cruz"}},"labels":["expo","product"],"duration":863999,"start_local":"2024-09-20T00:00:00","end":"2024-09-30T03:59:59Z","end_local":"2024-09-29T23:59:59","updated":"2024-07-02T23:12:47Z"},{"title":"Feria EducationUSA 2024 | Santa Cruz de la Sierra","description":"Sourced from predicthq.com - Bienvenidos a la feria de EducationUSA en Santa Cruz de la Sierra. ¡Su sueño de estudiar en Estados Unidos comienza aquí!","category":"expos","start":"2024-09-09T20:30:00Z","geo":{"geometry":{"coordinates":[-63.1780744,-17.7841253],"type":"Point"},"placekey":"@gvf-484-dsq","address":{"country_code":"BO","formatted_address":"Cochabamba, Santa Cruz de la Sierra, Bolivia, Plurinational State of","locality":"Santa Cruz de la Sierra","region":"Departamento de Santa Cruz"}},"labels":["education","expo","family"],"duration":10800,"start_local":"2024-09-09T16:30:00","end":"2024-09-09T23:30:00Z","end_local":"2024-09-09T19:30:00","updated":"2024-07-04T05:42:37Z"},{"title":"Primera División - Clausura - Aurora vs Real Tomayapo","description":"Sourced from predicthq.com","category":"sports","start":"2024-08-26T23:00:00Z","geo":{"geometry":{"coordinates":[-66.16179360000001,-17.3792677],"type":"Point"},"placekey":"@gvh-znt-8n5","address":{"country_code":"BO","formatted_address":"Avenida Libertador Simón Bolívar, Cochabamba, Bolivia, Plurinational State of","locality":"Cochabamba","region":"Departamento de Cochabamba"}},"labels":["soccer","sport"],"duration":0,"start_local":"2024-08-26T19:00:00","end":"2024-08-26T23:00:00Z","end_local":"2024-08-26T19:00:00","updated":"2024-06-25T14:30:54Z"},{"title":"Primera División - Clausura - Oriente Petrolero vs Nacional Potosí","description":"Sourced from predicthq.com","category":"sports","start":"2024-08-25T23:30:00Z","geo":{"geometry":{"coordinates":[-63.1836992,-17.7958709],"type":"Point"},"placekey":"@gvf-484-t5f","address":{"country_code":"BO","formatted_address":"6R38+PFJ, Soliz de Olguin, Santa Cruz de la Sierra, Bolivia","locality":"Santa Cruz de la Sierra","region":"Departamento de Santa Cruz"}},"labels":["soccer","sport"],"duration":0,"start_local":"2024-08-25T19:30:00","end":"2024-08-25T23:30:00Z","end_local":"2024-08-25T19:30:00","updated":"2024-06-25T13:16:22Z"},{"title":"Primera División - Clausura - Universitario de Vinto vs Bolívar","description":"Sourced from predicthq.com","category":"sports","start":"2024-08-25T21:30:00Z","geo":{"geometry":{"coordinates":[-66.3175180238037,-17.39742993877829],"type":"Point"},"placekey":"@gvh-zc5-g6k","address":{"country_code":"BO","formatted_address":"Calle Cochabamba, Vinto, Bolivia, Plurinational State of","locality":"Vinto"}},"labels":["soccer","sport"],"duration":0,"start_local":"2024-08-25T17:30:00","end":"2024-08-25T21:30:00Z","end_local":"2024-08-25T17:30:00","updated":"2024-06-25T14:23:52Z"},{"title":"Primera División - Clausura - The Strongest vs Royal Pari","description":"Sourced from predicthq.com","category":"sports","start":"2024-08-25T19:00:00Z","geo":{"geometry":{"coordinates":[-68.1226791,-16.499465],"type":"Point"},"placekey":"@mh9-4dm-pgk","address":{"country_code":"BO","formatted_address":"La Paz, La Paz Department, Bolivia, Plurinational State of","locality":"La Paz","region":"La Paz Department"}},"labels":["soccer","sport"],"duration":0,"start_local":"2024-08-25T15:00:00","end":"2024-08-25T19:00:00Z","end_local":"2024-08-25T15:00:00","updated":"2024-06-25T16:50:03Z"},{"title":"Primera División - Clausura - Independiente vs San Antonio Bulo Bulo","description":"Sourced from predicthq.com","category":"sports","start":"2024-08-25T00:00:00Z","geo":{"geometry":{"coordinates":[-65.257877,-19.0336914],"type":"Point"},"placekey":"@gvg-2yt-mhq","address":{"country_code":"BO","formatted_address":"XP8R+GRH, German Mendoza, Sucre, Bolivia","locality":"Sucre","region":"Departamento de Chuquisaca"}},"labels":["soccer","sport"],"duration":0,"start_local":"2024-08-24T20:00:00","end":"2024-08-25T00:00:00Z","end_local":"2024-08-24T20:00:00","updated":"2024-06-25T13:01:24Z"},{"title":"Primera División - Clausura - Real Santa Cruz vs Always Ready","description":"Sourced from predicthq.com","category":"sports","start":"2024-08-24T19:00:00Z","geo":{"geometry":{"coordinates":[-63.16609740257263,-17.805817548966814],"type":"Point"},"placekey":"@gvf-9g8-6zf","address":{"country_code":"BO","formatted_address":"Av. San Aurelio, Santa Cruz de la Sierra, Bolivia","locality":"Santa Cruz de la Sierra","region":"Departamento de Santa Cruz"}},"labels":["soccer","sport"],"duration":0,"start_local":"2024-08-24T15:00:00","end":"2024-08-24T19:00:00Z","end_local":"2024-08-24T15:00:00","updated":"2024-06-26T02:40:15Z"},{"title":"Primera División - Clausura - Guabirá vs Blooming","description":"Sourced from predicthq.com","category":"sports","start":"2024-08-23T23:00:00Z","geo":{"geometry":{"coordinates":[-63.2623679,-17.3432282],"type":"Point"},"placekey":"@gvf-6yv-mrk","address":{"country_code":"BO","formatted_address":"MP4Q+Q66, Montero, Bolivia","locality":"Montero","region":"Santa Cruz Department"}},"labels":["soccer","sport"],"duration":0,"start_local":"2024-08-23T19:00:00","end":"2024-08-23T23:00:00Z","end_local":"2024-08-23T19:00:00","updated":"2024-06-25T13:19:48Z"},{"title":"CONMEBOL Libertadores - 8th Finals - Bolívar vs Flamengo","description":"Sourced from predicthq.com","category":"sports","start":"2024-08-23T00:30:00Z","geo":{"geometry":{"coordinates":[-68.1226791,-16.499465],"type":"Point"},"placekey":"@mh9-4dm-pgk","address":{"country_code":"BO","formatted_address":"La Paz, La Paz Department, Bolivia, Plurinational State of","locality":"La Paz","region":"La Paz Department"}},"labels":["soccer","sport"],"duration":0,"start_local":"2024-08-22T20:30:00","end":"2024-08-23T00:30:00Z","end_local":"2024-08-22T20:30:00","updated":"2024-06-12T23:55:11Z"},{"title":"CONMEBOL Libertadores - 8th Finals - The Strongest vs Peñarol","description":"Sourced from predicthq.com","category":"sports","start":"2024-08-21T22:00:00Z","geo":{"geometry":{"coordinates":[-68.1226791,-16.499465],"type":"Point"},"placekey":"@mh9-4dm-pgk","address":{"country_code":"BO","formatted_address":"La Paz, La Paz Department, Bolivia, Plurinational State of","locality":"La Paz","region":"La Paz Department"}},"labels":["soccer","sport"],"duration":0,"start_local":"2024-08-21T18:00:00","end":"2024-08-21T22:00:00Z","end_local":"2024-08-21T18:00:00","updated":"2024-06-12T23:56:13Z"},{"title":"Primera División - Clausura - Bolívar vs San Antonio Bulo Bulo","description":"Sourced from predicthq.com","category":"sports","start":"2024-08-20T00:00:00Z","geo":{"geometry":{"coordinates":[-68.1226791,-16.499465],"type":"Point"},"placekey":"@mh9-4dm-pgk","address":{"country_code":"BO","formatted_address":"La Paz, La Paz Department, Bolivia, Plurinational State of","locality":"La Paz","region":"La Paz Department"}},"labels":["soccer","sport"],"duration":0,"start_local":"2024-08-19T20:00:00","end":"2024-08-20T00:00:00Z","end_local":"2024-08-19T20:00:00","updated":"2024-06-25T13:19:48Z"},{"title":"Primera División - Clausura - Royal Pari vs Aurora","description":"Sourced from predicthq.com","category":"sports","start":"2024-08-18T23:30:00Z","geo":{"geometry":{"coordinates":[-63.1836992,-17.7958709],"type":"Point"},"placekey":"@gvf-484-t5f","address":{"country_code":"BO","formatted_address":"6R38+PFJ, Soliz de Olguin, Santa Cruz de la Sierra, Bolivia","locality":"Santa Cruz de la Sierra","region":"Departamento de Santa Cruz"}},"labels":["soccer","sport"],"duration":0,"start_local":"2024-08-18T19:30:00","end":"2024-08-18T23:30:00Z","end_local":"2024-08-18T19:30:00","updated":"2024-06-25T16:46:24Z"},{"title":"Primera División - Clausura - Jorge Wilstermann vs Guabirá","description":"Sourced from predicthq.com","category":"sports","start":"2024-08-18T21:30:00Z","geo":{"geometry":{"coordinates":[-66.16179360000001,-17.3792677],"type":"Point"},"placekey":"@gvh-znt-8n5","address":{"country_code":"BO","formatted_address":"Avenida Libertador Simón Bolívar, Cochabamba, Bolivia, Plurinational State of","locality":"Cochabamba","region":"Departamento de Cochabamba"}},"labels":["soccer","sport"],"duration":0,"start_local":"2024-08-18T17:30:00","end":"2024-08-18T21:30:00Z","end_local":"2024-08-18T17:30:00","updated":"2024-06-25T11:52:06Z"},{"title":"Primera División - Clausura - Real Tomayapo vs The Strongest","description":"Sourced from predicthq.com","category":"sports","start":"2024-08-18T19:00:00Z","geo":{"geometry":{"coordinates":[-64.7252244,-21.5320943],"type":"Point"},"placekey":"@mj3-7wt-8sq","address":{"country_code":"BO","formatted_address":"Avenida Potosí, Tarija, Bolivia, Plurinational State of","locality":"Tarija","region":"Tarija"}},"labels":["soccer","sport"],"duration":0,"start_local":"2024-08-18T15:00:00","end":"2024-08-18T19:00:00Z","end_local":"2024-08-18T15:00:00","updated":"2024-06-25T13:28:21Z"},{"title":"Primera División - Clausura - Blooming vs Real Santa Cruz","description":"Sourced from predicthq.com","category":"sports","start":"2024-08-18T00:00:00Z","geo":{"geometry":{"coordinates":[-63.1836992,-17.7958709],"type":"Point"},"placekey":"@gvf-484-t5f","address":{"country_code":"BO","formatted_address":"6R38+PFJ, Soliz de Olguin, Santa Cruz de la Sierra, Bolivia","locality":"Santa Cruz de la Sierra","region":"Departamento de Santa Cruz"}},"labels":["soccer","sport"],"duration":0,"start_local":"2024-08-17T20:00:00","end":"2024-08-18T00:00:00Z","end_local":"2024-08-17T20:00:00","updated":"2024-06-25T13:19:48Z"},{"title":"Primera División - Clausura - Nacional Potosí vs Gualberto Villarroel SJ","description":"Sourced from predicthq.com","category":"sports","start":"2024-08-17T21:30:00Z","geo":{"geometry":{"coordinates":[-65.76154029999998,-19.5787027],"type":"Point"},"placekey":"@mj4-79c-3t9","address":{"country_code":"BO","formatted_address":"Av Highland Players 341, Villa Imperial de Potosí, Bolivia","locality":"Villa Imperial de Potosí","region":"Departamento de Potosí"}},"labels":["soccer","sport"],"duration":0,"start_local":"2024-08-17T17:30:00","end":"2024-08-17T21:30:00Z","end_local":"2024-08-17T17:30:00","updated":"2024-06-25T17:15:36Z"},{"title":"Primera División - Clausura - Universitario de Vinto vs Independiente","description":"Sourced from predicthq.com","category":"sports","start":"2024-08-17T19:00:00Z","geo":{"geometry":{"coordinates":[-66.3175180238037,-17.39742993877829],"type":"Point"},"placekey":"@gvh-zc5-g6k","address":{"country_code":"BO","formatted_address":"Calle Cochabamba, Vinto, Bolivia, Plurinational State of","locality":"Vinto"}},"labels":["soccer","sport"],"duration":0,"start_local":"2024-08-17T15:00:00","end":"2024-08-17T19:00:00Z","end_local":"2024-08-17T15:00:00","updated":"2024-06-25T14:01:00Z"},{"title":"Primera División - Clausura - Always Ready vs Oriente Petrolero","description":"Sourced from predicthq.com","category":"sports","start":"2024-08-17T00:00:00Z","geo":{"geometry":{"coordinates":[-68.1226791,-16.499465],"type":"Point"},"placekey":"@mh9-4dm-pgk","address":{"country_code":"BO","formatted_address":"La Paz, La Paz Department, Bolivia, Plurinational State of","locality":"La Paz","region":"La Paz Department"}},"labels":["soccer","sport"],"duration":0,"start_local":"2024-08-16T20:00:00","end":"2024-08-17T00:00:00Z","end_local":"2024-08-16T20:00:00","updated":"2024-06-25T11:40:34Z"},{"title":"Primera División - Clausura - Guabirá vs Real Santa Cruz","description":"Sourced from predicthq.com","category":"sports","start":"2024-08-13T23:00:00Z","geo":{"geometry":{"coordinates":[-63.2623679,-17.3432282],"type":"Point"},"placekey":"@gvf-6yv-mrk","address":{"country_code":"BO","formatted_address":"MP4Q+Q66, Montero, Bolivia","locality":"Montero","region":"Santa Cruz Department"}},"labels":["soccer","sport"],"duration":0,"start_local":"2024-08-13T19:00:00","end":"2024-08-13T23:00:00Z","end_local":"2024-08-13T19:00:00","updated":"2024-06-25T12:59:09Z"},{"title":"AFRICAN - AMERICAN EXECUTIVE LEADERSHIP CONFERENCE 2024","description":"Sourced from predicthq.com - Come join us at the African-American Executive Leadership Conference 2024 to connect, learn, and grow as leaders in person!","category":"conferences","start":"2024-08-13T14:00:00Z","geo":{"geometry":{"coordinates":[-68.0859171,-16.540832],"type":"Point"},"placekey":"@mh9-4f2-nnq","address":{"country_code":"BO","formatted_address":"Avenida Sanchez Bustamante, La Paz, Bolivia, Plurinational State of","locality":"La Paz","region":"Departamento de La Paz"}},"labels":["business","conference"],"duration":282600,"start_local":"2024-08-13T10:00:00","end":"2024-08-16T20:30:00Z","end_local":"2024-08-16T16:30:00","updated":"2024-06-28T14:10:40Z"},{"title":"Primera División - Clausura - Independiente vs Nacional Potosí","description":"Sourced from predicthq.com","category":"sports","start":"2024-08-13T00:00:00Z","geo":{"geometry":{"coordinates":[-65.257877,-19.0336914],"type":"Point"},"placekey":"@gvg-2yt-mhq","address":{"country_code":"BO","formatted_address":"XP8R+GRH, German Mendoza, Sucre, Bolivia","locality":"Sucre","region":"Departamento de Chuquisaca"}},"labels":["soccer","sport"],"duration":0,"start_local":"2024-08-12T20:00:00","end":"2024-08-13T00:00:00Z","end_local":"2024-08-12T20:00:00","updated":"2024-06-25T16:56:15Z"},{"title":"Primera División - Clausura - San Antonio Bulo Bulo vs Universitario de Vinto","description":"Sourced from predicthq.com","category":"sports","start":"2024-08-12T19:00:00Z","geo":{"geometry":{"coordinates":[-64.171674,-21.544409],"type":"Point"},"placekey":"@mj3-79j-b8v","address":{"country_code":"BO","formatted_address":"FR4H+68 Entre Ríos, Bolivia","locality":"Entre Ríos","region":"Tarija Department"}},"labels":["soccer","sport"],"duration":0,"start_local":"2024-08-12T15:00:00","end":"2024-08-12T19:00:00Z","end_local":"2024-08-12T15:00:00","updated":"2024-06-25T13:57:11Z"},{"title":"Primera División - Clausura - Oriente Petrolero vs Blooming","description":"Sourced from predicthq.com","category":"sports","start":"2024-08-11T23:30:00Z","geo":{"geometry":{"coordinates":[-63.1836992,-17.7958709],"type":"Point"},"placekey":"@gvf-484-t5f","address":{"country_code":"BO","formatted_address":"6R38+PFJ, Soliz de Olguin, Santa Cruz de la Sierra, Bolivia","locality":"Santa Cruz de la Sierra","region":"Departamento de Santa Cruz"}},"labels":["soccer","sport"],"duration":0,"start_local":"2024-08-11T19:30:00","end":"2024-08-11T23:30:00Z","end_local":"2024-08-11T19:30:00","updated":"2024-06-25T14:06:28Z"},{"title":"Primera División - Clausura - The Strongest vs Bolívar","description":"Sourced from predicthq.com","category":"sports","start":"2024-08-11T21:30:00Z","geo":{"geometry":{"coordinates":[-68.1226791,-16.499465],"type":"Point"},"placekey":"@mh9-4dm-pgk","address":{"country_code":"BO","formatted_address":"La Paz, La Paz Department, Bolivia, Plurinational State of","locality":"La Paz","region":"La Paz Department"}},"labels":["soccer","sport"],"duration":0,"start_local":"2024-08-11T17:30:00","end":"2024-08-11T21:30:00Z","end_local":"2024-08-11T17:30:00","updated":"2024-06-25T14:05:22Z"},{"title":"Primera División - Clausura - Aurora vs Jorge Wilstermann","description":"Sourced from predicthq.com","category":"sports","start":"2024-08-11T19:00:00Z","geo":{"geometry":{"coordinates":[-66.16179360000001,-17.3792677],"type":"Point"},"placekey":"@gvh-znt-8n5","address":{"country_code":"BO","formatted_address":"Avenida Libertador Simón Bolívar, Cochabamba, Bolivia, Plurinational State of","locality":"Cochabamba","region":"Departamento de Cochabamba"}},"labels":["soccer","sport"],"duration":0,"start_local":"2024-08-11T15:00:00","end":"2024-08-11T19:00:00Z","end_local":"2024-08-11T15:00:00","updated":"2024-06-25T14:21:24Z"},{"title":"Primera División - Clausura - Royal Pari vs Real Tomayapo","description":"Sourced from predicthq.com","category":"sports","start":"2024-08-11T00:00:00Z","geo":{"geometry":{"coordinates":[-63.1836992,-17.7958709],"type":"Point"},"placekey":"@gvf-484-t5f","address":{"country_code":"BO","formatted_address":"6R38+PFJ, Soliz de Olguin, Santa Cruz de la Sierra, Bolivia","locality":"Santa Cruz de la Sierra","region":"Departamento de Santa Cruz"}},"labels":["soccer","sport"],"duration":0,"start_local":"2024-08-10T20:00:00","end":"2024-08-11T00:00:00Z","end_local":"2024-08-10T20:00:00","updated":"2024-06-25T12:52:40Z"},{"title":"Primera División - Clausura - Always Ready vs Guabirá","description":"Sourced from predicthq.com","category":"sports","start":"2024-08-10T00:00:00Z","geo":{"geometry":{"coordinates":[-68.1226791,-16.499465],"type":"Point"},"placekey":"@mh9-4dm-pgk","address":{"country_code":"BO","formatted_address":"La Paz, La Paz Department, Bolivia, Plurinational State of","locality":"La Paz","region":"La Paz Department"}},"labels":["soccer","sport"],"duration":0,"start_local":"2024-08-09T20:00:00","end":"2024-08-10T00:00:00Z","end_local":"2024-08-09T20:00:00","updated":"2024-06-25T12:52:40Z"},{"title":"Primera División - Clausura - Nacional Potosí vs San Antonio Bulo Bulo","description":"Sourced from predicthq.com","category":"sports","start":"2024-08-09T22:00:00Z","geo":{"geometry":{"coordinates":[-65.76154029999998,-19.5787027],"type":"Point"},"placekey":"@mj4-79c-3t9","address":{"country_code":"BO","formatted_address":"Av Highland Players 341, Villa Imperial de Potosí, Bolivia","locality":"Villa Imperial de Potosí","region":"Departamento de Potosí"}},"labels":["soccer","sport"],"duration":0,"start_local":"2024-08-09T18:00:00","end":"2024-08-09T22:00:00Z","end_local":"2024-08-09T18:00:00","updated":"2024-06-25T22:06:01Z"},{"title":"Primera División - Clausura - Bolívar vs Jorge Wilstermann","description":"Sourced from predicthq.com","category":"sports","start":"2024-08-09T00:00:00Z","geo":{"geometry":{"coordinates":[-68.1226791,-16.499465],"type":"Point"},"placekey":"@mh9-4dm-pgk","address":{"country_code":"BO","formatted_address":"La Paz, La Paz Department, Bolivia, Plurinational State of","locality":"La Paz","region":"La Paz Department"}},"labels":["soccer","sport"],"duration":0,"start_local":"2024-08-08T20:00:00","end":"2024-08-09T00:00:00Z","end_local":"2024-08-08T20:00:00","updated":"2024-06-25T17:03:28Z"},{"title":"Primera División - Clausura - Aurora vs Blooming","description":"Sourced from predicthq.com","category":"sports","start":"2024-08-08T22:00:00Z","geo":{"geometry":{"coordinates":[-66.16179360000001,-17.3792677],"type":"Point"},"placekey":"@gvh-znt-8n5","address":{"country_code":"BO","formatted_address":"Avenida Libertador Simón Bolívar, Cochabamba, Bolivia, Plurinational State of","locality":"Cochabamba","region":"Departamento de Cochabamba"}},"labels":["soccer","sport"],"duration":0,"start_local":"2024-08-08T18:00:00","end":"2024-08-08T22:00:00Z","end_local":"2024-08-08T18:00:00","updated":"2024-06-25T11:45:55Z"},{"title":"Primera División - Clausura - Real Santa Cruz vs The Strongest","description":"Sourced from predicthq.com","category":"sports","start":"2024-08-08T19:00:00Z","geo":{"geometry":{"coordinates":[-63.16609740257263,-17.805817548966814],"type":"Point"},"placekey":"@gvf-9g8-6zf","address":{"country_code":"BO","formatted_address":"Av. San Aurelio, Santa Cruz de la Sierra, Bolivia","locality":"Santa Cruz de la Sierra","region":"Departamento de Santa Cruz"}},"labels":["soccer","sport"],"duration":0,"start_local":"2024-08-08T15:00:00","end":"2024-08-08T19:00:00Z","end_local":"2024-08-08T15:00:00","updated":"2024-06-25T14:24:35Z"},{"title":"Primera División - Clausura - Real Tomayapo vs Independiente","description":"Sourced from predicthq.com","category":"sports","start":"2024-08-08T00:00:00Z","geo":{"geometry":{"coordinates":[-64.7252244,-21.5320943],"type":"Point"},"placekey":"@mj3-7wt-8sq","address":{"country_code":"BO","formatted_address":"Avenida Potosí, Tarija, Bolivia, Plurinational State of","locality":"Tarija","region":"Tarija"}},"labels":["soccer","sport"],"duration":0,"start_local":"2024-08-07T20:00:00","end":"2024-08-08T00:00:00Z","end_local":"2024-08-07T20:00:00","updated":"2024-06-25T17:14:45Z"},{"title":"Primera División - Clausura - Oriente Petrolero vs Royal Pari","description":"Sourced from predicthq.com","category":"sports","start":"2024-08-07T22:00:00Z","geo":{"geometry":{"coordinates":[-63.1836992,-17.7958709],"type":"Point"},"placekey":"@gvf-484-t5f","address":{"country_code":"BO","formatted_address":"6R38+PFJ, Soliz de Olguin, Santa Cruz de la Sierra, Bolivia","locality":"Santa Cruz de la Sierra","region":"Departamento de Santa Cruz"}},"labels":["soccer","sport"],"duration":0,"start_local":"2024-08-07T18:00:00","end":"2024-08-07T22:00:00Z","end_local":"2024-08-07T18:00:00","updated":"2024-06-25T17:26:13Z"},{"title":"Primera División - Clausura - Universitario de Vinto vs Gualberto Villarroel SJ","description":"Sourced from predicthq.com","category":"sports","start":"2024-08-07T19:00:00Z","geo":{"geometry":{"coordinates":[-66.3175180238037,-17.39742993877829],"type":"Point"},"placekey":"@gvh-zc5-g6k","address":{"country_code":"BO","formatted_address":"Calle Cochabamba, Vinto, Bolivia, Plurinational State of","locality":"Vinto"}},"labels":["soccer","sport"],"duration":0,"start_local":"2024-08-07T15:00:00","end":"2024-08-07T19:00:00Z","end_local":"2024-08-07T15:00:00","updated":"2024-06-25T17:13:04Z"},{"title":"Primera División - Clausura - San Antonio Bulo Bulo vs Always Ready","description":"Sourced from predicthq.com","category":"sports","start":"2024-08-06T19:00:00Z","geo":{"geometry":{"coordinates":[-64.171674,-21.544409],"type":"Point"},"placekey":"@mj3-79j-b8v","address":{"country_code":"BO","formatted_address":"FR4H+68 Entre Ríos, Bolivia","locality":"Entre Ríos","region":"Tarija Department"}},"labels":["soccer","sport"],"duration":0,"start_local":"2024-08-06T15:00:00","end":"2024-08-06T19:00:00Z","end_local":"2024-08-06T15:00:00","updated":"2024-06-25T16:52:12Z"},{"title":"Primera División - Clausura - Blooming vs Nacional Potosí","description":"Sourced from predicthq.com","category":"sports","start":"2024-08-06T00:00:00Z","geo":{"geometry":{"coordinates":[-63.1836992,-17.7958709],"type":"Point"},"placekey":"@gvf-484-t5f","address":{"country_code":"BO","formatted_address":"6R38+PFJ, Soliz de Olguin, Santa Cruz de la Sierra, Bolivia","locality":"Santa Cruz de la Sierra","region":"Departamento de Santa Cruz"}},"labels":["soccer","sport"],"duration":0,"start_local":"2024-08-05T20:00:00","end":"2024-08-06T00:00:00Z","end_local":"2024-08-05T20:00:00","updated":"2024-06-26T03:14:38Z"},{"title":"Primera División - Clausura - Real Santa Cruz vs Aurora","description":"Sourced from predicthq.com","category":"sports","start":"2024-08-05T19:00:00Z","geo":{"geometry":{"coordinates":[-63.16609740257263,-17.805817548966814],"type":"Point"},"placekey":"@gvf-9g8-6zf","address":{"country_code":"BO","formatted_address":"Av. San Aurelio, Santa Cruz de la Sierra, Bolivia","locality":"Santa Cruz de la Sierra","region":"Departamento de Santa Cruz"}},"labels":["soccer","sport"],"duration":0,"start_local":"2024-08-05T15:00:00","end":"2024-08-05T19:00:00Z","end_local":"2024-08-05T15:00:00","updated":"2024-06-25T16:25:27Z"},{"title":"Primera División - Clausura - Jorge Wilstermann vs Real Tomayapo","description":"Sourced from predicthq.com","category":"sports","start":"2024-08-04T23:30:00Z","geo":{"geometry":{"coordinates":[-66.16179360000001,-17.3792677],"type":"Point"},"placekey":"@gvh-znt-8n5","address":{"country_code":"BO","formatted_address":"Avenida Libertador Simón Bolívar, Cochabamba, Bolivia, Plurinational State of","locality":"Cochabamba","region":"Departamento de Cochabamba"}},"labels":["soccer","sport"],"duration":0,"start_local":"2024-08-04T19:30:00","end":"2024-08-04T23:30:00Z","end_local":"2024-08-04T19:30:00","updated":"2024-06-25T16:26:51Z"},{"title":"Primera División - Clausura - The Strongest vs Independiente","description":"Sourced from predicthq.com","category":"sports","start":"2024-08-04T21:30:00Z","geo":{"geometry":{"coordinates":[-68.1226791,-16.499465],"type":"Point"},"placekey":"@mh9-4dm-pgk","address":{"country_code":"BO","formatted_address":"La Paz, La Paz Department, Bolivia, Plurinational State of","locality":"La Paz","region":"La Paz Department"}},"labels":["soccer","sport"],"duration":0,"start_local":"2024-08-04T17:30:00","end":"2024-08-04T21:30:00Z","end_local":"2024-08-04T17:30:00","updated":"2024-06-25T17:03:28Z"},{"title":"Primera División - Clausura - Guabirá vs Universitario de Vinto","description":"Sourced from predicthq.com","category":"sports","start":"2024-08-04T19:00:00Z","geo":{"geometry":{"coordinates":[-63.2623679,-17.3432282],"type":"Point"},"placekey":"@gvf-6yv-mrk","address":{"country_code":"BO","formatted_address":"MP4Q+Q66, Montero, Bolivia","locality":"Montero","region":"Santa Cruz Department"}},"labels":["soccer","sport"],"duration":0,"start_local":"2024-08-04T15:00:00","end":"2024-08-04T19:00:00Z","end_local":"2024-08-04T15:00:00","updated":"2024-06-25T16:52:11Z"},{"title":"Primera División - Clausura - Royal Pari vs Bolívar","description":"Sourced from predicthq.com","category":"sports","start":"2024-08-04T00:00:00Z","geo":{"geometry":{"coordinates":[-63.1836992,-17.7958709],"type":"Point"},"placekey":"@gvf-484-t5f","address":{"country_code":"BO","formatted_address":"6R38+PFJ, Soliz de Olguin, Santa Cruz de la Sierra, Bolivia","locality":"Santa Cruz de la Sierra","region":"Departamento de Santa Cruz"}},"labels":["soccer","sport"],"duration":0,"start_local":"2024-08-03T20:00:00","end":"2024-08-04T00:00:00Z","end_local":"2024-08-03T20:00:00","updated":"2024-06-25T14:23:03Z"},{"title":"Primera División - Clausura - Always Ready vs The Strongest","description":"Sourced from predicthq.com","category":"sports","start":"2024-08-02T00:00:00Z","geo":{"geometry":{"coordinates":[-68.1226791,-16.499465],"type":"Point"},"placekey":"@mh9-4dm-pgk","address":{"country_code":"BO","formatted_address":"La Paz, La Paz Department, Bolivia, Plurinational State of","locality":"La Paz","region":"La Paz Department"}},"labels":["soccer","sport"],"duration":0,"start_local":"2024-08-01T20:00:00","end":"2024-08-02T00:00:00Z","end_local":"2024-08-01T20:00:00","updated":"2024-06-25T14:27:53Z"},{"title":"Primera División - Clausura - Independiente vs Real Santa Cruz","description":"Sourced from predicthq.com","category":"sports","start":"2024-08-01T22:00:00Z","geo":{"geometry":{"coordinates":[-65.257877,-19.0336914],"type":"Point"},"placekey":"@gvg-2yt-mhq","address":{"country_code":"BO","formatted_address":"XP8R+GRH, German Mendoza, Sucre, Bolivia","locality":"Sucre","region":"Departamento de Chuquisaca"}},"labels":["soccer","sport"],"duration":0,"start_local":"2024-08-01T18:00:00","end":"2024-08-01T22:00:00Z","end_local":"2024-08-01T18:00:00","updated":"2024-06-25T22:08:38Z"},{"title":"Primera División - Clausura - Universitario de Vinto vs Blooming","description":"Sourced from predicthq.com","category":"sports","start":"2024-08-01T19:00:00Z","geo":{"geometry":{"coordinates":[-66.3175180238037,-17.39742993877829],"type":"Point"},"placekey":"@gvh-zc5-g6k","address":{"country_code":"BO","formatted_address":"Calle Cochabamba, Vinto, Bolivia, Plurinational State of","locality":"Vinto"}},"labels":["soccer","sport"],"duration":0,"start_local":"2024-08-01T15:00:00","end":"2024-08-01T19:00:00Z","end_local":"2024-08-01T15:00:00","updated":"2024-06-25T16:56:15Z"},{"title":"Primera División - Clausura - Nacional Potosí vs Royal Pari","description":"Sourced from predicthq.com","category":"sports","start":"2024-08-01T00:00:00Z","geo":{"geometry":{"coordinates":[-65.76154029999998,-19.5787027],"type":"Point"},"placekey":"@mj4-79c-3t9","address":{"country_code":"BO","formatted_address":"Av Highland Players 341, Villa Imperial de Potosí, Bolivia","locality":"Villa Imperial de Potosí","region":"Departamento de Potosí"}},"labels":["soccer","sport"],"duration":0,"start_local":"2024-07-31T20:00:00","end":"2024-08-01T00:00:00Z","end_local":"2024-07-31T20:00:00","updated":"2024-06-25T22:06:01Z"},{"title":"Primera División - Clausura - Bolívar vs Gualberto Villarroel SJ","description":"Sourced from predicthq.com","category":"sports","start":"2024-07-31T22:00:00Z","geo":{"geometry":{"coordinates":[-68.1226791,-16.499465],"type":"Point"},"placekey":"@mh9-4dm-pgk","address":{"country_code":"BO","formatted_address":"La Paz, La Paz Department, Bolivia, Plurinational State of","locality":"La Paz","region":"La Paz Department"}},"labels":["soccer","sport"],"duration":0,"start_local":"2024-07-31T18:00:00","end":"2024-07-31T22:00:00Z","end_local":"2024-07-31T18:00:00","updated":"2024-06-25T23:04:05Z"},{"title":"Primera División - Clausura - Real Tomayapo vs Guabirá","description":"Sourced from predicthq.com","category":"sports","start":"2024-07-31T19:00:00Z","geo":{"geometry":{"coordinates":[-64.7252244,-21.5320943],"type":"Point"},"placekey":"@mj3-7wt-8sq","address":{"country_code":"BO","formatted_address":"Avenida Potosí, Tarija, Bolivia, Plurinational State of","locality":"Tarija","region":"Tarija"}},"labels":["soccer","sport"],"duration":0,"start_local":"2024-07-31T15:00:00","end":"2024-07-31T19:00:00Z","end_local":"2024-07-31T15:00:00","updated":"2024-06-25T14:24:35Z"},{"title":"Primera División - Clausura - Oriente Petrolero vs Jorge Wilstermann","description":"Sourced from predicthq.com","category":"sports","start":"2024-07-31T00:00:00Z","geo":{"geometry":{"coordinates":[-63.1836992,-17.7958709],"type":"Point"},"placekey":"@gvf-484-t5f","address":{"country_code":"BO","formatted_address":"6R38+PFJ, Soliz de Olguin, Santa Cruz de la Sierra, Bolivia","locality":"Santa Cruz de la Sierra","region":"Departamento de Santa Cruz"}},"labels":["soccer","sport"],"duration":0,"start_local":"2024-07-30T20:00:00","end":"2024-07-31T00:00:00Z","end_local":"2024-07-30T20:00:00","updated":"2024-06-26T02:40:15Z"},{"title":"Primera División - Clausura - Aurora vs San Antonio Bulo Bulo","description":"Sourced from predicthq.com","category":"sports","start":"2024-07-30T22:00:00Z","geo":{"geometry":{"coordinates":[-66.16179360000001,-17.3792677],"type":"Point"},"placekey":"@gvh-znt-8n5","address":{"country_code":"BO","formatted_address":"Avenida Libertador Simón Bolívar, Cochabamba, Bolivia, Plurinational State of","locality":"Cochabamba","region":"Departamento de Cochabamba"}},"labels":["soccer","sport"],"duration":0,"start_local":"2024-07-30T18:00:00","end":"2024-07-30T22:00:00Z","end_local":"2024-07-30T18:00:00","updated":"2024-06-26T02:39:16Z"},{"title":"Primera División - Clausura - Always Ready vs Universitario de Vinto","description":"Sourced from predicthq.com","category":"sports","start":"2024-07-28T23:30:00Z","geo":{"geometry":{"coordinates":[-68.1226791,-16.499465],"type":"Point"},"placekey":"@mh9-4dm-pgk","address":{"country_code":"BO","formatted_address":"La Paz, La Paz Department, Bolivia, Plurinational State of","locality":"La Paz","region":"La Paz Department"}},"labels":["soccer","sport"],"duration":0,"start_local":"2024-07-28T19:30:00","end":"2024-07-28T23:30:00Z","end_local":"2024-07-28T19:30:00","updated":"2024-06-25T12:49:07Z"},{"title":"Primera División - Clausura - Nacional Potosí vs Bolívar","description":"Sourced from predicthq.com","category":"sports","start":"2024-07-28T21:30:00Z","geo":{"geometry":{"coordinates":[-65.76154029999998,-19.5787027],"type":"Point"},"placekey":"@mj4-79c-3t9","address":{"country_code":"BO","formatted_address":"Av Highland Players 341, Villa Imperial de Potosí, Bolivia","locality":"Villa Imperial de Potosí","region":"Departamento de Potosí"}},"labels":["soccer","sport"],"duration":0,"start_local":"2024-07-28T17:30:00","end":"2024-07-28T21:30:00Z","end_local":"2024-07-28T17:30:00","updated":"2024-06-25T11:39:19Z"},{"title":"Primera División - Clausura - Guabirá vs Gualberto Villarroel SJ","description":"Sourced from predicthq.com","category":"sports","start":"2024-07-28T19:00:00Z","geo":{"geometry":{"coordinates":[-63.2623679,-17.3432282],"type":"Point"},"placekey":"@gvf-6yv-mrk","address":{"country_code":"BO","formatted_address":"MP4Q+Q66, Montero, Bolivia","locality":"Montero","region":"Santa Cruz Department"}},"labels":["soccer","sport"],"duration":0,"start_local":"2024-07-28T15:00:00","end":"2024-07-28T19:00:00Z","end_local":"2024-07-28T15:00:00","updated":"2024-06-25T12:53:10Z"},{"title":"Primera División - Clausura - Jorge Wilstermann vs Royal Pari","description":"Sourced from predicthq.com","category":"sports","start":"2024-07-28T00:00:00Z","geo":{"geometry":{"coordinates":[-66.16179360000001,-17.3792677],"type":"Point"},"placekey":"@gvh-znt-8n5","address":{"country_code":"BO","formatted_address":"Avenida Libertador Simón Bolívar, Cochabamba, Bolivia, Plurinational State of","locality":"Cochabamba","region":"Departamento de Cochabamba"}},"labels":["soccer","sport"],"duration":0,"start_local":"2024-07-27T20:00:00","end":"2024-07-28T00:00:00Z","end_local":"2024-07-27T20:00:00","updated":"2024-06-25T17:14:45Z"},{"title":"Primera División - Clausura - The Strongest vs Aurora","description":"Sourced from predicthq.com","category":"sports","start":"2024-07-27T21:30:00Z","geo":{"geometry":{"coordinates":[-68.1226791,-16.499465],"type":"Point"},"placekey":"@mh9-4dm-pgk","address":{"country_code":"BO","formatted_address":"La Paz, La Paz Department, Bolivia, Plurinational State of","locality":"La Paz","region":"La Paz Department"}},"labels":["soccer","sport"],"duration":0,"start_local":"2024-07-27T17:30:00","end":"2024-07-27T21:30:00Z","end_local":"2024-07-27T17:30:00","updated":"2024-06-25T11:42:09Z"},{"title":"Primera División - Clausura - Real Santa Cruz vs Oriente Petrolero","description":"Sourced from predicthq.com","category":"sports","start":"2024-07-27T19:00:00Z","geo":{"geometry":{"coordinates":[-63.16609740257263,-17.805817548966814],"type":"Point"},"placekey":"@gvf-9g8-6zf","address":{"country_code":"BO","formatted_address":"Av. San Aurelio, Santa Cruz de la Sierra, Bolivia","locality":"Santa Cruz de la Sierra","region":"Departamento de Santa Cruz"}},"labels":["soccer","sport"],"duration":0,"start_local":"2024-07-27T15:00:00","end":"2024-07-27T19:00:00Z","end_local":"2024-07-27T15:00:00","updated":"2024-06-25T23:00:58Z"},{"title":"Primera División - Clausura - Blooming vs Independiente","description":"Sourced from predicthq.com","category":"sports","start":"2024-07-27T00:00:00Z","geo":{"geometry":{"coordinates":[-63.1836992,-17.7958709],"type":"Point"},"placekey":"@gvf-484-t5f","address":{"country_code":"BO","formatted_address":"6R38+PFJ, Soliz de Olguin, Santa Cruz de la Sierra, Bolivia","locality":"Santa Cruz de la Sierra","region":"Departamento de Santa Cruz"}},"labels":["soccer","sport"],"duration":0,"start_local":"2024-07-26T20:00:00","end":"2024-07-27T00:00:00Z","end_local":"2024-07-26T20:00:00","updated":"2024-06-25T13:52:18Z"},{"title":"Dajornix","description":"Sourced from predicthq.com","category":"concerts","start":"2024-07-26T23:00:00Z","geo":{"geometry":{"coordinates":[-68.1248,-16.51075],"type":"Point"},"placekey":"@mh9-4dm-4jv","address":{"country_code":"BO","formatted_address":"Av.6 de Agosto entre Pedro Salazar y, Pinilla #2570, La Paz, Bolivia","locality":"La Paz","region":"Departamento de La Paz"}},"labels":["concert","music"],"duration":0,"start_local":"2024-07-26T19:00:00","end":"2024-07-26T23:00:00Z","end_local":"2024-07-26T19:00:00","updated":"2024-06-12T21:19:32Z"},{"title":"Primera División - Clausura - San Antonio Bulo Bulo vs Real Tomayapo","description":"Sourced from predicthq.com","category":"sports","start":"2024-07-26T19:00:00Z","geo":{"geometry":{"coordinates":[-64.171674,-21.544409],"type":"Point"},"placekey":"@mj3-79j-b8v","address":{"country_code":"BO","formatted_address":"FR4H+68 Entre Ríos, Bolivia","locality":"Entre Ríos","region":"Tarija Department"}},"labels":["soccer","sport"],"duration":0,"start_local":"2024-07-26T15:00:00","end":"2024-07-26T19:00:00Z","end_local":"2024-07-26T15:00:00","updated":"2024-06-25T16:57:11Z"},{"title":"CONMEBOL Sudamericana - 16th Finals - Always Ready vs LDU Quito","description":"Sourced from predicthq.com","category":"sports","start":"2024-07-26T00:30:00Z","geo":{"geometry":{"coordinates":[-68.20152572083202,-16.472754515832452],"type":"Point"},"placekey":"@mhb-4dr-yjv","address":{"country_code":"BO","formatted_address":"GQHX+28F, El Alto, Bolivia","locality":"El Alto","region":"La Paz Department"}},"labels":["soccer","sport"],"duration":0,"start_local":"2024-07-25T20:30:00","end":"2024-07-26T00:30:00Z","end_local":"2024-07-25T20:30:00","updated":"2024-06-13T00:27:48Z"},{"title":"Primera División - Clausura - Oriente Petrolero vs Guabirá","description":"Sourced from predicthq.com","category":"sports","start":"2024-07-21T23:30:00Z","geo":{"geometry":{"coordinates":[-63.1836992,-17.7958709],"type":"Point"},"placekey":"@gvf-484-t5f","address":{"country_code":"BO","formatted_address":"6R38+PFJ, Soliz de Olguin, Santa Cruz de la Sierra, Bolivia","locality":"Santa Cruz de la Sierra","region":"Departamento de Santa Cruz"}},"labels":["soccer","sport"],"duration":0,"start_local":"2024-07-21T19:30:00","end":"2024-07-21T23:30:00Z","end_local":"2024-07-21T19:30:00","updated":"2024-06-25T14:06:28Z"},{"title":"Primera División - Clausura - Bolívar vs Always Ready","description":"Sourced from predicthq.com","category":"sports","start":"2024-07-21T21:30:00Z","geo":{"geometry":{"coordinates":[-68.1226791,-16.499465],"type":"Point"},"placekey":"@mh9-4dm-pgk","address":{"country_code":"BO","formatted_address":"La Paz, La Paz Department, Bolivia, Plurinational State of","locality":"La Paz","region":"La Paz Department"}},"labels":["soccer","sport"],"duration":0,"start_local":"2024-07-21T17:30:00","end":"2024-07-21T21:30:00Z","end_local":"2024-07-21T17:30:00","updated":"2024-06-25T11:40:28Z"},{"title":"Primera División - Clausura - Independiente vs Aurora","description":"Sourced from predicthq.com","category":"sports","start":"2024-07-21T19:00:00Z","geo":{"geometry":{"coordinates":[-65.257877,-19.0336914],"type":"Point"},"placekey":"@gvg-2yt-mhq","address":{"country_code":"BO","formatted_address":"XP8R+GRH, German Mendoza, Sucre, Bolivia","locality":"Sucre","region":"Departamento de Chuquisaca"}},"labels":["soccer","sport"],"duration":0,"start_local":"2024-07-21T15:00:00","end":"2024-07-21T19:00:00Z","end_local":"2024-07-21T15:00:00","updated":"2024-06-26T02:04:45Z"},{"title":"Primera División - Clausura - Jorge Wilstermann vs San Antonio Bulo Bulo","description":"Sourced from predicthq.com","category":"sports","start":"2024-07-21T00:00:00Z","geo":{"geometry":{"coordinates":[-66.16179360000001,-17.3792677],"type":"Point"},"placekey":"@gvh-znt-8n5","address":{"country_code":"BO","formatted_address":"Avenida Libertador Simón Bolívar, Cochabamba, Bolivia, Plurinational State of","locality":"Cochabamba","region":"Departamento de Cochabamba"}},"labels":["soccer","sport"],"duration":0,"start_local":"2024-07-20T20:00:00","end":"2024-07-21T00:00:00Z","end_local":"2024-07-20T20:00:00","updated":"2024-06-25T17:13:47Z"},{"title":"Primera División - Clausura - Real Tomayapo vs Nacional Potosí","description":"Sourced from predicthq.com","category":"sports","start":"2024-07-20T19:00:00Z","geo":{"geometry":{"coordinates":[-64.7252244,-21.5320943],"type":"Point"},"placekey":"@mj3-7wt-8sq","address":{"country_code":"BO","formatted_address":"Avenida Potosí, Tarija, Bolivia, Plurinational State of","locality":"Tarija","region":"Tarija"}},"labels":["soccer","sport"],"duration":0,"start_local":"2024-07-20T15:00:00","end":"2024-07-20T19:00:00Z","end_local":"2024-07-20T15:00:00","updated":"2024-06-25T17:32:26Z"},{"title":"Primera División - Clausura - Royal Pari vs Blooming","description":"Sourced from predicthq.com","category":"sports","start":"2024-07-20T00:00:00Z","geo":{"geometry":{"coordinates":[-63.1836992,-17.7958709],"type":"Point"},"placekey":"@gvf-484-t5f","address":{"country_code":"BO","formatted_address":"6R38+PFJ, Soliz de Olguin, Santa Cruz de la Sierra, Bolivia","locality":"Santa Cruz de la Sierra","region":"Departamento de Santa Cruz"}},"labels":["soccer","sport"],"duration":0,"start_local":"2024-07-19T20:00:00","end":"2024-07-20T00:00:00Z","end_local":"2024-07-19T20:00:00","updated":"2024-06-25T16:23:17Z"},{"title":"Primera División - Clausura - Universitario de Vinto vs Real Santa Cruz","description":"Sourced from predicthq.com","category":"sports","start":"2024-07-19T19:00:00Z","geo":{"geometry":{"coordinates":[-66.3175180238037,-17.39742993877829],"type":"Point"},"placekey":"@gvh-zc5-g6k","address":{"country_code":"BO","formatted_address":"Calle Cochabamba, Vinto, Bolivia, Plurinational State of","locality":"Vinto"}},"labels":["soccer","sport"],"duration":0,"start_local":"2024-07-19T15:00:00","end":"2024-07-19T19:00:00Z","end_local":"2024-07-19T15:00:00","updated":"2024-06-25T14:01:00Z"},{"title":"AFRICAN - AMERICAN LEADERSHIP CONFERENCE 2024","description":"Sourced from predicthq.com - Get ready to be inspired and empowered by African-American leaders at the AFRICAN-AMERICAN LEADERSHIP CONFERENCE 2024!","category":"conferences","start":"2024-07-17T14:00:00Z","geo":{"geometry":{"coordinates":[-68.0859171,-16.540832],"type":"Point"},"placekey":"@mh9-4f2-nnq","address":{"country_code":"BO","formatted_address":"Avenida Sanchez Bustamante, La Paz, Bolivia, Plurinational State of","locality":"La Paz","region":"Departamento de La Paz"}},"labels":["business","conference"],"duration":279000,"start_local":"2024-07-17T10:00:00","end":"2024-07-20T19:30:00Z","end_local":"2024-07-20T15:30:00","updated":"2024-05-30T01:01:22Z"},{"title":"Primera División - Clausura - Blooming vs Bolívar","description":"Sourced from predicthq.com","category":"sports","start":"2024-07-14T21:00:00Z","geo":{"geometry":{"coordinates":[-63.1836992,-17.7958709],"type":"Point"},"placekey":"@gvf-484-t5f","address":{"country_code":"BO","formatted_address":"6R38+PFJ, Soliz de Olguin, Santa Cruz de la Sierra, Bolivia","locality":"Santa Cruz de la Sierra","region":"Departamento de Santa Cruz"}},"labels":["soccer","sport"],"duration":0,"start_local":"2024-07-14T17:00:00","end":"2024-07-14T21:00:00Z","end_local":"2024-07-14T17:00:00","updated":"2024-06-25T23:13:19Z"},{"title":"Primera División - Clausura - Nacional Potosí vs Jorge Wilstermann","description":"Sourced from predicthq.com","category":"sports","start":"2024-07-14T19:00:00Z","geo":{"geometry":{"coordinates":[-65.76154029999998,-19.5787027],"type":"Point"},"placekey":"@mj4-79c-3t9","address":{"country_code":"BO","formatted_address":"Av Highland Players 341, Villa Imperial de Potosí, Bolivia","locality":"Villa Imperial de Potosí","region":"Departamento de Potosí"}},"labels":["soccer","sport"],"duration":0,"start_local":"2024-07-14T15:00:00","end":"2024-07-14T19:00:00Z","end_local":"2024-07-14T15:00:00","updated":"2024-06-25T13:55:01Z"},{"title":"Primera División - Clausura - The Strongest vs Universitario de Vinto","description":"Sourced from predicthq.com","category":"sports","start":"2024-07-14T00:00:00Z","geo":{"geometry":{"coordinates":[-68.1226791,-16.499465],"type":"Point"},"placekey":"@mh9-4dm-pgk","address":{"country_code":"BO","formatted_address":"La Paz, La Paz Department, Bolivia, Plurinational State of","locality":"La Paz","region":"La Paz Department"}},"labels":["soccer","sport"],"duration":0,"start_local":"2024-07-13T20:00:00","end":"2024-07-14T00:00:00Z","end_local":"2024-07-13T20:00:00","updated":"2024-06-25T14:28:04Z"},{"title":"Primera División - Clausura - Aurora vs Gualberto Villarroel SJ","description":"Sourced from predicthq.com","category":"sports","start":"2024-07-13T21:30:00Z","geo":{"geometry":{"coordinates":[-66.16179360000001,-17.3792677],"type":"Point"},"placekey":"@gvh-znt-8n5","address":{"country_code":"BO","formatted_address":"Avenida Libertador Simón Bolívar, Cochabamba, Bolivia, Plurinational State of","locality":"Cochabamba","region":"Departamento de Cochabamba"}},"labels":["soccer","sport"],"duration":0,"start_local":"2024-07-13T17:30:00","end":"2024-07-13T21:30:00Z","end_local":"2024-07-13T17:30:00","updated":"2024-06-26T02:40:09Z"},{"title":"Primera División - Clausura - San Antonio Bulo Bulo vs Oriente Petrolero","description":"Sourced from predicthq.com","category":"sports","start":"2024-07-13T19:00:00Z","geo":{"geometry":{"coordinates":[-64.171674,-21.544409],"type":"Point"},"placekey":"@mj3-79j-b8v","address":{"country_code":"BO","formatted_address":"FR4H+68 Entre Ríos, Bolivia","locality":"Entre Ríos","region":"Tarija Department"}},"labels":["soccer","sport"],"duration":0,"start_local":"2024-07-13T15:00:00","end":"2024-07-13T19:00:00Z","end_local":"2024-07-13T15:00:00","updated":"2024-06-26T02:39:16Z"},{"title":"Primera División - Clausura - Always Ready vs Real Tomayapo","description":"Sourced from predicthq.com","category":"sports","start":"2024-07-13T00:00:00Z","geo":{"geometry":{"coordinates":[-68.20152572083202,-16.472754515832452],"type":"Point"},"placekey":"@mhb-4dr-yjv","address":{"country_code":"BO","formatted_address":"GQHX+28F, El Alto, Bolivia","locality":"El Alto","region":"La Paz Department"}},"labels":["soccer","sport"],"duration":0,"start_local":"2024-07-12T20:00:00","end":"2024-07-13T00:00:00Z","end_local":"2024-07-12T20:00:00","updated":"2024-07-01T17:44:28Z"},{"title":"Primera División - Clausura - Independiente vs Guabirá","description":"Sourced from predicthq.com","category":"sports","start":"2024-07-12T22:00:00Z","geo":{"geometry":{"coordinates":[-65.257877,-19.0336914],"type":"Point"},"placekey":"@gvg-2yt-mhq","address":{"country_code":"BO","formatted_address":"XP8R+GRH, German Mendoza, Sucre, Bolivia","locality":"Sucre","region":"Departamento de Chuquisaca"}},"labels":["soccer","sport"],"duration":0,"start_local":"2024-07-12T18:00:00","end":"2024-07-12T22:00:00Z","end_local":"2024-07-12T18:00:00","updated":"2024-06-25T21:59:02Z"},{"title":"orla","description":"Sourced from predicthq.com - 78","category":"concerts","start":"2024-07-12T21:00:00Z","geo":{"geometry":{"coordinates":[-63.182957,-17.7829343],"type":"Point"},"placekey":"@gvf-483-z9f","address":{"country_code":"BO","formatted_address":"Junín, Santa Cruz de la Sierra, Bolivia, Plurinational State of","locality":"Santa Cruz de la Sierra","region":"Departamento de Santa Cruz"}},"labels":["concert","music"],"duration":14400,"start_local":"2024-07-12T17:00:00","end":"2024-07-13T01:00:00Z","end_local":"2024-07-12T21:00:00","updated":"2024-06-04T00:02:48Z"},{"title":"Primera División - Clausura - Real Santa Cruz vs Royal Pari","description":"Sourced from predicthq.com","category":"sports","start":"2024-07-12T19:00:00Z","geo":{"geometry":{"coordinates":[-63.16609740257263,-17.805817548966814],"type":"Point"},"placekey":"@gvf-9g8-6zf","address":{"country_code":"BO","formatted_address":"Av. San Aurelio, Santa Cruz de la Sierra, Bolivia","locality":"Santa Cruz de la Sierra","region":"Departamento de Santa Cruz"}},"labels":["soccer","sport"],"duration":0,"start_local":"2024-07-12T15:00:00","end":"2024-07-12T19:00:00Z","end_local":"2024-07-12T15:00:00","updated":"2024-06-25T11:40:28Z"},{"title":"Seminario Regional de actualización en salud sexual y VIH","description":"Sourced from predicthq.com - ¡Ven y actualízate en temas de salud sexual y VIH en nuestro seminario internacional!","category":"conferences","start":"2024-06-19T19:30:00Z","geo":{"geometry":{"coordinates":[-66.1658571,-17.38542559999999],"type":"Point"},"placekey":"@gvh-zn4-9cq","address":{"country_code":"BO","formatted_address":"Mitayo, Cochabamba, Bolivia, Plurinational State of","locality":"Cochabamba","region":"Departamento de Cochabamba"}},"labels":["conference","health"],"duration":12600,"start_local":"2024-06-19T15:30:00","end":"2024-06-19T23:00:00Z","end_local":"2024-06-19T19:00:00","updated":"2024-06-13T01:46:19Z"},{"title":"Dajornix","description":"Sourced from predicthq.com","category":"concerts","start":"2024-06-15T01:00:00Z","geo":{"geometry":{"coordinates":[-68.06832,-16.54002],"type":"Point"},"placekey":"@mh9-2k2-dvz","address":{"country_code":"BO","formatted_address":"Calle 27 100, La Paz, Bolivia","locality":"La Paz","region":"Departamento de La Paz"}},"labels":["concert","music"],"duration":0,"start_local":"2024-06-14T21:00:00","end":"2024-06-15T01:00:00Z","end_local":"2024-06-14T21:00:00","updated":"2024-06-29T01:04:55Z"},{"title":"SIN BARRERAS","description":"Sourced from predicthq.com - LLEGÓ A LA PAZ UNO DE LOS FOROS MAS INTERESANTES PARA EL DESARROLLO DE SOFT SKILLS Y HARD SKILLS.          *SIN BARRERAS*✨","category":"conferences","start":"2024-06-08T19:00:06Z","geo":{"geometry":{"coordinates":[-68.13433359999999,-16.5003081],"type":"Point"},"placekey":"@mh9-4dm-bx5","address":{"country_code":"BO","formatted_address":"La Paz, Departamento de La Paz, Bolivia, Plurinational State of","locality":"La Paz","region":"Departamento de La Paz"}},"labels":["business","conference"],"duration":18000,"start_local":"2024-06-08T15:00:06","end":"2024-06-09T00:00:06Z","end_local":"2024-06-08T20:00:06","updated":"2024-05-30T01:07:57Z"},{"title":"Possessed and Venom Inc.","description":"Sourced from predicthq.com","category":"concerts","start":"2024-06-06T23:00:00Z","geo":{"geometry":{"coordinates":[-68.1422771,-16.4865837],"type":"Point"},"placekey":"@mh9-4dk-6kz","address":{"country_code":"BO","formatted_address":"Calle Omasuyos, La Paz, Bolivia","locality":"La Paz","region":"Departamento de La Paz"}},"labels":["concert","music"],"duration":0,"start_local":"2024-06-06T19:00:00","end":"2024-06-06T23:00:00Z","end_local":"2024-06-06T19:00:00","updated":"2024-06-20T23:33:24Z"},{"title":"CONMEBOL Sudamericana - Group Stage - Real Tomayapo vs Internacional","description":"Sourced from predicthq.com","category":"sports","start":"2024-06-05T00:30:00Z","geo":{"geometry":{"coordinates":[-64.7252244,-21.5320943],"type":"Point"},"placekey":"@mj3-7wt-8sq","address":{"country_code":"BO","formatted_address":"Avenida Potosí, Tarija, Bolivia, Plurinational State of","locality":"Tarija","region":"Tarija"}},"labels":["soccer","sport"],"duration":6935,"start_local":"2024-06-04T20:30:00","end":"2024-06-05T02:25:35Z","end_local":"2024-06-04T22:25:35","updated":"2024-06-11T22:26:33Z"},{"title":"Friendlies Women - Friendlies 2 - Bolivia vs El Salvador","description":"Sourced from predicthq.com","category":"sports","start":"2024-06-03T19:00:00Z","geo":{"geometry":{"coordinates":[-66.16179360000001,-17.3792677],"type":"Point"},"placekey":"@gvh-znt-8n5","address":{"country_code":"BO","formatted_address":"Avenida Libertador Simón Bolívar, Cochabamba, Bolivia, Plurinational State of","locality":"Cochabamba","region":"Departamento de Cochabamba"}},"labels":["soccer","sport"],"duration":0,"start_local":"2024-06-03T15:00:00","end":"2024-06-03T19:00:00Z","end_local":"2024-06-03T15:00:00","updated":"2024-06-12T10:32:00Z"},{"title":"José Feliciano en Santa Cruz, Bolivia - 01 JUNIO","description":"Sourced from predicthq.com - ¡Prepárate para vivir una noche inolvidable junto a la leyenda musical con 50 años de éxitos, 8 premios Grammy! ¡Gran Concierto Imperdible!","category":"festivals","start":"2024-06-01T23:00:00Z","geo":{"geometry":{"coordinates":[-63.16928129999999,-17.7650933],"type":"Point"},"placekey":"@gvf-47w-7dv","address":{"country_code":"BO","formatted_address":"Marayau, Santa Cruz de la Sierra, Bolivia, Plurinational State of","locality":"Santa Cruz de la Sierra","region":"Departamento de Santa Cruz"}},"labels":["festival","music"],"duration":17940,"start_local":"2024-06-01T19:00:00","end":"2024-06-02T03:59:00Z","end_local":"2024-06-01T23:59:00","updated":"2024-06-04T09:08:38Z"},{"title":"Friendlies Women - Friendlies 2 - Bolivia vs El Salvador","description":"Sourced from predicthq.com","category":"sports","start":"2024-05-31T19:00:00Z","geo":{"geometry":{"coordinates":[-66.16179360000001,-17.3792677],"type":"Point"},"placekey":"@gvh-znt-8n5","address":{"country_code":"BO","formatted_address":"Avenida Libertador Simón Bolívar, Cochabamba, Bolivia, Plurinational State of","locality":"Cochabamba","region":"Departamento de Cochabamba"}},"labels":["soccer","sport"],"duration":0,"start_local":"2024-05-31T15:00:00","end":"2024-05-31T19:00:00Z","end_local":"2024-05-31T15:00:00","updated":"2024-06-12T05:58:27Z"},{"title":"Primera División - Clausura - Real Santa Cruz vs Gualberto Villarroel SJ","description":"Sourced from predicthq.com","category":"sports","start":"2024-05-30T19:00:00Z","geo":{"geometry":{"coordinates":[-63.16609740257263,-17.805817548966814],"type":"Point"},"placekey":"@gvf-9g8-6zf","address":{"country_code":"BO","formatted_address":"Av. San Aurelio, Santa Cruz de la Sierra, Bolivia","locality":"Santa Cruz de la Sierra","region":"Departamento de Santa Cruz"}},"labels":["soccer","sport"],"duration":6918,"start_local":"2024-05-30T15:00:00","end":"2024-05-30T20:55:18Z","end_local":"2024-05-30T16:55:18","updated":"2024-06-12T13:28:12Z"},{"title":"CONMEBOL Libertadores - Group Stage - Bolívar vs Palestino","description":"Sourced from predicthq.com","category":"sports","start":"2024-05-29T00:00:00Z","geo":{"geometry":{"coordinates":[-68.1226791,-16.499465],"type":"Point"},"placekey":"@mh9-4dm-pgk","address":{"country_code":"BO","formatted_address":"La Paz, La Paz Department, Bolivia, Plurinational State of","locality":"La Paz","region":"La Paz Department"}},"labels":["soccer","sport"],"duration":7275,"start_local":"2024-05-28T20:00:00","end":"2024-05-29T02:01:15Z","end_local":"2024-05-28T22:01:15","updated":"2024-06-05T03:47:21Z"},{"title":"Primera División - Clausura - Royal Pari vs Independiente","description":"Sourced from predicthq.com","category":"sports","start":"2024-05-28T00:00:00Z","geo":{"geometry":{"coordinates":[-63.1836992,-17.7958709],"type":"Point"},"placekey":"@gvf-484-t5f","address":{"country_code":"BO","formatted_address":"6R38+PFJ, Soliz de Olguin, Santa Cruz de la Sierra, Bolivia","locality":"Santa Cruz de la Sierra","region":"Departamento de Santa Cruz"}},"labels":["soccer","sport"],"duration":7911,"start_local":"2024-05-27T20:00:00","end":"2024-05-28T02:11:51Z","end_local":"2024-05-27T22:11:51","updated":"2024-06-05T16:47:34Z"},{"title":"Primera División - Clausura - Gualberto Villarroel SJ vs San Antonio Bulo Bulo","description":"Sourced from predicthq.com","category":"sports","start":"2024-05-27T22:00:00Z","geo":{"geometry":{"coordinates":[-67.1116054,-17.9462579],"type":"Point"},"placekey":"@mhd-378-nnq","address":{"country_code":"BO","formatted_address":"Avenida Segundo Encinas, Oruro, Bolivia, Plurinational State of","locality":"Oruro","region":"Departamento de Oruro"}},"labels":["soccer","sport"],"duration":7195,"start_local":"2024-05-27T18:00:00","end":"2024-05-27T23:59:55Z","end_local":"2024-05-27T19:59:55","updated":"2024-05-28T09:16:57Z"},{"title":"Primera División - Clausura - Oriente Petrolero vs The Strongest","description":"Sourced from predicthq.com","category":"sports","start":"2024-05-26T23:30:00Z","geo":{"geometry":{"coordinates":[-63.1836992,-17.7958709],"type":"Point"},"placekey":"@gvf-484-t5f","address":{"country_code":"BO","formatted_address":"6R38+PFJ, Soliz de Olguin, Santa Cruz de la Sierra, Bolivia","locality":"Santa Cruz de la Sierra","region":"Departamento de Santa Cruz"}},"labels":["soccer","sport"],"duration":7241,"start_local":"2024-05-26T19:30:00","end":"2024-05-27T01:30:41Z","end_local":"2024-05-26T21:30:41","updated":"2024-06-05T04:15:02Z"},{"title":"Primera División - Clausura - Jorge Wilstermann vs Always Ready","description":"Sourced from predicthq.com","category":"sports","start":"2024-05-26T21:30:00Z","geo":{"geometry":{"coordinates":[-66.16179360000001,-17.3792677],"type":"Point"},"placekey":"@gvh-znt-8n5","address":{"country_code":"BO","formatted_address":"Avenida Libertador Simón Bolívar, Cochabamba, Bolivia, Plurinational State of","locality":"Cochabamba","region":"Departamento de Cochabamba"}},"labels":["soccer","sport"],"duration":6790,"start_local":"2024-05-26T17:30:00","end":"2024-05-26T23:23:10Z","end_local":"2024-05-26T19:23:10","updated":"2024-05-27T18:32:20Z"},{"title":"Primera División - Clausura - Guabirá vs Nacional Potosí","description":"Sourced from predicthq.com","category":"sports","start":"2024-05-26T19:00:00Z","geo":{"geometry":{"coordinates":[-63.2623679,-17.3432282],"type":"Point"},"placekey":"@gvf-6yv-mrk","address":{"country_code":"BO","formatted_address":"MP4Q+Q66, Montero, Bolivia","locality":"Montero","region":"Santa Cruz Department"}},"labels":["soccer","sport"],"duration":7113,"start_local":"2024-05-26T15:00:00","end":"2024-05-26T20:58:33Z","end_local":"2024-05-26T16:58:33","updated":"2024-06-05T05:19:51Z"},{"title":"Primera División - Clausura - Blooming vs Real Tomayapo","description":"Sourced from predicthq.com","category":"sports","start":"2024-05-25T23:00:00Z","geo":{"geometry":{"coordinates":[-63.1836992,-17.7958709],"type":"Point"},"placekey":"@gvf-484-t5f","address":{"country_code":"BO","formatted_address":"6R38+PFJ, Soliz de Olguin, Santa Cruz de la Sierra, Bolivia","locality":"Santa Cruz de la Sierra","region":"Departamento de Santa Cruz"}},"labels":["soccer","sport"],"duration":7114,"start_local":"2024-05-25T19:00:00","end":"2024-05-26T00:58:34Z","end_local":"2024-05-25T20:58:34","updated":"2024-06-05T00:40:38Z"},{"title":"Primera División - Clausura - Bolívar vs Real Santa Cruz","description":"Sourced from predicthq.com","category":"sports","start":"2024-05-25T21:30:00Z","geo":{"geometry":{"coordinates":[-68.1226791,-16.499465],"type":"Point"},"placekey":"@mh9-4dm-pgk","address":{"country_code":"BO","formatted_address":"La Paz, La Paz Department, Bolivia, Plurinational State of","locality":"La Paz","region":"La Paz Department"}},"labels":["soccer","sport"],"duration":6843,"start_local":"2024-05-25T17:30:00","end":"2024-05-25T23:24:03Z","end_local":"2024-05-25T19:24:03","updated":"2024-06-05T00:44:17Z"},{"title":"Primera División - Clausura - Universitario de Vinto vs Aurora","description":"Sourced from predicthq.com","category":"sports","start":"2024-05-25T19:00:00Z","geo":{"geometry":{"coordinates":[-66.16179360000001,-17.3792677],"type":"Point"},"placekey":"@gvh-znt-8n5","address":{"country_code":"BO","formatted_address":"Avenida Libertador Simón Bolívar, Cochabamba, Bolivia, Plurinational State of","locality":"Cochabamba","region":"Departamento de Cochabamba"}},"labels":["soccer","sport"],"duration":6888,"start_local":"2024-05-25T15:00:00","end":"2024-05-25T20:54:48Z","end_local":"2024-05-25T16:54:48","updated":"2024-05-27T21:56:22Z"},{"title":"ECOS ANCESTRALES","description":"Sourced from predicthq.com - concierto de música autóctona sinfonica","category":"concerts","start":"2024-05-24T23:00:00Z","geo":{"geometry":{"coordinates":[-68.1293063,-16.5105472],"type":"Point"},"placekey":"@mh9-4dm-fj9","address":{"country_code":"BO","formatted_address":"Rosendo Gutierrez, La Paz, Bolivia, Plurinational State of","locality":"La Paz","region":"Departamento de La Paz"}},"labels":["concert","music"],"duration":12600,"start_local":"2024-05-24T19:00:00","end":"2024-05-25T02:30:00Z","end_local":"2024-05-24T22:30:00","updated":"2024-06-05T01:57:17Z"},{"title":"Afro-America Business  Conference","description":"Sourced from predicthq.com - Hey there! Get ready to dive into the world of African-American business excellence at our Afro-America Business Conference!","category":"conferences","start":"2024-05-24T14:00:00Z","geo":{"geometry":{"coordinates":[-68.11929359999999,-16.489689],"type":"Point"},"placekey":"@mhb-4cy-28v","address":{"country_code":"BO","formatted_address":"Calle Walter Portocarrero, La Paz, Bolivia, Plurinational State of","locality":"La Paz","region":"Departamento de La Paz"}},"labels":["business","conference"],"duration":612000,"start_local":"2024-05-24T10:00:00","end":"2024-05-31T16:00:00Z","end_local":"2024-05-31T12:00:00","updated":"2024-06-04T23:04:02Z"},{"title":"Bolivia Mining (formerly Expo Bolivia Minera)","description":"Sourced from predicthq.com - Mining Exhibition","category":"expos","start":"2024-05-24T04:00:00Z","geo":{"geometry":{"coordinates":[-65.7567304,-19.5779373],"type":"Point"},"placekey":"@mj4-79c-3nq","address":{"country_code":"BO","formatted_address":"Potosi, Potosi Department, Bolivia, Plurinational State of","locality":"Potosi","region":"Potosi Department"}},"labels":["expo","industrial","mineral","technology"],"duration":259199,"start_local":"2024-05-24T00:00:00","end":"2024-05-27T03:59:59Z","end_local":"2024-05-26T23:59:59","updated":"2024-06-05T02:23:15Z"},{"title":"Primera División - Clausura - The Strongest vs Guabirá","description":"Sourced from predicthq.com","category":"sports","start":"2024-05-24T00:00:00Z","geo":{"geometry":{"coordinates":[-68.1226791,-16.499465],"type":"Point"},"placekey":"@mh9-4dm-pgk","address":{"country_code":"BO","formatted_address":"La Paz, La Paz Department, Bolivia, Plurinational State of","locality":"La Paz","region":"La Paz Department"}},"labels":["soccer","sport"],"duration":7639,"start_local":"2024-05-23T20:00:00","end":"2024-05-24T02:07:19Z","end_local":"2024-05-23T22:07:19","updated":"2024-06-05T00:59:20Z"},{"title":"Primera División - Clausura - Always Ready vs Nacional Potosí","description":"Sourced from predicthq.com","category":"sports","start":"2024-05-23T22:00:00Z","geo":{"geometry":{"coordinates":[-68.20152572083202,-16.472754515832452],"type":"Point"},"placekey":"@mhb-4dr-yjv","address":{"country_code":"BO","formatted_address":"GQHX+28F, El Alto, Bolivia","locality":"El Alto","region":"La Paz Department"}},"labels":["soccer","sport"],"duration":7215,"start_local":"2024-05-23T18:00:00","end":"2024-05-24T00:00:15Z","end_local":"2024-05-23T20:00:15","updated":"2024-06-05T10:31:35Z"},{"title":"Primera División - Clausura - San Antonio Bulo Bulo vs Royal Pari","description":"Sourced from predicthq.com","category":"sports","start":"2024-05-23T19:00:00Z","geo":{"geometry":{"coordinates":[-65.39978796184835,-16.951191495112383],"type":"Point"},"placekey":"@gvj-kjd-j7q","address":{"country_code":"BO","formatted_address":"2JX2+G3 Villa Tunari, Bolivia","locality":"Villa Tunari","region":"Cochabamba Department"}},"labels":["soccer","sport"],"duration":6900,"start_local":"2024-05-23T15:00:00","end":"2024-05-23T20:55:00Z","end_local":"2024-05-23T16:55:00","updated":"2024-06-04T23:09:23Z"},{"title":"Primera División - Clausura - Blooming vs Jorge Wilstermann","description":"Sourced from predicthq.com","category":"sports","start":"2024-05-23T00:30:00Z","geo":{"geometry":{"coordinates":[-63.1836992,-17.7958709],"type":"Point"},"placekey":"@gvf-484-t5f","address":{"country_code":"BO","formatted_address":"6R38+PFJ, Soliz de Olguin, Santa Cruz de la Sierra, Bolivia","locality":"Santa Cruz de la Sierra","region":"Departamento de Santa Cruz"}},"labels":["soccer","sport"],"duration":6794,"start_local":"2024-05-22T20:30:00","end":"2024-05-23T02:23:14Z","end_local":"2024-05-22T22:23:14","updated":"2024-06-05T00:51:09Z"},{"title":"Primera División - Clausura - Aurora vs Bolívar","description":"Sourced from predicthq.com","category":"sports","start":"2024-05-22T23:00:00Z","geo":{"geometry":{"coordinates":[-66.16179360000001,-17.3792677],"type":"Point"},"placekey":"@gvh-znt-8n5","address":{"country_code":"BO","formatted_address":"Avenida Libertador Simón Bolívar, Cochabamba, Bolivia, Plurinational State of","locality":"Cochabamba","region":"Departamento de Cochabamba"}},"labels":["soccer","sport"],"duration":7108,"start_local":"2024-05-22T19:00:00","end":"2024-05-23T00:58:28Z","end_local":"2024-05-22T20:58:28","updated":"2024-05-27T18:25:26Z"},{"title":"Primera División - Clausura - Real Tomayapo vs Universitario de Vinto","description":"Sourced from predicthq.com","category":"sports","start":"2024-05-22T19:00:00Z","geo":{"geometry":{"coordinates":[-64.7252244,-21.5320943],"type":"Point"},"placekey":"@mj3-7wt-8sq","address":{"country_code":"BO","formatted_address":"Avenida Potosí, Tarija, Bolivia, Plurinational State of","locality":"Tarija","region":"Tarija"}},"labels":["soccer","sport"],"duration":6747,"start_local":"2024-05-22T15:00:00","end":"2024-05-22T20:52:27Z","end_local":"2024-05-22T16:52:27","updated":"2024-06-05T11:55:46Z"},{"title":"Primera División - Clausura - Independiente vs Oriente Petrolero","description":"Sourced from predicthq.com","category":"sports","start":"2024-05-22T00:00:00Z","geo":{"geometry":{"coordinates":[-65.257877,-19.0336914],"type":"Point"},"placekey":"@gvg-2yt-mhq","address":{"country_code":"BO","formatted_address":"XP8R+GRH, German Mendoza, Sucre, Bolivia","locality":"Sucre","region":"Departamento de Chuquisaca"}},"labels":["soccer","sport"],"duration":7070,"start_local":"2024-05-21T20:00:00","end":"2024-05-22T01:57:50Z","end_local":"2024-05-21T21:57:50","updated":"2024-06-05T08:03:52Z"},{"title":"Change Makers","description":"Sourced from predicthq.com - Get inspired by the stories of people who are making a difference in the world at Change Makers - the event where ideas turn into action!","category":"conferences","start":"2024-05-21T18:30:00Z","geo":{"geometry":{"coordinates":[-63.2335069,-17.8193503],"type":"Point"},"placekey":"@gvf-422-7dv","address":{"country_code":"BO","formatted_address":"Av. Pirai, Santa Cruz de la Sierra, Bolivia, Plurinational State of","locality":"Santa Cruz de la Sierra","region":"Departamento de Santa Cruz"}},"labels":["community","conference"],"duration":9000,"start_local":"2024-05-21T14:30:00","end":"2024-05-21T21:00:00Z","end_local":"2024-05-21T17:00:00","updated":"2024-06-04T22:49:33Z"},{"title":"Primera División - Clausura - Royal Pari vs Always Ready","description":"Sourced from predicthq.com","category":"sports","start":"2024-05-20T23:00:00Z","geo":{"geometry":{"coordinates":[-63.1836992,-17.7958709],"type":"Point"},"placekey":"@gvf-484-t5f","address":{"country_code":"BO","formatted_address":"6R38+PFJ, Soliz de Olguin, Santa Cruz de la Sierra, Bolivia","locality":"Santa Cruz de la Sierra","region":"Departamento de Santa Cruz"}},"labels":["soccer","sport"],"duration":7256,"start_local":"2024-05-20T19:00:00","end":"2024-05-21T01:00:56Z","end_local":"2024-05-20T21:00:56","updated":"2024-06-05T20:52:52Z"},{"title":"Primera División - Clausura - Jorge Wilstermann vs The Strongest","description":"Sourced from predicthq.com","category":"sports","start":"2024-05-19T23:30:00Z","geo":{"geometry":{"coordinates":[-66.16179360000001,-17.3792677],"type":"Point"},"placekey":"@gvh-znt-8n5","address":{"country_code":"BO","formatted_address":"Avenida Libertador Simón Bolívar, Cochabamba, Bolivia, Plurinational State of","locality":"Cochabamba","region":"Departamento de Cochabamba"}},"labels":["soccer","sport"],"duration":6971,"start_local":"2024-05-19T19:30:00","end":"2024-05-20T01:26:11Z","end_local":"2024-05-19T21:26:11","updated":"2024-05-28T02:58:01Z"},{"title":"Primera División - Clausura - Bolívar vs Real Tomayapo","description":"Sourced from predicthq.com","category":"sports","start":"2024-05-19T21:30:00Z","geo":{"geometry":{"coordinates":[-68.1226791,-16.499465],"type":"Point"},"placekey":"@mh9-4dm-pgk","address":{"country_code":"BO","formatted_address":"La Paz, La Paz Department, Bolivia, Plurinational State of","locality":"La Paz","region":"La Paz Department"}},"labels":["soccer","sport"],"duration":6895,"start_local":"2024-05-19T17:30:00","end":"2024-05-19T23:24:55Z","end_local":"2024-05-19T19:24:55","updated":"2024-06-05T05:48:36Z"},{"title":"Primera División - Clausura - Guabirá vs Aurora","description":"Sourced from predicthq.com","category":"sports","start":"2024-05-19T19:00:00Z","geo":{"geometry":{"coordinates":[-63.2623679,-17.3432282],"type":"Point"},"placekey":"@gvf-6yv-mrk","address":{"country_code":"BO","formatted_address":"MP4Q+Q66, Montero, Bolivia","locality":"Montero","region":"Santa Cruz Department"}},"labels":["soccer","sport"],"duration":7015,"start_local":"2024-05-19T15:00:00","end":"2024-05-19T20:56:55Z","end_local":"2024-05-19T16:56:55","updated":"2024-06-05T03:18:27Z"},{"title":"Primera División - Clausura - Oriente Petrolero vs Universitario de Vinto","description":"Sourced from predicthq.com","category":"sports","start":"2024-05-19T00:00:00Z","geo":{"geometry":{"coordinates":[-63.1836992,-17.7958709],"type":"Point"},"placekey":"@gvf-484-t5f","address":{"country_code":"BO","formatted_address":"6R38+PFJ, Soliz de Olguin, Santa Cruz de la Sierra, Bolivia","locality":"Santa Cruz de la Sierra","region":"Departamento de Santa Cruz"}},"labels":["soccer","sport"],"duration":6737,"start_local":"2024-05-18T20:00:00","end":"2024-05-19T01:52:17Z","end_local":"2024-05-18T21:52:17","updated":"2024-06-05T07:11:06Z"},{"title":"Dajornix","description":"Sourced from predicthq.com","category":"concerts","start":"2024-05-18T23:00:00Z","geo":{"geometry":{"coordinates":[-68.1339,-16.50324],"type":"Point"},"placekey":"@mh9-4dm-cdv","address":{"country_code":"BO","formatted_address":"Edificio Cañada Strongest, Cañada Strongest 1808, La Paz, Bolivia","locality":"La Paz","region":"Departamento de La Paz"}},"labels":["concert","music"],"duration":0,"start_local":"2024-05-18T19:00:00","end":"2024-05-18T23:00:00Z","end_local":"2024-05-18T19:00:00","updated":"2024-06-12T09:25:13Z"},{"title":"Primera División - Clausura - Nacional Potosí vs Real Santa Cruz","description":"Sourced from predicthq.com","category":"sports","start":"2024-05-18T21:30:00Z","geo":{"geometry":{"coordinates":[-65.76154029999998,-19.5787027],"type":"Point"},"placekey":"@mj4-79c-3t9","address":{"country_code":"BO","formatted_address":"Av Highland Players 341, Villa Imperial de Potosí, Bolivia","locality":"Villa Imperial de Potosí","region":"Departamento de Potosí"}},"labels":["soccer","sport"],"duration":7072,"start_local":"2024-05-18T17:30:00","end":"2024-05-18T23:27:52Z","end_local":"2024-05-18T19:27:52","updated":"2024-06-04T22:17:47Z"},{"title":"Primera División - Clausura - Gualberto Villarroel SJ vs Independiente","description":"Sourced from predicthq.com","category":"sports","start":"2024-05-18T19:00:00Z","geo":{"geometry":{"coordinates":[-67.1116054,-17.9462579],"type":"Point"},"placekey":"@mhd-378-nnq","address":{"country_code":"BO","formatted_address":"Avenida Segundo Encinas, Oruro, Bolivia, Plurinational State of","locality":"Oruro","region":"Departamento de Oruro"}},"labels":["soccer","sport"],"duration":7317,"start_local":"2024-05-18T15:00:00","end":"2024-05-18T21:01:57Z","end_local":"2024-05-18T17:01:57","updated":"2024-05-27T03:19:58Z"},{"title":"Dajornix","description":"Sourced from predicthq.com","category":"concerts","start":"2024-05-18T01:00:00Z","geo":{"geometry":{"coordinates":[-68.13517,-16.50192],"type":"Point"},"placekey":"@mh9-4dm-bkz","address":{"country_code":"BO","formatted_address":"FVX7+8X2, C. Colombia, La Paz, Bolivia","locality":"La Paz","region":"Departamento de La Paz"}},"labels":["concert","music"],"duration":0,"start_local":"2024-05-17T21:00:00","end":"2024-05-18T01:00:00Z","end_local":"2024-05-17T21:00:00","updated":"2024-06-12T07:09:25Z"},{"title":"Primera División - Clausura - Blooming vs San Antonio Bulo Bulo","description":"Sourced from predicthq.com","category":"sports","start":"2024-05-18T00:00:00Z","geo":{"geometry":{"coordinates":[-63.1836992,-17.7958709],"type":"Point"},"placekey":"@gvf-484-t5f","address":{"country_code":"BO","formatted_address":"6R38+PFJ, Soliz de Olguin, Santa Cruz de la Sierra, Bolivia","locality":"Santa Cruz de la Sierra","region":"Departamento de Santa Cruz"}},"labels":["soccer","sport"],"duration":6906,"start_local":"2024-05-17T20:00:00","end":"2024-05-18T01:55:06Z","end_local":"2024-05-17T21:55:06","updated":"2024-06-05T12:58:34Z"},{"title":"Liberación en Concierto - Santa Cruz, Bolivia | 17 Mayo 2024","description":"Sourced from predicthq.com - ¡Atención a todos los amantes de la cumbia en Santa Cruz y alrededores!  ¡Prepárate para una experiencia inolvidable!","category":"concerts","start":"2024-05-17T23:00:00Z","geo":{"geometry":{"coordinates":[-63.16928129999999,-17.7650933],"type":"Point"},"placekey":"@gvf-47w-7dv","address":{"country_code":"BO","formatted_address":"Marayau, Santa Cruz de la Sierra, Bolivia, Plurinational State of","locality":"Santa Cruz de la Sierra","region":"Departamento de Santa Cruz"}},"labels":["concert","music"],"duration":0,"start_local":"2024-05-17T19:00:00","end":"2024-05-17T23:00:00Z","end_local":"2024-05-17T19:00:00","updated":"2024-06-12T03:51:02Z"},{"title":"Dades","description":"Sourced from predicthq.com - dasde dsadae daess sfjad","category":"community","start":"2024-05-17T14:00:00Z","geo":{"geometry":{"coordinates":[-66.1528007,-17.3839575],"type":"Point"},"placekey":"@gvh-zn6-x3q","address":{"country_code":"BO","formatted_address":"Avenida Salamanca, Cochabamba, Bolivia, Plurinational State of","locality":"Cochabamba","region":"Departamento de Cochabamba"}},"labels":["community","outdoor","sport"],"duration":7200,"start_local":"2024-05-17T10:00:00","end":"2024-05-17T16:00:00Z","end_local":"2024-05-17T12:00:00","updated":"2024-06-05T03:48:54Z"},{"title":"CONMEBOL Libertadores - Group Stage - The Strongest vs Huachipato","description":"Sourced from predicthq.com","category":"sports","start":"2024-05-15T22:00:00Z","geo":{"geometry":{"coordinates":[-68.1226791,-16.499465],"type":"Point"},"placekey":"@mh9-4dm-pgk","address":{"country_code":"BO","formatted_address":"La Paz, La Paz Department, Bolivia, Plurinational State of","locality":"La Paz","region":"La Paz Department"}},"labels":["soccer","sport"],"duration":6737,"start_local":"2024-05-15T18:00:00","end":"2024-05-15T23:52:17Z","end_local":"2024-05-15T19:52:17","updated":"2024-06-05T00:28:15Z"},{"title":"CONMEBOL Sudamericana - Group Stage - Nacional Potosí vs Sportivo Trinidense","description":"Sourced from predicthq.com","category":"sports","start":"2024-05-15T02:00:00Z","geo":{"geometry":{"coordinates":[-65.76154029999998,-19.5787027],"type":"Point"},"placekey":"@mj4-79c-3t9","address":{"country_code":"BO","formatted_address":"Av Highland Players 341, Villa Imperial de Potosí, Bolivia","locality":"Villa Imperial de Potosí","region":"Departamento de Potosí"}},"labels":["soccer","sport"],"duration":6895,"start_local":"2024-05-14T22:00:00","end":"2024-05-15T03:54:55Z","end_local":"2024-05-14T23:54:55","updated":"2024-06-05T05:57:26Z"},{"title":"Primera División - Clausura - Universitario de Vinto vs Royal Pari","description":"Sourced from predicthq.com","category":"sports","start":"2024-05-13T23:00:00Z","geo":{"geometry":{"coordinates":[-66.16179360000001,-17.3792677],"type":"Point"},"placekey":"@gvh-znt-8n5","address":{"country_code":"BO","formatted_address":"Avenida Libertador Simón Bolívar, Cochabamba, Bolivia, Plurinational State of","locality":"Cochabamba","region":"Departamento de Cochabamba"}},"labels":["soccer","sport"],"duration":6882,"start_local":"2024-05-13T19:00:00","end":"2024-05-14T00:54:42Z","end_local":"2024-05-13T20:54:42","updated":"2024-05-27T21:16:24Z"},{"title":"WarCry","description":"Sourced from predicthq.com","category":"concerts","start":"2024-05-13T00:00:00Z","geo":{"geometry":{"coordinates":[-66.1653224,-17.4139766],"type":"Point"},"placekey":"@gvh-znb-bc5","address":{"country_code":"BO","formatted_address":"HRPM+CV3, Cochabamba, Bolivia","locality":"Cochabamba","region":"Cochabamba Department"}},"labels":["concert","music"],"duration":0,"start_local":"2024-05-12T20:00:00","end":"2024-05-13T00:00:00Z","end_local":"2024-05-12T20:00:00","updated":"2024-06-12T16:19:47Z"},{"title":"Primera División - Clausura - Real Santa Cruz vs Jorge Wilstermann","description":"Sourced from predicthq.com","category":"sports","start":"2024-05-12T23:30:00Z","geo":{"geometry":{"coordinates":[-63.1836992,-17.7958709],"type":"Point"},"placekey":"@gvf-484-t5f","address":{"country_code":"BO","formatted_address":"6R38+PFJ, Soliz de Olguin, Santa Cruz de la Sierra, Bolivia","locality":"Santa Cruz de la Sierra","region":"Departamento de Santa Cruz"}},"labels":["soccer","sport"],"duration":7368,"start_local":"2024-05-12T19:30:00","end":"2024-05-13T01:32:48Z","end_local":"2024-05-12T21:32:48","updated":"2024-06-05T01:07:37Z"},{"title":"Primera División - Clausura - Aurora vs Oriente Petrolero","description":"Sourced from predicthq.com","category":"sports","start":"2024-05-12T21:30:00Z","geo":{"geometry":{"coordinates":[-66.16179360000001,-17.3792677],"type":"Point"},"placekey":"@gvh-znt-8n5","address":{"country_code":"BO","formatted_address":"Avenida Libertador Simón Bolívar, Cochabamba, Bolivia, Plurinational State of","locality":"Cochabamba","region":"Departamento de Cochabamba"}},"labels":["soccer","sport"],"duration":7126,"start_local":"2024-05-12T17:30:00","end":"2024-05-12T23:28:46Z","end_local":"2024-05-12T19:28:46","updated":"2024-05-28T00:10:25Z"},{"title":"Primera División - Clausura - Independiente vs Bolívar","description":"Sourced from predicthq.com","category":"sports","start":"2024-05-12T19:00:00Z","geo":{"geometry":{"coordinates":[-65.257877,-19.0336914],"type":"Point"},"placekey":"@gvg-2yt-mhq","address":{"country_code":"BO","formatted_address":"XP8R+GRH, German Mendoza, Sucre, Bolivia","locality":"Sucre","region":"Departamento de Chuquisaca"}},"labels":["soccer","sport"],"duration":7049,"start_local":"2024-05-12T15:00:00","end":"2024-05-12T20:57:29Z","end_local":"2024-05-12T16:57:29","updated":"2024-06-05T05:04:54Z"},{"title":"WarCry","description":"Sourced from predicthq.com","category":"concerts","start":"2024-05-12T00:00:00Z","geo":{"geometry":{"coordinates":[-68.14441,-16.48947],"type":"Point"},"placekey":"@mh9-4dj-gff","address":{"country_code":"BO","formatted_address":"FFCC La Paz Train Station, Av.Peru, La Paz, Bolivia","locality":"La Paz","region":"Departamento de La Paz"}},"labels":["concert","music"],"duration":0,"start_local":"2024-05-11T20:00:00","end":"2024-05-12T00:00:00Z","end_local":"2024-05-11T20:00:00","updated":"2024-06-12T19:41:50Z"},{"title":"Primera División - Clausura - The Strongest vs Nacional Potosí","description":"Sourced from predicthq.com","category":"sports","start":"2024-05-12T00:00:00Z","geo":{"geometry":{"coordinates":[-68.1226791,-16.499465],"type":"Point"},"placekey":"@mh9-4dm-pgk","address":{"country_code":"BO","formatted_address":"La Paz, La Paz Department, Bolivia, Plurinational State of","locality":"La Paz","region":"La Paz Department"}},"labels":["soccer","sport"],"duration":7001,"start_local":"2024-05-11T20:00:00","end":"2024-05-12T01:56:41Z","end_local":"2024-05-11T21:56:41","updated":"2024-06-05T11:30:07Z"},{"title":"Primera División - Clausura - Always Ready vs Blooming","description":"Sourced from predicthq.com","category":"sports","start":"2024-05-11T21:30:00Z","geo":{"geometry":{"coordinates":[-68.20152572083202,-16.472754515832452],"type":"Point"},"placekey":"@mhb-4dr-yjv","address":{"country_code":"BO","formatted_address":"GQHX+28F, El Alto, Bolivia","locality":"El Alto","region":"La Paz Department"}},"labels":["soccer","sport"],"duration":7486,"start_local":"2024-05-11T17:30:00","end":"2024-05-11T23:34:46Z","end_local":"2024-05-11T19:34:46","updated":"2024-06-05T08:10:48Z"},{"title":"Primera División - Clausura - San Antonio Bulo Bulo vs Guabirá","description":"Sourced from predicthq.com","category":"sports","start":"2024-05-11T19:00:00Z","geo":{"geometry":{"coordinates":[-64.171674,-21.544409],"type":"Point"},"placekey":"@mj3-79j-b8v","address":{"country_code":"BO","formatted_address":"FR4H+68 Entre Ríos, Bolivia","locality":"Entre Ríos","region":"Tarija Department"}},"labels":["soccer","sport"],"duration":7436,"start_local":"2024-05-11T15:00:00","end":"2024-05-11T21:03:56Z","end_local":"2024-05-11T17:03:56","updated":"2024-06-05T03:35:58Z"},{"title":"Primera División - Clausura - Real Tomayapo vs Gualberto Villarroel SJ","description":"Sourced from predicthq.com","category":"sports","start":"2024-05-11T00:00:00Z","geo":{"geometry":{"coordinates":[-64.7252244,-21.5320943],"type":"Point"},"placekey":"@mj3-7wt-8sq","address":{"country_code":"BO","formatted_address":"Avenida Potosí, Tarija, Bolivia, Plurinational State of","locality":"Tarija","region":"Tarija"}},"labels":["soccer","sport"],"duration":7050,"start_local":"2024-05-10T20:00:00","end":"2024-05-11T01:57:30Z","end_local":"2024-05-10T21:57:30","updated":"2024-06-05T03:07:31Z"},{"title":"CONMEBOL Libertadores - Group Stage - The Strongest vs Estudiantes","description":"Sourced from predicthq.com","category":"sports","start":"2024-05-10T00:00:00Z","geo":{"geometry":{"coordinates":[-68.1226791,-16.499465],"type":"Point"},"placekey":"@mh9-4dm-pgk","address":{"country_code":"BO","formatted_address":"La Paz, La Paz Department, Bolivia, Plurinational State of","locality":"La Paz","region":"La Paz Department"}},"labels":["soccer","sport"],"duration":6976,"start_local":"2024-05-09T20:00:00","end":"2024-05-10T01:56:16Z","end_local":"2024-05-09T21:56:16","updated":"2024-06-05T16:01:39Z"},{"title":"CONMEBOL Sudamericana - Group Stage - Nacional Potosí vs Fortaleza","description":"Sourced from predicthq.com","category":"sports","start":"2024-05-09T00:00:00Z","geo":{"geometry":{"coordinates":[-65.76154029999998,-19.5787027],"type":"Point"},"placekey":"@mj4-79c-3t9","address":{"country_code":"BO","formatted_address":"Av Highland Players 341, Villa Imperial de Potosí, Bolivia","locality":"Villa Imperial de Potosí","region":"Departamento de Potosí"}},"labels":["soccer","sport"],"duration":6666,"start_local":"2024-05-08T20:00:00","end":"2024-05-09T01:51:06Z","end_local":"2024-05-08T21:51:06","updated":"2024-06-05T11:41:38Z"},{"title":"CONMEBOL Sudamericana - Group Stage - Always Ready vs Defensa y Justicia","description":"Sourced from predicthq.com","category":"sports","start":"2024-05-08T02:00:00Z","geo":{"geometry":{"coordinates":[-68.20152572083202,-16.472754515832452],"type":"Point"},"placekey":"@mhb-4dr-yjv","address":{"country_code":"BO","formatted_address":"GQHX+28F, El Alto, Bolivia","locality":"El Alto","region":"La Paz Department"}},"labels":["soccer","sport"],"duration":6755,"start_local":"2024-05-07T22:00:00","end":"2024-05-08T03:52:35Z","end_local":"2024-05-07T23:52:35","updated":"2024-06-05T11:39:00Z"},{"title":"Primera División - Apertura - Finals - San Antonio Bulo Bulo vs Universitario de Vinto","description":"Sourced from predicthq.com","category":"sports","start":"2024-05-05T19:00:00Z","geo":{"geometry":{"coordinates":[-64.171674,-21.544409],"type":"Point"},"placekey":"@mj3-79j-b8v","address":{"country_code":"BO","formatted_address":"FR4H+68 Entre Ríos, Bolivia","locality":"Entre Ríos","region":"Tarija Department"}},"labels":["soccer","sport"],"duration":6872,"start_local":"2024-05-05T15:00:00","end":"2024-05-05T20:54:32Z","end_local":"2024-05-05T16:54:32","updated":"2024-06-05T14:05:03Z"},{"title":"La Paz Corre Con Powerade","description":"Sourced from predicthq.com","category":"sports","start":"2024-05-05T10:00:00Z","geo":{"geometry":{"coordinates":[-68.1211082,-16.483902],"type":"Point"},"placekey":"@mhb-4cy-2rk","address":{"country_code":"BO","formatted_address":"Gualberto Villaroel, La Paz, Bolivia, Plurinational State of","locality":"La Paz","region":"Departamento de La Paz"}},"labels":["outdoor-sports","running","sport"],"duration":0,"start_local":"2024-05-05T06:00:00","end":"2024-05-05T10:00:00Z","end_local":"2024-05-05T06:00:00","updated":"2024-06-05T02:26:07Z"},{"title":"Primera División - Apertura - Finals - Universitario de Vinto vs San Antonio Bulo Bulo","description":"Sourced from predicthq.com","category":"sports","start":"2024-05-01T19:00:00Z","geo":{"geometry":{"coordinates":[-66.16179360000001,-17.3792677],"type":"Point"},"placekey":"@gvh-znt-8n5","address":{"country_code":"BO","formatted_address":"Avenida Libertador Simón Bolívar, Cochabamba, Bolivia, Plurinational State of","locality":"Cochabamba","region":"Departamento de Cochabamba"}},"labels":["soccer","sport"],"duration":6961,"start_local":"2024-05-01T15:00:00","end":"2024-05-01T20:56:01Z","end_local":"2024-05-01T16:56:01","updated":"2024-05-27T20:14:04Z"},{"title":"Los Fabulosos Cadillacs y Auténticos Decadentes en Santa Cruz, Bolivia","description":"Sourced from predicthq.com - Aprovecha los precios Hot Tickets últimos y asegura tus entradas para ver a los Fabulosos Cadillacs & Auténticos Decadentes.","category":"concerts","start":"2024-05-01T00:00:00Z","geo":{"geometry":{"coordinates":[-63.16928129999999,-17.7650933],"type":"Point"},"placekey":"@gvf-47w-7dv","address":{"country_code":"BO","formatted_address":"Marayau, Santa Cruz de la Sierra, Bolivia, Plurinational State of","locality":"Santa Cruz de la Sierra","region":"Departamento de Santa Cruz"}},"labels":["concert","music"],"duration":0,"start_local":"2024-04-30T20:00:00","end":"2024-05-01T00:00:00Z","end_local":"2024-04-30T20:00:00","updated":"2024-06-12T03:17:12Z"},{"title":"Jessi Uribe y Nacho en Santa Cruz, Bolivia - Festival Serenata al Trabajador 2.0","description":"Sourced from predicthq.com - ¡Ven a disfrutar de la increíble presentación de Jessi Uribe y Nacho en el Festival Serenata al Trabajador 2.0 en Santa Cruz, Bolivia!","category":"festivals","start":"2024-04-30T23:00:00Z","geo":{"geometry":{"coordinates":[-63.16928129999999,-17.7650933],"type":"Point"},"placekey":"@gvf-47w-7dv","address":{"country_code":"BO","formatted_address":"Marayau, Santa Cruz de la Sierra, Bolivia, Plurinational State of","locality":"Santa Cruz de la Sierra","region":"Departamento de Santa Cruz"}},"labels":["concert","music"],"duration":17940,"start_local":"2024-04-30T19:00:00","end":"2024-05-01T03:59:00Z","end_local":"2024-04-30T23:59:00","updated":"2024-06-05T08:07:42Z"},{"title":"Liga La Paz","description":"Sourced from predicthq.com","category":"sports","start":"2024-04-28T22:00:00Z","geo":{"geometry":{"coordinates":[-68.0926512,-16.5432971],"type":"Point"},"placekey":"@mh9-4f3-2p9","address":{"country_code":"BO","formatted_address":"La Paz, Departamento de La Paz, Bolivia, Plurinational State of","locality":"La Paz","region":"Departamento de La Paz"}},"labels":["outdoor-sports","running","sport"],"duration":0,"start_local":"2024-04-28T18:00:00","end":"2024-04-28T22:00:00Z","end_local":"2024-04-28T18:00:00","updated":"2024-06-05T00:38:07Z"},{"title":"Primera División - Apertura - Semi-finals - Independiente vs San Antonio Bulo Bulo","description":"Sourced from predicthq.com","category":"sports","start":"2024-04-28T22:00:00Z","geo":{"geometry":{"coordinates":[-65.257877,-19.0336914],"type":"Point"},"placekey":"@gvg-2yt-mhq","address":{"country_code":"BO","formatted_address":"XP8R+GRH, German Mendoza, Sucre, Bolivia","locality":"Sucre","region":"Departamento de Chuquisaca"}},"labels":["soccer","sport"],"duration":7141,"start_local":"2024-04-28T18:00:00","end":"2024-04-28T23:59:01Z","end_local":"2024-04-28T19:59:01","updated":"2024-06-05T03:46:09Z"},{"title":"Primera División - Apertura - Semi-finals - The Strongest vs Universitario de Vinto","description":"Sourced from predicthq.com","category":"sports","start":"2024-04-28T20:00:00Z","geo":{"geometry":{"coordinates":[-68.1226791,-16.499465],"type":"Point"},"placekey":"@mh9-4dm-pgk","address":{"country_code":"BO","formatted_address":"La Paz, La Paz Department, Bolivia, Plurinational State of","locality":"La Paz","region":"La Paz Department"}},"labels":["soccer","sport"],"duration":6995,"start_local":"2024-04-28T16:00:00","end":"2024-04-28T21:56:35Z","end_local":"2024-04-28T17:56:35","updated":"2024-06-05T00:35:03Z"},{"title":"CONMEBOL Sudamericana - Group Stage - Always Ready vs César Vallejo","description":"Sourced from predicthq.com","category":"sports","start":"2024-04-26T00:00:00Z","geo":{"geometry":{"coordinates":[-68.20152572083202,-16.472754515832452],"type":"Point"},"placekey":"@mhb-4dr-yjv","address":{"country_code":"BO","formatted_address":"GQHX+28F, El Alto, Bolivia","locality":"El Alto","region":"La Paz Department"}},"labels":["soccer","sport"],"duration":7131,"start_local":"2024-04-25T20:00:00","end":"2024-04-26T01:58:51Z","end_local":"2024-04-25T21:58:51","updated":"2024-06-04T21:44:28Z"},{"title":"CONMEBOL Libertadores - Group Stage - Bolívar vs Flamengo","description":"Sourced from predicthq.com","category":"sports","start":"2024-04-25T00:30:00Z","geo":{"geometry":{"coordinates":[-68.1226791,-16.499465],"type":"Point"},"placekey":"@mh9-4dm-pgk","address":{"country_code":"BO","formatted_address":"La Paz, La Paz Department, Bolivia, Plurinational State of","locality":"La Paz","region":"La Paz Department"}},"labels":["soccer","sport"],"duration":6947,"start_local":"2024-04-24T20:30:00","end":"2024-04-25T02:25:47Z","end_local":"2024-04-24T22:25:47","updated":"2024-06-05T08:52:25Z"},{"title":"CONMEBOL Sudamericana - Group Stage - Real Tomayapo vs Belgrano","description":"Sourced from predicthq.com","category":"sports","start":"2024-04-25T00:30:00Z","geo":{"geometry":{"coordinates":[-63.1836992,-17.7958709],"type":"Point"},"placekey":"@gvf-484-t5f","address":{"country_code":"BO","formatted_address":"6R38+PFJ, Soliz de Olguin, Santa Cruz de la Sierra, Bolivia","locality":"Santa Cruz de la Sierra","region":"Departamento de Santa Cruz"}},"labels":["soccer","sport"],"duration":6822,"start_local":"2024-04-24T20:30:00","end":"2024-04-25T02:23:42Z","end_local":"2024-04-24T22:23:42","updated":"2024-06-05T06:07:15Z"},{"title":"Primera División - Apertura - Semi-finals - San Antonio Bulo Bulo vs Independiente","description":"Sourced from predicthq.com","category":"sports","start":"2024-04-22T19:00:00Z","geo":{"geometry":{"coordinates":[-64.171674,-21.544409],"type":"Point"},"placekey":"@mj3-79j-b8v","address":{"country_code":"BO","formatted_address":"FR4H+68 Entre Ríos, Bolivia","locality":"Entre Ríos","region":"Tarija Department"}},"labels":["soccer","sport"],"duration":6667,"start_local":"2024-04-22T15:00:00","end":"2024-04-22T20:51:07Z","end_local":"2024-04-22T16:51:07","updated":"2024-06-05T04:26:01Z"},{"title":"Primera División - Apertura - Semi-finals - Universitario de Vinto vs The Strongest","description":"Sourced from predicthq.com","category":"sports","start":"2024-04-20T21:30:00Z","geo":{"geometry":{"coordinates":[-66.3175180238037,-17.39742993877829],"type":"Point"},"placekey":"@gvh-zc5-g6k","address":{"country_code":"BO","formatted_address":"Calle Cochabamba, Vinto, Bolivia, Plurinational State of","locality":"Vinto"}},"labels":["soccer","sport"],"duration":7128,"start_local":"2024-04-20T17:30:00","end":"2024-04-20T23:28:48Z","end_local":"2024-04-20T19:28:48","updated":"2024-06-05T00:48:06Z"},{"title":"EXPOFOREST","description":"Sourced from predicthq.com - International Fair for Woodworking and Forestry","category":"expos","start":"2024-04-19T04:00:00Z","geo":{"geometry":{"coordinates":[-63.2089464,-17.7851036],"type":"Point"},"placekey":"@gvf-3yj-ghq","address":{"country_code":"BO","formatted_address":"Avenida Roca y Coronado, Santa Cruz de la Sierra, Bolivia, Plurinational State of","locality":"Santa Cruz de la Sierra","region":"Departamento de Santa Cruz"}},"labels":["expo","industrial"],"duration":431999,"start_local":"2024-04-19T00:00:00","end":"2024-04-24T03:59:59Z","end_local":"2024-04-23T23:59:59","updated":"2024-06-05T03:00:23Z"},{"title":"Primera División - Apertura - Quarter-finals - Aurora vs Independiente","description":"Sourced from predicthq.com","category":"sports","start":"2024-04-19T00:00:00Z","geo":{"geometry":{"coordinates":[-66.16179360000001,-17.3792677],"type":"Point"},"placekey":"@gvh-znt-8n5","address":{"country_code":"BO","formatted_address":"Avenida Libertador Simón Bolívar, Cochabamba, Bolivia, Plurinational State of","locality":"Cochabamba","region":"Departamento de Cochabamba"}},"labels":["soccer","sport"],"duration":7059,"start_local":"2024-04-18T20:00:00","end":"2024-04-19T01:57:39Z","end_local":"2024-04-18T21:57:39","updated":"2024-05-27T18:29:52Z"},{"title":"Primera División - Apertura - Quarter-finals - Bolívar vs San Antonio Bulo Bulo","description":"Sourced from predicthq.com","category":"sports","start":"2024-04-18T23:00:00Z","geo":{"geometry":{"coordinates":[-68.1226791,-16.499465],"type":"Point"},"placekey":"@mh9-4dm-pgk","address":{"country_code":"BO","formatted_address":"La Paz, La Paz Department, Bolivia, Plurinational State of","locality":"La Paz","region":"La Paz Department"}},"labels":["soccer","sport"],"duration":7409,"start_local":"2024-04-18T19:00:00","end":"2024-04-19T01:03:29Z","end_local":"2024-04-18T21:03:29","updated":"2024-06-05T00:48:46Z"},{"title":"Primera División - Apertura - Quarter-finals - The Strongest vs Gualberto Villarroel SJ","description":"Sourced from predicthq.com","category":"sports","start":"2024-04-18T00:00:00Z","geo":{"geometry":{"coordinates":[-68.1226791,-16.499465],"type":"Point"},"placekey":"@mh9-4dm-pgk","address":{"country_code":"BO","formatted_address":"La Paz, La Paz Department, Bolivia, Plurinational State of","locality":"La Paz","region":"La Paz Department"}},"labels":["soccer","sport"],"duration":6821,"start_local":"2024-04-17T20:00:00","end":"2024-04-18T01:53:41Z","end_local":"2024-04-17T21:53:41","updated":"2024-06-05T18:42:57Z"},{"title":"Primera División - Apertura - Quarter-finals - Universitario de Vinto vs Nacional Potosí","description":"Sourced from predicthq.com","category":"sports","start":"2024-04-17T19:00:00Z","geo":{"geometry":{"coordinates":[-66.16179360000001,-17.3792677],"type":"Point"},"placekey":"@gvh-znt-8n5","address":{"country_code":"BO","formatted_address":"Avenida Libertador Simón Bolívar, Cochabamba, Bolivia, Plurinational State of","locality":"Cochabamba","region":"Departamento de Cochabamba"}},"labels":["soccer","sport"],"duration":7564,"start_local":"2024-04-17T15:00:00","end":"2024-04-17T21:06:04Z","end_local":"2024-04-17T17:06:04","updated":"2024-05-27T20:06:46Z"},{"title":"Primera División - Apertura - Quarter-finals - Independiente vs Aurora","description":"Sourced from predicthq.com","category":"sports","start":"2024-04-15T23:00:00Z","geo":{"geometry":{"coordinates":[-65.257877,-19.0336914],"type":"Point"},"placekey":"@gvg-2yt-mhq","address":{"country_code":"BO","formatted_address":"XP8R+GRH, German Mendoza, Sucre, Bolivia","locality":"Sucre","region":"Departamento de Chuquisaca"}},"labels":["soccer","sport"],"duration":7089,"start_local":"2024-04-15T19:00:00","end":"2024-04-16T00:58:09Z","end_local":"2024-04-15T20:58:09","updated":"2024-06-05T18:52:26Z"},{"title":"Primera División - Apertura - Quarter-finals - Nacional Potosí vs Universitario de Vinto","description":"Sourced from predicthq.com","category":"sports","start":"2024-04-14T23:30:00Z","geo":{"geometry":{"coordinates":[-65.76154029999998,-19.5787027],"type":"Point"},"placekey":"@mj4-79c-3t9","address":{"country_code":"BO","formatted_address":"Av Highland Players 341, Villa Imperial de Potosí, Bolivia","locality":"Villa Imperial de Potosí","region":"Departamento de Potosí"}},"labels":["soccer","sport"],"duration":6976,"start_local":"2024-04-14T19:30:00","end":"2024-04-15T01:26:16Z","end_local":"2024-04-14T21:26:16","updated":"2024-06-05T14:18:01Z"},{"title":"Primera División - Apertura - Quarter-finals - Gualberto Villarroel SJ vs The Strongest","description":"Sourced from predicthq.com","category":"sports","start":"2024-04-14T21:30:00Z","geo":{"geometry":{"coordinates":[-67.1116054,-17.9462579],"type":"Point"},"placekey":"@mhd-378-nnq","address":{"country_code":"BO","formatted_address":"Avenida Segundo Encinas, Oruro, Bolivia, Plurinational State of","locality":"Oruro","region":"Departamento de Oruro"}},"labels":["soccer","sport"],"duration":6839,"start_local":"2024-04-14T17:30:00","end":"2024-04-14T23:23:59Z","end_local":"2024-04-14T19:23:59","updated":"2024-05-27T03:19:46Z"},{"title":"Primera División - Apertura - Quarter-finals - San Antonio Bulo Bulo vs Bolívar","description":"Sourced from predicthq.com","category":"sports","start":"2024-04-14T19:00:00Z","geo":{"geometry":{"coordinates":[-64.171674,-21.544409],"type":"Point"},"placekey":"@mj3-79j-b8v","address":{"country_code":"BO","formatted_address":"FR4H+68 Entre Ríos, Bolivia","locality":"Entre Ríos","region":"Tarija Department"}},"labels":["soccer","sport"],"duration":6736,"start_local":"2024-04-14T15:00:00","end":"2024-04-14T20:52:16Z","end_local":"2024-04-14T16:52:16","updated":"2024-06-04T22:08:28Z"},{"title":"Primera División - Apertura - Real Santa Cruz vs The Strongest","description":"Sourced from predicthq.com","category":"sports","start":"2024-04-11T23:00:00Z","geo":{"geometry":{"coordinates":[-63.16609740257263,-17.805817548966814],"type":"Point"},"placekey":"@gvf-9g8-6zf","address":{"country_code":"BO","formatted_address":"Av. San Aurelio, Santa Cruz de la Sierra, Bolivia","locality":"Santa Cruz de la Sierra","region":"Departamento de Santa Cruz"}},"labels":["soccer","sport"],"duration":7090,"start_local":"2024-04-11T19:00:00","end":"2024-04-12T00:58:10Z","end_local":"2024-04-11T20:58:10","updated":"2024-06-05T15:49:05Z"},{"title":"CONMEBOL Libertadores - Group Stage - Bolívar vs Millonarios","description":"Sourced from predicthq.com","category":"sports","start":"2024-04-11T22:00:00Z","geo":{"geometry":{"coordinates":[-68.1226791,-16.499465],"type":"Point"},"placekey":"@mh9-4dm-pgk","address":{"country_code":"BO","formatted_address":"La Paz, La Paz Department, Bolivia, Plurinational State of","locality":"La Paz","region":"La Paz Department"}},"labels":["soccer","sport"],"duration":7113,"start_local":"2024-04-11T18:00:00","end":"2024-04-11T23:58:33Z","end_local":"2024-04-11T19:58:33","updated":"2024-06-05T01:39:24Z"},{"title":"AGROPECRUZ","description":"Sourced from predicthq.com - National Agriculture and Cattle Raising Fair","category":"expos","start":"2024-04-10T04:00:00Z","geo":{"geometry":{"coordinates":[-63.2089464,-17.7851036],"type":"Point"},"placekey":"@gvf-3yj-ghq","address":{"country_code":"BO","formatted_address":"Avenida Roca y Coronado, Santa Cruz de la Sierra, Bolivia, Plurinational State of","locality":"Santa Cruz de la Sierra","region":"Departamento de Santa Cruz"}},"labels":["expo"],"duration":431999,"start_local":"2024-04-10T00:00:00","end":"2024-04-15T03:59:59Z","end_local":"2024-04-14T23:59:59","updated":"2024-06-05T07:34:36Z"},{"title":"Primera División - Apertura - Independiente vs Guabirá","description":"Sourced from predicthq.com","category":"sports","start":"2024-04-08T23:00:00Z","geo":{"geometry":{"coordinates":[-65.257877,-19.0336914],"type":"Point"},"placekey":"@gvg-2yt-mhq","address":{"country_code":"BO","formatted_address":"XP8R+GRH, German Mendoza, Sucre, Bolivia","locality":"Sucre","region":"Departamento de Chuquisaca"}},"labels":["soccer","sport"],"duration":6952,"start_local":"2024-04-08T19:00:00","end":"2024-04-09T00:55:52Z","end_local":"2024-04-08T20:55:52","updated":"2024-06-05T02:53:50Z"},{"title":"Primera División - Apertura - Real Tomayapo vs Real Santa Cruz","description":"Sourced from predicthq.com","category":"sports","start":"2024-04-07T23:30:00Z","geo":{"geometry":{"coordinates":[-64.7252244,-21.5320943],"type":"Point"},"placekey":"@mj3-7wt-8sq","address":{"country_code":"BO","formatted_address":"Avenida Potosí, Tarija, Bolivia, Plurinational State of","locality":"Tarija","region":"Tarija"}},"labels":["soccer","sport"],"duration":6876,"start_local":"2024-04-07T19:30:00","end":"2024-04-08T01:24:36Z","end_local":"2024-04-07T21:24:36","updated":"2024-06-05T10:24:51Z"},{"title":"Primera División - Apertura - Oriente Petrolero vs Jorge Wilstermann","description":"Sourced from predicthq.com","category":"sports","start":"2024-04-07T20:00:00Z","geo":{"geometry":{"coordinates":[-63.1836992,-17.7958709],"type":"Point"},"placekey":"@gvf-484-t5f","address":{"country_code":"BO","formatted_address":"6R38+PFJ, Soliz de Olguin, Santa Cruz de la Sierra, Bolivia","locality":"Santa Cruz de la Sierra","region":"Departamento de Santa Cruz"}},"labels":["soccer","sport"],"duration":7564,"start_local":"2024-04-07T16:00:00","end":"2024-04-07T22:06:04Z","end_local":"2024-04-07T18:06:04","updated":"2024-06-05T12:15:57Z"},{"title":"Primera División - Apertura - Gualberto Villarroel SJ vs Bolívar","description":"Sourced from predicthq.com","category":"sports","start":"2024-04-07T20:00:00Z","geo":{"geometry":{"coordinates":[-67.1116054,-17.9462579],"type":"Point"},"placekey":"@mhd-378-nnq","address":{"country_code":"BO","formatted_address":"Avenida Segundo Encinas, Oruro, Bolivia, Plurinational State of","locality":"Oruro","region":"Departamento de Oruro"}},"labels":["soccer","sport"],"duration":7207,"start_local":"2024-04-07T16:00:00","end":"2024-04-07T22:00:07Z","end_local":"2024-04-07T18:00:07","updated":"2024-05-27T03:57:34Z"},{"title":"Primera División - Apertura - Universitario de Vinto vs Always Ready","description":"Sourced from predicthq.com","category":"sports","start":"2024-04-06T22:00:00Z","geo":{"geometry":{"coordinates":[-66.16179360000001,-17.3792677],"type":"Point"},"placekey":"@gvh-znt-8n5","address":{"country_code":"BO","formatted_address":"Avenida Libertador Simón Bolívar, Cochabamba, Bolivia, Plurinational State of","locality":"Cochabamba","region":"Departamento de Cochabamba"}},"labels":["soccer","sport"],"duration":7290,"start_local":"2024-04-06T18:00:00","end":"2024-04-07T00:01:30Z","end_local":"2024-04-06T20:01:30","updated":"2024-05-27T20:17:39Z"},{"title":"Primera División - Apertura - Royal Pari vs Aurora","description":"Sourced from predicthq.com","category":"sports","start":"2024-04-06T20:00:00Z","geo":{"geometry":{"coordinates":[-63.2623679,-17.3432282],"type":"Point"},"placekey":"@gvf-6yv-mrk","address":{"country_code":"BO","formatted_address":"MP4Q+Q66, Montero, Bolivia","locality":"Montero","region":"Santa Cruz Department"}},"labels":["soccer","sport"],"duration":7232,"start_local":"2024-04-06T16:00:00","end":"2024-04-06T22:00:32Z","end_local":"2024-04-06T18:00:32","updated":"2024-06-05T00:27:08Z"},{"title":"Primera División - Apertura - Blooming vs Nacional Potosí","description":"Sourced from predicthq.com","category":"sports","start":"2024-04-06T20:00:00Z","geo":{"geometry":{"coordinates":[-63.1836992,-17.7958709],"type":"Point"},"placekey":"@gvf-484-t5f","address":{"country_code":"BO","formatted_address":"6R38+PFJ, Soliz de Olguin, Santa Cruz de la Sierra, Bolivia","locality":"Santa Cruz de la Sierra","region":"Departamento de Santa Cruz"}},"labels":["soccer","sport"],"duration":7991,"start_local":"2024-04-06T16:00:00","end":"2024-04-06T22:13:11Z","end_local":"2024-04-06T18:13:11","updated":"2024-06-04T23:42:49Z"}]