[{"title":"Eric Ragno - Keyboards / Rock Keyboard Player and Legends of Classic Rock","description":"Sourced from predicthq.com","category":"concerts","start":"2024-09-28T00:00:00Z","geo":{"geometry":{"coordinates":[-77.3499985,25.083334],"type":"Point"},"placekey":"@8g3-pvk-r6k","address":{"country_code":"BS","formatted_address":"Nassau, New Providence, Bahamas","locality":"Nassau","region":"New Providence"}},"labels":["concert","music"],"duration":0,"start_local":"2024-09-27T20:00:00","end":"2024-09-28T00:00:00Z","end_local":"2024-09-27T20:00:00","updated":"2024-06-11T02:48:14Z"},{"title":"ILTM North America","description":"Sourced from predicthq.com","category":"expos","start":"2024-09-23T13:00:00Z","geo":{"geometry":{"coordinates":[-77.396878,25.070275],"type":"Point"},"placekey":"@8g3-pv3-qmk","address":{"country_code":"BS","formatted_address":"1 Baha Mar Blvd, Nassau, The Bahamas","locality":"Nassau","region":"N.P"}},"labels":["expo"],"duration":291600,"start_local":"2024-09-23T09:00:00","end":"2024-09-26T22:00:00Z","end_local":"2024-09-26T18:00:00","updated":"2024-06-02T14:31:03Z"},{"title":"Eric Ragno - Keyboards / Rock Keyboard Player and Legends of Classic Rock","description":"Sourced from predicthq.com","category":"concerts","start":"2024-09-21T00:00:00Z","geo":{"geometry":{"coordinates":[-77.3499985,25.083334],"type":"Point"},"placekey":"@8g3-pvk-r6k","address":{"country_code":"BS","formatted_address":"Nassau, New Providence, Bahamas","locality":"Nassau","region":"New Providence"}},"labels":["concert","music"],"duration":0,"start_local":"2024-09-20T20:00:00","end":"2024-09-21T00:00:00Z","end_local":"2024-09-20T20:00:00","updated":"2024-06-11T02:57:06Z"},{"title":"Eric Ragno - Keyboards / Rock Keyboard Player and Legends of Classic Rock","description":"Sourced from predicthq.com","category":"concerts","start":"2024-09-07T00:00:00Z","geo":{"geometry":{"coordinates":[-77.3499985,25.083334],"type":"Point"},"placekey":"@8g3-pvk-r6k","address":{"country_code":"BS","formatted_address":"Nassau, New Providence, Bahamas","locality":"Nassau","region":"New Providence"}},"labels":["concert","music"],"duration":0,"start_local":"2024-09-06T20:00:00","end":"2024-09-07T00:00:00Z","end_local":"2024-09-06T20:00:00","updated":"2024-06-11T02:59:42Z"},{"title":"Destination Caribbean","description":"Sourced from predicthq.com","category":"conferences","start":"2024-09-04T13:00:00Z","geo":{"geometry":{"coordinates":[-77.321198,25.083782],"type":"Point"},"placekey":"@8g3-pvq-3nq","address":{"country_code":"BS","formatted_address":"Cove Boulevard, Paradise Island, Bahamas","locality":"Paradise Island","region":"New Providence"}},"labels":["conference"],"duration":291600,"start_local":"2024-09-04T09:00:00","end":"2024-09-07T22:00:00Z","end_local":"2024-09-07T18:00:00","updated":"2024-06-04T06:04:22Z"},{"title":"Eric Ragno - Keyboards / Rock Keyboard Player and Legends of Classic Rocks","description":"Sourced from predicthq.com","category":"concerts","start":"2024-08-31T00:00:00Z","geo":{"geometry":{"coordinates":[-77.3499985,25.083334],"type":"Point"},"placekey":"@8g3-pvk-r6k","address":{"country_code":"BS","formatted_address":"Nassau, New Providence, Bahamas","locality":"Nassau","region":"New Providence"}},"labels":["concert","music"],"duration":0,"start_local":"2024-08-30T20:00:00","end":"2024-08-31T00:00:00Z","end_local":"2024-08-30T20:00:00","updated":"2024-06-11T03:02:05Z"},{"title":"Destination Caribbean","description":"Sourced from predicthq.com","category":"conferences","start":"2024-08-26T13:00:00Z","geo":{"geometry":{"coordinates":[-77.321198,25.0837819],"type":"Point"},"placekey":"@8g3-pvq-3nq","address":{"country_code":"BS","formatted_address":"Paradise Island, N.P., Bahamas","locality":"Paradise Island","region":"N.P."}},"labels":["conference"],"duration":291600,"start_local":"2024-08-26T09:00:00","end":"2024-08-29T22:00:00Z","end_local":"2024-08-29T18:00:00","updated":"2024-05-31T23:06:15Z"},{"title":"CRAVE MUSIC FESTIVAL","description":"Sourced from predicthq.com - CRAVE MUSIC FESTIVAL IS A FUSION OF RHYTHM, CULTURE & INNOVATION! BREAKING LANGUAGE BARRIERS THROUGH MUSIC & SOCIALIZATION! ONE BEAT","category":"festivals","start":"2024-08-10T20:00:00Z","geo":{"geometry":{"coordinates":[-77.3503609,25.0443312],"type":"Point"},"placekey":"@8g3-pqt-sbk","address":{"country_code":"BS","formatted_address":"Nassau, New Providence, Bahamas","locality":"Nassau","region":"New Providence"}},"labels":["festival","music"],"duration":36000,"start_local":"2024-08-10T16:00:00","end":"2024-08-11T06:00:00Z","end_local":"2024-08-11T02:00:00","updated":"2024-06-06T00:50:10Z"},{"title":"Eric Ragno - Keyboards / Rock Keyboard Player and Legends of Classic Rock","description":"Sourced from predicthq.com","category":"concerts","start":"2024-08-10T00:00:00Z","geo":{"geometry":{"coordinates":[-77.3499985,25.083334],"type":"Point"},"placekey":"@8g3-pvk-r6k","address":{"country_code":"BS","formatted_address":"Nassau, New Providence, Bahamas","locality":"Nassau","region":"New Providence"}},"labels":["concert","music"],"duration":0,"start_local":"2024-08-09T20:00:00","end":"2024-08-10T00:00:00Z","end_local":"2024-08-09T20:00:00","updated":"2024-06-11T04:23:09Z"},{"title":"Resorts World Bimini - DJ Troubles","description":"Sourced from predicthq.com - Party with DJ Troubles! Nothing says paradise more than a DJ spinning the best tracks.","category":"community","start":"2024-08-09T15:00:00Z","geo":{"geometry":{"coordinates":[-79.2976102,25.7269582],"type":"Point"},"placekey":"@8fw-qjt-zcq","address":{"country_code":"BS","formatted_address":"Alice Town, Bimini, Bahamas","locality":"Alice Town","region":"Bimini"}},"labels":["concert","music"],"duration":194400,"start_local":"2024-08-09T11:00:00","end":"2024-08-11T21:00:00Z","end_local":"2024-08-11T17:00:00","updated":"2024-06-06T16:21:58Z"},{"title":"Eric Ragno - Keyboards / Rock Keyboard Player and Legends of Classic Rock","description":"Sourced from predicthq.com","category":"concerts","start":"2024-08-03T00:00:00Z","geo":{"geometry":{"coordinates":[-77.3499985,25.083334],"type":"Point"},"placekey":"@8g3-pvk-r6k","address":{"country_code":"BS","formatted_address":"Nassau, New Providence, Bahamas","locality":"Nassau","region":"New Providence"}},"labels":["concert","music"],"duration":0,"start_local":"2024-08-02T20:00:00","end":"2024-08-03T00:00:00Z","end_local":"2024-08-02T20:00:00","updated":"2024-06-11T09:28:28Z"},{"title":"Resorts World Bimini - Nice Guy Erwin","description":"Sourced from predicthq.com - Get ready for a weekend filled with sun, palms and music . Join us with DJ Nice Guy Erwin and his hottest beats.","category":"concerts","start":"2024-07-19T15:00:00Z","geo":{"geometry":{"coordinates":[-79.2976102,25.7269582],"type":"Point"},"placekey":"@8fw-qjt-zcq","address":{"country_code":"BS","formatted_address":"Alice Town, Bimini, Bahamas","locality":"Alice Town","region":"Bimini"}},"labels":["concert","music"],"duration":0,"start_local":"2024-07-19T11:00:00","end":"2024-07-19T15:00:00Z","end_local":"2024-07-19T11:00:00","updated":"2024-06-11T07:20:56Z"},{"title":"National Credit Union Management Association Conference","description":"Sourced from predicthq.com","category":"conferences","start":"2024-07-17T13:00:00Z","geo":{"geometry":{"coordinates":[-77.396878,25.070275],"type":"Point"},"placekey":"@8g3-pv3-qmk","address":{"country_code":"BS","formatted_address":"1 Baha Mar Blvd, Nassau, The Bahamas","locality":"Nassau","region":"N.P"}},"labels":["conference"],"duration":378000,"start_local":"2024-07-17T09:00:00","end":"2024-07-21T22:00:00Z","end_local":"2024-07-21T18:00:00","updated":"2024-06-02T14:30:47Z"},{"title":"THE SOIREE","description":"Sourced from predicthq.com - An exclusive party experience is coming!","category":"festivals","start":"2024-07-14T20:00:00Z","geo":{"geometry":{"coordinates":[-77.3978984,25.0511478],"type":"Point"},"placekey":"@8g3-pg4-st9","address":{"country_code":"BS","formatted_address":"Gladstone Road, Nassau, Bahamas","locality":"Nassau","region":"New Providence"}},"labels":["festival","food"],"duration":27000,"start_local":"2024-07-14T16:00:00","end":"2024-07-15T03:30:00Z","end_local":"2024-07-14T23:30:00","updated":"2024-06-14T20:19:55Z"},{"title":"Carly Jo Jackson","description":"Sourced from predicthq.com","category":"concerts","start":"2024-07-14T00:00:00Z","geo":{"geometry":{"coordinates":[-79.2817612,25.5551357],"type":"Point"},"placekey":"@8fv-ttc-8gk","address":{"country_code":"BS","formatted_address":"HP49+37 North Cat Cay, The Bahamas","locality":"North Cat Cay","region":"Bimini"}},"labels":["concert","music"],"duration":0,"start_local":"2024-07-13T20:00:00","end":"2024-07-14T00:00:00Z","end_local":"2024-07-13T20:00:00","updated":"2024-06-30T10:09:49Z"},{"title":"Eric Ragno - Keyboards / Rock Keyboard Player and Legends of Classic Rock","description":"Sourced from predicthq.com","category":"concerts","start":"2024-07-13T00:00:00Z","geo":{"geometry":{"coordinates":[-77.3499985,25.083334],"type":"Point"},"placekey":"@8g3-pvk-r6k","address":{"country_code":"BS","formatted_address":"Nassau, New Providence, Bahamas","locality":"Nassau","region":"New Providence"}},"labels":["concert","music"],"duration":0,"start_local":"2024-07-12T20:00:00","end":"2024-07-13T00:00:00Z","end_local":"2024-07-12T20:00:00","updated":"2024-06-10T23:55:27Z"},{"title":"Carly Jo Jackson","description":"Sourced from predicthq.com","category":"concerts","start":"2024-07-13T00:00:00Z","geo":{"geometry":{"coordinates":[-79.2817612,25.5551357],"type":"Point"},"placekey":"@8fv-ttc-8gk","address":{"country_code":"BS","formatted_address":"HP49+37 North Cat Cay, The Bahamas","locality":"North Cat Cay","region":"Bimini"}},"labels":["concert","music"],"duration":0,"start_local":"2024-07-12T20:00:00","end":"2024-07-13T00:00:00Z","end_local":"2024-07-12T20:00:00","updated":"2024-06-30T10:09:04Z"},{"title":"Carly Jo Jackson","description":"Sourced from predicthq.com","category":"concerts","start":"2024-07-11T22:00:00Z","geo":{"geometry":{"coordinates":[-79.2817612,25.5551357],"type":"Point"},"placekey":"@8fv-ttc-8gk","address":{"country_code":"BS","formatted_address":"HP49+37 North Cat Cay, The Bahamas","locality":"North Cat Cay","region":"Bimini"}},"labels":["concert","music"],"duration":0,"start_local":"2024-07-11T18:00:00","end":"2024-07-11T22:00:00Z","end_local":"2024-07-11T18:00:00","updated":"2024-06-30T10:07:27Z"},{"title":"Caribbean Career Fair  - Summer Show","description":"Sourced from predicthq.com - Candidates attend for Free! Meet employers from the Bahamas and other Countries  - your chance to network and explore career opportunities","category":"expos","start":"2024-07-10T14:00:00Z","geo":{"geometry":{"coordinates":[-77.3503609,25.0443312],"type":"Point"},"placekey":"@8g3-pqt-sbk","address":{"country_code":"BS","formatted_address":"Nassau, New Providence, Bahamas","locality":"Nassau","region":"New Providence"}},"labels":["career","education","expo"],"duration":21600,"start_local":"2024-07-10T10:00:00","end":"2024-07-10T20:00:00Z","end_local":"2024-07-10T16:00:00","updated":"2024-06-04T00:52:41Z"},{"title":"CaribDA Biennial Conference & Exposition","description":"Sourced from predicthq.com","category":"expos","start":"2024-07-09T13:00:00Z","geo":{"geometry":{"coordinates":[-77.39915,25.069363],"type":"Point"},"placekey":"@8g3-pv3-tvz","address":{"country_code":"BS","formatted_address":"1 Baha Mar Blvd, Nassau, The Bahamas","locality":"Nassau","region":"N.P"}},"labels":["expo"],"duration":291600,"start_local":"2024-07-09T09:00:00","end":"2024-07-12T22:00:00Z","end_local":"2024-07-12T18:00:00","updated":"2024-06-03T21:14:38Z"},{"title":"Eric Ragno - Keyboards / Rock Keyboard Player and Legends of Classic Rock","description":"Sourced from predicthq.com","category":"concerts","start":"2024-07-06T00:00:00Z","geo":{"geometry":{"coordinates":[-77.3499985,25.083334],"type":"Point"},"placekey":"@8g3-pvk-r6k","address":{"country_code":"BS","formatted_address":"Nassau, New Providence, Bahamas","locality":"Nassau","region":"New Providence"}},"labels":["concert","music"],"duration":0,"start_local":"2024-07-05T20:00:00","end":"2024-07-06T00:00:00Z","end_local":"2024-07-05T20:00:00","updated":"2024-06-11T06:36:33Z"},{"title":"Resorts World Bimini - DJ Troubles","description":"Sourced from predicthq.com - Party with DJ Troubles! Nothing says paradise more than a DJ spinning the best tracks.","category":"community","start":"2024-07-05T15:00:00Z","geo":{"geometry":{"coordinates":[-79.2976102,25.7269582],"type":"Point"},"placekey":"@8fw-qjt-zcq","address":{"country_code":"BS","formatted_address":"Alice Town, Bimini, Bahamas","locality":"Alice Town","region":"Bimini"}},"labels":["concert","music"],"duration":194400,"start_local":"2024-07-05T11:00:00","end":"2024-07-07T21:00:00Z","end_local":"2024-07-07T17:00:00","updated":"2024-06-06T16:20:37Z"},{"title":"Rugby Union Internationals - Friendlies 3 - Bahamas vs Jamaica","description":"Sourced from predicthq.com","category":"sports","start":"2024-06-29T20:00:00Z","geo":{"geometry":{"coordinates":[-78.68992630086356,26.54025951951349],"type":"Point"},"placekey":"@8fw-p94-435","address":{"country_code":"BS","formatted_address":"Settlers Way, Freeport, Bahamas","locality":"Freeport","region":"Freeport"}},"labels":["rugby","sport"],"duration":0,"start_local":"2024-06-29T16:00:00","end":"2024-06-29T20:00:00Z","end_local":"2024-06-29T16:00:00","updated":"2024-06-14T10:26:34Z"},{"title":"BAHA BASH - LIVE PRO WRESTLING","description":"Sourced from predicthq.com - Get ready for an epic night of live pro wrestling at BAHA BASH - it's gonna be a wild ride you won't want to miss!","category":"performing-arts","start":"2024-06-29T19:00:00Z","geo":{"geometry":{"coordinates":[-77.3967682,25.0702402],"type":"Point"},"placekey":"@8g3-pv3-qmk","address":{"country_code":"BS","formatted_address":"Baha Mar Boulevard, Nassau, Bahamas","locality":"Nassau","region":"New Providence"}},"labels":["concert","music","performing-arts"],"duration":14400,"start_local":"2024-06-29T15:00:00","end":"2024-06-29T23:00:00Z","end_local":"2024-06-29T19:00:00","updated":"2024-06-04T01:37:55Z"},{"title":"Avoya Travel Land Forum","description":"Sourced from predicthq.com","category":"conferences","start":"2024-06-24T13:00:00Z","geo":{"geometry":{"coordinates":[-77.4103761,25.0772373],"type":"Point"},"placekey":"@8g3-ptr-pvz","address":{"country_code":"BS","formatted_address":"W Bay St, Nassau, The Bahamas","locality":"Nassau","region":"New Providence"}},"labels":["conference"],"duration":378000,"start_local":"2024-06-24T09:00:00","end":"2024-06-28T22:00:00Z","end_local":"2024-06-28T18:00:00","updated":"2024-06-04T02:51:01Z"},{"title":"FSM Summit","description":"Sourced from predicthq.com","category":"conferences","start":"2024-06-23T13:00:00Z","geo":{"geometry":{"coordinates":[-77.396878,25.070275],"type":"Point"},"placekey":"@8g3-pv3-qmk","address":{"country_code":"BS","formatted_address":"1 Baha Mar Blvd, Nassau, The Bahamas","locality":"Nassau","region":"N.P"}},"labels":["conference"],"duration":205200,"start_local":"2024-06-23T09:00:00","end":"2024-06-25T22:00:00Z","end_local":"2024-06-25T18:00:00","updated":"2024-06-02T14:30:46Z"},{"title":"Resorts World Bimini - DJ Troubles","description":"Sourced from predicthq.com - Party with DJ Troubles! Nothing says paradise more than a DJ spinning the best tracks.","category":"community","start":"2024-06-22T15:00:00Z","geo":{"geometry":{"coordinates":[-79.2976102,25.7269582],"type":"Point"},"placekey":"@8fw-qjt-zcq","address":{"country_code":"BS","formatted_address":"Alice Town, Bimini, Bahamas","locality":"Alice Town","region":"Bimini"}},"labels":["concert","music"],"duration":21600,"start_local":"2024-06-22T11:00:00","end":"2024-06-22T21:00:00Z","end_local":"2024-06-22T17:00:00","updated":"2024-06-04T00:10:40Z"},{"title":"\"The Unveiling\"","description":"Sourced from predicthq.com - Time to be transformed! Get ready to be empowered, celebrate sisterhood and unlock your true identity and understand who God says you are.","category":"conferences","start":"2024-06-22T13:00:00Z","geo":{"geometry":{"coordinates":[-77.348817,25.0174208],"type":"Point"},"placekey":"@8g3-pr2-hnq","address":{"country_code":"BS","formatted_address":"Nassau, New Providence, Bahamas","locality":"Nassau","region":"New Providence"}},"labels":["conference","religion"],"duration":14400,"start_local":"2024-06-22T09:00:00","end":"2024-06-22T17:00:00Z","end_local":"2024-06-22T13:00:00","updated":"2024-06-04T01:21:37Z"},{"title":"Freestyle Weekend - June 21-23","description":"Sourced from predicthq.com - Freestyle in Paradise is coming to Bimini with Judy Torres, Betty Dee of Sweet Sensation and Soave.","category":"concerts","start":"2024-06-22T00:30:00Z","geo":{"geometry":{"coordinates":[-79.2813262,25.7478046],"type":"Point"},"placekey":"@8fw-qjm-g8v","address":{"country_code":"BS","formatted_address":"Bailey Town, Bimini, Bahamas","locality":"Bailey Town","region":"Bimini"}},"labels":["concert","music"],"duration":0,"start_local":"2024-06-21T20:30:00","end":"2024-06-22T00:30:00Z","end_local":"2024-06-21T20:30:00","updated":"2024-07-06T00:34:21Z"},{"title":"Eric Ragno - Keyboards / Rock Keyboard Player and Legends of Classic Rock","description":"Sourced from predicthq.com","category":"concerts","start":"2024-06-22T00:00:00Z","geo":{"geometry":{"coordinates":[-77.3499985,25.083334],"type":"Point"},"placekey":"@8g3-pvk-r6k","address":{"country_code":"BS","formatted_address":"Nassau, New Providence, Bahamas","locality":"Nassau","region":"New Providence"}},"labels":["concert","music"],"duration":0,"start_local":"2024-06-21T20:00:00","end":"2024-06-22T00:00:00Z","end_local":"2024-06-21T20:00:00","updated":"2024-06-11T06:28:54Z"},{"title":"Freestyle Weekend at Bimini Beach with DJ White Boy hosted by Harold","description":"Sourced from predicthq.com - Party all day with DJ White Boy and hosted by Harold.","category":"community","start":"2024-06-21T15:00:00Z","geo":{"geometry":{"coordinates":[-79.2976102,25.7269582],"type":"Point"},"placekey":"@8fw-qjt-zcq","address":{"country_code":"BS","formatted_address":"Alice Town, Bimini, Bahamas","locality":"Alice Town","region":"Bimini"}},"labels":["concert","music"],"duration":194400,"start_local":"2024-06-21T11:00:00","end":"2024-06-23T21:00:00Z","end_local":"2024-06-23T17:00:00","updated":"2024-05-30T07:27:57Z"},{"title":"Nassau Night Market","description":"Sourced from predicthq.com - A nightly event full of delicious food, live entertainment and local craft stalls to explore!","category":"festivals","start":"2024-06-16T00:00:00Z","geo":{"geometry":{"coordinates":[-77.3188758,25.0807098],"type":"Point"},"placekey":"@8g3-ppb-5mk","address":{"country_code":"BS","formatted_address":"Harbour Drive, Nassau, Bahamas","locality":"Nassau"}},"labels":["community","festival"],"duration":18000,"start_local":"2024-06-15T20:00:00","end":"2024-06-16T05:00:00Z","end_local":"2024-06-16T01:00:00","updated":"2024-05-30T01:05:53Z"},{"title":"Resorts World Bimini - Nice Guy Erwin","description":"Sourced from predicthq.com - Get ready for a weekend filled with sun, palms and music . Join us with DJ Nice Guy Erwin and his hottest beats.","category":"concerts","start":"2024-06-15T15:00:00Z","geo":{"geometry":{"coordinates":[-79.2976102,25.7269582],"type":"Point"},"placekey":"@8fw-qjt-zcq","address":{"country_code":"BS","formatted_address":"Alice Town, Bimini, Bahamas","locality":"Alice Town","region":"Bimini"}},"labels":["concert","music"],"duration":0,"start_local":"2024-06-15T11:00:00","end":"2024-06-15T15:00:00Z","end_local":"2024-06-15T11:00:00","updated":"2024-06-29T15:05:05Z"},{"title":"Ocean Club Estates condominiums for sale Bahamas","description":"Sourced from predicthq.com - McCarroll Real Estate offers a wide range of The Bahamas Private Islands For Sale. Browse our listings and find your luxury estate.","category":"expos","start":"2024-06-15T14:00:00Z","geo":{"geometry":{"coordinates":[-77.4516944,25.0681531],"type":"Point"},"placekey":"@8g3-pkd-q4v","address":{"country_code":"BS","formatted_address":"Nassau, New Providence, Bahamas","locality":"Nassau","region":"New Providence"}},"labels":["business","expo"],"duration":7200,"start_local":"2024-06-15T10:00:00","end":"2024-06-15T16:00:00Z","end_local":"2024-06-15T12:00:00","updated":"2024-06-04T04:14:15Z"},{"title":"NOBREAKS JUST POWERHER  2024","description":"Sourced from predicthq.com - A Powerpack, motivating empowerment event. International Speakers & Bahamas finest will share the Audacity of #NoBreaksJustPowerHer.","category":"conferences","start":"2024-06-09T18:00:00Z","geo":{"geometry":{"coordinates":[-77.3479861,25.0788417],"type":"Point"},"placekey":"@8g3-pvk-v9f","address":{"country_code":"BS","formatted_address":"West Bay Street, Nassau, Bahamas","locality":"Nassau","region":"New Providence"}},"labels":["business","conference"],"duration":0,"start_local":"2024-06-09T14:00:00","end":"2024-06-09T18:00:00Z","end_local":"2024-06-09T14:00:00","updated":"2024-06-12T04:20:02Z"},{"title":"Eric Ragno - Keyboards / Rock Keyboard Player and Legends of Classic Rock","description":"Sourced from predicthq.com","category":"concerts","start":"2024-06-08T00:00:00Z","geo":{"geometry":{"coordinates":[-77.3499985,25.083334],"type":"Point"},"placekey":"@8g3-pvk-r6k","address":{"country_code":"BS","formatted_address":"Nassau, New Providence, Bahamas","locality":"Nassau","region":"New Providence"}},"labels":["concert","music"],"duration":0,"start_local":"2024-06-07T20:00:00","end":"2024-06-08T00:00:00Z","end_local":"2024-06-07T20:00:00","updated":"2024-06-12T19:04:08Z"},{"title":"College homecoming ( Sweet Jamz Fest)","description":"Sourced from predicthq.com - First College Homecoming party for all the colleges locally and abroad","category":"festivals","start":"2024-06-02T01:00:00Z","geo":{"geometry":{"coordinates":[-78.6854803,26.505459],"type":"Point"},"placekey":"@8fw-pcq-8vz","address":{"country_code":"BS","formatted_address":"Polaris Drive, Freeport, Bahamas","locality":"Freeport","region":"Freeport"}},"labels":["community","festival"],"duration":18000,"start_local":"2024-06-01T21:00:00","end":"2024-06-02T06:00:00Z","end_local":"2024-06-02T02:00:00","updated":"2024-05-30T01:01:07Z"},{"title":"Resorts World Bimini - DJ Troubles","description":"Sourced from predicthq.com - Party with DJ Troubles! Nothing says paradise more than a DJ spinning the best tracks.","category":"community","start":"2024-06-01T15:00:00Z","geo":{"geometry":{"coordinates":[-79.2976102,25.7269582],"type":"Point"},"placekey":"@8fw-qjt-zcq","address":{"country_code":"BS","formatted_address":"Alice Town, Bimini, Bahamas","locality":"Alice Town","region":"Bimini"}},"labels":["concert","music"],"duration":21600,"start_local":"2024-06-01T11:00:00","end":"2024-06-01T21:00:00Z","end_local":"2024-06-01T17:00:00","updated":"2024-06-04T09:26:01Z"},{"title":"Eric Ragno - Keyboards / Rock Keyboard Player and Legends of Classic Rock","description":"Sourced from predicthq.com","category":"concerts","start":"2024-06-01T00:00:00Z","geo":{"geometry":{"coordinates":[-77.3499985,25.083334],"type":"Point"},"placekey":"@8g3-pvk-r6k","address":{"country_code":"BS","formatted_address":"Nassau, New Providence, Bahamas","locality":"Nassau","region":"New Providence"}},"labels":["concert","music"],"duration":0,"start_local":"2024-05-31T20:00:00","end":"2024-06-01T00:00:00Z","end_local":"2024-05-31T20:00:00","updated":"2024-06-12T19:51:30Z"},{"title":"The IRFs Invitational","description":"Sourced from predicthq.com","category":"conferences","start":"2024-05-28T13:00:00Z","geo":{"geometry":{"coordinates":[-77.396878,25.070275],"type":"Point"},"placekey":"@8g3-pv3-qmk","address":{"country_code":"BS","formatted_address":"1 Baha Mar Blvd, Nassau, The Bahamas","locality":"Nassau","region":"N.P"}},"labels":["conference"],"duration":291600,"start_local":"2024-05-28T09:00:00","end":"2024-05-31T22:00:00Z","end_local":"2024-05-31T18:00:00","updated":"2024-06-02T14:30:46Z"},{"title":"MAHC Conference","description":"Sourced from predicthq.com","category":"conferences","start":"2024-05-19T13:00:00Z","geo":{"geometry":{"coordinates":[-77.321198,25.083782],"type":"Point"},"placekey":"@8g3-pvq-3nq","address":{"country_code":"BS","formatted_address":"Cove Boulevard, Paradise Island, Bahamas","locality":"Paradise Island","region":"New Providence"}},"labels":["conference"],"duration":291600,"start_local":"2024-05-19T09:00:00","end":"2024-05-22T22:00:00Z","end_local":"2024-05-22T18:00:00","updated":"2024-06-05T02:13:28Z"},{"title":"Resorts World Bimini - DJ Izzy B","description":"Sourced from predicthq.com - Party with DJ Izzy B! Nothing says paradise more than a DJ spinning the best tracks.","category":"community","start":"2024-05-18T15:00:00Z","geo":{"geometry":{"coordinates":[-79.2976102,25.7269582],"type":"Point"},"placekey":"@8fw-qjt-zcq","address":{"country_code":"BS","formatted_address":"Alice Town, Bimini, Bahamas","locality":"Alice Town","region":"Bimini"}},"labels":["concert","music"],"duration":108000,"start_local":"2024-05-18T11:00:00","end":"2024-05-19T21:00:00Z","end_local":"2024-05-19T17:00:00","updated":"2024-06-01T15:04:01Z"},{"title":"Internal Medicine for Primary Care: Derm/Geri/Palliative/Pulm - 16 Credit Hours","description":"Sourced from predicthq.com","category":"expos","start":"2024-05-16T13:00:00Z","geo":{"geometry":{"coordinates":[-77.321198,25.083782],"type":"Point"},"placekey":"@8g3-pvq-3nq","address":{"country_code":"BS","formatted_address":"Cove Boulevard, Paradise Island, Bahamas","locality":"Paradise Island","region":"New Providence"}},"labels":["expo"],"duration":291600,"start_local":"2024-05-16T09:00:00","end":"2024-05-19T22:00:00Z","end_local":"2024-05-19T18:00:00","updated":"2024-06-05T19:00:00Z"},{"title":"BECOME A PILOT SEMINAR: NASSAU, BAHAMAS (May 11, 2024)","description":"Sourced from predicthq.com - Attend a FREE seminar and learn how you can begin training for a career as a professional pilot. Limited seating.","category":"conferences","start":"2024-05-11T15:00:00Z","geo":{"geometry":{"coordinates":[-77.3743922,25.077968],"type":"Point"},"placekey":"@8g3-pvv-gff","address":{"country_code":"BS","formatted_address":"West Bay Street, Nassau, Bahamas","locality":"Nassau","region":"New Providence"}},"labels":["business","conference"],"duration":7200,"start_local":"2024-05-11T11:00:00","end":"2024-05-11T17:00:00Z","end_local":"2024-05-11T13:00:00","updated":"2024-06-05T02:04:58Z"},{"title":"Grand Bahama Island Dive Week","description":"Sourced from predicthq.com","category":"conferences","start":"2024-05-11T13:00:00Z","geo":{"geometry":{"coordinates":[-78.59361,26.536607],"type":"Point"},"placekey":"@8fm-4ds-s5z","address":{"country_code":"BS","formatted_address":"Doubloon Road, Freeport, Bahamas","locality":"Freeport","region":"Freeport"}},"labels":["conference"],"duration":637200,"start_local":"2024-05-11T09:00:00","end":"2024-05-18T22:00:00Z","end_local":"2024-05-18T18:00:00","updated":"2024-06-03T20:32:37Z"},{"title":"How ABA Can Assist Individuals & Loved Ones Facing Behavior Challenges","description":"Sourced from predicthq.com - The panel will present on \"How Applied Behavior Analysis Can Assist An Individual and Loved Ones Who Are Facing Behavior Challenges\"","category":"conferences","start":"2024-05-10T21:00:00Z","geo":{"geometry":{"coordinates":[-77.3674339,25.0275127],"type":"Point"},"placekey":"@8g3-pgd-gx5","address":{"country_code":"BS","formatted_address":"Nassau, New Providence, Bahamas","locality":"Nassau","region":"New Providence"}},"labels":["business","conference"],"duration":12600,"start_local":"2024-05-10T17:00:00","end":"2024-05-11T00:30:00Z","end_local":"2024-05-10T20:30:00","updated":"2024-06-04T22:43:02Z"},{"title":"Caribbean Career Fair  - Cruise Ship, Tourism & Agriculture Edition","description":"Sourced from predicthq.com - Candidates attend for Free! Meet employers from the Bahamas and other Countries  - your chance to network and explore career opportunities","category":"expos","start":"2024-05-10T14:00:00Z","geo":{"geometry":{"coordinates":[-77.3503609,25.0443312],"type":"Point"},"placekey":"@8g3-pqt-sbk","address":{"country_code":"BS","formatted_address":"Nassau, New Providence, Bahamas","locality":"Nassau","region":"New Providence"}},"labels":["career","education","expo"],"duration":18000,"start_local":"2024-05-10T10:00:00","end":"2024-05-10T19:00:00Z","end_local":"2024-05-10T15:00:00","updated":"2024-06-05T09:07:52Z"},{"title":"BOND Disenotel","description":"Sourced from predicthq.com","category":"conferences","start":"2024-05-09T13:00:00Z","geo":{"geometry":{"coordinates":[-77.321198,25.083782],"type":"Point"},"placekey":"@8g3-pvq-3nq","address":{"country_code":"BS","formatted_address":"Cove Boulevard, Paradise Island, Bahamas","locality":"Paradise Island","region":"New Providence"}},"labels":["conference"],"duration":291600,"start_local":"2024-05-09T09:00:00","end":"2024-05-12T22:00:00Z","end_local":"2024-05-12T18:00:00","updated":"2024-06-05T05:05:05Z"},{"title":"Celebrity Golf Tournament","description":"Sourced from predicthq.com - Join us for the ultimate  Celebrity Golf Tournament hosted by HWF Entertainment Bahamas! Rub shoulders with A-list Celebrities and Golf Pros","category":"community","start":"2024-05-05T15:00:00Z","geo":{"geometry":{"coordinates":[-77.3975246,25.0610685],"type":"Point"},"placekey":"@8g3-pg5-2kz","address":{"country_code":"BS","formatted_address":"Baha Mar Boulevard, Nassau, Bahamas","locality":"Nassau","region":"New Providence"}},"labels":["community","sport"],"duration":25200,"start_local":"2024-05-05T11:00:00","end":"2024-05-05T22:00:00Z","end_local":"2024-05-05T18:00:00","updated":"2024-06-12T11:35:53Z"},{"title":"Resorts World Bimini - Nice Guy Erwin","description":"Sourced from predicthq.com - Get ready for a weekend filled with sun, palms and music . Join us with DJ Nice Guy Erwin and his hottest beats.","category":"concerts","start":"2024-05-04T15:00:00Z","geo":{"geometry":{"coordinates":[-79.2976102,25.7269582],"type":"Point"},"placekey":"@8fw-qjt-zcq","address":{"country_code":"BS","formatted_address":"Alice Town, Bimini, Bahamas","locality":"Alice Town","region":"Bimini"}},"labels":["concert","music"],"duration":0,"start_local":"2024-05-04T11:00:00","end":"2024-05-04T15:00:00Z","end_local":"2024-05-04T11:00:00","updated":"2024-06-12T03:07:14Z"},{"title":"Intertwined: The Bahamian-Jazz Connection","description":"Sourced from predicthq.com - Experience the boundaries where the vibrant rhythms of The Bahamas meet the soulful melodies of jazz in 'Intertwined: The Bahamian-Jazz","category":"concerts","start":"2024-04-30T23:00:00Z","geo":{"geometry":{"coordinates":[-77.3473607,25.0755678],"type":"Point"},"placekey":"@8g3-pvm-vj9","address":{"country_code":"BS","formatted_address":"West Hill Street, Nassau, Bahamas","locality":"Nassau","region":"New Providence"}},"labels":["concert","music"],"duration":7200,"start_local":"2024-04-30T19:00:00","end":"2024-05-01T01:00:00Z","end_local":"2024-04-30T21:00:00","updated":"2024-06-05T17:19:25Z"},{"title":"National Leadership Conference","description":"Sourced from predicthq.com","category":"conferences","start":"2024-04-28T13:00:00Z","geo":{"geometry":{"coordinates":[-77.39915,25.069363],"type":"Point"},"placekey":"@8g3-pv3-tvz","address":{"country_code":"BS","formatted_address":"1 Baha Mar Blvd, Nassau, The Bahamas","locality":"Nassau","region":"N.P"}},"labels":["conference"],"duration":378000,"start_local":"2024-04-28T09:00:00","end":"2024-05-02T22:00:00Z","end_local":"2024-05-02T18:00:00","updated":"2024-06-03T21:01:25Z"},{"title":"Stafford Brothers","description":"Sourced from predicthq.com","category":"concerts","start":"2024-04-22T23:00:00Z","geo":{"geometry":{"coordinates":[-77.3493202,25.0749416],"type":"Point"},"placekey":"@8g3-pvm-vpv","address":{"country_code":"BS","formatted_address":"Buena Vista Estate, 17 Delancy St, Nassau, The Bahamas","locality":"Nassau","region":"New Providence"}},"labels":["concert","music"],"duration":0,"start_local":"2024-04-22T19:00:00","end":"2024-04-22T23:00:00Z","end_local":"2024-04-22T19:00:00","updated":"2024-06-19T18:15:13Z"},{"title":"Unlocking AI for Business & Cloud Value through FinOps","description":"Sourced from predicthq.com - Join our exclusive summit on AI in Business & the crucial role of FinOps. Discover insights, strategies, & IBM WatsonX tech. Don't miss out!","category":"conferences","start":"2024-04-22T12:30:00Z","geo":{"geometry":{"coordinates":[-77.32934159999999,25.0768893],"type":"Point"},"placekey":"@8g3-pvq-xt9","address":{"country_code":"BS","formatted_address":"Nassau, New Providence, Bahamas","locality":"Nassau","region":"New Providence"}},"labels":["conference","science","technology"],"duration":12600,"start_local":"2024-04-22T08:30:00","end":"2024-04-22T16:00:00Z","end_local":"2024-04-22T12:00:00","updated":"2024-06-05T03:05:45Z"},{"title":"Global Youth Leadership Conference","description":"Sourced from predicthq.com - Dream of Democracy. Dream of Justice. Dream of Hope. Dream of Love.","category":"conferences","start":"2024-04-20T13:00:00Z","geo":{"geometry":{"coordinates":[-77.3376828,25.0721474],"type":"Point"},"placekey":"@8g3-pvw-v9f","address":{"country_code":"BS","formatted_address":"Nassau, N.P, Bahamas","locality":"Nassau","region":"N.P"}},"labels":["business","conference"],"duration":18000,"start_local":"2024-04-20T09:00:00","end":"2024-04-20T18:00:00Z","end_local":"2024-04-20T14:00:00","updated":"2024-06-05T21:49:40Z"},{"title":"\"UBFit\" Nassau Bahamas, Fun, Run, Walk, Push, Roll-5K,10K,15K","description":"Sourced from predicthq.com","category":"sports","start":"2024-04-20T04:00:00Z","geo":{"geometry":{"coordinates":[-77.3503609,25.0443312],"type":"Point"},"placekey":"@8g3-pqt-sbk","address":{"country_code":"BS","formatted_address":"Nassau, New Providence, Bahamas","locality":"Nassau","region":"New Providence"}},"labels":["outdoor-sports","running","sport"],"duration":86399,"start_local":"2024-04-20T00:00:00","end":"2024-04-21T03:59:59Z","end_local":"2024-04-20T23:59:59","updated":"2024-06-04T23:42:53Z"},{"title":"The Holdovers","description":"Sourced from predicthq.com - A cranky teacher at a prep school is forced to remain on campus over the holidays with a grieving cook and a troubled student.","category":"performing-arts","start":"2024-04-18T23:00:00Z","geo":{"geometry":{"coordinates":[-77.5109549,25.0334044],"type":"Point"},"placekey":"@8g3-pn3-8d9","address":{"country_code":"BS","formatted_address":"Western Road, Nassau, Bahamas","locality":"Nassau","region":"New Providence"}},"labels":["concert","music","performing-arts"],"duration":10800,"start_local":"2024-04-18T19:00:00","end":"2024-04-19T02:00:00Z","end_local":"2024-04-18T22:00:00","updated":"2024-06-05T13:02:20Z"},{"title":"EASTER BRUNCH (BRIGHT COLORS AFFAIR)","description":"Sourced from predicthq.com - BIGGEST BRUNCH VIBE (ON A SUNDAY WE SEH BRUNCH )","category":"concerts","start":"2024-04-14T20:00:00Z","geo":{"geometry":{"coordinates":[-77.3503609,25.0443312],"type":"Point"},"placekey":"@8g3-pqt-sbk","address":{"country_code":"BS","formatted_address":"Nassau, New Providence, Bahamas","locality":"Nassau","region":"New Providence"}},"labels":["concert","music"],"duration":25200,"start_local":"2024-04-14T16:00:00","end":"2024-04-15T03:00:00Z","end_local":"2024-04-14T23:00:00","updated":"2024-06-05T02:47:56Z"},{"title":"The Unveiling of Dijion Leecleer","description":"Sourced from predicthq.com - Journey with us into our reimagined brand “Dijion Leecleer “ in an unforgettable showcasing of our SS24 bridal catalogue.","category":"expos","start":"2024-04-14T19:00:00Z","geo":{"geometry":{"coordinates":[-77.341762,25.0751974],"type":"Point"},"placekey":"@8g3-pvm-6tv","address":{"country_code":"BS","formatted_address":"East Hill Street, Nassau, Bahamas","locality":"Nassau","region":"New Providence"}},"labels":["expo","fashion"],"duration":0,"start_local":"2024-04-14T15:00:00","end":"2024-04-14T19:00:00Z","end_local":"2024-04-14T15:00:00","updated":"2024-06-05T00:30:04Z"},{"title":"NOSTALGIA The Ultimate Live Music Experience For RNB Lovers (Must See!)","description":"Sourced from predicthq.com - Nostalgia will feature some of the most popular RNB bops primarily from the 90s and 2000s with a bit of fusion Blackswann Style.","category":"community","start":"2024-04-13T23:00:00Z","geo":{"geometry":{"coordinates":[-77.3473607,25.0755678],"type":"Point"},"placekey":"@8g3-pvm-vj9","address":{"country_code":"BS","formatted_address":"West Hill Street, Nassau, Bahamas","locality":"Nassau","region":"New Providence"}},"labels":["concert","music"],"duration":0,"start_local":"2024-04-13T19:00:00","end":"2024-04-13T23:00:00Z","end_local":"2024-04-13T19:00:00","updated":"2024-06-05T01:22:07Z"},{"title":"The Holdovers","description":"Sourced from predicthq.com - A cranky teacher at a prep school is forced to remain on campus over the holidays with a grieving cook and a troubled student.","category":"performing-arts","start":"2024-04-12T23:00:00Z","geo":{"geometry":{"coordinates":[-77.5109549,25.0334044],"type":"Point"},"placekey":"@8g3-pn3-8d9","address":{"country_code":"BS","formatted_address":"Western Road, Nassau, Bahamas","locality":"Nassau","region":"New Providence"}},"labels":["concert","music","performing-arts"],"duration":10800,"start_local":"2024-04-12T19:00:00","end":"2024-04-13T02:00:00Z","end_local":"2024-04-12T22:00:00","updated":"2024-06-05T15:34:42Z"},{"title":"Eric Ragno - Keyboards / Rock Keyboard Player and Legends of Classic Rock","description":"Sourced from predicthq.com","category":"concerts","start":"2024-04-12T00:00:00Z","geo":{"geometry":{"coordinates":[-77.3499985,25.083334],"type":"Point"},"placekey":"@8g3-pvk-r6k","address":{"country_code":"BS","formatted_address":"Nassau, New Providence, Bahamas","locality":"Nassau","region":"New Providence"}},"labels":["concert","music"],"duration":0,"start_local":"2024-04-11T20:00:00","end":"2024-04-12T00:00:00Z","end_local":"2024-04-11T20:00:00","updated":"2024-06-12T11:41:16Z"},{"title":"Bob Marley: One Love","description":"Sourced from predicthq.com - A film documenting Bob Marley's rise to fame.","category":"concerts","start":"2024-04-11T23:00:00Z","geo":{"geometry":{"coordinates":[-77.5112261,25.0331788],"type":"Point"},"placekey":"@8g3-pn3-8sq","address":{"country_code":"BS","formatted_address":"Mahogany Hill Western Rd, Nassau, The Bahamas","locality":"Nassau","region":"New Providence"}},"labels":["concert","fundraiser","music"],"duration":7200,"start_local":"2024-04-11T19:00:00","end":"2024-04-12T01:00:00Z","end_local":"2024-04-11T21:00:00","updated":"2024-06-05T04:17:49Z"},{"title":"Summit at Sea","description":"Sourced from predicthq.com","category":"festivals","start":"2024-04-04T04:00:00Z","geo":{"geometry":{"coordinates":[-77.345,25.06],"type":"Point"},"placekey":"@8g3-pvt-47q","address":{"country_code":"BS","formatted_address":"3M64+227, Market St, Nassau, The Bahamas","locality":"Nassau","region":"New Providence"}},"labels":["festival","music"],"duration":345599,"start_local":"2024-04-04T00:00:00","end":"2024-04-08T03:59:59Z","end_local":"2024-04-07T23:59:59","updated":"2024-06-05T08:50:47Z"}]