[{"title":"GlobalLimits Bhutan - The Last Secret","description":"Sourced from predicthq.com","category":"sports","start":"2024-05-26T10:00:00Z","geo":{"geometry":{"coordinates":[89.6392863,27.4727924],"type":"Point"},"placekey":"@7nz-kdh-btv","address":{"country_code":"BT","formatted_address":"ཐིམ་ཕུུུུ, ཐིམ་ཕུ་རྫོང་ཁག, Bhutan","locality":"ཐིམ་ཕུུུུ","region":"ཐིམ་ཕུ་རྫོང་ཁག"}},"labels":["outdoor-sports","running","sport"],"duration":0,"start_local":"2024-05-26T16:00:00","end":"2024-05-26T10:00:00Z","end_local":"2024-05-26T16:00:00","updated":"2024-06-05T10:45:57Z"},{"title":"Thunder Dragon Marathon","description":"Sourced from predicthq.com","category":"sports","start":"2024-05-25T18:00:00Z","geo":{"geometry":{"coordinates":[89.4177246,27.4302612],"type":"Point"},"placekey":"@7nz-k97-fmk","address":{"country_code":"BT","formatted_address":"Paro, Bhutan","locality":"Paro","region":"Paro"}},"labels":["marathon","outdoor-sports","running","sport"],"duration":86399,"start_local":"2024-05-26T00:00:00","end":"2024-05-26T17:59:59Z","end_local":"2024-05-26T23:59:59","updated":"2024-06-05T01:12:40Z"},{"title":"Bhutan Education and Innovation Conference 2024","description":"Sourced from predicthq.com - A forum where global experts meet to exchange evidence-driven insights, steering the future of higher education and fostering innovation.","category":"conferences","start":"2024-05-23T02:00:00Z","geo":{"geometry":{"coordinates":[89.630755,27.470935],"type":"Point"},"placekey":"@7nz-kdh-6tv","address":{"country_code":"BT","formatted_address":"Genyen Lam South West, Thimphu, Bhutan","locality":"Thimphu","region":"Thimphu"}},"labels":["business","conference"],"duration":133200,"start_local":"2024-05-23T08:00:00","end":"2024-05-24T15:00:00Z","end_local":"2024-05-24T21:00:00","updated":"2024-06-05T01:02:36Z"}]