[{"title":"Africa Mining Summit","description":"Sourced from predicthq.com","category":"conferences","start":"2024-09-23T22:00:00Z","geo":{"geometry":{"coordinates":[25.984947,-24.57682],"type":"Point"},"placekey":"@nd2-2gd-fmk","address":{"country_code":"BW","formatted_address":"Gaborone, South-East District, Botswana","locality":"Gaborone","region":"South-East District"}},"labels":["conference"],"duration":259199,"start_local":"2024-09-24T00:00:00","end":"2024-09-26T21:59:59Z","end_local":"2024-09-26T23:59:59","updated":"2024-07-03T16:24:47Z"},{"title":"Africa Tourism Leadership Forum & Awards","description":"Sourced from predicthq.com","category":"conferences","start":"2024-09-02T22:00:00Z","geo":{"geometry":{"coordinates":[25.87663,-24.64023],"type":"Point"},"placekey":"@ncv-s7f-jqf","address":{"country_code":"BW","formatted_address":"Gaborone, South-East District, Botswana","locality":"Gaborone","region":"South-East District"}},"labels":["conference"],"duration":345599,"start_local":"2024-09-03T00:00:00","end":"2024-09-06T21:59:59Z","end_local":"2024-09-06T23:59:59","updated":"2024-06-01T04:49:30Z"},{"title":"OLDN International OD & Change Conference and Doctoral Consortium","description":"Sourced from predicthq.com","category":"conferences","start":"2024-08-28T07:00:00Z","geo":{"geometry":{"coordinates":[25.930127,-24.651472],"type":"Point"},"placekey":"@nd2-2h2-d7q","address":{"country_code":"BW","formatted_address":"4727 Chuma Dr, Gaborone, Botswana","locality":"Gaborone","region":"Gaborone City"}},"labels":["conference"],"duration":205200,"start_local":"2024-08-28T09:00:00","end":"2024-08-30T16:00:00Z","end_local":"2024-08-30T18:00:00","updated":"2024-06-01T15:30:08Z"},{"title":"Ghanzi Invasion 2024","description":"Sourced from predicthq.com - Ghanzi Invasion is an arts an culture festival which occurs during the Ghanzi Agricultural Show in the Ghanzi Region of Botswana.","category":"festivals","start":"2024-07-27T17:00:00Z","geo":{"geometry":{"coordinates":[21.6481861,-21.6960991],"type":"Point"},"placekey":"@hyp-73h-dgk","address":{"country_code":"BW","formatted_address":"Ghanzi, Ghanzi District, Botswana","locality":"Ghanzi","region":"Ghanzi District"}},"labels":["festival","music"],"duration":30600,"start_local":"2024-07-27T19:00:00","end":"2024-07-28T01:30:00Z","end_local":"2024-07-28T03:30:00","updated":"2024-06-04T04:35:56Z"},{"title":"Mining, Manufacturing & Construction Exhibition","description":"Sourced from predicthq.com","category":"expos","start":"2024-07-23T07:00:00Z","geo":{"geometry":{"coordinates":[27.533476,-21.198185],"type":"Point"},"placekey":"@hyr-htw-vpv","address":{"country_code":"BW","formatted_address":"Francistown, Francistown City, Botswana","locality":"Francistown","region":"Francistown City"}},"labels":["expo"],"duration":118800,"start_local":"2024-07-23T09:00:00","end":"2024-07-24T16:00:00Z","end_local":"2024-07-24T18:00:00","updated":"2024-05-31T23:22:36Z"},{"title":"US-Botswana Workshop on Research Technologies in Water and Energy Needs for Remote, Austere Locations","description":"Sourced from predicthq.com","category":"expos","start":"2024-07-22T07:00:00Z","geo":{"geometry":{"coordinates":[23.50813,-19.935177],"type":"Point"},"placekey":"@hy9-f62-r6k","address":{"country_code":"BW","formatted_address":"Lekawen Drift, North-West District, Botswana","locality":"Lekawen Drift","region":"North-West District"}},"labels":["expo"],"duration":291600,"start_local":"2024-07-22T09:00:00","end":"2024-07-25T16:00:00Z","end_local":"2024-07-25T18:00:00","updated":"2024-05-31T23:07:54Z"},{"title":"Intimacy 2024 With Apostle Professor Johnson Suleman","description":"Sourced from predicthq.com - Join us for a deep dive into intimacy with Apostle Professor Johnson Suleman in 2024!","category":"conferences","start":"2024-07-16T07:00:00Z","geo":{"geometry":{"coordinates":[25.9214229,-24.68112939999999],"type":"Point"},"placekey":"@ncv-snv-75z","address":{"country_code":"BW","formatted_address":"Gaborone, Gaborone City, Botswana","locality":"Gaborone","region":"Gaborone City"}},"labels":["conference","religion"],"duration":133200,"start_local":"2024-07-16T09:00:00","end":"2024-07-17T20:00:00Z","end_local":"2024-07-17T22:00:00","updated":"2024-06-04T06:26:54Z"},{"title":"Premier League - Masitaoka vs Morupule Wanderers","description":"Sourced from predicthq.com","category":"sports","start":"2024-05-25T13:00:00Z","geo":{"geometry":{"coordinates":[26.004627934,-24.544241463],"type":"Point"},"placekey":"@nd2-2g8-w6k","address":{"country_code":"BW","formatted_address":"Oodi Road, Oodi, Botswana","locality":"Oodi"}},"labels":["soccer","sport"],"duration":0,"start_local":"2024-05-25T15:00:00","end":"2024-05-25T13:00:00Z","end_local":"2024-05-25T15:00:00","updated":"2024-06-12T09:24:38Z"},{"title":"Premier League - TAFIC vs Township Rollers","description":"Sourced from predicthq.com","category":"sports","start":"2024-05-25T13:00:00Z","geo":{"geometry":{"coordinates":[27.4787590502624,-21.151488795614444],"type":"Point"},"placekey":"@hyr-fjp-c89","address":{"country_code":"BW","formatted_address":"RFXH+7HG, Francistown, Botswana","locality":"Francistown","region":"Francistown City"}},"labels":["soccer","sport"],"duration":0,"start_local":"2024-05-25T15:00:00","end":"2024-05-25T13:00:00Z","end_local":"2024-05-25T15:00:00","updated":"2024-06-11T23:02:55Z"},{"title":"Premier League - Holy Ghost vs Gaborone United","description":"Sourced from predicthq.com","category":"sports","start":"2024-05-25T13:00:00Z","geo":{"geometry":{"coordinates":[25.689537,-25.220383],"type":"Point"},"placekey":"@ncv-pmc-5pv","address":{"country_code":"BW","formatted_address":"Thema 2\nLobatse 0000\nBotswana","postcode":"0000","locality":"Lobatse","region":"South East District"}},"labels":["soccer","sport"],"duration":0,"start_local":"2024-05-25T15:00:00","end":"2024-05-25T13:00:00Z","end_local":"2024-05-25T15:00:00","updated":"2024-06-12T15:40:46Z"},{"title":"Premier League - VTM vs Sua Flamingoes","description":"Sourced from predicthq.com","category":"sports","start":"2024-05-25T13:00:00Z","geo":{"geometry":{"coordinates":[25.751239969,-24.515346522],"type":"Point"},"placekey":"@hyn-9zv-syv","address":{"country_code":"BW","formatted_address":"FQM2+VF Metsimotlhaba, Botswana","locality":"Metsimotlhaba","region":"South-East District"}},"labels":["soccer","sport"],"duration":0,"start_local":"2024-05-25T15:00:00","end":"2024-05-25T13:00:00Z","end_local":"2024-05-25T15:00:00","updated":"2024-06-12T06:10:37Z"},{"title":"Premier League - Galaxy vs Orapa United","description":"Sourced from predicthq.com","category":"sports","start":"2024-05-25T13:00:00Z","geo":{"geometry":{"coordinates":[24.7354413,-24.5953291],"type":"Point"},"placekey":"@hyn-969-3bk","address":{"country_code":"BW","formatted_address":"Jwaneng, Southern District, Botswana","locality":"Jwaneng","region":"Southern District"}},"labels":["soccer","sport"],"duration":0,"start_local":"2024-05-25T15:00:00","end":"2024-05-25T13:00:00Z","end_local":"2024-05-25T15:00:00","updated":"2024-06-12T11:55:55Z"},{"title":"Premier League - Nico United vs Eleven Angels","description":"Sourced from predicthq.com","category":"sports","start":"2024-05-25T13:00:00Z","geo":{"geometry":{"coordinates":[27.8516722,-21.9726683],"type":"Point"},"placekey":"@hys-ndd-cnq","address":{"country_code":"BW","formatted_address":"Selebi Phikwe, Central District, Botswana","locality":"Selebi Phikwe","region":"Central District"}},"labels":["soccer","sport"],"duration":0,"start_local":"2024-05-25T15:00:00","end":"2024-05-25T13:00:00Z","end_local":"2024-05-25T15:00:00","updated":"2024-06-12T08:50:00Z"},{"title":"planetboom","description":"Sourced from predicthq.com","category":"community","start":"2024-05-24T17:00:00Z","geo":{"geometry":{"coordinates":[25.917671,-24.615738],"type":"Point"},"placekey":"@nd2-2fk-dsq","address":{"country_code":"BW","formatted_address":"20625 Samedupe, Gaborone, Botswana","locality":"Gaborone","region":"Gaborone City"}},"labels":["concert","music"],"duration":0,"start_local":"2024-05-24T19:00:00","end":"2024-05-24T17:00:00Z","end_local":"2024-05-24T19:00:00","updated":"2024-06-05T04:22:46Z"},{"title":"Premier League - Security Systems vs Police XI","description":"Sourced from predicthq.com","category":"sports","start":"2024-05-24T13:00:00Z","geo":{"geometry":{"coordinates":[25.689537,-25.220383],"type":"Point"},"placekey":"@ncv-pmc-5pv","address":{"country_code":"BW","formatted_address":"Thema 2\nLobatse 0000\nBotswana","postcode":"0000","locality":"Lobatse","region":"South East District"}},"labels":["soccer","sport"],"duration":0,"start_local":"2024-05-24T15:00:00","end":"2024-05-24T13:00:00Z","end_local":"2024-05-24T15:00:00","updated":"2024-06-12T09:50:09Z"},{"title":"Premier League - BDF XI vs Matebele","description":"Sourced from predicthq.com","category":"sports","start":"2024-05-24T13:00:00Z","geo":{"geometry":{"coordinates":[25.751239969,-24.515346522],"type":"Point"},"placekey":"@hyn-9zv-syv","address":{"country_code":"BW","formatted_address":"FQM2+VF Metsimotlhaba, Botswana","locality":"Metsimotlhaba","region":"South-East District"}},"labels":["soccer","sport"],"duration":0,"start_local":"2024-05-24T15:00:00","end":"2024-05-24T13:00:00Z","end_local":"2024-05-24T15:00:00","updated":"2024-06-12T03:44:48Z"},{"title":"Premier League - Eleven Angels vs TAFIC","description":"Sourced from predicthq.com","category":"sports","start":"2024-05-22T16:00:00Z","geo":{"geometry":{"coordinates":[27.4787590502624,-21.151488795614444],"type":"Point"},"placekey":"@hyr-fjp-c89","address":{"country_code":"BW","formatted_address":"RFXH+7HG, Francistown, Botswana","locality":"Francistown","region":"Francistown City"}},"labels":["soccer","sport"],"duration":0,"start_local":"2024-05-22T18:00:00","end":"2024-05-22T16:00:00Z","end_local":"2024-05-22T18:00:00","updated":"2024-06-12T05:02:19Z"},{"title":"Premier League - Matebele vs Holy Ghost","description":"Sourced from predicthq.com","category":"sports","start":"2024-05-22T13:00:00Z","geo":{"geometry":{"coordinates":[25.751239969,-24.515346522],"type":"Point"},"placekey":"@hyn-9zv-syv","address":{"country_code":"BW","formatted_address":"FQM2+VF Metsimotlhaba, Botswana","locality":"Metsimotlhaba","region":"South-East District"}},"labels":["soccer","sport"],"duration":0,"start_local":"2024-05-22T15:00:00","end":"2024-05-22T13:00:00Z","end_local":"2024-05-22T15:00:00","updated":"2024-06-11T21:35:55Z"},{"title":"Premier League - Township Rollers vs BDF XI","description":"Sourced from predicthq.com","category":"sports","start":"2024-05-22T13:00:00Z","geo":{"geometry":{"coordinates":[25.98016824845206,-24.637041994890605],"type":"Point"},"placekey":"@nd2-2h4-zj9","address":{"country_code":"BW","formatted_address":"9X7J+V32, Unnamed Road, Gaborone, Botswana","locality":"Gaborone","region":"Gaborone City"}},"labels":["soccer","sport"],"duration":0,"start_local":"2024-05-22T15:00:00","end":"2024-05-22T13:00:00Z","end_local":"2024-05-22T15:00:00","updated":"2024-06-12T04:52:17Z"},{"title":"Premier League - Orapa United vs VTM","description":"Sourced from predicthq.com","category":"sports","start":"2024-05-22T13:00:00Z","geo":{"geometry":{"coordinates":[25.3656109,-21.3341582],"type":"Point"},"placekey":"@hyb-dqq-9xq","address":{"country_code":"BW","formatted_address":"Orapa, Botswana","locality":"Orapa","region":"Central District"}},"labels":["soccer","sport"],"duration":0,"start_local":"2024-05-22T15:00:00","end":"2024-05-22T13:00:00Z","end_local":"2024-05-22T15:00:00","updated":"2024-06-12T09:46:56Z"},{"title":"Premier League - Gaborone United vs Galaxy","description":"Sourced from predicthq.com","category":"sports","start":"2024-05-22T13:00:00Z","geo":{"geometry":{"coordinates":[25.689537,-25.220383],"type":"Point"},"placekey":"@ncv-pmc-5pv","address":{"country_code":"BW","formatted_address":"Thema 2\nLobatse 0000\nBotswana","postcode":"0000","locality":"Lobatse","region":"South East District"}},"labels":["soccer","sport"],"duration":0,"start_local":"2024-05-22T15:00:00","end":"2024-05-22T13:00:00Z","end_local":"2024-05-22T15:00:00","updated":"2024-06-12T03:28:29Z"},{"title":"Premier League - Morupule Wanderers vs Security Systems","description":"Sourced from predicthq.com","category":"sports","start":"2024-05-22T13:00:00Z","geo":{"geometry":{"coordinates":[27.1257805,-22.54789595],"type":"Point"},"placekey":"@hyt-2jh-vvf","address":{"country_code":"BW","formatted_address":"F42G+R8 Palapye, Botswana","locality":"Palapye","region":"Central District"}},"labels":["soccer","sport"],"duration":0,"start_local":"2024-05-22T15:00:00","end":"2024-05-22T13:00:00Z","end_local":"2024-05-22T15:00:00","updated":"2024-06-12T09:24:45Z"},{"title":"Premier League - Masitaoka vs Sua Flamingoes","description":"Sourced from predicthq.com","category":"sports","start":"2024-05-22T13:00:00Z","geo":{"geometry":{"coordinates":[26.004627934,-24.544241463],"type":"Point"},"placekey":"@nd2-2g8-w6k","address":{"country_code":"BW","formatted_address":"Oodi Road, Oodi, Botswana","locality":"Oodi"}},"labels":["soccer","sport"],"duration":0,"start_local":"2024-05-22T15:00:00","end":"2024-05-22T13:00:00Z","end_local":"2024-05-22T15:00:00","updated":"2024-06-12T04:38:09Z"},{"title":"Premier League - Police XI vs Nico United","description":"Sourced from predicthq.com","category":"sports","start":"2024-05-21T13:00:00Z","geo":{"geometry":{"coordinates":[25.689537,-25.220383],"type":"Point"},"placekey":"@ncv-pmc-5pv","address":{"country_code":"BW","formatted_address":"Thema 2\nLobatse 0000\nBotswana","postcode":"0000","locality":"Lobatse","region":"South East District"}},"labels":["soccer","sport"],"duration":0,"start_local":"2024-05-21T15:00:00","end":"2024-05-21T13:00:00Z","end_local":"2024-05-21T15:00:00","updated":"2024-06-12T03:46:28Z"},{"title":"Premier League - Matebele vs VTM","description":"Sourced from predicthq.com","category":"sports","start":"2024-05-19T13:00:00Z","geo":{"geometry":{"coordinates":[26.004627934,-24.544241463],"type":"Point"},"placekey":"@nd2-2g8-w6k","address":{"country_code":"BW","formatted_address":"Oodi Road, Oodi, Botswana","locality":"Oodi"}},"labels":["soccer","sport"],"duration":0,"start_local":"2024-05-19T15:00:00","end":"2024-05-19T13:00:00Z","end_local":"2024-05-19T15:00:00","updated":"2024-06-12T07:56:12Z"},{"title":"Premier League - Security Systems vs Sua Flamingoes","description":"Sourced from predicthq.com","category":"sports","start":"2024-05-19T13:00:00Z","geo":{"geometry":{"coordinates":[25.751239969,-24.515346522],"type":"Point"},"placekey":"@hyn-9zv-syv","address":{"country_code":"BW","formatted_address":"FQM2+VF Metsimotlhaba, Botswana","locality":"Metsimotlhaba","region":"South-East District"}},"labels":["soccer","sport"],"duration":0,"start_local":"2024-05-19T15:00:00","end":"2024-05-19T13:00:00Z","end_local":"2024-05-19T15:00:00","updated":"2024-06-12T06:52:14Z"},{"title":"Premier League - Township Rollers vs Galaxy","description":"Sourced from predicthq.com","category":"sports","start":"2024-05-19T13:00:00Z","geo":{"geometry":{"coordinates":[25.689537,-25.220383],"type":"Point"},"placekey":"@ncv-pmc-5pv","address":{"country_code":"BW","formatted_address":"Thema 2\nLobatse 0000\nBotswana","postcode":"0000","locality":"Lobatse","region":"South East District"}},"labels":["soccer","sport"],"duration":0,"start_local":"2024-05-19T15:00:00","end":"2024-05-19T13:00:00Z","end_local":"2024-05-19T15:00:00","updated":"2024-06-11T23:04:34Z"},{"title":"Premier League - Morupule Wanderers vs TAFIC","description":"Sourced from predicthq.com","category":"sports","start":"2024-05-18T13:00:00Z","geo":{"geometry":{"coordinates":[27.1257805,-22.54789595],"type":"Point"},"placekey":"@hyt-2jh-vvf","address":{"country_code":"BW","formatted_address":"F42G+R8 Palapye, Botswana","locality":"Palapye","region":"Central District"}},"labels":["soccer","sport"],"duration":0,"start_local":"2024-05-18T15:00:00","end":"2024-05-18T13:00:00Z","end_local":"2024-05-18T15:00:00","updated":"2024-06-12T08:55:32Z"},{"title":"Premier League - Masitaoka vs Nico United","description":"Sourced from predicthq.com","category":"sports","start":"2024-05-18T13:00:00Z","geo":{"geometry":{"coordinates":[26.004627934,-24.544241463],"type":"Point"},"placekey":"@nd2-2g8-w6k","address":{"country_code":"BW","formatted_address":"Oodi Road, Oodi, Botswana","locality":"Oodi"}},"labels":["soccer","sport"],"duration":0,"start_local":"2024-05-18T15:00:00","end":"2024-05-18T13:00:00Z","end_local":"2024-05-18T15:00:00","updated":"2024-06-12T07:19:57Z"},{"title":"Premier League - Police XI vs BDF XI","description":"Sourced from predicthq.com","category":"sports","start":"2024-05-18T13:00:00Z","geo":{"geometry":{"coordinates":[25.751239969,-24.515346522],"type":"Point"},"placekey":"@hyn-9zv-syv","address":{"country_code":"BW","formatted_address":"FQM2+VF Metsimotlhaba, Botswana","locality":"Metsimotlhaba","region":"South-East District"}},"labels":["soccer","sport"],"duration":0,"start_local":"2024-05-18T15:00:00","end":"2024-05-18T13:00:00Z","end_local":"2024-05-18T15:00:00","updated":"2024-06-12T11:28:08Z"},{"title":"Premier League - Eleven Angels vs Holy Ghost","description":"Sourced from predicthq.com","category":"sports","start":"2024-05-18T13:00:00Z","geo":{"geometry":{"coordinates":[27.4787590502624,-21.151488795614444],"type":"Point"},"placekey":"@hyr-fjp-c89","address":{"country_code":"BW","formatted_address":"RFXH+7HG, Francistown, Botswana","locality":"Francistown","region":"Francistown City"}},"labels":["soccer","sport"],"duration":0,"start_local":"2024-05-18T15:00:00","end":"2024-05-18T13:00:00Z","end_local":"2024-05-18T15:00:00","updated":"2024-06-12T18:31:46Z"},{"title":"Premier League - Gaborone United vs Orapa United","description":"Sourced from predicthq.com","category":"sports","start":"2024-05-18T13:00:00Z","geo":{"geometry":{"coordinates":[25.689537,-25.220383],"type":"Point"},"placekey":"@ncv-pmc-5pv","address":{"country_code":"BW","formatted_address":"Thema 2\nLobatse 0000\nBotswana","postcode":"0000","locality":"Lobatse","region":"South East District"}},"labels":["soccer","sport"],"duration":0,"start_local":"2024-05-18T15:00:00","end":"2024-05-18T13:00:00Z","end_local":"2024-05-18T15:00:00","updated":"2024-06-12T05:07:00Z"},{"title":"Premier League - Holy Ghost vs Township Rollers","description":"Sourced from predicthq.com","category":"sports","start":"2024-05-15T17:00:00Z","geo":{"geometry":{"coordinates":[25.9323867,-24.6564699],"type":"Point"},"placekey":"@nd2-2h3-gzf","address":{"country_code":"BW","formatted_address":"Gaborone, South-East District, Botswana","locality":"Gaborone","region":"South-East District"}},"labels":["soccer","sport"],"duration":0,"start_local":"2024-05-15T19:00:00","end":"2024-05-15T17:00:00Z","end_local":"2024-05-15T19:00:00","updated":"2024-06-12T09:28:36Z"},{"title":"Premier League - Galaxy vs Matebele","description":"Sourced from predicthq.com","category":"sports","start":"2024-05-15T13:00:00Z","geo":{"geometry":{"coordinates":[24.7354413,-24.5953291],"type":"Point"},"placekey":"@hyn-969-3bk","address":{"country_code":"BW","formatted_address":"Jwaneng, Southern District, Botswana","locality":"Jwaneng","region":"Southern District"}},"labels":["soccer","sport"],"duration":0,"start_local":"2024-05-15T15:00:00","end":"2024-05-15T13:00:00Z","end_local":"2024-05-15T15:00:00","updated":"2024-06-12T02:55:39Z"},{"title":"Premier League - VTM vs Gaborone United","description":"Sourced from predicthq.com","category":"sports","start":"2024-05-15T13:00:00Z","geo":{"geometry":{"coordinates":[25.751239969,-24.515346522],"type":"Point"},"placekey":"@hyn-9zv-syv","address":{"country_code":"BW","formatted_address":"FQM2+VF Metsimotlhaba, Botswana","locality":"Metsimotlhaba","region":"South-East District"}},"labels":["soccer","sport"],"duration":0,"start_local":"2024-05-15T15:00:00","end":"2024-05-15T13:00:00Z","end_local":"2024-05-15T15:00:00","updated":"2024-06-12T19:35:34Z"},{"title":"Premier League - Sua Flamingoes vs Orapa United","description":"Sourced from predicthq.com","category":"sports","start":"2024-05-15T13:00:00Z","geo":{"geometry":{"coordinates":[26.21380732,-20.567027478],"type":"Point"},"placekey":"@hys-fns-v4v","address":{"country_code":"BW","formatted_address":"C6M7+5G Sowa, Botswana","locality":"Sowa","region":"Central District"}},"labels":["soccer","sport"],"duration":0,"start_local":"2024-05-15T15:00:00","end":"2024-05-15T13:00:00Z","end_local":"2024-05-15T15:00:00","updated":"2024-06-12T05:29:17Z"},{"title":"Premier League - TAFIC vs Police XI","description":"Sourced from predicthq.com","category":"sports","start":"2024-05-15T13:00:00Z","geo":{"geometry":{"coordinates":[27.4787590502624,-21.151488795614444],"type":"Point"},"placekey":"@hyr-fjp-c89","address":{"country_code":"BW","formatted_address":"RFXH+7HG, Francistown, Botswana","locality":"Francistown","region":"Francistown City"}},"labels":["soccer","sport"],"duration":0,"start_local":"2024-05-15T15:00:00","end":"2024-05-15T13:00:00Z","end_local":"2024-05-15T15:00:00","updated":"2024-06-12T01:43:19Z"},{"title":"Premier League - Nico United vs Morupule Wanderers","description":"Sourced from predicthq.com","category":"sports","start":"2024-05-15T13:00:00Z","geo":{"geometry":{"coordinates":[27.8516722,-21.9726683],"type":"Point"},"placekey":"@hys-ndd-cnq","address":{"country_code":"BW","formatted_address":"Selebi Phikwe, Central District, Botswana","locality":"Selebi Phikwe","region":"Central District"}},"labels":["soccer","sport"],"duration":0,"start_local":"2024-05-15T15:00:00","end":"2024-05-15T13:00:00Z","end_local":"2024-05-15T15:00:00","updated":"2024-06-12T01:04:19Z"},{"title":"Premier League - BDF XI vs Eleven Angels","description":"Sourced from predicthq.com","category":"sports","start":"2024-05-14T13:00:00Z","geo":{"geometry":{"coordinates":[25.751239969,-24.515346522],"type":"Point"},"placekey":"@hyn-9zv-syv","address":{"country_code":"BW","formatted_address":"FQM2+VF Metsimotlhaba, Botswana","locality":"Metsimotlhaba","region":"South-East District"}},"labels":["soccer","sport"],"duration":0,"start_local":"2024-05-14T15:00:00","end":"2024-05-14T13:00:00Z","end_local":"2024-05-14T15:00:00","updated":"2024-06-12T13:03:24Z"},{"title":"Premier League - Security Systems vs Masitaoka","description":"Sourced from predicthq.com","category":"sports","start":"2024-05-14T13:00:00Z","geo":{"geometry":{"coordinates":[25.689537,-25.220383],"type":"Point"},"placekey":"@ncv-pmc-5pv","address":{"country_code":"BW","formatted_address":"Thema 2\nLobatse 0000\nBotswana","postcode":"0000","locality":"Lobatse","region":"South East District"}},"labels":["soccer","sport"],"duration":0,"start_local":"2024-05-14T15:00:00","end":"2024-05-14T13:00:00Z","end_local":"2024-05-14T15:00:00","updated":"2024-06-12T02:43:03Z"},{"title":"Premier League - Sua Flamingoes vs Gaborone United","description":"Sourced from predicthq.com","category":"sports","start":"2024-05-09T13:00:00Z","geo":{"geometry":{"coordinates":[26.21380732,-20.567027478],"type":"Point"},"placekey":"@hys-fns-v4v","address":{"country_code":"BW","formatted_address":"C6M7+5G Sowa, Botswana","locality":"Sowa","region":"Central District"}},"labels":["soccer","sport"],"duration":0,"start_local":"2024-05-09T15:00:00","end":"2024-05-09T13:00:00Z","end_local":"2024-05-09T15:00:00","updated":"2024-06-12T00:29:21Z"},{"title":"Premier League - BDF XI vs Morupule Wanderers","description":"Sourced from predicthq.com","category":"sports","start":"2024-05-09T13:00:00Z","geo":{"geometry":{"coordinates":[25.751239969,-24.515346522],"type":"Point"},"placekey":"@hyn-9zv-syv","address":{"country_code":"BW","formatted_address":"FQM2+VF Metsimotlhaba, Botswana","locality":"Metsimotlhaba","region":"South-East District"}},"labels":["soccer","sport"],"duration":0,"start_local":"2024-05-09T15:00:00","end":"2024-05-09T13:00:00Z","end_local":"2024-05-09T15:00:00","updated":"2024-06-12T08:25:33Z"},{"title":"Premier League - Holy Ghost vs Police XI","description":"Sourced from predicthq.com","category":"sports","start":"2024-05-08T13:00:00Z","geo":{"geometry":{"coordinates":[25.689537,-25.220383],"type":"Point"},"placekey":"@ncv-pmc-5pv","address":{"country_code":"BW","formatted_address":"Thema 2\nLobatse 0000\nBotswana","postcode":"0000","locality":"Lobatse","region":"South East District"}},"labels":["soccer","sport"],"duration":0,"start_local":"2024-05-08T15:00:00","end":"2024-05-08T13:00:00Z","end_local":"2024-05-08T15:00:00","updated":"2024-06-12T14:25:21Z"},{"title":"Premier League - Orapa United vs Matebele","description":"Sourced from predicthq.com","category":"sports","start":"2024-05-08T13:00:00Z","geo":{"geometry":{"coordinates":[25.3656109,-21.3341582],"type":"Point"},"placekey":"@hyb-dqq-9xq","address":{"country_code":"BW","formatted_address":"Orapa, Botswana","locality":"Orapa","region":"Central District"}},"labels":["soccer","sport"],"duration":0,"start_local":"2024-05-08T15:00:00","end":"2024-05-08T13:00:00Z","end_local":"2024-05-08T15:00:00","updated":"2024-06-12T13:58:20Z"},{"title":"Premier League - Nico United vs Security Systems","description":"Sourced from predicthq.com","category":"sports","start":"2024-05-08T13:00:00Z","geo":{"geometry":{"coordinates":[27.8516722,-21.9726683],"type":"Point"},"placekey":"@hys-ndd-cnq","address":{"country_code":"BW","formatted_address":"Selebi Phikwe, Central District, Botswana","locality":"Selebi Phikwe","region":"Central District"}},"labels":["soccer","sport"],"duration":0,"start_local":"2024-05-08T15:00:00","end":"2024-05-08T13:00:00Z","end_local":"2024-05-08T15:00:00","updated":"2024-06-12T12:01:55Z"},{"title":"Premier League - TAFIC vs Masitaoka","description":"Sourced from predicthq.com","category":"sports","start":"2024-05-08T13:00:00Z","geo":{"geometry":{"coordinates":[27.4787590502624,-21.151488795614444],"type":"Point"},"placekey":"@hyr-fjp-c89","address":{"country_code":"BW","formatted_address":"RFXH+7HG, Francistown, Botswana","locality":"Francistown","region":"Francistown City"}},"labels":["soccer","sport"],"duration":0,"start_local":"2024-05-08T15:00:00","end":"2024-05-08T13:00:00Z","end_local":"2024-05-08T15:00:00","updated":"2024-06-12T18:13:15Z"},{"title":"Premier League - Galaxy vs Eleven Angels","description":"Sourced from predicthq.com","category":"sports","start":"2024-05-08T13:00:00Z","geo":{"geometry":{"coordinates":[24.7354413,-24.5953291],"type":"Point"},"placekey":"@hyn-969-3bk","address":{"country_code":"BW","formatted_address":"Jwaneng, Southern District, Botswana","locality":"Jwaneng","region":"Southern District"}},"labels":["soccer","sport"],"duration":0,"start_local":"2024-05-08T15:00:00","end":"2024-05-08T13:00:00Z","end_local":"2024-05-08T15:00:00","updated":"2024-06-11T23:53:50Z"},{"title":"Premier League - VTM vs Township Rollers","description":"Sourced from predicthq.com","category":"sports","start":"2024-05-08T13:00:00Z","geo":{"geometry":{"coordinates":[25.751239969,-24.515346522],"type":"Point"},"placekey":"@hyn-9zv-syv","address":{"country_code":"BW","formatted_address":"FQM2+VF Metsimotlhaba, Botswana","locality":"Metsimotlhaba","region":"South-East District"}},"labels":["soccer","sport"],"duration":0,"start_local":"2024-05-08T15:00:00","end":"2024-05-08T13:00:00Z","end_local":"2024-05-08T15:00:00","updated":"2024-06-12T09:49:24Z"},{"title":"Diacore Gaborone Marathon","description":"Sourced from predicthq.com","category":"sports","start":"2024-05-05T04:45:00Z","geo":{"geometry":{"coordinates":[25.877496,-24.640691],"type":"Point"},"placekey":"@ncv-s7f-jqf","address":{"country_code":"BW","formatted_address":"Gaborone, Gaborone City, Botswana","locality":"Gaborone","region":"Gaborone City"}},"labels":["marathon","outdoor-sports","running","sport"],"duration":0,"start_local":"2024-05-05T06:45:00","end":"2024-05-05T04:45:00Z","end_local":"2024-05-05T06:45:00","updated":"2024-06-05T08:45:09Z"},{"title":"Book Launch","description":"Sourced from predicthq.com - The valley of the shadow of death","category":"expos","start":"2024-05-04T08:00:33Z","geo":{"geometry":{"coordinates":[27.5117344,-21.1660436],"type":"Point"},"placekey":"@hyr-fjt-3nq","address":{"country_code":"BW","formatted_address":"Francistown, Francistown City, Botswana","locality":"Francistown","region":"Francistown City"}},"labels":["expo"],"duration":36000,"start_local":"2024-05-04T10:00:33","end":"2024-05-04T18:00:33Z","end_local":"2024-05-04T20:00:33","updated":"2024-06-04T22:46:34Z"},{"title":"Premier League - Police XI vs Galaxy","description":"Sourced from predicthq.com","category":"sports","start":"2024-04-28T13:30:00Z","geo":{"geometry":{"coordinates":[25.689537,-25.220383],"type":"Point"},"placekey":"@ncv-pmc-5pv","address":{"country_code":"BW","formatted_address":"Thema 2\nLobatse 0000\nBotswana","postcode":"0000","locality":"Lobatse","region":"South East District"}},"labels":["soccer","sport"],"duration":0,"start_local":"2024-04-28T15:30:00","end":"2024-04-28T13:30:00Z","end_local":"2024-04-28T15:30:00","updated":"2024-06-12T07:10:37Z"},{"title":"Premier League - Matebele vs Gaborone United","description":"Sourced from predicthq.com","category":"sports","start":"2024-04-28T13:30:00Z","geo":{"geometry":{"coordinates":[26.004627934,-24.544241463],"type":"Point"},"placekey":"@nd2-2g8-w6k","address":{"country_code":"BW","formatted_address":"Oodi Road, Oodi, Botswana","locality":"Oodi"}},"labels":["soccer","sport"],"duration":0,"start_local":"2024-04-28T15:30:00","end":"2024-04-28T13:30:00Z","end_local":"2024-04-28T15:30:00","updated":"2024-06-12T13:50:44Z"},{"title":"Premier League - Eleven Angels vs VTM","description":"Sourced from predicthq.com","category":"sports","start":"2024-04-28T13:30:00Z","geo":{"geometry":{"coordinates":[27.4787590502624,-21.151488795614444],"type":"Point"},"placekey":"@hyr-fjp-c89","address":{"country_code":"BW","formatted_address":"RFXH+7HG, Francistown, Botswana","locality":"Francistown","region":"Francistown City"}},"labels":["soccer","sport"],"duration":0,"start_local":"2024-04-28T15:30:00","end":"2024-04-28T13:30:00Z","end_local":"2024-04-28T15:30:00","updated":"2024-06-11T23:21:31Z"},{"title":"Premier League - Masitaoka vs BDF XI","description":"Sourced from predicthq.com","category":"sports","start":"2024-04-27T13:30:00Z","geo":{"geometry":{"coordinates":[26.004627934,-24.544241463],"type":"Point"},"placekey":"@nd2-2g8-w6k","address":{"country_code":"BW","formatted_address":"Oodi Road, Oodi, Botswana","locality":"Oodi"}},"labels":["soccer","sport"],"duration":0,"start_local":"2024-04-27T15:30:00","end":"2024-04-27T13:30:00Z","end_local":"2024-04-27T15:30:00","updated":"2024-06-12T10:33:05Z"},{"title":"Premier League - Security Systems vs TAFIC","description":"Sourced from predicthq.com","category":"sports","start":"2024-04-27T13:30:00Z","geo":{"geometry":{"coordinates":[25.689537,-25.220383],"type":"Point"},"placekey":"@ncv-pmc-5pv","address":{"country_code":"BW","formatted_address":"Thema 2\nLobatse 0000\nBotswana","postcode":"0000","locality":"Lobatse","region":"South East District"}},"labels":["soccer","sport"],"duration":0,"start_local":"2024-04-27T15:30:00","end":"2024-04-27T13:30:00Z","end_local":"2024-04-27T15:30:00","updated":"2024-06-12T08:56:42Z"},{"title":"Premier League - Nico United vs Sua Flamingoes","description":"Sourced from predicthq.com","category":"sports","start":"2024-04-27T13:30:00Z","geo":{"geometry":{"coordinates":[27.8516722,-21.9726683],"type":"Point"},"placekey":"@hys-ndd-cnq","address":{"country_code":"BW","formatted_address":"Selebi Phikwe, Central District, Botswana","locality":"Selebi Phikwe","region":"Central District"}},"labels":["soccer","sport"],"duration":0,"start_local":"2024-04-27T15:30:00","end":"2024-04-27T13:30:00Z","end_local":"2024-04-27T15:30:00","updated":"2024-06-12T03:51:24Z"},{"title":"Premier League - Morupule Wanderers vs Holy Ghost","description":"Sourced from predicthq.com","category":"sports","start":"2024-04-27T13:30:00Z","geo":{"geometry":{"coordinates":[27.1257805,-22.54789595],"type":"Point"},"placekey":"@hyt-2jh-vvf","address":{"country_code":"BW","formatted_address":"F42G+R8 Palapye, Botswana","locality":"Palapye","region":"Central District"}},"labels":["soccer","sport"],"duration":0,"start_local":"2024-04-27T15:30:00","end":"2024-04-27T13:30:00Z","end_local":"2024-04-27T15:30:00","updated":"2024-06-12T03:21:11Z"},{"title":"MEN'S SUMMIT 2024","description":"Sourced from predicthq.com - Get ready for an epic gathering of men from all walks of life at MEN'S SUMMIT 2024 - it's going to be a game-changer!","category":"conferences","start":"2024-04-27T06:00:00Z","geo":{"geometry":{"coordinates":[25.8913605,-24.648526],"type":"Point"},"placekey":"@ncv-s7c-mx5","address":{"country_code":"BW","formatted_address":"Gaborone, Gaborone City, Botswana","locality":"Gaborone","region":"Gaborone City"}},"labels":["community","conference"],"duration":18000,"start_local":"2024-04-27T08:00:00","end":"2024-04-27T11:00:00Z","end_local":"2024-04-27T13:00:00","updated":"2024-06-12T03:47:37Z"},{"title":"Premier League - Township Rollers vs Orapa United","description":"Sourced from predicthq.com","category":"sports","start":"2024-04-26T17:00:00Z","geo":{"geometry":{"coordinates":[25.9323867,-24.6564699],"type":"Point"},"placekey":"@nd2-2h3-gzf","address":{"country_code":"BW","formatted_address":"Gaborone, South-East District, Botswana","locality":"Gaborone","region":"South-East District"}},"labels":["soccer","sport"],"duration":0,"start_local":"2024-04-26T19:00:00","end":"2024-04-26T17:00:00Z","end_local":"2024-04-26T19:00:00","updated":"2024-06-12T09:49:24Z"},{"title":"BOTSWANA'S 2ND BUILT ENVIRONMENT CONFERENCE & EXPO","description":"Sourced from predicthq.com - Are we ready to rethink our designs and redesign our thinking? “Building An Inclusive Circular Economy And Green Transformation”","category":"conferences","start":"2024-04-24T05:00:00Z","geo":{"geometry":{"coordinates":[25.8965353,-24.6193257],"type":"Point"},"placekey":"@ncv-s75-td9","address":{"country_code":"BW","formatted_address":"Gaborone, Gaborone City, Botswana","locality":"Gaborone","region":"Gaborone City"}},"labels":["business","conference"],"duration":133200,"start_local":"2024-04-24T07:00:00","end":"2024-04-25T18:00:00Z","end_local":"2024-04-25T20:00:00","updated":"2024-06-05T01:58:13Z"},{"title":"Premier League - Holy Ghost vs Masitaoka","description":"Sourced from predicthq.com","category":"sports","start":"2024-04-21T13:30:00Z","geo":{"geometry":{"coordinates":[25.751239969,-24.515346522],"type":"Point"},"placekey":"@hyn-9zv-syv","address":{"country_code":"BW","formatted_address":"FQM2+VF Metsimotlhaba, Botswana","locality":"Metsimotlhaba","region":"South-East District"}},"labels":["soccer","sport"],"duration":0,"start_local":"2024-04-21T15:30:00","end":"2024-04-21T13:30:00Z","end_local":"2024-04-21T15:30:00","updated":"2024-06-12T05:46:05Z"},{"title":"Premier League - BDF XI vs Security Systems","description":"Sourced from predicthq.com","category":"sports","start":"2024-04-21T13:30:00Z","geo":{"geometry":{"coordinates":[25.689537,-25.220383],"type":"Point"},"placekey":"@ncv-pmc-5pv","address":{"country_code":"BW","formatted_address":"Thema 2\nLobatse 0000\nBotswana","postcode":"0000","locality":"Lobatse","region":"South East District"}},"labels":["soccer","sport"],"duration":0,"start_local":"2024-04-21T15:30:00","end":"2024-04-21T13:30:00Z","end_local":"2024-04-21T15:30:00","updated":"2024-06-12T00:33:16Z"},{"title":"Premier League - Gaborone United vs Township Rollers","description":"Sourced from predicthq.com","category":"sports","start":"2024-04-20T13:30:00Z","geo":{"geometry":{"coordinates":[25.9323867,-24.6564699],"type":"Point"},"placekey":"@nd2-2h3-gzf","address":{"country_code":"BW","formatted_address":"Gaborone, South-East District, Botswana","locality":"Gaborone","region":"South-East District"}},"labels":["soccer","sport"],"duration":0,"start_local":"2024-04-20T15:30:00","end":"2024-04-20T13:30:00Z","end_local":"2024-04-20T15:30:00","updated":"2024-06-12T05:21:15Z"},{"title":"Premier League - Sua Flamingoes vs Matebele","description":"Sourced from predicthq.com","category":"sports","start":"2024-04-20T13:30:00Z","geo":{"geometry":{"coordinates":[26.21380732,-20.567027478],"type":"Point"},"placekey":"@hys-fns-v4v","address":{"country_code":"BW","formatted_address":"C6M7+5G Sowa, Botswana","locality":"Sowa","region":"Central District"}},"labels":["soccer","sport"],"duration":0,"start_local":"2024-04-20T15:30:00","end":"2024-04-20T13:30:00Z","end_local":"2024-04-20T15:30:00","updated":"2024-06-11T22:35:25Z"},{"title":"Premier League - Galaxy vs Morupule Wanderers","description":"Sourced from predicthq.com","category":"sports","start":"2024-04-20T13:30:00Z","geo":{"geometry":{"coordinates":[24.7354413,-24.5953291],"type":"Point"},"placekey":"@hyn-969-3bk","address":{"country_code":"BW","formatted_address":"Jwaneng, Southern District, Botswana","locality":"Jwaneng","region":"Southern District"}},"labels":["soccer","sport"],"duration":0,"start_local":"2024-04-20T15:30:00","end":"2024-04-20T13:30:00Z","end_local":"2024-04-20T15:30:00","updated":"2024-06-12T02:08:54Z"},{"title":"Premier League - Orapa United vs Eleven Angels","description":"Sourced from predicthq.com","category":"sports","start":"2024-04-20T13:30:00Z","geo":{"geometry":{"coordinates":[25.3656109,-21.3341582],"type":"Point"},"placekey":"@hyb-dqq-9xq","address":{"country_code":"BW","formatted_address":"Orapa, Botswana","locality":"Orapa","region":"Central District"}},"labels":["soccer","sport"],"duration":0,"start_local":"2024-04-20T15:30:00","end":"2024-04-20T13:30:00Z","end_local":"2024-04-20T15:30:00","updated":"2024-06-12T14:32:47Z"},{"title":"Premier League - TAFIC vs Nico United","description":"Sourced from predicthq.com","category":"sports","start":"2024-04-20T13:30:00Z","geo":{"geometry":{"coordinates":[27.4787590502624,-21.151488795614444],"type":"Point"},"placekey":"@hyr-fjp-c89","address":{"country_code":"BW","formatted_address":"RFXH+7HG, Francistown, Botswana","locality":"Francistown","region":"Francistown City"}},"labels":["soccer","sport"],"duration":0,"start_local":"2024-04-20T15:30:00","end":"2024-04-20T13:30:00Z","end_local":"2024-04-20T15:30:00","updated":"2024-06-11T21:35:27Z"},{"title":"Premier League - VTM vs Police XI","description":"Sourced from predicthq.com","category":"sports","start":"2024-04-20T13:30:00Z","geo":{"geometry":{"coordinates":[25.751239969,-24.515346522],"type":"Point"},"placekey":"@hyn-9zv-syv","address":{"country_code":"BW","formatted_address":"FQM2+VF Metsimotlhaba, Botswana","locality":"Metsimotlhaba","region":"South-East District"}},"labels":["soccer","sport"],"duration":0,"start_local":"2024-04-20T15:30:00","end":"2024-04-20T13:30:00Z","end_local":"2024-04-20T15:30:00","updated":"2024-06-12T02:19:49Z"},{"title":"Premier League - BDF XI vs Galaxy","description":"Sourced from predicthq.com","category":"sports","start":"2024-04-17T13:30:00Z","geo":{"geometry":{"coordinates":[25.9323867,-24.6564699],"type":"Point"},"placekey":"@nd2-2h3-gzf","address":{"country_code":"BW","formatted_address":"Gaborone, South-East District, Botswana","locality":"Gaborone","region":"South-East District"}},"labels":["soccer","sport"],"duration":0,"start_local":"2024-04-17T15:30:00","end":"2024-04-17T13:30:00Z","end_local":"2024-04-17T15:30:00","updated":"2024-06-12T08:46:12Z"},{"title":"Business Development Seminar","description":"Sourced from predicthq.com - Join us for a day of learning and networking at our Business Development Seminar!","category":"conferences","start":"2024-04-09T14:00:00Z","geo":{"geometry":{"coordinates":[25.9301269,-24.6514719],"type":"Point"},"placekey":"@nd2-2h2-d7q","address":{"country_code":"BW","formatted_address":"Chuma Drive, Gaborone, Botswana","locality":"Gaborone","region":"Gaborone City"}},"labels":["business","conference"],"duration":14400,"start_local":"2024-04-09T16:00:00","end":"2024-04-09T18:00:00Z","end_local":"2024-04-09T20:00:00","updated":"2024-06-05T16:34:05Z"},{"title":"Friendlies Women - Friendlies 2 - Botswana vs Namibia","description":"Sourced from predicthq.com","category":"sports","start":"2024-04-09T14:00:00Z","geo":{"geometry":{"coordinates":[25.98016824845206,-24.637041994890605],"type":"Point"},"placekey":"@nd2-2h4-zj9","address":{"country_code":"BW","formatted_address":"9X7J+V32, Unnamed Road, Gaborone, Botswana","locality":"Gaborone","region":"Gaborone City"}},"labels":["soccer","sport"],"duration":0,"start_local":"2024-04-09T16:00:00","end":"2024-04-09T14:00:00Z","end_local":"2024-04-09T16:00:00","updated":"2024-06-12T05:23:04Z"},{"title":"Premier League - TAFIC vs Sua Flamingoes","description":"Sourced from predicthq.com","category":"sports","start":"2024-04-07T13:30:00Z","geo":{"geometry":{"coordinates":[27.4993146,-21.1608813],"type":"Point"},"placekey":"@hyr-fjt-975","address":{"country_code":"BW","formatted_address":"Francistown, North-East District, Botswana","locality":"Francistown","region":"North-East District"}},"labels":["soccer","sport"],"duration":0,"start_local":"2024-04-07T15:30:00","end":"2024-04-07T13:30:00Z","end_local":"2024-04-07T15:30:00","updated":"2024-06-11T23:52:44Z"},{"title":"Premier League - Township Rollers vs Matebele","description":"Sourced from predicthq.com","category":"sports","start":"2024-04-07T13:30:00Z","geo":{"geometry":{"coordinates":[25.9323867,-24.6564699],"type":"Point"},"placekey":"@nd2-2h3-gzf","address":{"country_code":"BW","formatted_address":"Gaborone, South-East District, Botswana","locality":"Gaborone","region":"South-East District"}},"labels":["soccer","sport"],"duration":0,"start_local":"2024-04-07T15:30:00","end":"2024-04-07T13:30:00Z","end_local":"2024-04-07T15:30:00","updated":"2024-06-12T09:20:40Z"},{"title":"Premier League - Masitaoka vs Galaxy","description":"Sourced from predicthq.com","category":"sports","start":"2024-04-07T13:30:00Z","geo":{"geometry":{"coordinates":[26.004627934,-24.544241463],"type":"Point"},"placekey":"@nd2-2g8-w6k","address":{"country_code":"BW","formatted_address":"Oodi Road, Oodi, Botswana","locality":"Oodi"}},"labels":["soccer","sport"],"duration":0,"start_local":"2024-04-07T15:30:00","end":"2024-04-07T13:30:00Z","end_local":"2024-04-07T15:30:00","updated":"2024-06-12T10:28:20Z"},{"title":"Friendlies Women - Friendlies 2 - Botswana vs Lesotho","description":"Sourced from predicthq.com","category":"sports","start":"2024-04-06T14:00:00Z","geo":{"geometry":{"coordinates":[25.98016824845206,-24.637041994890605],"type":"Point"},"placekey":"@nd2-2h4-zj9","address":{"country_code":"BW","formatted_address":"9X7J+V32, Unnamed Road, Gaborone, Botswana","locality":"Gaborone","region":"Gaborone City"}},"labels":["soccer","sport"],"duration":0,"start_local":"2024-04-06T16:00:00","end":"2024-04-06T14:00:00Z","end_local":"2024-04-06T16:00:00","updated":"2024-06-12T14:05:21Z"},{"title":"Premier League - Nico United vs BDF XI","description":"Sourced from predicthq.com","category":"sports","start":"2024-04-06T13:30:00Z","geo":{"geometry":{"coordinates":[27.8516722,-21.9726683],"type":"Point"},"placekey":"@hys-ndd-cnq","address":{"country_code":"BW","formatted_address":"Selebi Phikwe, Central District, Botswana","locality":"Selebi Phikwe","region":"Central District"}},"labels":["soccer","sport"],"duration":0,"start_local":"2024-04-06T15:30:00","end":"2024-04-06T13:30:00Z","end_local":"2024-04-06T15:30:00","updated":"2024-06-12T11:27:04Z"},{"title":"Premier League - Police XI vs Orapa United","description":"Sourced from predicthq.com","category":"sports","start":"2024-04-06T13:30:00Z","geo":{"geometry":{"coordinates":[25.751239969,-24.515346522],"type":"Point"},"placekey":"@hyn-9zv-syv","address":{"country_code":"BW","formatted_address":"FQM2+VF Metsimotlhaba, Botswana","locality":"Metsimotlhaba","region":"South-East District"}},"labels":["soccer","sport"],"duration":0,"start_local":"2024-04-06T15:30:00","end":"2024-04-06T13:30:00Z","end_local":"2024-04-06T15:30:00","updated":"2024-06-12T18:32:18Z"},{"title":"Premier League - Eleven Angels vs Gaborone United","description":"Sourced from predicthq.com","category":"sports","start":"2024-04-06T13:30:00Z","geo":{"geometry":{"coordinates":[27.4787590502624,-21.151488795614444],"type":"Point"},"placekey":"@hyr-fjp-c89","address":{"country_code":"BW","formatted_address":"RFXH+7HG, Francistown, Botswana","locality":"Francistown","region":"Francistown City"}},"labels":["soccer","sport"],"duration":0,"start_local":"2024-04-06T15:30:00","end":"2024-04-06T13:30:00Z","end_local":"2024-04-06T15:30:00","updated":"2024-06-12T05:00:52Z"},{"title":"Premier League - Morupule Wanderers vs VTM","description":"Sourced from predicthq.com","category":"sports","start":"2024-04-06T13:30:00Z","geo":{"geometry":{"coordinates":[27.1257805,-22.54789595],"type":"Point"},"placekey":"@hyt-2jh-vvf","address":{"country_code":"BW","formatted_address":"F42G+R8 Palapye, Botswana","locality":"Palapye","region":"Central District"}},"labels":["soccer","sport"],"duration":0,"start_local":"2024-04-06T15:30:00","end":"2024-04-06T13:30:00Z","end_local":"2024-04-06T15:30:00","updated":"2024-06-12T05:32:35Z"},{"title":"Premier League - Security Systems vs Holy Ghost","description":"Sourced from predicthq.com","category":"sports","start":"2024-04-06T13:30:00Z","geo":{"geometry":{"coordinates":[25.689537,-25.220383],"type":"Point"},"placekey":"@ncv-pmc-5pv","address":{"country_code":"BW","formatted_address":"Thema 2\nLobatse 0000\nBotswana","postcode":"0000","locality":"Lobatse","region":"South East District"}},"labels":["soccer","sport"],"duration":0,"start_local":"2024-04-06T15:30:00","end":"2024-04-06T13:30:00Z","end_local":"2024-04-06T15:30:00","updated":"2024-06-12T14:44:22Z"}]