[{"title":"International Exhibition and Fair for the Wholesale of Light Industry Goods BTI","description":"Sourced from predicthq.com","category":"expos","start":"2024-10-02T06:00:00Z","geo":{"geometry":{"coordinates":[27.5211972,53.9279678],"type":"Point"},"placekey":"@52t-r2t-hbk","address":{"country_code":"BY","formatted_address":"Praspiekt Pieramožcaŭ 14, Minsk, Minskaja voblasć, Belarus","locality":"Minsk","region":"Minskaja voblasć"}},"labels":["expo"],"duration":205200,"start_local":"2024-10-02T09:00:00","end":"2024-10-04T15:00:00Z","end_local":"2024-10-04T18:00:00","updated":"2024-06-30T09:52:05Z"},{"title":"Ð¥Ð¸Ð¼Ð¸Ñ . Ð ÐµÑ„Ñ‚ÑŒ Ð¸ Ð³ÐDegreeÐ","description":"Sourced from predicthq.com","category":"expos","start":"2024-09-24T06:00:00Z","geo":{"geometry":{"coordinates":[27.504283,53.934336],"type":"Point"},"placekey":"@52t-r2t-bkz","address":{"country_code":"BY","formatted_address":"Belarus, Minsk Region, Minsk, Prospekte Pobeditelei","locality":"Minsk","region":"Minsk Region"}},"labels":["expo"],"duration":205200,"start_local":"2024-09-24T09:00:00","end":"2024-09-26T15:00:00Z","end_local":"2024-09-26T18:00:00","updated":"2024-05-31T23:03:22Z"},{"title":"Polymers & Composites","description":"Sourced from predicthq.com","category":"conferences","start":"2024-09-24T06:00:00Z","geo":{"geometry":{"coordinates":[27.4819987,53.936161],"type":"Point"},"placekey":"@52t-r28-tn5","address":{"country_code":"BY","formatted_address":"Praspiekt Pieramožcaŭ 111, Minsk, Minskaja voblasć, Belarus","locality":"Minsk","region":"Minskaja voblasć"}},"labels":["conference"],"duration":205200,"start_local":"2024-09-24T09:00:00","end":"2024-09-26T15:00:00Z","end_local":"2024-09-26T18:00:00","updated":"2024-05-31T23:06:13Z"},{"title":"International Scientific Conference \"Fullerenes and Nanostructures in Condensed Matter\"","description":"Sourced from predicthq.com","category":"conferences","start":"2024-09-18T06:00:00Z","geo":{"geometry":{"coordinates":[27.598327,53.92054],"type":"Point"},"placekey":"@52t-wkh-sdv","address":{"country_code":"BY","formatted_address":"Belarus, Minskaja voblasć, Minsk, praspiekt Niezaliežnasci","locality":"Minsk","region":"Minskaja voblasć"}},"labels":["conference"],"duration":205200,"start_local":"2024-09-18T09:00:00","end":"2024-09-20T15:00:00Z","end_local":"2024-09-20T18:00:00","updated":"2024-05-28T15:37:02Z"},{"title":"International Specialized Exhibition OUR HOUSE","description":"Sourced from predicthq.com","category":"expos","start":"2024-09-17T21:00:00Z","geo":{"geometry":{"coordinates":[27.5211972,53.9279678],"type":"Point"},"placekey":"@52t-r2t-hbk","address":{"country_code":"BY","formatted_address":"Praspiekt Pieramožcaŭ 14, Minsk, Minskaja voblasć, Belarus","locality":"Minsk","region":"Minskaja voblasć"}},"labels":["expo"],"duration":259199,"start_local":"2024-09-18T00:00:00","end":"2024-09-20T20:59:59Z","end_local":"2024-09-20T23:59:59","updated":"2024-06-04T09:13:07Z"},{"title":"Road Construction","description":"Sourced from predicthq.com","category":"expos","start":"2024-09-17T06:00:00Z","geo":{"geometry":{"coordinates":[27.5079705,53.9332007],"type":"Point"},"placekey":"@52t-r2t-87q","address":{"country_code":"BY","formatted_address":"Belarus, Minsk Region, 220020 Minsk, 20/2 Prospekte Pobeditelei","postcode":"220020","locality":"Minsk","region":"Minsk Region"}},"labels":["expo"],"duration":205200,"start_local":"2024-09-17T09:00:00","end":"2024-09-19T15:00:00Z","end_local":"2024-09-19T18:00:00","updated":"2024-06-30T09:52:51Z"},{"title":"Belarusian Construction Week","description":"Sourced from predicthq.com","category":"expos","start":"2024-09-17T06:00:00Z","geo":{"geometry":{"coordinates":[27.503688,53.93466],"type":"Point"},"placekey":"@52t-r2t-bkz","address":{"country_code":"BY","formatted_address":"Belarus, Minskaja voblasć, 220020 Minsk, praspiekt Pieramožcaŭ","locality":"Minsk","postcode":"220020","region":"Minskaja voblasć"}},"labels":["expo"],"duration":205200,"start_local":"2024-09-17T09:00:00","end":"2024-09-19T15:00:00Z","end_local":"2024-09-19T18:00:00","updated":"2024-06-30T09:52:08Z"},{"title":"Budprogress","description":"Sourced from predicthq.com","category":"expos","start":"2024-09-17T06:00:00Z","geo":{"geometry":{"coordinates":[27.5079705,53.9332007],"type":"Point"},"placekey":"@52t-r2t-87q","address":{"country_code":"BY","formatted_address":"Belarus, Minsk Region, 220020 Minsk, 20/2 Prospekte Pobeditelei","postcode":"220020","locality":"Minsk","region":"Minsk Region"}},"labels":["expo"],"duration":205200,"start_local":"2024-09-17T09:00:00","end":"2024-09-19T15:00:00Z","end_local":"2024-09-19T18:00:00","updated":"2024-06-30T09:52:45Z"},{"title":"BUDPRAGRES","description":"Sourced from predicthq.com - International Specialized Exhibition on Structural and Civil Engineering","category":"expos","start":"2024-09-16T21:00:00Z","geo":{"geometry":{"coordinates":[27.5771159,53.9218761],"type":"Point"},"placekey":"@52t-wzr-xwk","address":{"country_code":"BY","formatted_address":"Belarus, Minskaja voblasć, Minsk, Vulica Kujbyšava","locality":"Minsk","region":"Minskaja voblasć"}},"labels":["construction","expo","technology"],"duration":259199,"start_local":"2024-09-17T00:00:00","end":"2024-09-19T20:59:59Z","end_local":"2024-09-19T23:59:59","updated":"2024-06-30T09:52:51Z"},{"title":"AutoService.Mechanics.Autocomponents","description":"Sourced from predicthq.com - International Automotive, Garage Equipment, Automotive Spare Parts and Accessories Exhibition","category":"expos","start":"2024-09-16T21:00:00Z","geo":{"geometry":{"coordinates":[27.5771159,53.9218761],"type":"Point"},"placekey":"@52t-wzr-xwk","address":{"country_code":"BY","formatted_address":"Belarus, Minskaja voblasć, Minsk, Vulica Kujbyšava","locality":"Minsk","region":"Minskaja voblasć"}},"labels":["automotive","expo","transportation"],"duration":259199,"start_local":"2024-09-17T00:00:00","end":"2024-09-19T20:59:59Z","end_local":"2024-09-19T23:59:59","updated":"2024-06-30T09:52:51Z"},{"title":"UniCon & Game Expo","description":"Sourced from predicthq.com","category":"expos","start":"2024-09-13T06:00:00Z","geo":{"geometry":{"coordinates":[27.5079705,53.9332007],"type":"Point"},"placekey":"@52t-r2t-87q","address":{"country_code":"BY","formatted_address":"Belarus, Minsk Region, 220020 Minsk, 20/2 Prospekte Pobeditelei","postcode":"220020","locality":"Minsk","region":"Minsk Region"}},"labels":["expo"],"duration":205200,"start_local":"2024-09-13T09:00:00","end":"2024-09-15T15:00:00Z","end_local":"2024-09-15T18:00:00","updated":"2024-06-04T03:55:39Z"},{"title":"Minsk Half Marathon","description":"Sourced from predicthq.com","category":"sports","start":"2024-09-08T08:00:00Z","geo":{"geometry":{"coordinates":[27.5615244,53.9045398],"type":"Point"},"placekey":"@52t-r2p-b49","address":{"country_code":"BY","formatted_address":"Minsk, Minskaja voblasć, Belarus","locality":"Minsk","region":"Minskaja voblasć"}},"labels":["marathon","outdoor-sports","running","sport"],"duration":0,"start_local":"2024-09-08T11:00:00","end":"2024-09-08T08:00:00Z","end_local":"2024-09-08T11:00:00","updated":"2024-06-06T23:48:29Z"},{"title":"International Symposium Molecular aspects of plant redox metabolism","description":"Sourced from predicthq.com","category":"conferences","start":"2024-08-25T06:00:00Z","geo":{"geometry":{"coordinates":[27.468832,53.836545],"type":"Point"},"placekey":"@52t-qzs-b8v","address":{"country_code":"BY","formatted_address":"Belarus, Minskaja voblasć, Minsk, Ulitsa Kurchatova","locality":"Minsk","region":"Minskaja voblasć"}},"labels":["conference"],"duration":291600,"start_local":"2024-08-25T09:00:00","end":"2024-08-28T15:00:00Z","end_local":"2024-08-28T18:00:00","updated":"2024-06-30T06:55:12Z"},{"title":"International Specialized Exhibition Lesdrevtech","description":"Sourced from predicthq.com","category":"expos","start":"2024-08-20T21:00:00Z","geo":{"geometry":{"coordinates":[27.5211972,53.9279678],"type":"Point"},"placekey":"@52t-r2t-hbk","address":{"country_code":"BY","formatted_address":"Praspiekt Pieramožcaŭ 14, Minsk, Minskaja voblasć, Belarus","locality":"Minsk","region":"Minskaja voblasć"}},"labels":["expo"],"duration":259199,"start_local":"2024-08-21T00:00:00","end":"2024-08-23T20:59:59Z","end_local":"2024-08-23T23:59:59","updated":"2024-06-04T06:50:03Z"},{"title":"Сны Синей Собаки and Nevika","description":"Sourced from predicthq.com","category":"concerts","start":"2024-07-05T16:00:00Z","geo":{"geometry":{"coordinates":[27.57081,53.8895],"type":"Point"},"placekey":"@52t-wkm-9pv","address":{"country_code":"BY","formatted_address":"3, 3 этаж, vulica Kastryčnickaja 16, Minsk, Minskaja voblasć, Belarus","locality":"Minsk","region":"Minskaja voblasć"}},"labels":["concert","music"],"duration":0,"start_local":"2024-07-05T19:00:00","end":"2024-07-05T16:00:00Z","end_local":"2024-07-05T19:00:00","updated":"2024-06-21T16:29:06Z"},{"title":"Club Friendlies - Club Friendlies 3 - Minsk vs Neftekhimik","description":"Sourced from predicthq.com","category":"sports","start":"2024-07-04T09:00:00Z","geo":{"geometry":{"coordinates":[27.608819637048327,53.91928086966391],"type":"Point"},"placekey":"@52t-wzt-66k","address":{"country_code":"BY","formatted_address":"zavulak Tučynski 2a, Minsk, Minskaja voblasć, Belarus","locality":"Minsk","region":"Minskaja voblasć"}},"labels":["soccer","sport"],"duration":0,"start_local":"2024-07-04T12:00:00","end":"2024-07-04T09:00:00Z","end_local":"2024-07-04T12:00:00","updated":"2024-07-05T04:06:29Z"},{"title":"National Security Belarus","description":"Sourced from predicthq.com","category":"expos","start":"2024-06-19T06:00:00Z","geo":{"geometry":{"coordinates":[27.510072,53.932313],"type":"Point"},"placekey":"@52t-r2t-8y9","address":{"country_code":"BY","formatted_address":"Prospekte Pobeditelei 20, Minsk, Minsk Region, Belarus","locality":"Minsk","region":"Minsk Region"}},"labels":["expo"],"duration":205200,"start_local":"2024-06-19T09:00:00","end":"2024-06-21T15:00:00Z","end_local":"2024-06-21T18:00:00","updated":"2024-06-02T04:13:00Z"},{"title":"Club Friendlies - Club Friendlies 3 - Isloch vs Smorgon","description":"Sourced from predicthq.com","category":"sports","start":"2024-06-08T10:15:00Z","geo":{"geometry":{"coordinates":[27.50354013544313,53.93688825520966],"type":"Point"},"placekey":"@52t-r2v-249","address":{"country_code":"BY","formatted_address":"WGP3+QC Minsk, Belarus","locality":"Minsk","region":"Minsk Region"}},"labels":["soccer","sport"],"duration":0,"start_local":"2024-06-08T13:15:00","end":"2024-06-08T10:15:00Z","end_local":"2024-06-08T13:15:00","updated":"2024-06-11T18:36:19Z"},{"title":"Club Friendlies - Club Friendlies 3 - BATE vs Dnepr Mogilev","description":"Sourced from predicthq.com","category":"sports","start":"2024-06-08T10:00:00Z","geo":{"geometry":{"coordinates":[28.439505038,54.261338198],"type":"Point"},"placekey":"@52t-9bt-45f","address":{"country_code":"BY","formatted_address":"Dudinka, Minsk Region, Belarus","locality":"Dudinka","region":"Minsk Region"}},"labels":["soccer","sport"],"duration":0,"start_local":"2024-06-08T13:00:00","end":"2024-06-08T10:00:00Z","end_local":"2024-06-08T13:00:00","updated":"2024-06-12T01:01:40Z"},{"title":"Club Friendlies - Club Friendlies 3 - Dinamo Minsk vs Minsk","description":"Sourced from predicthq.com","category":"sports","start":"2024-06-08T09:30:00Z","geo":{"geometry":{"coordinates":[27.557631,53.894129],"type":"Point"},"placekey":"@52t-r2r-y7q","address":{"country_code":"BY","formatted_address":"vulica Kirava 8, Minsk, Belarus","locality":"Minsk","region":"Minskaja voblasć"}},"labels":["soccer","sport"],"duration":0,"start_local":"2024-06-08T12:30:00","end":"2024-06-08T09:30:00Z","end_local":"2024-06-08T12:30:00","updated":"2024-06-12T07:42:47Z"},{"title":"Club Friendlies - Club Friendlies 3 - Shakhtyor Soligorsk vs Slutsk","description":"Sourced from predicthq.com","category":"sports","start":"2024-06-08T09:00:00Z","geo":{"geometry":{"coordinates":[27.526481031738285,52.76787320575353],"type":"Point"},"placekey":"@52s-pms-h3q","address":{"country_code":"BY","formatted_address":"Belarus, Salihorsk (Soligorsk), Proyezd Lesnoy 4","locality":"Salihorsk (Soligorsk)"}},"labels":["soccer","sport"],"duration":0,"start_local":"2024-06-08T12:00:00","end":"2024-06-08T09:00:00Z","end_local":"2024-06-08T12:00:00","updated":"2024-06-12T04:11:45Z"},{"title":"Friendlies - Friendlies 1 - Belarus vs Russia","description":"Sourced from predicthq.com","category":"sports","start":"2024-06-07T17:00:00Z","geo":{"geometry":{"coordinates":[27.560286700000006,53.8951794],"type":"Point"},"placekey":"@52t-wkn-35z","address":{"country_code":"BY","formatted_address":"vulica Kirava 8, Minsk, Belarus","locality":"Minsk","region":"Minskaja voblasć"}},"labels":["soccer","sport"],"duration":6621,"start_local":"2024-06-07T20:00:00","end":"2024-06-07T18:50:21Z","end_local":"2024-06-07T21:50:21","updated":"2024-06-12T16:35:37Z"},{"title":"Prodmash Holod Upak","description":"Sourced from predicthq.com","category":"expos","start":"2024-06-04T06:00:00Z","geo":{"geometry":{"coordinates":[27.961799,53.896146],"type":"Point"},"placekey":"@52t-wnz-tn5","address":{"country_code":"BY","formatted_address":"Vykacheno, Minsk Region, Belarus","locality":"Vykacheno","region":"Minsk Region"}},"labels":["expo"],"duration":464400,"start_local":"2024-06-04T09:00:00","end":"2024-06-09T15:00:00Z","end_local":"2024-06-09T18:00:00","updated":"2024-06-03T18:41:44Z"},{"title":"Food Industry","description":"Sourced from predicthq.com","category":"expos","start":"2024-06-04T06:00:00Z","geo":{"geometry":{"coordinates":[27.975598,53.8643],"type":"Point"},"placekey":"@52t-wmd-zfz","address":{"country_code":"BY","formatted_address":"Pervomaisk, Minsk Region, Belarus","locality":"Pervomaisk","region":"Minsk Region"}},"labels":["expo"],"duration":464400,"start_local":"2024-06-04T09:00:00","end":"2024-06-09T15:00:00Z","end_local":"2024-06-09T18:00:00","updated":"2024-05-31T22:47:23Z"},{"title":"Belproduct","description":"Sourced from predicthq.com","category":"expos","start":"2024-06-04T06:00:00Z","geo":{"geometry":{"coordinates":[27.961799,53.896146],"type":"Point"},"placekey":"@52t-wnz-tn5","address":{"country_code":"BY","formatted_address":"Vykacheno, Minsk Region, Belarus","locality":"Vykacheno","region":"Minsk Region"}},"labels":["expo"],"duration":464400,"start_local":"2024-06-04T09:00:00","end":"2024-06-09T15:00:00Z","end_local":"2024-06-09T18:00:00","updated":"2024-05-28T00:57:59Z"},{"title":"Belagro","description":"Sourced from predicthq.com","category":"expos","start":"2024-06-03T21:00:00Z","geo":{"geometry":{"coordinates":[27.961799,53.896146],"type":"Point"},"placekey":"@52t-wnz-tn5","address":{"country_code":"BY","formatted_address":"Vykacheno, Minsk Region, Belarus","locality":"Vykacheno","region":"Minsk Region"}},"labels":["expo"],"duration":518399,"start_local":"2024-06-04T00:00:00","end":"2024-06-09T20:59:59Z","end_local":"2024-06-09T23:59:59","updated":"2024-05-31T23:06:02Z"},{"title":"Belagro/Belfarm","description":"Sourced from predicthq.com - International Exhibition on Agroindustrial Machinery and Animal Husbandry","category":"expos","start":"2024-06-03T21:00:00Z","geo":{"geometry":{"coordinates":[27.5771159,53.9218761],"type":"Point"},"placekey":"@52t-wzr-xwk","address":{"country_code":"BY","formatted_address":"Belarus, Minskaja voblasć, Minsk, Vulica Kujbyšava","locality":"Minsk","region":"Minskaja voblasć"}},"labels":["expo","packaging","product","technology"],"duration":518399,"start_local":"2024-06-04T00:00:00","end":"2024-06-09T20:59:59Z","end_local":"2024-06-09T23:59:59","updated":"2024-06-04T01:44:29Z"},{"title":"Premier League - Final - Grodno-93 vs Minsk","description":"Sourced from predicthq.com","category":"sports","start":"2024-05-24T14:00:00Z","geo":{"geometry":{"coordinates":[25.324881,53.893933],"type":"Point"},"placekey":"@52q-pd2-rtv","address":{"country_code":"BY","formatted_address":"Kachana St 31, Lida, Hrodna Region 231300, Belarus","postcode":"231300","locality":"Lida","region":"Hrodna Region"}},"labels":["basketball","sport"],"duration":0,"start_local":"2024-05-24T17:00:00","end":"2024-05-24T14:00:00Z","end_local":"2024-05-24T17:00:00","updated":"2024-06-12T07:27:50Z"},{"title":"Premier League - Final - Grodno-93 vs Minsk","description":"Sourced from predicthq.com","category":"sports","start":"2024-05-22T16:45:00Z","geo":{"geometry":{"coordinates":[25.324881,53.893933],"type":"Point"},"placekey":"@52q-pd2-rtv","address":{"country_code":"BY","formatted_address":"Kachana St 31, Lida, Hrodna Region 231300, Belarus","postcode":"231300","locality":"Lida","region":"Hrodna Region"}},"labels":["basketball","sport"],"duration":0,"start_local":"2024-05-22T19:45:00","end":"2024-05-22T16:45:00Z","end_local":"2024-05-22T19:45:00","updated":"2024-06-12T06:30:50Z"},{"title":"Premier League (W) - 5th Place Final - Minsk II vs Gomelskye Rysi","description":"Sourced from predicthq.com","category":"sports","start":"2024-05-22T13:00:00Z","geo":{"geometry":{"coordinates":[27.608159,53.899562],"type":"Point"},"placekey":"@52t-wk9-tn5","address":{"country_code":"BY","formatted_address":"Ulitsa Ural'skaya 3, Minsk, Minskaja voblasć, Belarus","locality":"Minsk","region":"Minskaja voblasć"}},"labels":["basketball","sport"],"duration":0,"start_local":"2024-05-22T16:00:00","end":"2024-05-22T13:00:00Z","end_local":"2024-05-22T16:00:00","updated":"2024-06-12T12:49:05Z"},{"title":"Bareco Show Minsk","description":"Sourced from predicthq.com","category":"expos","start":"2024-05-21T06:00:00Z","geo":{"geometry":{"coordinates":[27.510072,53.932313],"type":"Point"},"placekey":"@52t-r2t-8y9","address":{"country_code":"BY","formatted_address":"Prospekte Pobeditelei 20, Minsk, Minsk Region, Belarus","locality":"Minsk","region":"Minsk Region"}},"labels":["expo"],"duration":205200,"start_local":"2024-05-21T09:00:00","end":"2024-05-23T15:00:00Z","end_local":"2024-05-23T18:00:00","updated":"2024-06-02T04:14:47Z"},{"title":"International Forum on Information and Communication Technologies TIBO","description":"Sourced from predicthq.com","category":"conferences","start":"2024-05-21T06:00:00Z","geo":{"geometry":{"coordinates":[27.4819987,53.936161],"type":"Point"},"placekey":"@52t-r28-tn5","address":{"country_code":"BY","formatted_address":"Praspiekt Pieramožcaŭ 111, Minsk, Minskaja voblasć, Belarus","locality":"Minsk","region":"Minskaja voblasć"}},"labels":["conference"],"duration":291600,"start_local":"2024-05-21T09:00:00","end":"2024-05-24T15:00:00Z","end_local":"2024-05-24T18:00:00","updated":"2024-06-02T03:36:03Z"},{"title":"Premier League (W) - 5th Place Final - Gomelskye Rysi vs Minsk II","description":"Sourced from predicthq.com","category":"sports","start":"2024-05-19T10:00:00Z","geo":{"geometry":{"coordinates":[30.98432691382788,52.40201268207872],"type":"Point"},"placekey":"@3t7-4d4-rzf","address":{"country_code":"BY","formatted_address":"Belarus, Gomel, Ulitsa Bogdana Khmelnitsky 118A","locality":"Gomel"}},"labels":["basketball","sport"],"duration":0,"start_local":"2024-05-19T13:00:00","end":"2024-05-19T10:00:00Z","end_local":"2024-05-19T13:00:00","updated":"2024-06-11T23:02:25Z"},{"title":"Premier League (W) - 7th Place Final - Horizont II vs Viktoria Grodno","description":"Sourced from predicthq.com","category":"sports","start":"2024-05-18T13:00:00Z","geo":{"geometry":{"coordinates":[27.534884,53.936837],"type":"Point"},"placekey":"@52t-r2w-mkz","address":{"country_code":"BY","formatted_address":"vulica Stadyjonnaja 5, Minsk, Minskaja voblasć, Belarus","locality":"Minsk","region":"Minskaja voblasć"}},"labels":["basketball","sport"],"duration":0,"start_local":"2024-05-18T16:00:00","end":"2024-05-18T13:00:00Z","end_local":"2024-05-18T16:00:00","updated":"2024-06-11T22:05:18Z"},{"title":"Premier League (W) - 5th Place Final - Gomelskye Rysi vs Minsk II","description":"Sourced from predicthq.com","category":"sports","start":"2024-05-18T12:00:00Z","geo":{"geometry":{"coordinates":[30.98432691382788,52.40201268207872],"type":"Point"},"placekey":"@3t7-4d4-rzf","address":{"country_code":"BY","formatted_address":"Belarus, Gomel, Ulitsa Bogdana Khmelnitsky 118A","locality":"Gomel"}},"labels":["basketball","sport"],"duration":0,"start_local":"2024-05-18T15:00:00","end":"2024-05-18T12:00:00Z","end_local":"2024-05-18T15:00:00","updated":"2024-06-12T05:17:04Z"},{"title":"Premier League - 7th Place Final - Minsk III vs Gomelskie Rysi","description":"Sourced from predicthq.com","category":"sports","start":"2024-05-18T11:00:00Z","geo":{"geometry":{"coordinates":[27.608159,53.899562],"type":"Point"},"placekey":"@52t-wk9-tn5","address":{"country_code":"BY","formatted_address":"Ulitsa Ural'skaya 3, Minsk, Minskaja voblasć, Belarus","locality":"Minsk","region":"Minskaja voblasć"}},"labels":["basketball","sport"],"duration":0,"start_local":"2024-05-18T14:00:00","end":"2024-05-18T11:00:00Z","end_local":"2024-05-18T14:00:00","updated":"2024-06-12T16:53:55Z"},{"title":"Premier League - Final - Minsk vs Grodno-93","description":"Sourced from predicthq.com","category":"sports","start":"2024-05-17T13:30:00Z","geo":{"geometry":{"coordinates":[27.549805,53.910764],"type":"Point"},"placekey":"@52t-r2p-8n5","address":{"country_code":"BY","formatted_address":"Praspiekt Pieramožcaŭ 4, Minsk, Minskaja voblasć 220004, Belarus","postcode":"220004","locality":"Minsk","region":"Minskaja voblasć"}},"labels":["basketball","sport"],"duration":0,"start_local":"2024-05-17T16:30:00","end":"2024-05-17T13:30:00Z","end_local":"2024-05-17T16:30:00","updated":"2024-06-12T05:24:55Z"},{"title":"Premier League - 5th Place Final - Minsk II vs Impuls-BGUIR","description":"Sourced from predicthq.com","category":"sports","start":"2024-05-16T15:00:00Z","geo":{"geometry":{"coordinates":[27.608159,53.899562],"type":"Point"},"placekey":"@52t-wk9-tn5","address":{"country_code":"BY","formatted_address":"Ulitsa Ural'skaya 3, Minsk, Minskaja voblasć, Belarus","locality":"Minsk","region":"Minskaja voblasć"}},"labels":["basketball","sport"],"duration":0,"start_local":"2024-05-16T18:00:00","end":"2024-05-16T15:00:00Z","end_local":"2024-05-16T18:00:00","updated":"2024-06-12T09:26:49Z"},{"title":"Premier League - 3rd Place Final - Rubon vs Borisfen","description":"Sourced from predicthq.com","category":"sports","start":"2024-05-16T15:00:00Z","geo":{"geometry":{"coordinates":[30.2279,55.198361],"type":"Point"},"placekey":"@534-tpm-7t9","address":{"country_code":"BY","formatted_address":"Belarus, Vitebsk, prospekt Ljudnikova 12","locality":"Vitebsk"}},"labels":["basketball","sport"],"duration":0,"start_local":"2024-05-16T18:00:00","end":"2024-05-16T15:00:00Z","end_local":"2024-05-16T18:00:00","updated":"2024-06-12T00:59:01Z"},{"title":"Premier League (W) - Final - Horizont vs Minsk","description":"Sourced from predicthq.com","category":"sports","start":"2024-05-16T14:00:00Z","geo":{"geometry":{"coordinates":[26.86521829513348,54.30136008724938],"type":"Point"},"placekey":"@52q-73v-t9z","address":{"country_code":"BY","formatted_address":"Belarus, Maladziečna, vulica Vialiki Hasciniec 102","locality":"Maladziečna"}},"labels":["basketball","sport"],"duration":0,"start_local":"2024-05-16T17:00:00","end":"2024-05-16T14:00:00Z","end_local":"2024-05-16T17:00:00","updated":"2024-06-12T10:15:31Z"},{"title":"LADY Expo","description":"Sourced from predicthq.com","category":"expos","start":"2024-05-15T21:00:00Z","geo":{"geometry":{"coordinates":[27.5211972,53.9279678],"type":"Point"},"placekey":"@52t-r2t-hbk","address":{"country_code":"BY","formatted_address":"Praspiekt Pieramožcaŭ 14, Minsk, Minskaja voblasć, Belarus","locality":"Minsk","region":"Minskaja voblasć"}},"labels":["expo"],"duration":259199,"start_local":"2024-05-16T00:00:00","end":"2024-05-18T20:59:59Z","end_local":"2024-05-18T23:59:59","updated":"2024-06-05T13:01:19Z"},{"title":"Premier League - Final - Minsk vs Grodno-93","description":"Sourced from predicthq.com","category":"sports","start":"2024-05-15T13:00:00Z","geo":{"geometry":{"coordinates":[27.549805,53.910764],"type":"Point"},"placekey":"@52t-r2p-8n5","address":{"country_code":"BY","formatted_address":"Praspiekt Pieramožcaŭ 4, Minsk, Minskaja voblasć 220004, Belarus","postcode":"220004","locality":"Minsk","region":"Minskaja voblasć"}},"labels":["basketball","sport"],"duration":0,"start_local":"2024-05-15T16:00:00","end":"2024-05-15T13:00:00Z","end_local":"2024-05-15T16:00:00","updated":"2024-06-12T02:13:33Z"},{"title":"Premier League (W) - 7th Place Final - Viktoria Grodno vs Horizont II","description":"Sourced from predicthq.com","category":"sports","start":"2024-05-12T12:30:00Z","geo":{"geometry":{"coordinates":[23.803296,53.674055],"type":"Point"},"placekey":"@52q-h79-q9f","address":{"country_code":"BY","formatted_address":"Belarus, Grodno, vul. Papoviča 1","locality":"Grodno"}},"labels":["basketball","sport"],"duration":0,"start_local":"2024-05-12T15:30:00","end":"2024-05-12T12:30:00Z","end_local":"2024-05-12T15:30:00","updated":"2024-06-11T23:05:16Z"},{"title":"Premier League (W) - 5th Place Final - Minsk II vs Gomelskye Rysi","description":"Sourced from predicthq.com","category":"sports","start":"2024-05-12T09:00:00Z","geo":{"geometry":{"coordinates":[27.608159,53.899562],"type":"Point"},"placekey":"@52t-wk9-tn5","address":{"country_code":"BY","formatted_address":"Ulitsa Ural'skaya 3, Minsk, Minskaja voblasć, Belarus","locality":"Minsk","region":"Minskaja voblasć"}},"labels":["basketball","sport"],"duration":0,"start_local":"2024-05-12T12:00:00","end":"2024-05-12T09:00:00Z","end_local":"2024-05-12T12:00:00","updated":"2024-06-12T08:21:21Z"},{"title":"Premier League (W) - 7th Place Final - Viktoria Grodno vs Horizont II","description":"Sourced from predicthq.com","category":"sports","start":"2024-05-11T12:00:00Z","geo":{"geometry":{"coordinates":[23.803296,53.674055],"type":"Point"},"placekey":"@52q-h79-q9f","address":{"country_code":"BY","formatted_address":"Belarus, Grodno, vul. Papoviča 1","locality":"Grodno"}},"labels":["basketball","sport"],"duration":0,"start_local":"2024-05-11T15:00:00","end":"2024-05-11T12:00:00Z","end_local":"2024-05-11T15:00:00","updated":"2024-06-12T14:42:28Z"},{"title":"Premier League - 7th Place Final - Gomelskie Rysi vs Minsk III","description":"Sourced from predicthq.com","category":"sports","start":"2024-05-11T11:30:00Z","geo":{"geometry":{"coordinates":[31.005574,52.427885],"type":"Point"},"placekey":"@3t7-49q-66k","address":{"country_code":"BY","formatted_address":"Belarus, Gomel, vulica Iryninskaja 16","locality":"Gomel"}},"labels":["basketball","sport"],"duration":0,"start_local":"2024-05-11T14:30:00","end":"2024-05-11T11:30:00Z","end_local":"2024-05-11T14:30:00","updated":"2024-06-11T22:05:13Z"},{"title":"Premier League (W) - 5th Place Final - Minsk II vs Gomelskye Rysi","description":"Sourced from predicthq.com","category":"sports","start":"2024-05-11T11:00:00Z","geo":{"geometry":{"coordinates":[27.608159,53.899562],"type":"Point"},"placekey":"@52t-wk9-tn5","address":{"country_code":"BY","formatted_address":"Ulitsa Ural'skaya 3, Minsk, Minskaja voblasć, Belarus","locality":"Minsk","region":"Minskaja voblasć"}},"labels":["basketball","sport"],"duration":0,"start_local":"2024-05-11T14:00:00","end":"2024-05-11T11:00:00Z","end_local":"2024-05-11T14:00:00","updated":"2024-06-12T10:59:02Z"},{"title":"Premier League - 5th Place Final - Impuls-BGUIR vs Minsk II","description":"Sourced from predicthq.com","category":"sports","start":"2024-05-10T15:00:00Z","geo":{"geometry":{"coordinates":[27.593748,53.918118],"type":"Point"},"placekey":"@52t-wkh-p9z","address":{"country_code":"BY","formatted_address":"vulica Pietrusia Broŭki 4А, Minsk, Minskaja voblasć 220089, Belarus","postcode":"220089","locality":"Minsk","region":"Minskaja voblasć"}},"labels":["basketball","sport"],"duration":0,"start_local":"2024-05-10T18:00:00","end":"2024-05-10T15:00:00Z","end_local":"2024-05-10T18:00:00","updated":"2024-06-12T17:25:17Z"},{"title":"Premier League (W) - 3rd Place Final - RGUOR vs Olimpia Grodno","description":"Sourced from predicthq.com","category":"sports","start":"2024-05-10T13:00:00Z","geo":{"geometry":{"coordinates":[27.635808,53.925763],"type":"Point"},"placekey":"@52t-wjs-99f","address":{"country_code":"BY","formatted_address":"vulica Filimonava 55/1, Minsk, Minskaja voblasć, Belarus","locality":"Minsk","region":"Minskaja voblasć"}},"labels":["basketball","sport"],"duration":0,"start_local":"2024-05-10T16:00:00","end":"2024-05-10T13:00:00Z","end_local":"2024-05-10T16:00:00","updated":"2024-06-11T21:23:01Z"},{"title":"Premier League (W) - Final - Minsk vs Horizont","description":"Sourced from predicthq.com","category":"sports","start":"2024-05-08T13:00:00Z","geo":{"geometry":{"coordinates":[27.635808,53.925763],"type":"Point"},"placekey":"@52t-wjs-99f","address":{"country_code":"BY","formatted_address":"vulica Filimonava 55/1, Minsk, Minskaja voblasć, Belarus","locality":"Minsk","region":"Minskaja voblasć"}},"labels":["basketball","sport"],"duration":0,"start_local":"2024-05-08T16:00:00","end":"2024-05-08T13:00:00Z","end_local":"2024-05-08T16:00:00","updated":"2024-06-12T03:03:35Z"},{"title":"Premier League (W) - Final - Minsk vs Horizont","description":"Sourced from predicthq.com","category":"sports","start":"2024-05-06T14:45:00Z","geo":{"geometry":{"coordinates":[27.635808,53.925763],"type":"Point"},"placekey":"@52t-wjs-99f","address":{"country_code":"BY","formatted_address":"vulica Filimonava 55/1, Minsk, Minskaja voblasć, Belarus","locality":"Minsk","region":"Minskaja voblasć"}},"labels":["basketball","sport"],"duration":0,"start_local":"2024-05-06T17:45:00","end":"2024-05-06T14:45:00Z","end_local":"2024-05-06T17:45:00","updated":"2024-06-12T04:31:02Z"},{"title":"Premier League (W) - 3rd Place Final - Olimpia Grodno vs RGUOR","description":"Sourced from predicthq.com","category":"sports","start":"2024-05-04T12:30:00Z","geo":{"geometry":{"coordinates":[23.803296,53.674055],"type":"Point"},"placekey":"@52q-h79-q9f","address":{"country_code":"BY","formatted_address":"Belarus, Grodno, vul. Papoviča 1","locality":"Grodno"}},"labels":["basketball","sport"],"duration":0,"start_local":"2024-05-04T15:30:00","end":"2024-05-04T12:30:00Z","end_local":"2024-05-04T15:30:00","updated":"2024-06-12T13:12:50Z"},{"title":"Premier League - 5th Place Play-offs - Gomelskie Rysi vs Minsk II","description":"Sourced from predicthq.com","category":"sports","start":"2024-05-04T11:00:00Z","geo":{"geometry":{"coordinates":[30.98432691382788,52.40201268207872],"type":"Point"},"placekey":"@3t7-4d4-rzf","address":{"country_code":"BY","formatted_address":"Belarus, Gomel, Ulitsa Bogdana Khmelnitsky 118A","locality":"Gomel"}},"labels":["basketball","sport"],"duration":0,"start_local":"2024-05-04T14:00:00","end":"2024-05-04T11:00:00Z","end_local":"2024-05-04T14:00:00","updated":"2024-06-12T11:42:40Z"},{"title":"Premier League - 5th Place Play-offs - Minsk III vs Impuls-BGUIR","description":"Sourced from predicthq.com","category":"sports","start":"2024-05-04T10:00:00Z","geo":{"geometry":{"coordinates":[27.608159,53.899562],"type":"Point"},"placekey":"@52t-wk9-tn5","address":{"country_code":"BY","formatted_address":"Ulitsa Ural'skaya 3, Minsk, Minskaja voblasć, Belarus","locality":"Minsk","region":"Minskaja voblasć"}},"labels":["basketball","sport"],"duration":0,"start_local":"2024-05-04T13:00:00","end":"2024-05-04T10:00:00Z","end_local":"2024-05-04T13:00:00","updated":"2024-06-12T07:16:10Z"},{"title":"Premier League - Semi-finals - Rubon vs Minsk","description":"Sourced from predicthq.com","category":"sports","start":"2024-05-03T15:00:00Z","geo":{"geometry":{"coordinates":[30.2279,55.198361],"type":"Point"},"placekey":"@534-tpm-7t9","address":{"country_code":"BY","formatted_address":"Belarus, Vitebsk, prospekt Ljudnikova 12","locality":"Vitebsk"}},"labels":["basketball","sport"],"duration":0,"start_local":"2024-05-03T18:00:00","end":"2024-05-03T15:00:00Z","end_local":"2024-05-03T18:00:00","updated":"2024-06-12T12:33:35Z"},{"title":"Premier League (W) - 5th Place Play-offs - Viktoria Grodno vs Gomelskye Rysi","description":"Sourced from predicthq.com","category":"sports","start":"2024-05-03T13:00:00Z","geo":{"geometry":{"coordinates":[23.803296,53.674055],"type":"Point"},"placekey":"@52q-h79-q9f","address":{"country_code":"BY","formatted_address":"Belarus, Grodno, vul. Papoviča 1","locality":"Grodno"}},"labels":["basketball","sport"],"duration":0,"start_local":"2024-05-03T16:00:00","end":"2024-05-03T13:00:00Z","end_local":"2024-05-03T16:00:00","updated":"2024-06-12T07:08:25Z"},{"title":"Premier League (W) - 5th Place Play-offs - Horizont II vs Minsk II","description":"Sourced from predicthq.com","category":"sports","start":"2024-05-03T13:00:00Z","geo":{"geometry":{"coordinates":[27.534884,53.936837],"type":"Point"},"placekey":"@52t-r2w-mkz","address":{"country_code":"BY","formatted_address":"vulica Stadyjonnaja 5, Minsk, Minskaja voblasć, Belarus","locality":"Minsk","region":"Minskaja voblasć"}},"labels":["basketball","sport"],"duration":0,"start_local":"2024-05-03T16:00:00","end":"2024-05-03T13:00:00Z","end_local":"2024-05-03T16:00:00","updated":"2024-06-11T23:06:15Z"},{"title":"Premier League (W) - 3rd Place Final - Olimpia Grodno vs RGUOR","description":"Sourced from predicthq.com","category":"sports","start":"2024-05-02T13:00:00Z","geo":{"geometry":{"coordinates":[23.803296,53.674055],"type":"Point"},"placekey":"@52q-h79-q9f","address":{"country_code":"BY","formatted_address":"Belarus, Grodno, vul. Papoviča 1","locality":"Grodno"}},"labels":["basketball","sport"],"duration":0,"start_local":"2024-05-02T16:00:00","end":"2024-05-02T13:00:00Z","end_local":"2024-05-02T16:00:00","updated":"2024-06-12T01:52:05Z"},{"title":"Spring North Africa Fairs","description":"Sourced from predicthq.com","category":"expos","start":"2024-05-02T06:00:00Z","geo":{"geometry":{"coordinates":[27.510072,53.932313],"type":"Point"},"placekey":"@52t-r2t-8y9","address":{"country_code":"BY","formatted_address":"Prospekte Pobeditelei 20, Minsk, Minsk Region, Belarus","locality":"Minsk","region":"Minsk Region"}},"labels":["expo"],"duration":32400,"start_local":"2024-05-02T09:00:00","end":"2024-05-02T15:00:00Z","end_local":"2024-05-02T18:00:00","updated":"2024-06-02T04:15:10Z"},{"title":"Premier League (W) - 5th Place Play-offs - Gomelskye Rysi vs Viktoria Grodno","description":"Sourced from predicthq.com","category":"sports","start":"2024-05-01T10:00:00Z","geo":{"geometry":{"coordinates":[30.98432691382788,52.40201268207872],"type":"Point"},"placekey":"@3t7-4d4-rzf","address":{"country_code":"BY","formatted_address":"Belarus, Gomel, Ulitsa Bogdana Khmelnitsky 118A","locality":"Gomel"}},"labels":["basketball","sport"],"duration":0,"start_local":"2024-05-01T13:00:00","end":"2024-05-01T10:00:00Z","end_local":"2024-05-01T13:00:00","updated":"2024-06-12T01:56:16Z"},{"title":"Premier League (W) - 5th Place Play-offs - Gomelskye Rysi vs Viktoria Grodno","description":"Sourced from predicthq.com","category":"sports","start":"2024-04-30T13:00:00Z","geo":{"geometry":{"coordinates":[30.98432691382788,52.40201268207872],"type":"Point"},"placekey":"@3t7-4d4-rzf","address":{"country_code":"BY","formatted_address":"Belarus, Gomel, Ulitsa Bogdana Khmelnitsky 118A","locality":"Gomel"}},"labels":["basketball","sport"],"duration":0,"start_local":"2024-04-30T16:00:00","end":"2024-04-30T13:00:00Z","end_local":"2024-04-30T16:00:00","updated":"2024-06-12T00:50:43Z"},{"title":"Premier League - Semi-finals - Minsk vs Rubon","description":"Sourced from predicthq.com","category":"sports","start":"2024-04-28T12:30:00Z","geo":{"geometry":{"coordinates":[27.608159,53.899562],"type":"Point"},"placekey":"@52t-wk9-tn5","address":{"country_code":"BY","formatted_address":"Ulitsa Ural'skaya 3, Minsk, Minskaja voblasć, Belarus","locality":"Minsk","region":"Minskaja voblasć"}},"labels":["basketball","sport"],"duration":0,"start_local":"2024-04-28T15:30:00","end":"2024-04-28T12:30:00Z","end_local":"2024-04-28T15:30:00","updated":"2024-06-12T08:31:01Z"},{"title":"Premier League (W) - 5th Place Play-offs - Minsk II vs Horizont II","description":"Sourced from predicthq.com","category":"sports","start":"2024-04-28T09:00:00Z","geo":{"geometry":{"coordinates":[27.608159,53.899562],"type":"Point"},"placekey":"@52t-wk9-tn5","address":{"country_code":"BY","formatted_address":"Ulitsa Ural'skaya 3, Minsk, Minskaja voblasć, Belarus","locality":"Minsk","region":"Minskaja voblasć"}},"labels":["basketball","sport"],"duration":0,"start_local":"2024-04-28T12:00:00","end":"2024-04-28T09:00:00Z","end_local":"2024-04-28T12:00:00","updated":"2024-06-12T03:12:34Z"},{"title":"Premier League (W) - 5th Place Play-offs - Minsk II vs Horizont II","description":"Sourced from predicthq.com","category":"sports","start":"2024-04-27T10:00:00Z","geo":{"geometry":{"coordinates":[27.608159,53.899562],"type":"Point"},"placekey":"@52t-wk9-tn5","address":{"country_code":"BY","formatted_address":"Ulitsa Ural'skaya 3, Minsk, Minskaja voblasć, Belarus","locality":"Minsk","region":"Minskaja voblasć"}},"labels":["basketball","sport"],"duration":0,"start_local":"2024-04-27T13:00:00","end":"2024-04-27T10:00:00Z","end_local":"2024-04-27T13:00:00","updated":"2024-06-12T12:34:22Z"},{"title":"Premier League - 9th Place Play-offs - TSOR Viktoria Brest vs Grodno-93 GrGU","description":"Sourced from predicthq.com","category":"sports","start":"2024-04-27T10:00:00Z","geo":{"geometry":{"coordinates":[23.77822,52.113982],"type":"Point"},"placekey":"@52z-6j6-fpv","address":{"country_code":"BY","formatted_address":"Lieninhradskaja vulica 4, Brest 224028, Belarus","postcode":"224028","locality":"Brest","region":"Brest Region"}},"labels":["basketball","sport"],"duration":0,"start_local":"2024-04-27T13:00:00","end":"2024-04-27T10:00:00Z","end_local":"2024-04-27T13:00:00","updated":"2024-06-12T16:58:51Z"},{"title":"Premier League (W) - Semi-finals - Olimpia Grodno vs Horizont","description":"Sourced from predicthq.com","category":"sports","start":"2024-04-26T17:00:00Z","geo":{"geometry":{"coordinates":[23.803296,53.674055],"type":"Point"},"placekey":"@52q-h79-q9f","address":{"country_code":"BY","formatted_address":"Belarus, Grodno, vul. Papoviča 1","locality":"Grodno"}},"labels":["basketball","sport"],"duration":0,"start_local":"2024-04-26T20:00:00","end":"2024-04-26T17:00:00Z","end_local":"2024-04-26T20:00:00","updated":"2024-06-12T09:27:38Z"},{"title":"Premier League - Semi-finals - Minsk vs Rubon","description":"Sourced from predicthq.com","category":"sports","start":"2024-04-26T16:00:00Z","geo":{"geometry":{"coordinates":[27.608159,53.899562],"type":"Point"},"placekey":"@52t-wk9-tn5","address":{"country_code":"BY","formatted_address":"Ulitsa Ural'skaya 3, Minsk, Minskaja voblasć, Belarus","locality":"Minsk","region":"Minskaja voblasć"}},"labels":["basketball","sport"],"duration":0,"start_local":"2024-04-26T19:00:00","end":"2024-04-26T16:00:00Z","end_local":"2024-04-26T19:00:00","updated":"2024-06-12T09:50:46Z"},{"title":"Premier League (W) - Semi-finals - RGUOR vs Minsk","description":"Sourced from predicthq.com","category":"sports","start":"2024-04-26T15:00:00Z","geo":{"geometry":{"coordinates":[27.635808,53.925763],"type":"Point"},"placekey":"@52t-wjs-99f","address":{"country_code":"BY","formatted_address":"vulica Filimonava 55/1, Minsk, Minskaja voblasć, Belarus","locality":"Minsk","region":"Minskaja voblasć"}},"labels":["basketball","sport"],"duration":0,"start_local":"2024-04-26T18:00:00","end":"2024-04-26T15:00:00Z","end_local":"2024-04-26T18:00:00","updated":"2024-06-12T03:16:27Z"},{"title":"Premier League (W) - Semi-finals - Minsk vs RGUOR","description":"Sourced from predicthq.com","category":"sports","start":"2024-04-24T15:00:00Z","geo":{"geometry":{"coordinates":[27.635808,53.925763],"type":"Point"},"placekey":"@52t-wjs-99f","address":{"country_code":"BY","formatted_address":"vulica Filimonava 55/1, Minsk, Minskaja voblasć, Belarus","locality":"Minsk","region":"Minskaja voblasć"}},"labels":["basketball","sport"],"duration":0,"start_local":"2024-04-24T18:00:00","end":"2024-04-24T15:00:00Z","end_local":"2024-04-24T18:00:00","updated":"2024-06-12T20:06:29Z"},{"title":"Premier League (W) - 9th Place Final - Brest vs Gomelskye Rysi II","description":"Sourced from predicthq.com","category":"sports","start":"2024-04-24T13:00:00Z","geo":{"geometry":{"coordinates":[23.77822,52.113982],"type":"Point"},"placekey":"@52z-6j6-fpv","address":{"country_code":"BY","formatted_address":"Lieninhradskaja vulica 4, Brest 224028, Belarus","postcode":"224028","locality":"Brest","region":"Brest Region"}},"labels":["basketball","sport"],"duration":0,"start_local":"2024-04-24T16:00:00","end":"2024-04-24T13:00:00Z","end_local":"2024-04-24T16:00:00","updated":"2024-06-12T04:10:27Z"},{"title":"Premier League (W) - Semi-finals - Minsk vs RGUOR","description":"Sourced from predicthq.com","category":"sports","start":"2024-04-23T15:00:00Z","geo":{"geometry":{"coordinates":[27.635808,53.925763],"type":"Point"},"placekey":"@52t-wjs-99f","address":{"country_code":"BY","formatted_address":"vulica Filimonava 55/1, Minsk, Minskaja voblasć, Belarus","locality":"Minsk","region":"Minskaja voblasć"}},"labels":["basketball","sport"],"duration":0,"start_local":"2024-04-23T18:00:00","end":"2024-04-23T15:00:00Z","end_local":"2024-04-23T18:00:00","updated":"2024-06-12T18:06:41Z"},{"title":"Belarus Medica","description":"Sourced from predicthq.com","category":"expos","start":"2024-04-23T06:00:00Z","geo":{"geometry":{"coordinates":[27.5079705,53.9332007],"type":"Point"},"placekey":"@52t-r2t-87q","address":{"country_code":"BY","formatted_address":"Belarus, Minsk Region, 220020 Minsk, 20/2 Prospekte Pobeditelei","postcode":"220020","locality":"Minsk","region":"Minsk Region"}},"labels":["expo"],"duration":291600,"start_local":"2024-04-23T09:00:00","end":"2024-04-26T15:00:00Z","end_local":"2024-04-26T18:00:00","updated":"2024-05-31T22:54:27Z"},{"title":"BelarusMedica","description":"Sourced from predicthq.com - International Specialized Exhibition and Conference on Medical and Laboratory Equipment, Pharmaceutics and Ophthalmology","category":"expos","start":"2024-04-22T21:00:00Z","geo":{"geometry":{"coordinates":[27.6252316,53.9341867],"type":"Point"},"placekey":"@52t-wzt-rtv","address":{"country_code":"BY","formatted_address":"Belarus, Minskaja voblasć, Minsk, vulica Kutuzava","locality":"Minsk","region":"Minskaja voblasć"}},"labels":["expo","medical","product"],"duration":345599,"start_local":"2024-04-23T00:00:00","end":"2024-04-26T20:59:59Z","end_local":"2024-04-26T23:59:59","updated":"2024-06-05T17:07:21Z"},{"title":"Premier League - 9th Place Play-offs - Rubon II vs TSOR Viktoria Brest","description":"Sourced from predicthq.com","category":"sports","start":"2024-04-21T11:00:00Z","geo":{"geometry":{"coordinates":[30.2279,55.198361],"type":"Point"},"placekey":"@534-tpm-7t9","address":{"country_code":"BY","formatted_address":"Belarus, Vitebsk, prospekt Ljudnikova 12","locality":"Vitebsk"}},"labels":["basketball","sport"],"duration":0,"start_local":"2024-04-21T14:00:00","end":"2024-04-21T11:00:00Z","end_local":"2024-04-21T14:00:00","updated":"2024-06-12T19:41:56Z"},{"title":"Premier League - Quarter-finals - Minsk III vs Minsk","description":"Sourced from predicthq.com","category":"sports","start":"2024-04-21T10:00:00Z","geo":{"geometry":{"coordinates":[27.608159,53.899562],"type":"Point"},"placekey":"@52t-wk9-tn5","address":{"country_code":"BY","formatted_address":"Ulitsa Ural'skaya 3, Minsk, Minskaja voblasć, Belarus","locality":"Minsk","region":"Minskaja voblasć"}},"labels":["basketball","sport"],"duration":0,"start_local":"2024-04-21T13:00:00","end":"2024-04-21T10:00:00Z","end_local":"2024-04-21T13:00:00","updated":"2024-06-12T02:17:55Z"},{"title":"Premier League - Quarter-finals - Gomelskie Rysi vs Grodno-93","description":"Sourced from predicthq.com","category":"sports","start":"2024-04-20T12:00:00Z","geo":{"geometry":{"coordinates":[31.005574,52.427885],"type":"Point"},"placekey":"@3t7-49q-66k","address":{"country_code":"BY","formatted_address":"Belarus, Gomel, vulica Iryninskaja 16","locality":"Gomel"}},"labels":["basketball","sport"],"duration":0,"start_local":"2024-04-20T15:00:00","end":"2024-04-20T12:00:00Z","end_local":"2024-04-20T15:00:00","updated":"2024-06-12T04:38:57Z"},{"title":"Premier League - Quarter-finals - Rubon vs Impuls-BGUIR","description":"Sourced from predicthq.com","category":"sports","start":"2024-04-20T11:00:00Z","geo":{"geometry":{"coordinates":[30.2279,55.198361],"type":"Point"},"placekey":"@534-tpm-7t9","address":{"country_code":"BY","formatted_address":"Belarus, Vitebsk, prospekt Ljudnikova 12","locality":"Vitebsk"}},"labels":["basketball","sport"],"duration":0,"start_local":"2024-04-20T14:00:00","end":"2024-04-20T11:00:00Z","end_local":"2024-04-20T14:00:00","updated":"2024-06-12T09:42:47Z"},{"title":"Premier League - Quarter-finals - Minsk II vs Borisfen","description":"Sourced from predicthq.com","category":"sports","start":"2024-04-20T10:00:00Z","geo":{"geometry":{"coordinates":[27.608159,53.899562],"type":"Point"},"placekey":"@52t-wk9-tn5","address":{"country_code":"BY","formatted_address":"Ulitsa Ural'skaya 3, Minsk, Minskaja voblasć, Belarus","locality":"Minsk","region":"Minskaja voblasć"}},"labels":["basketball","sport"],"duration":0,"start_local":"2024-04-20T13:00:00","end":"2024-04-20T10:00:00Z","end_local":"2024-04-20T13:00:00","updated":"2024-06-11T23:47:15Z"},{"title":"Premier League (W) - Semi-finals - Horizont vs Olimpia Grodno","description":"Sourced from predicthq.com","category":"sports","start":"2024-04-20T10:00:00Z","geo":{"geometry":{"coordinates":[27.534884,53.936837],"type":"Point"},"placekey":"@52t-r2w-mkz","address":{"country_code":"BY","formatted_address":"vulica Stadyjonnaja 5, Minsk, Minskaja voblasć, Belarus","locality":"Minsk","region":"Minskaja voblasć"}},"labels":["basketball","sport"],"duration":0,"start_local":"2024-04-20T13:00:00","end":"2024-04-20T10:00:00Z","end_local":"2024-04-20T13:00:00","updated":"2024-06-12T12:36:59Z"},{"title":"Premier League - Quarter-finals - Minsk vs Minsk III","description":"Sourced from predicthq.com","category":"sports","start":"2024-04-18T15:00:00Z","geo":{"geometry":{"coordinates":[27.608159,53.899562],"type":"Point"},"placekey":"@52t-wk9-tn5","address":{"country_code":"BY","formatted_address":"Ulitsa Ural'skaya 3, Minsk, Minskaja voblasć, Belarus","locality":"Minsk","region":"Minskaja voblasć"}},"labels":["basketball","sport"],"duration":0,"start_local":"2024-04-18T18:00:00","end":"2024-04-18T15:00:00Z","end_local":"2024-04-18T18:00:00","updated":"2024-06-11T20:56:06Z"},{"title":"Premier League (W) - Semi-finals - Horizont vs Olimpia Grodno","description":"Sourced from predicthq.com","category":"sports","start":"2024-04-18T14:00:00Z","geo":{"geometry":{"coordinates":[27.534884,53.936837],"type":"Point"},"placekey":"@52t-r2w-mkz","address":{"country_code":"BY","formatted_address":"vulica Stadyjonnaja 5, Minsk, Minskaja voblasć, Belarus","locality":"Minsk","region":"Minskaja voblasć"}},"labels":["basketball","sport"],"duration":0,"start_local":"2024-04-18T17:00:00","end":"2024-04-18T14:00:00Z","end_local":"2024-04-18T17:00:00","updated":"2024-06-12T01:57:34Z"},{"title":"Hunting and Fishing Fair","description":"Sourced from predicthq.com","category":"expos","start":"2024-04-18T06:00:00Z","geo":{"geometry":{"coordinates":[27.5211972,53.9279678],"type":"Point"},"placekey":"@52t-r2t-hbk","address":{"country_code":"BY","formatted_address":"Praspiekt Pieramožcaŭ 14, Minsk, Minskaja voblasć, Belarus","locality":"Minsk","region":"Minskaja voblasć"}},"labels":["expo"],"duration":205200,"start_local":"2024-04-18T09:00:00","end":"2024-04-20T15:00:00Z","end_local":"2024-04-20T18:00:00","updated":"2024-06-05T14:25:32Z"},{"title":"International Spring Fair of Tourist Services Recreation","description":"Sourced from predicthq.com","category":"expos","start":"2024-04-17T21:00:00Z","geo":{"geometry":{"coordinates":[27.5211972,53.9279678],"type":"Point"},"placekey":"@52t-r2t-hbk","address":{"country_code":"BY","formatted_address":"Praspiekt Pieramožcaŭ 14, Minsk, Minskaja voblasć, Belarus","locality":"Minsk","region":"Minskaja voblasć"}},"labels":["expo"],"duration":259199,"start_local":"2024-04-18T00:00:00","end":"2024-04-20T20:59:59Z","end_local":"2024-04-20T23:59:59","updated":"2024-06-04T21:36:40Z"},{"title":"International Spring Fair of Tourism Services OTDYKH","description":"Sourced from predicthq.com","category":"expos","start":"2024-04-17T21:00:00Z","geo":{"geometry":{"coordinates":[27.5495588,53.9106285],"type":"Point"},"placekey":"@52t-r2p-8n5","address":{"country_code":"BY","formatted_address":"Belarus, 220004 Minsk, Palac Sporta, 4 Prospekte Pobeditelei","postcode":"220004","locality":"Minsk"}},"labels":["expo"],"duration":259199,"start_local":"2024-04-18T00:00:00","end":"2024-04-20T20:59:59Z","end_local":"2024-04-20T23:59:59","updated":"2024-06-12T10:33:46Z"},{"title":"Premier League - Quarter-finals - Impuls-BGUIR vs Rubon","description":"Sourced from predicthq.com","category":"sports","start":"2024-04-17T15:00:00Z","geo":{"geometry":{"coordinates":[27.593748,53.918118],"type":"Point"},"placekey":"@52t-wkh-p9z","address":{"country_code":"BY","formatted_address":"vulica Pietrusia Broŭki 4А, Minsk, Minskaja voblasć 220089, Belarus","postcode":"220089","locality":"Minsk","region":"Minskaja voblasć"}},"labels":["basketball","sport"],"duration":0,"start_local":"2024-04-17T18:00:00","end":"2024-04-17T15:00:00Z","end_local":"2024-04-17T18:00:00","updated":"2024-06-11T22:04:53Z"},{"title":"Belorussian Construction Week","description":"Sourced from predicthq.com - International Trade Fair for Windows, Doors, Roofs, World of Glass, Cottage, Interior and Furniture","category":"expos","start":"2024-04-16T21:00:00Z","geo":{"geometry":{"coordinates":[27.5771159,53.9218761],"type":"Point"},"placekey":"@52t-wzr-xwk","address":{"country_code":"BY","formatted_address":"Belarus, Minskaja voblasć, Minsk, Vulica Kujbyšava","locality":"Minsk","region":"Minskaja voblasć"}},"labels":["construction","expo","technology"],"duration":259199,"start_local":"2024-04-17T00:00:00","end":"2024-04-19T20:59:59Z","end_local":"2024-04-19T23:59:59","updated":"2024-06-04T22:33:31Z"},{"title":"Metallurg Zhlobin vs HK Brest","description":"Sourced from predicthq.com","category":"sports","start":"2024-04-16T16:55:00Z","geo":{"geometry":{"coordinates":[23.738698,52.091485],"type":"Point"},"placekey":"@52z-6j6-s3q","address":{"country_code":"BY","formatted_address":"Пионерская ул., 85, Брест, Беларусь, Brest, Belarus","locality":"Brest","region":"Brest Region"}},"labels":["ice-hockey","sport"],"duration":9208,"start_local":"2024-04-16T19:55:00","end":"2024-04-16T19:28:28Z","end_local":"2024-04-16T22:28:28","updated":"2024-06-05T05:44:21Z"},{"title":"Metallurg Zhlobin vs HK Brest","description":"Sourced from predicthq.com","category":"sports","start":"2024-04-14T13:25:00Z","geo":{"geometry":{"coordinates":[23.738698,52.091485],"type":"Point"},"placekey":"@52z-6j6-s3q","address":{"country_code":"BY","formatted_address":"Пионерская ул., 85, Брест, Беларусь, Brest, Belarus","locality":"Brest","region":"Brest Region"}},"labels":["ice-hockey","sport"],"duration":9737,"start_local":"2024-04-14T16:25:00","end":"2024-04-14T16:07:17Z","end_local":"2024-04-14T19:07:17","updated":"2024-06-05T11:29:19Z"},{"title":"Premier League - Play-offs - Gomelskie Rysi vs Rubon II","description":"Sourced from predicthq.com","category":"sports","start":"2024-04-14T13:00:00Z","geo":{"geometry":{"coordinates":[30.98432691382788,52.40201268207872],"type":"Point"},"placekey":"@3t7-4d4-rzf","address":{"country_code":"BY","formatted_address":"Belarus, Gomel, Ulitsa Bogdana Khmelnitsky 118A","locality":"Gomel"}},"labels":["basketball","sport"],"duration":0,"start_local":"2024-04-14T16:00:00","end":"2024-04-14T13:00:00Z","end_local":"2024-04-14T16:00:00","updated":"2024-06-12T14:24:04Z"},{"title":"Premier League (W) - Quarter-finals - Horizont II vs Minsk","description":"Sourced from predicthq.com","category":"sports","start":"2024-04-14T11:00:00Z","geo":{"geometry":{"coordinates":[27.534884,53.936837],"type":"Point"},"placekey":"@52t-r2w-mkz","address":{"country_code":"BY","formatted_address":"vulica Stadyjonnaja 5, Minsk, Minskaja voblasć, Belarus","locality":"Minsk","region":"Minskaja voblasć"}},"labels":["basketball","sport"],"duration":0,"start_local":"2024-04-14T14:00:00","end":"2024-04-14T11:00:00Z","end_local":"2024-04-14T14:00:00","updated":"2024-06-12T13:03:28Z"},{"title":"Premier League (W) - 9th Place Final - Gomelskye Rysi II vs Brest","description":"Sourced from predicthq.com","category":"sports","start":"2024-04-14T10:00:00Z","geo":{"geometry":{"coordinates":[30.98432691382788,52.40201268207872],"type":"Point"},"placekey":"@3t7-4d4-rzf","address":{"country_code":"BY","formatted_address":"Belarus, Gomel, Ulitsa Bogdana Khmelnitsky 118A","locality":"Gomel"}},"labels":["basketball","sport"],"duration":0,"start_local":"2024-04-14T13:00:00","end":"2024-04-14T10:00:00Z","end_local":"2024-04-14T13:00:00","updated":"2024-06-11T21:10:37Z"},{"title":"Premier League (W) - Quarter-finals - RGUOR vs Minsk II","description":"Sourced from predicthq.com","category":"sports","start":"2024-04-14T10:00:00Z","geo":{"geometry":{"coordinates":[27.635808,53.925763],"type":"Point"},"placekey":"@52t-wjs-99f","address":{"country_code":"BY","formatted_address":"vulica Filimonava 55/1, Minsk, Minskaja voblasć, Belarus","locality":"Minsk","region":"Minskaja voblasć"}},"labels":["basketball","sport"],"duration":0,"start_local":"2024-04-14T13:00:00","end":"2024-04-14T10:00:00Z","end_local":"2024-04-14T13:00:00","updated":"2024-06-12T01:30:40Z"},{"title":"Premier League (W) - Quarter-finals - Gomelskye Rysi vs Olimpia Grodno","description":"Sourced from predicthq.com","category":"sports","start":"2024-04-13T12:00:00Z","geo":{"geometry":{"coordinates":[30.98432691382788,52.40201268207872],"type":"Point"},"placekey":"@3t7-4d4-rzf","address":{"country_code":"BY","formatted_address":"Belarus, Gomel, Ulitsa Bogdana Khmelnitsky 118A","locality":"Gomel"}},"labels":["basketball","sport"],"duration":0,"start_local":"2024-04-13T15:00:00","end":"2024-04-13T12:00:00Z","end_local":"2024-04-13T15:00:00","updated":"2024-06-12T16:52:00Z"},{"title":"Premier League (W) - Quarter-finals - Viktoria Grodno vs Horizont","description":"Sourced from predicthq.com","category":"sports","start":"2024-04-13T12:00:00Z","geo":{"geometry":{"coordinates":[23.803296,53.674055],"type":"Point"},"placekey":"@52q-h79-q9f","address":{"country_code":"BY","formatted_address":"Belarus, Grodno, vul. Papoviča 1","locality":"Grodno"}},"labels":["basketball","sport"],"duration":0,"start_local":"2024-04-13T15:00:00","end":"2024-04-13T12:00:00Z","end_local":"2024-04-13T15:00:00","updated":"2024-06-12T03:20:15Z"},{"title":"HK Brest vs Metallurg Zhlobin","description":"Sourced from predicthq.com","category":"sports","start":"2024-04-12T16:55:00Z","geo":{"geometry":{"coordinates":[30.050123,52.909319],"type":"Point"},"placekey":"@52s-wnj-q9f","address":{"country_code":"BY","formatted_address":"Zhlobin, Belarus","locality":"Zhlobin"}},"labels":["ice-hockey","sport"],"duration":9294,"start_local":"2024-04-12T19:55:00","end":"2024-04-12T19:29:54Z","end_local":"2024-04-12T22:29:54","updated":"2024-05-27T08:24:51Z"},{"title":"Premier League - Play-offs - Minsk III vs Grodno-93 GrGU","description":"Sourced from predicthq.com","category":"sports","start":"2024-04-12T15:30:00Z","geo":{"geometry":{"coordinates":[27.608159,53.899562],"type":"Point"},"placekey":"@52t-wk9-tn5","address":{"country_code":"BY","formatted_address":"Ulitsa Ural'skaya 3, Minsk, Minskaja voblasć, Belarus","locality":"Minsk","region":"Minskaja voblasć"}},"labels":["basketball","sport"],"duration":0,"start_local":"2024-04-12T18:30:00","end":"2024-04-12T15:30:00Z","end_local":"2024-04-12T18:30:00","updated":"2024-06-12T12:17:02Z"},{"title":"Premier League - Play-offs - TSOR Viktoria Brest vs Minsk II","description":"Sourced from predicthq.com","category":"sports","start":"2024-04-12T15:00:00Z","geo":{"geometry":{"coordinates":[23.77822,52.113982],"type":"Point"},"placekey":"@52z-6j6-fpv","address":{"country_code":"BY","formatted_address":"Lieninhradskaja vulica 4, Brest 224028, Belarus","postcode":"224028","locality":"Brest","region":"Brest Region"}},"labels":["basketball","sport"],"duration":0,"start_local":"2024-04-12T18:00:00","end":"2024-04-12T15:00:00Z","end_local":"2024-04-12T18:00:00","updated":"2024-06-12T08:23:25Z"},{"title":"Premier League - Play-offs - Rubon II vs Gomelskie Rysi","description":"Sourced from predicthq.com","category":"sports","start":"2024-04-12T14:00:00Z","geo":{"geometry":{"coordinates":[30.2279,55.198361],"type":"Point"},"placekey":"@534-tpm-7t9","address":{"country_code":"BY","formatted_address":"Belarus, Vitebsk, prospekt Ljudnikova 12","locality":"Vitebsk"}},"labels":["basketball","sport"],"duration":0,"start_local":"2024-04-12T17:00:00","end":"2024-04-12T14:00:00Z","end_local":"2024-04-12T17:00:00","updated":"2024-06-12T08:25:38Z"},{"title":"ALGORYTHM™️| Navigating the Dynamic AI Terrain","description":"Sourced from predicthq.com - \"Success in creating AI would be the biggest event in human history, unfortunately, it might also be the last.\" - Elon Musk","category":"conferences","start":"2024-04-11T16:00:00Z","geo":{"geometry":{"coordinates":[27.558972,53.9006011],"type":"Point"},"placekey":"@52t-wkn-4y9","address":{"country_code":"BY","formatted_address":"Belarus, Minskaja voblasć, Minsk, praspiekt Niezaliežnasci","locality":"Minsk","region":"Minskaja voblasć"}},"labels":["conference","science","technology"],"duration":7200,"start_local":"2024-04-11T19:00:00","end":"2024-04-11T18:00:00Z","end_local":"2024-04-11T21:00:00","updated":"2024-06-05T07:30:46Z"},{"title":"Premier League (W) - Quarter-finals - Minsk II vs RGUOR","description":"Sourced from predicthq.com","category":"sports","start":"2024-04-10T15:30:00Z","geo":{"geometry":{"coordinates":[27.608159,53.899562],"type":"Point"},"placekey":"@52t-wk9-tn5","address":{"country_code":"BY","formatted_address":"Ulitsa Ural'skaya 3, Minsk, Minskaja voblasć, Belarus","locality":"Minsk","region":"Minskaja voblasć"}},"labels":["basketball","sport"],"duration":0,"start_local":"2024-04-10T18:30:00","end":"2024-04-10T15:30:00Z","end_local":"2024-04-10T18:30:00","updated":"2024-06-12T04:07:54Z"},{"title":"HK Brest vs Metallurg Zhlobin","description":"Sourced from predicthq.com","category":"sports","start":"2024-04-10T14:55:00Z","geo":{"geometry":{"coordinates":[30.050123,52.909319],"type":"Point"},"placekey":"@52s-wnj-q9f","address":{"country_code":"BY","formatted_address":"Zhlobin, Belarus","locality":"Zhlobin"}},"labels":["ice-hockey","sport"],"duration":8541,"start_local":"2024-04-10T17:55:00","end":"2024-04-10T17:17:21Z","end_local":"2024-04-10T20:17:21","updated":"2024-05-27T17:35:11Z"},{"title":"Premier League - Play-offs - Minsk II vs TSOR Viktoria Brest","description":"Sourced from predicthq.com","category":"sports","start":"2024-04-09T14:00:00Z","geo":{"geometry":{"coordinates":[27.608159,53.899562],"type":"Point"},"placekey":"@52t-wk9-tn5","address":{"country_code":"BY","formatted_address":"Ulitsa Ural'skaya 3, Minsk, Minskaja voblasć, Belarus","locality":"Minsk","region":"Minskaja voblasć"}},"labels":["basketball","sport"],"duration":0,"start_local":"2024-04-09T17:00:00","end":"2024-04-09T14:00:00Z","end_local":"2024-04-09T17:00:00","updated":"2024-06-12T14:31:58Z"},{"title":"Premier League (W) - Quarter-finals - Olimpia Grodno vs Gomelskye Rysi","description":"Sourced from predicthq.com","category":"sports","start":"2024-04-09T13:00:00Z","geo":{"geometry":{"coordinates":[23.803296,53.674055],"type":"Point"},"placekey":"@52q-h79-q9f","address":{"country_code":"BY","formatted_address":"Belarus, Grodno, vul. Papoviča 1","locality":"Grodno"}},"labels":["basketball","sport"],"duration":0,"start_local":"2024-04-09T16:00:00","end":"2024-04-09T13:00:00Z","end_local":"2024-04-09T16:00:00","updated":"2024-06-11T23:45:27Z"},{"title":"Premier League (W) - Quarter-finals - Horizont vs Viktoria Grodno","description":"Sourced from predicthq.com","category":"sports","start":"2024-04-09T13:00:00Z","geo":{"geometry":{"coordinates":[27.534884,53.936837],"type":"Point"},"placekey":"@52t-r2w-mkz","address":{"country_code":"BY","formatted_address":"vulica Stadyjonnaja 5, Minsk, Minskaja voblasć, Belarus","locality":"Minsk","region":"Minskaja voblasć"}},"labels":["basketball","sport"],"duration":0,"start_local":"2024-04-09T16:00:00","end":"2024-04-09T13:00:00Z","end_local":"2024-04-09T16:00:00","updated":"2024-06-12T10:57:30Z"},{"title":"Premier League - Play-offs - Gomelskie Rysi vs Rubon II","description":"Sourced from predicthq.com","category":"sports","start":"2024-04-09T13:00:00Z","geo":{"geometry":{"coordinates":[30.98432691382788,52.40201268207872],"type":"Point"},"placekey":"@3t7-4d4-rzf","address":{"country_code":"BY","formatted_address":"Belarus, Gomel, Ulitsa Bogdana Khmelnitsky 118A","locality":"Gomel"}},"labels":["basketball","sport"],"duration":0,"start_local":"2024-04-09T16:00:00","end":"2024-04-09T13:00:00Z","end_local":"2024-04-09T16:00:00","updated":"2024-06-11T20:50:13Z"},{"title":"Automation. Electronicselectrotech. Light","description":"Sourced from predicthq.com","category":"expos","start":"2024-04-09T06:00:00Z","geo":{"geometry":{"coordinates":[27.594974,53.88398],"type":"Point"},"placekey":"@52t-wkd-pvz","address":{"country_code":"BY","formatted_address":"Belarus, Minskaja voblasć, Minsk, vulica Vielazavodskaja","locality":"Minsk","region":"Minskaja voblasć"}},"labels":["expo"],"duration":291600,"start_local":"2024-04-09T09:00:00","end":"2024-04-12T15:00:00Z","end_local":"2024-04-12T18:00:00","updated":"2024-06-05T13:39:50Z"},{"title":"International Exhibition of Mechanical Engineering Products, Industrial Equipment, Production Technologies, Machine Tools and Tools.","description":"Sourced from predicthq.com","category":"expos","start":"2024-04-09T06:00:00Z","geo":{"geometry":{"coordinates":[27.5079705,53.9332007],"type":"Point"},"placekey":"@52t-r2t-87q","address":{"country_code":"BY","formatted_address":"Belarus, Minsk Region, 220020 Minsk, 20/2 Prospekte Pobeditelei","postcode":"220020","locality":"Minsk","region":"Minsk Region"}},"labels":["expo"],"duration":291600,"start_local":"2024-04-09T09:00:00","end":"2024-04-12T15:00:00Z","end_local":"2024-04-12T18:00:00","updated":"2024-06-12T03:03:26Z"},{"title":"International Exhibition Metalworking","description":"Sourced from predicthq.com - \"Metalworking\" is an exhilarating expo event showcasing cutting-edge technologies and innovations in the world of metal fabrication. From state-of-the-art machinery to expert craftsmanship, this event brings together industry professionals and enthusiasts to explore the limitless possibilities of working with metals.","category":"expos","start":"2024-04-09T06:00:00Z","geo":{"geometry":{"coordinates":[27.594974,53.88398],"type":"Point"},"placekey":"@52t-wkd-pvz","address":{"country_code":"BY","formatted_address":"Belarus, Minskaja voblasć, Minsk, vulica Vielazavodskaja","locality":"Minsk","region":"Minskaja voblasć"}},"labels":["expo"],"duration":291600,"start_local":"2024-04-09T09:00:00","end":"2024-04-12T15:00:00Z","end_local":"2024-04-12T18:00:00","updated":"2024-06-05T00:46:32Z"},{"title":"International trade fair of foundry and metallurgical technologies","description":"Sourced from predicthq.com - The International Trade Fair of Foundry and Metallurgical Technologies is an exciting expo event that brings together industry professionals, showcasing the latest innovations, advancements, and cutting-edge technologies in the fields of foundry and metallurgy. With numerous exhibits, workshops, and networking opportunities, this event is a must-attend for anyone involved or interested in these industries.","category":"expos","start":"2024-04-09T06:00:00Z","geo":{"geometry":{"coordinates":[27.595,53.884],"type":"Point"},"placekey":"@52t-wkd-pvz","address":{"country_code":"BY","formatted_address":"Belarus, Minskaja voblasć, Minsk, vulica Vielazavodskaja","locality":"Minsk","region":"Minskaja voblasć"}},"labels":["expo"],"duration":291600,"start_local":"2024-04-09T09:00:00","end":"2024-04-12T15:00:00Z","end_local":"2024-04-12T18:00:00","updated":"2024-06-03T23:26:49Z"},{"title":"Corrosion Protection Coatings","description":"Sourced from predicthq.com - Join us at the Corrosion Protection Coatings expo event to explore the latest advancements in coatings technology and solutions. Discover cutting-edge products and connect with industry experts for insights on safeguarding against corrosion in various sectors.","category":"expos","start":"2024-04-09T06:00:00Z","geo":{"geometry":{"coordinates":[27.510072,53.932313],"type":"Point"},"placekey":"@52t-r2t-8y9","address":{"country_code":"BY","formatted_address":"Prospekte Pobeditelei 20, Minsk, Minsk Region, Belarus","locality":"Minsk","region":"Minsk Region"}},"labels":["expo"],"duration":291600,"start_local":"2024-04-09T09:00:00","end":"2024-04-12T15:00:00Z","end_local":"2024-04-12T18:00:00","updated":"2024-06-02T04:12:34Z"},{"title":"Electrotech Light - Belarus","description":"Sourced from predicthq.com - Electrotech Light - Belarus is an exciting expo event showcasing the latest advancements in electrical technology, lighting solutions, and related industries. This dynamic gathering brings together industry professionals and enthusiasts to explore cutting-edge products, network with industry leaders, and gain valuable insights into the future of electrification and lighting.","category":"expos","start":"2024-04-09T06:00:00Z","geo":{"geometry":{"coordinates":[27.510072,53.932313],"type":"Point"},"placekey":"@52t-r2t-8y9","address":{"country_code":"BY","formatted_address":"Prospekte Pobeditelei 20, Minsk, Minsk Region, Belarus","locality":"Minsk","region":"Minsk Region"}},"labels":["expo"],"duration":291600,"start_local":"2024-04-09T09:00:00","end":"2024-04-12T15:00:00Z","end_local":"2024-04-12T18:00:00","updated":"2024-06-02T04:14:52Z"},{"title":"Premier League - Group B - Borisfen II vs TSOR Viktoria Brest","description":"Sourced from predicthq.com","category":"sports","start":"2024-04-07T12:00:00Z","geo":{"geometry":{"coordinates":[30.362855,53.927559],"type":"Point"},"placekey":"@52t-jvt-t35","address":{"country_code":"BY","formatted_address":"г. Могилев, Ulitsa 30 Let Pobedy 1/А, Mogilev, Belarus","locality":"Mogilev"}},"labels":["basketball","sport"],"duration":0,"start_local":"2024-04-07T15:00:00","end":"2024-04-07T12:00:00Z","end_local":"2024-04-07T15:00:00","updated":"2024-06-12T07:49:50Z"},{"title":"Premier League - Group B - Minsk III vs Minsk IV","description":"Sourced from predicthq.com","category":"sports","start":"2024-04-07T10:00:00Z","geo":{"geometry":{"coordinates":[27.608159,53.899562],"type":"Point"},"placekey":"@52t-wk9-tn5","address":{"country_code":"BY","formatted_address":"Ulitsa Ural'skaya 3, Minsk, Minskaja voblasć, Belarus","locality":"Minsk","region":"Minskaja voblasć"}},"labels":["basketball","sport"],"duration":0,"start_local":"2024-04-07T13:00:00","end":"2024-04-07T10:00:00Z","end_local":"2024-04-07T13:00:00","updated":"2024-06-12T05:30:19Z"},{"title":"Premier League - Group A - Gomelskie Rysi vs Rubon","description":"Sourced from predicthq.com","category":"sports","start":"2024-04-06T13:00:00Z","geo":{"geometry":{"coordinates":[31.005574,52.427885],"type":"Point"},"placekey":"@3t7-49q-66k","address":{"country_code":"BY","formatted_address":"Belarus, Gomel, vulica Iryninskaja 16","locality":"Gomel"}},"labels":["basketball","sport"],"duration":0,"start_local":"2024-04-06T16:00:00","end":"2024-04-06T13:00:00Z","end_local":"2024-04-06T16:00:00","updated":"2024-06-12T00:04:51Z"},{"title":"Premier League (W) - Horizont vs Olimpia Grodno","description":"Sourced from predicthq.com","category":"sports","start":"2024-04-06T12:00:00Z","geo":{"geometry":{"coordinates":[27.534884,53.936837],"type":"Point"},"placekey":"@52t-r2w-mkz","address":{"country_code":"BY","formatted_address":"vulica Stadyjonnaja 5, Minsk, Minskaja voblasć, Belarus","locality":"Minsk","region":"Minskaja voblasć"}},"labels":["basketball","sport"],"duration":0,"start_local":"2024-04-06T15:00:00","end":"2024-04-06T12:00:00Z","end_local":"2024-04-06T15:00:00","updated":"2024-06-12T06:48:14Z"},{"title":"BC Nizhny Novgorod vs BC Minsk","description":"Sourced from predicthq.com","category":"sports","start":"2024-04-06T11:30:00Z","geo":{"geometry":{"coordinates":[27.4819987,53.936161],"type":"Point"},"placekey":"@52t-r28-tn5","address":{"country_code":"BY","formatted_address":"Praspiekt Pieramožcaŭ 111, Minsk, Minskaja voblasć, Belarus","locality":"Minsk","region":"Minskaja voblasć"}},"labels":["basketball","sport"],"duration":6153,"start_local":"2024-04-06T14:30:00","end":"2024-04-06T13:12:33Z","end_local":"2024-04-06T16:12:33","updated":"2024-06-12T15:55:47Z"},{"title":"Premier League (W) - Brest vs Minsk II","description":"Sourced from predicthq.com","category":"sports","start":"2024-04-06T11:00:00Z","geo":{"geometry":{"coordinates":[23.77822,52.113982],"type":"Point"},"placekey":"@52z-6j6-fpv","address":{"country_code":"BY","formatted_address":"Lieninhradskaja vulica 4, Brest 224028, Belarus","postcode":"224028","locality":"Brest","region":"Brest Region"}},"labels":["basketball","sport"],"duration":0,"start_local":"2024-04-06T14:00:00","end":"2024-04-06T11:00:00Z","end_local":"2024-04-06T14:00:00","updated":"2024-06-12T07:51:30Z"},{"title":"Premier League (W) - Gomelskye Rysi II vs Viktoria Grodno","description":"Sourced from predicthq.com","category":"sports","start":"2024-04-06T10:00:00Z","geo":{"geometry":{"coordinates":[30.98432691382788,52.40201268207872],"type":"Point"},"placekey":"@3t7-4d4-rzf","address":{"country_code":"BY","formatted_address":"Belarus, Gomel, Ulitsa Bogdana Khmelnitsky 118A","locality":"Gomel"}},"labels":["basketball","sport"],"duration":0,"start_local":"2024-04-06T13:00:00","end":"2024-04-06T10:00:00Z","end_local":"2024-04-06T13:00:00","updated":"2024-06-12T14:40:05Z"}]