[{"title":"Jim Dalton and Amigos live in San Pedro, Belize","description":"Sourced from predicthq.com - YGB â€˜24 (Sea, Sun, & Song Fest) @ Castaways Belize San Pedro Ambergris Caye\n \nWed Aug. 14th -18th","category":"concerts","start":"2024-08-15T00:30:00Z","geo":{"geometry":{"coordinates":[-87.9461264,17.9434549],"type":"Point"},"placekey":"@8gv-wmw-7bk","address":{"country_code":"BZ","formatted_address":"San Pedro, Corozal District, Belize","locality":"San Pedro","region":"Corozal District"}},"labels":["concert","music"],"duration":360000,"start_local":"2024-08-14T18:30:00","end":"2024-08-19T04:30:00Z","end_local":"2024-08-18T22:30:00","updated":"2024-06-04T06:19:01Z"},{"title":"SUMMER SOAK BASH","description":"Sourced from predicthq.com - Get ready for the ultimate summer party!","category":"community","start":"2024-07-20T22:00:08Z","geo":{"geometry":{"coordinates":[-88.5593164,18.0805238],"type":"Point"},"placekey":"@8h8-d5v-xnq","address":{"country_code":"BZ","formatted_address":"Main Street, Orange Walk, Belize","locality":"Orange Walk","region":"Orange Walk District"}},"labels":["concert","music"],"duration":29100,"start_local":"2024-07-20T16:00:08","end":"2024-07-21T06:05:08Z","end_local":"2024-07-21T00:05:08","updated":"2024-06-20T18:35:32Z"},{"title":"Friendlies Women - Friendlies 2 - Belize vs Bermuda","description":"Sourced from predicthq.com","category":"sports","start":"2024-07-14T22:00:00Z","geo":{"geometry":{"coordinates":[-88.776504993,17.262547684],"type":"Point"},"placekey":"@8h9-c8x-yjv","address":{"country_code":"BZ","formatted_address":"1820 Hummingbird Hwy, Belmopan, Belize","locality":"Belmopan","region":"Cayo District"}},"labels":["soccer","sport"],"duration":0,"start_local":"2024-07-14T16:00:00","end":"2024-07-14T22:00:00Z","end_local":"2024-07-14T16:00:00","updated":"2024-06-21T14:22:27Z"},{"title":"Friendlies Women - Friendlies 2 - Belize vs Bermuda","description":"Sourced from predicthq.com","category":"sports","start":"2024-07-12T01:00:00Z","geo":{"geometry":{"coordinates":[-88.776504993,17.262547684],"type":"Point"},"placekey":"@8h9-c8x-yjv","address":{"country_code":"BZ","formatted_address":"1820 Hummingbird Hwy, Belmopan, Belize","locality":"Belmopan","region":"Cayo District"}},"labels":["soccer","sport"],"duration":0,"start_local":"2024-07-11T19:00:00","end":"2024-07-12T01:00:00Z","end_local":"2024-07-11T19:00:00","updated":"2024-06-21T16:29:05Z"},{"title":"Caribbean Research Methodologies Conference 2024","description":"Sourced from predicthq.com - Connections and Understandings through Indigenous and Local Ways of Knowing.","category":"conferences","start":"2024-05-20T14:30:00Z","geo":{"geometry":{"coordinates":[-88.7605919,17.243049],"type":"Point"},"placekey":"@8h9-c8w-kmk","address":{"country_code":"BZ","formatted_address":"Belmopan, Cayo District, Belize","locality":"Belmopan","region":"Cayo District"}},"labels":["community","conference"],"duration":289800,"start_local":"2024-05-20T08:30:00","end":"2024-05-23T23:00:00Z","end_local":"2024-05-23T17:00:00","updated":"2024-06-05T06:40:45Z"},{"title":"International Social Work Research Conference: Belize","description":"Sourced from predicthq.com - Join us at the International Social Work Research Conference: Belize for a dynamic gathering of global experts, exploring the power of resea","category":"conferences","start":"2024-05-03T14:00:00Z","geo":{"geometry":{"coordinates":[-88.2244653,17.5144073],"type":"Point"},"placekey":"@8gw-2m2-vcq","address":{"country_code":"BZ","formatted_address":"3, 1/2 Miles Philip Goldson Hwy (Northern Highway), Belize City, Belize","locality":"Belize City","region":"Belize District"}},"labels":["conference","fundraiser"],"duration":140400,"start_local":"2024-05-03T08:00:00","end":"2024-05-05T05:00:00Z","end_local":"2024-05-04T23:00:00","updated":"2024-06-05T04:30:42Z"},{"title":"Guerra Espiritual","description":"Sourced from predicthq.com - Guerra Espiritual: Despertando Conciencias y Fortaleciendo Ministerios","category":"conferences","start":"2024-04-06T15:00:00Z","geo":{"geometry":{"coordinates":[-89.0756145,17.1478],"type":"Point"},"placekey":"@8h9-96x-y5f","address":{"country_code":"BZ","formatted_address":"San Ignacio, Cayo District, Belize","locality":"San Ignacio","region":"Cayo District"}},"labels":["conference","religion"],"duration":25200,"start_local":"2024-04-06T09:00:00","end":"2024-04-06T22:00:00Z","end_local":"2024-04-06T16:00:00","updated":"2024-06-12T12:17:57Z"}]