[{"title":"DRC-Africa Battery Metals Forum","description":"Sourced from predicthq.com","category":"conferences","start":"2024-09-17T08:00:00Z","geo":{"geometry":{"coordinates":[15.270329,-4.312714],"type":"Point"},"placekey":"@g64-sm4-jy9","address":{"country_code":"CD","formatted_address":"Boulevard Colonel Tshatshi, Kinshasa, Congo, The Democratic Republic of the","locality":"Kinshasa","region":"Kinshasa"}},"labels":["conference"],"duration":118800,"start_local":"2024-09-17T09:00:00","end":"2024-09-18T17:00:00Z","end_local":"2024-09-18T18:00:00","updated":"2024-05-28T03:35:29Z"},{"title":"Semi de Lushi","description":"Sourced from predicthq.com","category":"sports","start":"2024-09-07T05:30:00Z","geo":{"geometry":{"coordinates":[27.47423,-11.6525457],"type":"Point"},"placekey":"@hv7-wt8-zpv","address":{"country_code":"CD","formatted_address":"Avenue du 30 juin, Lubumbashi, Congo, The Democratic Republic of the","locality":"Lubumbashi","region":"Haut-Katanga"}},"labels":["outdoor-sports","running","sport"],"duration":0,"start_local":"2024-09-07T07:30:00","end":"2024-09-07T05:30:00Z","end_local":"2024-09-07T07:30:00","updated":"2024-06-17T06:23:18Z"},{"title":"Session d'information Kinshasa mercredi  21 août 2024","description":"Sourced from predicthq.com - Viens te renseigner sur Kadea Academy lors de  notre session d'information à Kinshasa le  mercredi  21 août 2024","category":"conferences","start":"2024-08-21T13:00:00Z","geo":{"geometry":{"coordinates":[15.2692846,-4.3247705],"type":"Point"},"placekey":"@g64-xc3-789","address":{"country_code":"CD","formatted_address":"Avenue Colonel Mondjiba, Kinshasa, Congo, The Democratic Republic of the","locality":"Kinshasa","region":"Kinshasa"}},"labels":["conference"],"duration":5400,"start_local":"2024-08-21T14:00:00","end":"2024-08-21T14:30:00Z","end_local":"2024-08-21T15:30:00","updated":"2024-06-20T02:36:53Z"},{"title":"African Peering and Interconnection Forum","description":"Sourced from predicthq.com","category":"conferences","start":"2024-08-20T08:00:00Z","geo":{"geometry":{"coordinates":[15.312124,-4.298516],"type":"Point"},"placekey":"@g64-sm5-t5f","address":{"country_code":"CD","formatted_address":"Avenue Wagenia, Kinshasa, Congo, The Democratic Republic of the","locality":"Kinshasa","region":"Kinshasa"}},"labels":["conference"],"duration":205200,"start_local":"2024-08-20T09:00:00","end":"2024-08-22T17:00:00Z","end_local":"2024-08-22T18:00:00","updated":"2024-06-16T04:32:36Z"},{"title":"Session d'information Kinshasa mercredi  31 juillet 2024","description":"Sourced from predicthq.com - Viens te renseigner sur Kadea Academy lors de  notre session d'information à Kinshasa le  mercredi  31 juillet 2024","category":"conferences","start":"2024-07-31T13:00:00Z","geo":{"geometry":{"coordinates":[15.2692846,-4.3247705],"type":"Point"},"placekey":"@g64-xc3-789","address":{"country_code":"CD","formatted_address":"Avenue Colonel Mondjiba, Kinshasa, Congo, The Democratic Republic of the","locality":"Kinshasa","region":"Kinshasa"}},"labels":["conference"],"duration":5400,"start_local":"2024-07-31T14:00:00","end":"2024-07-31T14:30:00Z","end_local":"2024-07-31T15:30:00","updated":"2024-06-20T01:45:01Z"},{"title":"Explo célébration 2024","description":"Sourced from predicthq.com - Concert du moment","category":"concerts","start":"2024-07-27T09:00:00Z","geo":{"geometry":{"coordinates":[15.3103686,-4.330290199999999],"type":"Point"},"placekey":"@g64-xbd-xyv","address":{"country_code":"CD","formatted_address":"Avenue De La Démocratie, Kinshasa, Congo, The Democratic Republic of the","locality":"Kinshasa","region":"Kinshasa"}},"labels":["concert","music","religion"],"duration":43200,"start_local":"2024-07-27T10:00:00","end":"2024-07-27T21:00:00Z","end_local":"2024-07-27T22:00:00","updated":"2024-07-04T05:19:36Z"},{"title":"Outis","description":"Sourced from predicthq.com - Nous voulons présenter une marque d'habilemet homme,femme et enfant.","category":"concerts","start":"2024-07-23T08:00:00Z","geo":{"geometry":{"coordinates":[27.4174603,-11.662758],"type":"Point"},"placekey":"@hv7-y69-vmk","address":{"country_code":"CD","formatted_address":"Lubumbashi, Haut-Katanga, Congo, The Democratic Republic of the","locality":"Lubumbashi","region":"Haut-Katanga"}},"labels":["concert","music"],"duration":7200,"start_local":"2024-07-23T10:00:00","end":"2024-07-23T10:00:00Z","end_local":"2024-07-23T12:00:00","updated":"2024-06-20T09:27:27Z"},{"title":"SALON DES HEROS \" Les valeurs de l'identité culturelle de la RD CONGO \"","description":"Sourced from predicthq.com - Venez célébrer la richesse culturelle de la RD Congo au Salon des Héros du 11 au 12  juillet 2024 à partir de 8h30 !","category":"expos","start":"2024-07-11T07:30:00Z","geo":{"geometry":{"coordinates":[15.304595,-4.3345427],"type":"Point"},"placekey":"@g64-xbd-xh5","address":{"country_code":"CD","formatted_address":"Kinshasa, Congo, The Democratic Republic of the","locality":"Kinshasa","region":"Kinshasa"}},"labels":["community","expo"],"duration":131400,"start_local":"2024-07-11T08:30:00","end":"2024-07-12T20:00:00Z","end_local":"2024-07-12T21:00:00","updated":"2024-06-19T10:32:55Z"},{"title":"DemoDay We Act Lubumbashi","description":"Sourced from predicthq.com - Viens Découvrir les projets passionnants réalisés par nos apprenants à Lubumbashi","category":"conferences","start":"2024-07-04T08:00:00Z","geo":{"geometry":{"coordinates":[27.4521028,-11.6401605],"type":"Point"},"placekey":"@hv7-y6c-9j9","address":{"country_code":"CD","formatted_address":"Av. Fatuma, Lubumbashi, Congo, The Democratic Republic of the","locality":"Lubumbashi","region":"Haut-Katanga"}},"labels":["conference"],"duration":7200,"start_local":"2024-07-04T10:00:00","end":"2024-07-04T10:00:00Z","end_local":"2024-07-04T12:00:00","updated":"2024-06-27T10:09:19Z"},{"title":"Demoday We Act Goma","description":"Sourced from predicthq.com - Viens Découvrir les projets passionnants réalisés par nos apprenants à Goma","category":"conferences","start":"2024-07-04T08:00:00Z","geo":{"geometry":{"coordinates":[29.2372894,-1.6901791],"type":"Point"},"placekey":"@cx8-nzj-fmk","address":{"country_code":"CD","formatted_address":"Boulevard Kanya Mulanga, Goma, Congo, The Democratic Republic of the","locality":"Goma","region":"North-Kivu"}},"labels":["conference"],"duration":7200,"start_local":"2024-07-04T10:00:00","end":"2024-07-04T10:00:00Z","end_local":"2024-07-04T12:00:00","updated":"2024-06-28T03:35:19Z"},{"title":"Conférence : KIMPA VITA & ses héritières","description":"Sourced from predicthq.com - Venez découvrir l'histoire fascinante de KIMPA VITA et de ses héritières lors de notre conférence passionnante !","category":"conferences","start":"2024-07-02T12:30:00Z","geo":{"geometry":{"coordinates":[15.3108221,-4.301292699999999],"type":"Point"},"placekey":"@g64-sm5-xdv","address":{"country_code":"CD","formatted_address":"Avenue de l'Equateur, Kinshasa, Congo, The Democratic Republic of the","locality":"Kinshasa","region":"Kinshasa"}},"labels":["community","conference"],"duration":28800,"start_local":"2024-07-02T13:30:00","end":"2024-07-02T20:30:00Z","end_local":"2024-07-02T21:30:00","updated":"2024-06-28T08:46:37Z"},{"title":"Ventes des billets","description":"Sourced from predicthq.com - Offrir un travail de qualité, c'est notre priorité ✌️","category":"expos","start":"2024-07-02T08:00:00Z","geo":{"geometry":{"coordinates":[25.7871034,-9.434946499999999],"type":"Point"},"placekey":"@hxb-g6w-ckf","address":{"country_code":"CD","formatted_address":"Luena, Haut-Lomami, Congo, The Democratic Republic of the","locality":"Luena","region":"Haut-Lomami"}},"labels":["business","expo"],"duration":7200,"start_local":"2024-07-02T10:00:00","end":"2024-07-02T10:00:00Z","end_local":"2024-07-02T12:00:00","updated":"2024-05-30T01:04:15Z"},{"title":"“La force de se réinventer” RDC","description":"Sourced from predicthq.com - Rejoignez-nous pour une conférence inspirante dédiée aux femmes déterminées à se réinventer et libérer leur plein potentiel.","category":"conferences","start":"2024-06-27T17:00:00Z","geo":{"geometry":{"coordinates":[15.2703285,-4.312714],"type":"Point"},"placekey":"@g64-sm4-jy9","address":{"country_code":"CD","formatted_address":"Boulevard Colonel Tshatshi, Kinshasa, Congo, The Democratic Republic of the","locality":"Kinshasa","region":"Kinshasa"}},"labels":["business","conference"],"duration":0,"start_local":"2024-06-27T18:00:00","end":"2024-06-27T17:00:00Z","end_local":"2024-06-27T18:00:00","updated":"2024-06-06T22:17:12Z"},{"title":"Mwasi Tech Lubumbashi","description":"Sourced from predicthq.com - Accroître les ressources \nnécessaires en faveur \ndes femmes et des filles \ndans la paix pour un \nCongo paritaire","category":"conferences","start":"2024-06-12T08:00:00Z","geo":{"geometry":{"coordinates":[27.4521028,-11.6401605],"type":"Point"},"placekey":"@hv7-y6c-9j9","address":{"country_code":"CD","formatted_address":"Av. Fatuma, Lubumbashi, Congo, The Democratic Republic of the","locality":"Lubumbashi","region":"Haut-Katanga"}},"labels":["conference","science","technology"],"duration":12600,"start_local":"2024-06-12T10:00:00","end":"2024-06-12T11:30:00Z","end_local":"2024-06-12T13:30:00","updated":"2024-06-11T02:33:34Z"},{"title":"DRC Mining Week Expo and Conference","description":"Sourced from predicthq.com","category":"expos","start":"2024-06-12T07:00:00Z","geo":{"geometry":{"coordinates":[27.454914,-11.652108],"type":"Point"},"placekey":"@hv7-y6c-ygk","address":{"country_code":"CD","formatted_address":"55 Rte Du Golf, Lubumbashi, Democratic Republic of the Congo","locality":"Lubumbashi","region":"Haut-Katanga"}},"labels":["expo"],"duration":205200,"start_local":"2024-06-12T09:00:00","end":"2024-06-14T16:00:00Z","end_local":"2024-06-14T18:00:00","updated":"2024-06-04T01:50:07Z"},{"title":"Conférences","description":"Sourced from predicthq.com - Je vous prie de passer,sir event brite a propos de billet,conférences et autres","category":"conferences","start":"2024-06-10T09:00:00Z","geo":{"geometry":{"coordinates":[15.2737278,-4.3271824],"type":"Point"},"placekey":"@g64-xbg-ht9","address":{"country_code":"CD","formatted_address":"Kinshasa, Congo, The Democratic Republic of the","locality":"Kinshasa","region":"Kinshasa"}},"labels":["community","conference"],"duration":7200,"start_local":"2024-06-10T10:00:00","end":"2024-06-10T11:00:00Z","end_local":"2024-06-10T12:00:00","updated":"2024-06-04T07:39:46Z"},{"title":"Wci Forum Kinshasa Congo","description":"Sourced from predicthq.com","category":"conferences","start":"2024-06-04T08:00:00Z","geo":{"geometry":{"coordinates":[15.273836,-4.312766],"type":"Point"},"placekey":"@g64-sm3-psq","address":{"country_code":"CD","formatted_address":"4 Av. des Batetela, Kinshasa, Democratic Republic of the Congo","locality":"Kinshasa","region":"Kinshasa"}},"labels":["conference"],"duration":118800,"start_local":"2024-06-04T09:00:00","end":"2024-06-05T17:00:00Z","end_local":"2024-06-05T18:00:00","updated":"2024-05-31T22:56:06Z"},{"title":"Congo River Marathon","description":"Sourced from predicthq.com","category":"sports","start":"2024-06-01T23:00:00Z","geo":{"geometry":{"coordinates":[15.2662931,-4.4419311],"type":"Point"},"placekey":"@g64-xcg-w8v","address":{"country_code":"CD","formatted_address":"Kinshasa, Congo, The Democratic Republic of the","locality":"Kinshasa","region":"Kinshasa"}},"labels":["marathon","outdoor-sports","running","sport"],"duration":86399,"start_local":"2024-06-02T00:00:00","end":"2024-06-02T22:59:59Z","end_local":"2024-06-02T23:59:59","updated":"2024-06-04T02:20:08Z"},{"title":"Ouverture Salon Pour Elles","description":"Sourced from predicthq.com - Le salon pour Elles est un salon de coiffure pour femme situé sur collège n°78, arrêt abattoir, Masina.","category":"expos","start":"2024-06-01T09:00:00Z","geo":{"geometry":{"coordinates":[15.3704672,-4.378583],"type":"Point"},"placekey":"@g64-x6s-ffz","address":{"country_code":"CD","formatted_address":"Avenue Abattoir n° 1, Kinshasa, Congo, The Democratic Republic of the","locality":"Kinshasa","region":"Kinshasa"}},"labels":["expo","fashion"],"duration":28800,"start_local":"2024-06-01T10:00:00","end":"2024-06-01T17:00:00Z","end_local":"2024-06-01T18:00:00","updated":"2024-05-30T01:01:17Z"},{"title":"FORMATION SUR LE VISA SCHENGEN","description":"Sourced from predicthq.com - Devenez pro avec Visa Schenge","category":"conferences","start":"2024-05-31T09:00:00Z","geo":{"geometry":{"coordinates":[15.2737278,-4.3271824],"type":"Point"},"placekey":"@g64-xbg-ht9","address":{"country_code":"CD","formatted_address":"Kinshasa, Congo, The Democratic Republic of the","locality":"Kinshasa","region":"Kinshasa"}},"labels":["conference","outdoor"],"duration":7200,"start_local":"2024-05-31T10:00:00","end":"2024-05-31T11:00:00Z","end_local":"2024-05-31T12:00:00","updated":"2024-06-05T14:36:37Z"},{"title":"Int","description":"Sourced from predicthq.com - Get ready for Int, where we'll explore diverse cultures, share stories, and connect with people from all around the world!","category":"conferences","start":"2024-05-30T16:30:00Z","geo":{"geometry":{"coordinates":[15.2704611,-4.312184],"type":"Point"},"placekey":"@g64-sm4-k2k","address":{"country_code":"CD","formatted_address":"Kinshasa, Congo, The Democratic Republic of the","locality":"Kinshasa","region":"Kinshasa"}},"labels":["business","conference"],"duration":7200,"start_local":"2024-05-30T17:30:00","end":"2024-05-30T18:30:00Z","end_local":"2024-05-30T19:30:00","updated":"2024-05-30T01:01:10Z"},{"title":"Odoo Roadshow Lubumbashi","description":"Sourced from predicthq.com - Discover Odoo with our experts and partners in Lubumbashi!","category":"conferences","start":"2024-05-28T16:00:00Z","geo":{"geometry":{"coordinates":[27.4554443,-11.652511],"type":"Point"},"placekey":"@hv7-y6c-ygk","address":{"country_code":"CD","formatted_address":"Route Du Golf, Lubumbashi, Congo, The Democratic Republic of the","locality":"Lubumbashi","region":"Haut-Katanga"}},"labels":["business","conference"],"duration":10800,"start_local":"2024-05-28T18:00:00","end":"2024-05-28T19:00:00Z","end_local":"2024-05-28T21:00:00","updated":"2024-06-05T06:48:24Z"},{"title":"Orphelinat La Réponse De DIEU. RDC","description":"Sourced from predicthq.com - Nous sommes orphelinat la réponse de DIEU, basé en République démocratique du Congo","category":"conferences","start":"2024-05-25T12:00:23Z","geo":{"geometry":{"coordinates":[15.31398,-4.3748137],"type":"Point"},"placekey":"@g64-xbk-2p9","address":{"country_code":"CD","formatted_address":"Kinshasa, Congo, The Democratic Republic of the","locality":"Kinshasa","region":"Kinshasa"}},"labels":["conference","fundraiser"],"duration":432000,"start_local":"2024-05-25T13:00:23","end":"2024-05-30T12:00:23Z","end_local":"2024-05-30T13:00:23","updated":"2024-06-05T12:16:39Z"},{"title":"Session d'information Kadea Boost 22 et 23 mai","description":"Sourced from predicthq.com - Viens te renseigner sur les formations courtes de Kadea Academy lors de  notre session d'information à Kinshasa le Mercredi 22 et 23 mai","category":"conferences","start":"2024-05-23T09:00:00Z","geo":{"geometry":{"coordinates":[15.2692846,-4.3247705],"type":"Point"},"placekey":"@g64-xc3-789","address":{"country_code":"CD","formatted_address":"Avenue Colonel Mondjiba, Kinshasa, Congo, The Democratic Republic of the","locality":"Kinshasa","region":"Kinshasa"}},"labels":["conference"],"duration":7200,"start_local":"2024-05-23T10:00:00","end":"2024-05-23T11:00:00Z","end_local":"2024-05-23T12:00:00","updated":"2024-05-23T01:08:30Z"},{"title":"Session d'information Kadea Boost 22 et 23 mai","description":"Sourced from predicthq.com - Viens te renseigner sur les formations courtes de Kadea Academy lors de  notre session d'information à Kinshasa le Mercredi 22 et 23 mai","category":"conferences","start":"2024-05-22T09:00:00Z","geo":{"geometry":{"coordinates":[15.2692846,-4.3247705],"type":"Point"},"placekey":"@g64-xc3-789","address":{"country_code":"CD","formatted_address":"Avenue Colonel Mondjiba, Kinshasa, Congo, The Democratic Republic of the","locality":"Kinshasa","region":"Kinshasa"}},"labels":["conference"],"duration":7200,"start_local":"2024-05-22T10:00:00","end":"2024-05-22T11:00:00Z","end_local":"2024-05-22T12:00:00","updated":"2024-06-04T23:21:37Z"},{"title":"Concert","description":"Sourced from predicthq.com - Concert du pasteur moïse mbiye prévu au mois de Mai 19/2024  A kinshasa rdc  au stade de martyrs","category":"performing-arts","start":"2024-05-19T18:00:00Z","geo":{"geometry":{"coordinates":[15.3103686,-4.330290199999999],"type":"Point"},"placekey":"@g64-xbd-xyv","address":{"country_code":"CD","formatted_address":"Avenue De La Démocratie, Kinshasa, Congo, The Democratic Republic of the","locality":"Kinshasa","region":"Kinshasa"}},"labels":["concert","music","performing-arts"],"duration":10800,"start_local":"2024-05-19T19:00:00","end":"2024-05-19T21:00:00Z","end_local":"2024-05-19T22:00:00","updated":"2024-06-02T18:05:50Z"},{"title":"Concert au stade de martyrs Kinshasa RDC pasteur moïse mbiye","description":"Sourced from predicthq.com - Kinshasa concert du siècle venez nombreuses vivre la gloire de Dieu","category":"performing-arts","start":"2024-05-19T14:00:00Z","geo":{"geometry":{"coordinates":[15.3103686,-4.330290199999999],"type":"Point"},"placekey":"@g64-xbd-xyv","address":{"country_code":"CD","formatted_address":"Avenue De La Démocratie, Kinshasa, Congo, The Democratic Republic of the","locality":"Kinshasa","region":"Kinshasa"}},"labels":["concert","music","performing-arts"],"duration":27000,"start_local":"2024-05-19T15:00:00","end":"2024-05-19T21:30:00Z","end_local":"2024-05-19T22:30:00","updated":"2024-06-02T14:04:37Z"},{"title":"Session d'information Kadea Boost 15 et 16 mai","description":"Sourced from predicthq.com - Viens te renseigner sur les formations courtes de Kadea Academy lors de  notre session d'information à Kinshasa le Mercredi 15 et 16 mai","category":"conferences","start":"2024-05-16T09:00:00Z","geo":{"geometry":{"coordinates":[15.2692846,-4.3247705],"type":"Point"},"placekey":"@g64-xc3-789","address":{"country_code":"CD","formatted_address":"Avenue Colonel Mondjiba, Kinshasa, Congo, The Democratic Republic of the","locality":"Kinshasa","region":"Kinshasa"}},"labels":["conference"],"duration":7200,"start_local":"2024-05-16T10:00:00","end":"2024-05-16T11:00:00Z","end_local":"2024-05-16T12:00:00","updated":"2024-06-05T05:14:15Z"},{"title":"Session d'information Kadea Boost 15 et 16 mai","description":"Sourced from predicthq.com - Viens te renseigner sur les formations courtes de Kadea Academy lors de  notre session d'information à Kinshasa le Mercredi 15 et 16 mai","category":"conferences","start":"2024-05-15T09:00:00Z","geo":{"geometry":{"coordinates":[15.2692846,-4.3247705],"type":"Point"},"placekey":"@g64-xc3-789","address":{"country_code":"CD","formatted_address":"Avenue Colonel Mondjiba, Kinshasa, Congo, The Democratic Republic of the","locality":"Kinshasa","region":"Kinshasa"}},"labels":["conference"],"duration":7200,"start_local":"2024-05-15T10:00:00","end":"2024-05-15T11:00:00Z","end_local":"2024-05-15T12:00:00","updated":"2024-06-05T02:58:54Z"},{"title":"Congo River Mini Marathon","description":"Sourced from predicthq.com","category":"sports","start":"2024-05-05T06:30:00Z","geo":{"geometry":{"coordinates":[15.2754072,-4.3084762],"type":"Point"},"placekey":"@g64-sm3-k9f","address":{"country_code":"CD","formatted_address":"Boulevard Colonel Tshatshi, Kinshasa, Congo, The Democratic Republic of the","locality":"Kinshasa","region":"Kinshasa"}},"labels":["marathon","outdoor-sports","running","sport"],"duration":0,"start_local":"2024-05-05T07:30:00","end":"2024-05-05T06:30:00Z","end_local":"2024-05-05T07:30:00","updated":"2024-06-05T13:14:50Z"},{"title":"TURBULENCES KINOISES","description":"Sourced from predicthq.com - Spectacle d'humour sensationnel réunissant 3 artistes belges et 3 artistes congolais pour deux soirées exclusives à mourir de rire!","category":"performing-arts","start":"2024-04-26T17:30:00Z","geo":{"geometry":{"coordinates":[15.3108221,-4.301292699999999],"type":"Point"},"placekey":"@g64-sm5-xdv","address":{"country_code":"CD","formatted_address":"Avenue de l'Equateur, Kinshasa, Congo, The Democratic Republic of the","locality":"Kinshasa","region":"Kinshasa"}},"labels":["concert","music","performing-arts"],"duration":10800,"start_local":"2024-04-26T18:30:00","end":"2024-04-26T20:30:00Z","end_local":"2024-04-26T21:30:00","updated":"2024-06-05T21:04:37Z"},{"title":"Session d'information Lubumbashi jeudi 25 avril 2024","description":"Sourced from predicthq.com - Viens nous rejoindre à Lubumbashi le jeudi 25 avril 2024 pour une session d'information à ne pas manquer !","category":"conferences","start":"2024-04-25T13:00:00Z","geo":{"geometry":{"coordinates":[27.4521028,-11.6401605],"type":"Point"},"placekey":"@hv7-y6c-9j9","address":{"country_code":"CD","formatted_address":"Av. Fatuma, Lubumbashi, Congo, The Democratic Republic of the","locality":"Lubumbashi","region":"Haut-Katanga"}},"labels":["conference"],"duration":5400,"start_local":"2024-04-25T15:00:00","end":"2024-04-25T14:30:00Z","end_local":"2024-04-25T16:30:00","updated":"2024-06-12T07:27:12Z"},{"title":"Session d'information Kinshasa mercredi  24 avril 2024","description":"Sourced from predicthq.com - Viens te renseigner sur Kadea Academy lors de  notre session d'information à Kinshasa le  mercredi  24 avril 2024","category":"conferences","start":"2024-04-24T13:00:00Z","geo":{"geometry":{"coordinates":[15.2692846,-4.3247705],"type":"Point"},"placekey":"@g64-xc3-789","address":{"country_code":"CD","formatted_address":"Avenue Colonel Mondjiba, Kinshasa, Congo, The Democratic Republic of the","locality":"Kinshasa","region":"Kinshasa"}},"labels":["conference"],"duration":5400,"start_local":"2024-04-24T14:00:00","end":"2024-04-24T14:30:00Z","end_local":"2024-04-24T15:30:00","updated":"2024-06-04T22:15:20Z"},{"title":"Session d'information Goma mercredi  24 avril 2024","description":"Sourced from predicthq.com - Viens te renseigner sur Kadea Academy lors de  notre session d'information à Goma ce mercredi 24  avril 2024","category":"conferences","start":"2024-04-24T12:00:00Z","geo":{"geometry":{"coordinates":[29.2372894,-1.6901791],"type":"Point"},"placekey":"@cx8-nzj-fmk","address":{"country_code":"CD","formatted_address":"Boulevard Kanya Mulanga, Goma, Congo, The Democratic Republic of the","locality":"Goma","region":"North-Kivu"}},"labels":["conference"],"duration":5400,"start_local":"2024-04-24T14:00:00","end":"2024-04-24T13:30:00Z","end_local":"2024-04-24T15:30:00","updated":"2024-06-05T00:25:28Z"},{"title":"Session d'information Lubumbashi mardi 23 avril 2024","description":"Sourced from predicthq.com - Viens nous rejoindre à Lubumbashi le mardi 23 avril 2024 pour une session d'information à ne pas manquer !","category":"conferences","start":"2024-04-23T13:00:00Z","geo":{"geometry":{"coordinates":[27.4521028,-11.6401605],"type":"Point"},"placekey":"@hv7-y6c-9j9","address":{"country_code":"CD","formatted_address":"Av. Fatuma, Lubumbashi, Congo, The Democratic Republic of the","locality":"Lubumbashi","region":"Haut-Katanga"}},"labels":["conference"],"duration":5400,"start_local":"2024-04-23T15:00:00","end":"2024-04-23T14:30:00Z","end_local":"2024-04-23T16:30:00","updated":"2024-06-12T00:24:44Z"},{"title":"Session d'information Goma mardi 23 avril 2024","description":"Sourced from predicthq.com - Viens te renseigner sur Kadea Academy lors de  notre session d'information à Goma ce mardi 23 avril 2024","category":"conferences","start":"2024-04-23T12:00:00Z","geo":{"geometry":{"coordinates":[29.2372894,-1.6901791],"type":"Point"},"placekey":"@cx8-nzj-fmk","address":{"country_code":"CD","formatted_address":"Boulevard Kanya Mulanga, Goma, Congo, The Democratic Republic of the","locality":"Goma","region":"North-Kivu"}},"labels":["conference"],"duration":5400,"start_local":"2024-04-23T14:00:00","end":"2024-04-23T13:30:00Z","end_local":"2024-04-23T15:30:00","updated":"2024-06-05T09:34:36Z"},{"title":"CAF Champions League - Semi-finals - TP Mazembe vs Al Ahly","description":"Sourced from predicthq.com","category":"sports","start":"2024-04-20T13:00:00Z","geo":{"geometry":{"coordinates":[27.4890388,-11.6783397],"type":"Point"},"placekey":"@hv7-wt4-b8v","address":{"country_code":"CD","formatted_address":"Lubumbashi, Katanga, Congo, The Democratic Republic of the","locality":"Lubumbashi","region":"Katanga"}},"labels":["soccer","sport"],"duration":6840,"start_local":"2024-04-20T15:00:00","end":"2024-04-20T14:54:00Z","end_local":"2024-04-20T16:54:00","updated":"2024-05-28T11:08:49Z"},{"title":"DIASPOBOOST","description":"Sourced from predicthq.com - Event de 4 jours pour Booster la Diaspora Congolaise à Devenir des Leviers de Développement Économique en RD Congo.","category":"conferences","start":"2024-04-18T11:00:00Z","geo":{"geometry":{"coordinates":[15.2993462,-4.335254299999999],"type":"Point"},"placekey":"@g64-xbf-qzz","address":{"country_code":"CD","formatted_address":"Kinshasa, Congo, The Democratic Republic of the","locality":"Kinshasa","region":"Kinshasa"}},"labels":["community","conference"],"duration":280800,"start_local":"2024-04-18T12:00:00","end":"2024-04-21T17:00:00Z","end_local":"2024-04-21T18:00:00","updated":"2024-06-04T22:03:43Z"},{"title":"Session d'information Goma mercredi  17 avril 2024","description":"Sourced from predicthq.com - Viens te renseigner sur Kadea Academy lors de  notre session d'information à Goma ce mercredi 17  avril 2024","category":"conferences","start":"2024-04-17T12:00:00Z","geo":{"geometry":{"coordinates":[29.2372894,-1.6901791],"type":"Point"},"placekey":"@cx8-nzj-fmk","address":{"country_code":"CD","formatted_address":"Boulevard Kanya Mulanga, Goma, Congo, The Democratic Republic of the","locality":"Goma","region":"North-Kivu"}},"labels":["conference"],"duration":5400,"start_local":"2024-04-17T14:00:00","end":"2024-04-17T13:30:00Z","end_local":"2024-04-17T15:30:00","updated":"2024-06-05T01:59:41Z"},{"title":"SEMAINE DU CERVEAU À L'UNIVERSITÉ DE KINSHASA","description":"Sourced from predicthq.com - Depuis près de deux ans, on attend ce jour d'une unicité sans pareille. La semaine mondiale du cerveau sera célébrée à l'UNKIN. Soyez là !","category":"conferences","start":"2024-04-16T14:00:00Z","geo":{"geometry":{"coordinates":[15.3093735,-4.419397],"type":"Point"},"placekey":"@g64-xd8-5vf","address":{"country_code":"CD","formatted_address":"Kinshasa, Congo, The Democratic Republic of the","locality":"Kinshasa","region":"Kinshasa"}},"labels":["conference","science","technology"],"duration":9000,"start_local":"2024-04-16T15:00:00","end":"2024-04-16T16:30:00Z","end_local":"2024-04-16T17:30:00","updated":"2024-06-12T10:07:41Z"},{"title":"Session d'information Lubumbashi mardi 16 avril 2024","description":"Sourced from predicthq.com - Viens nous rejoindre à Lubumbashi le mardi 16 avril 2024 pour une session d'information à ne pas manquer !","category":"conferences","start":"2024-04-16T13:00:00Z","geo":{"geometry":{"coordinates":[27.4521028,-11.6401605],"type":"Point"},"placekey":"@hv7-y6c-9j9","address":{"country_code":"CD","formatted_address":"Av. Fatuma, Lubumbashi, Congo, The Democratic Republic of the","locality":"Lubumbashi","region":"Haut-Katanga"}},"labels":["conference"],"duration":5400,"start_local":"2024-04-16T15:00:00","end":"2024-04-16T14:30:00Z","end_local":"2024-04-16T16:30:00","updated":"2024-06-12T03:11:31Z"},{"title":"Session d'information Goma mardi 16 avril 2024","description":"Sourced from predicthq.com - Viens te renseigner sur Kadea Academy lors de  notre session d'information à Goma ce mardi 16 avril 2024","category":"conferences","start":"2024-04-16T12:00:00Z","geo":{"geometry":{"coordinates":[29.2372894,-1.6901791],"type":"Point"},"placekey":"@cx8-nzj-fmk","address":{"country_code":"CD","formatted_address":"Boulevard Kanya Mulanga, Goma, Congo, The Democratic Republic of the","locality":"Goma","region":"North-Kivu"}},"labels":["conference"],"duration":5400,"start_local":"2024-04-16T14:00:00","end":"2024-04-16T13:30:00Z","end_local":"2024-04-16T15:30:00","updated":"2024-06-04T21:58:53Z"},{"title":"Journée portes ouvertes Kinshasa 13 Avril","description":"Sourced from predicthq.com - Viens visiter et te renseigner sur Kadea Academy lors de  notre journée portes ouverte à Kinshasa le 13 avril 2024","category":"conferences","start":"2024-04-13T13:00:00Z","geo":{"geometry":{"coordinates":[15.2743623,-4.3213199],"type":"Point"},"placekey":"@g64-sm4-fpv","address":{"country_code":"CD","formatted_address":"Avenue Colonel Mondjiba, Kinshasa, Congo, The Democratic Republic of the","locality":"Kinshasa","region":"Kinshasa"}},"labels":["conference"],"duration":10800,"start_local":"2024-04-13T14:00:00","end":"2024-04-13T16:00:00Z","end_local":"2024-04-13T17:00:00","updated":"2024-06-05T10:50:23Z"},{"title":"Journée portes ouvertes  Goma samedi 13 avril 2024","description":"Sourced from predicthq.com - Viens te renseigner et visiter Kadea Academy lors de  notre journée portes ouvertes à Goma ce samedi 13 avril  2024","category":"conferences","start":"2024-04-13T12:00:00Z","geo":{"geometry":{"coordinates":[29.2372894,-1.6901791],"type":"Point"},"placekey":"@cx8-nzj-fmk","address":{"country_code":"CD","formatted_address":"Boulevard Kanya Mulanga, Goma, Congo, The Democratic Republic of the","locality":"Goma","region":"North-Kivu"}},"labels":["conference"],"duration":10800,"start_local":"2024-04-13T14:00:00","end":"2024-04-13T15:00:00Z","end_local":"2024-04-13T17:00:00","updated":"2024-06-05T21:28:01Z"},{"title":"Journée portes ouvertes  Lubumbashi samedi 13 Avril 2024","description":"Sourced from predicthq.com - Viens te renseigner sur Kadea Academy lors de  notre journée portes ouvertes à Lubumbashi ce samedi 13 Avril   2024","category":"conferences","start":"2024-04-13T00:00:00Z","geo":{"geometry":{"coordinates":[27.4521028,-11.6401605],"type":"Point"},"placekey":"@hv7-y6c-9j9","address":{"country_code":"CD","formatted_address":"Av. Fatuma, Lubumbashi, Congo, The Democratic Republic of the","locality":"Lubumbashi","region":"Haut-Katanga"}},"labels":["conference"],"duration":54000,"start_local":"2024-04-13T02:00:00","end":"2024-04-13T15:00:00Z","end_local":"2024-04-13T17:00:00","updated":"2024-06-11T21:34:49Z"},{"title":"Session d'information Lubumbashi jeudi 11 avril 2024","description":"Sourced from predicthq.com - Viens nous rejoindre à Lubumbashi le mardi 11 avril 2024 pour une session d'information à ne pas manquer !","category":"conferences","start":"2024-04-11T13:00:00Z","geo":{"geometry":{"coordinates":[27.4521028,-11.6401605],"type":"Point"},"placekey":"@hv7-y6c-9j9","address":{"country_code":"CD","formatted_address":"Av. Fatuma, Lubumbashi, Congo, The Democratic Republic of the","locality":"Lubumbashi","region":"Haut-Katanga"}},"labels":["conference"],"duration":5400,"start_local":"2024-04-11T15:00:00","end":"2024-04-11T14:30:00Z","end_local":"2024-04-11T16:30:00","updated":"2024-06-12T07:03:42Z"},{"title":"Session d'information Goma mercredi  10 avril 2024","description":"Sourced from predicthq.com - Viens te renseigner sur Kadea Academy lors de  notre session d'information à Goma ce mercredi 10  avril 2024","category":"conferences","start":"2024-04-10T12:00:00Z","geo":{"geometry":{"coordinates":[29.2372894,-1.6901791],"type":"Point"},"placekey":"@cx8-nzj-fmk","address":{"country_code":"CD","formatted_address":"Boulevard Kanya Mulanga, Goma, Congo, The Democratic Republic of the","locality":"Goma","region":"North-Kivu"}},"labels":["conference"],"duration":5400,"start_local":"2024-04-10T14:00:00","end":"2024-04-10T13:30:00Z","end_local":"2024-04-10T15:30:00","updated":"2024-06-05T07:48:46Z"},{"title":"Odoo Roadshow - Kinshasa","description":"Sourced from predicthq.com - Découvrez la nouvelle version de Odoo avec nos experts & partenaires à Kinshasa","category":"conferences","start":"2024-04-09T17:00:00Z","geo":{"geometry":{"coordinates":[15.27344,-4.312448],"type":"Point"},"placekey":"@g64-sm3-pvz","address":{"country_code":"CD","formatted_address":"Kinshasa, Congo, The Democratic Republic of the","locality":"Kinshasa","region":"Kinshasa"}},"labels":["business","conference"],"duration":10800,"start_local":"2024-04-09T18:00:00","end":"2024-04-09T20:00:00Z","end_local":"2024-04-09T21:00:00","updated":"2024-06-05T08:47:34Z"},{"title":"Session d'information Lubumbashi mardi 09 avril 2024","description":"Sourced from predicthq.com - Viens nous rejoindre à Lubumbashi le mardi 09 avril 2024 pour une session d'information à ne pas manquer !","category":"conferences","start":"2024-04-09T13:00:00Z","geo":{"geometry":{"coordinates":[27.4521028,-11.6401605],"type":"Point"},"placekey":"@hv7-y6c-9j9","address":{"country_code":"CD","formatted_address":"Av. Fatuma, Lubumbashi, Congo, The Democratic Republic of the","locality":"Lubumbashi","region":"Haut-Katanga"}},"labels":["conference"],"duration":5400,"start_local":"2024-04-09T15:00:00","end":"2024-04-09T14:30:00Z","end_local":"2024-04-09T16:30:00","updated":"2024-06-12T15:06:54Z"},{"title":"Session d'information Goma mardi 09 avril 2024","description":"Sourced from predicthq.com - Viens te renseigner sur Kadea Academy lors de  notre session d'information à Goma ce mardi 09 avril 2024","category":"conferences","start":"2024-04-09T12:00:00Z","geo":{"geometry":{"coordinates":[29.2372894,-1.6901791],"type":"Point"},"placekey":"@cx8-nzj-fmk","address":{"country_code":"CD","formatted_address":"Boulevard Kanya Mulanga, Goma, Congo, The Democratic Republic of the","locality":"Goma","region":"North-Kivu"}},"labels":["conference"],"duration":5400,"start_local":"2024-04-09T14:00:00","end":"2024-04-09T13:30:00Z","end_local":"2024-04-09T15:30:00","updated":"2024-06-04T22:10:16Z"},{"title":"Journée portes ouvertes Kinshasa 06 Avril","description":"Sourced from predicthq.com - Viens visiter et te renseigner sur Kadea Academy lors de  notre journée porte ouverte à Kinshasa le 06 avril 2024","category":"conferences","start":"2024-04-06T08:00:00Z","geo":{"geometry":{"coordinates":[15.2743623,-4.3213199],"type":"Point"},"placekey":"@g64-sm4-fpv","address":{"country_code":"CD","formatted_address":"Avenue Colonel Mondjiba, Kinshasa, Congo, The Democratic Republic of the","locality":"Kinshasa","region":"Kinshasa"}},"labels":["conference"],"duration":21600,"start_local":"2024-04-06T09:00:00","end":"2024-04-06T14:00:00Z","end_local":"2024-04-06T15:00:00","updated":"2024-06-05T11:50:35Z"},{"title":"Journée portes ouvertes  Goma  samedi 06 Avril 2024","description":"Sourced from predicthq.com - Viens te renseigner et visiter Kadea Academy lors de  notre journée portes ouvertes à Goma ce samedi 06 Avril  2024","category":"conferences","start":"2024-04-06T07:00:00Z","geo":{"geometry":{"coordinates":[29.2372894,-1.6901791],"type":"Point"},"placekey":"@cx8-nzj-fmk","address":{"country_code":"CD","formatted_address":"Boulevard Kanya Mulanga, Goma, Congo, The Democratic Republic of the","locality":"Goma","region":"North-Kivu"}},"labels":["conference"],"duration":21600,"start_local":"2024-04-06T09:00:00","end":"2024-04-06T13:00:00Z","end_local":"2024-04-06T15:00:00","updated":"2024-06-05T02:59:16Z"}]