[{"title":"Ligue 1 - Inter Club vs Otôho d'Oyo","description":"Sourced from predicthq.com","category":"sports","start":"2024-06-23T14:00:00Z","geo":{"geometry":{"coordinates":[15.2491027,-4.2734758],"type":"Point"},"placekey":"@g64-sqz-hkf","address":{"country_code":"CG","formatted_address":"Av. du 5 Février, Brazzaville, Republic of the Congo","locality":"Brazzaville","region":"Brazzaville"}},"labels":["soccer","sport"],"duration":0,"start_local":"2024-06-23T15:00:00","end":"2024-06-23T14:00:00Z","end_local":"2024-06-23T15:00:00","updated":"2024-06-18T13:58:11Z"},{"title":"Ligue 1 - Chéminots vs Léopards de Dolisié","description":"Sourced from predicthq.com","category":"sports","start":"2024-06-02T14:00:00Z","geo":{"geometry":{"coordinates":[11.865914513244643,-4.777429780006005],"type":"Point"},"placekey":"@g2p-46r-k75","address":{"country_code":"CG","formatted_address":"Av. Raymond Paillet, Pointe-Noire, Republic of the Congo","locality":"Pointe-Noire","region":"Pointe-Noire"}},"labels":["soccer","sport"],"duration":0,"start_local":"2024-06-02T15:00:00","end":"2024-06-02T14:00:00Z","end_local":"2024-06-02T15:00:00","updated":"2024-06-12T15:40:45Z"},{"title":"Ligue 1 - Étoile du Congo vs Vegas","description":"Sourced from predicthq.com","category":"sports","start":"2024-06-02T12:00:00Z","geo":{"geometry":{"coordinates":[14.76417124223735,-4.349957689472036],"type":"Point"},"placekey":"@g63-97r-gzf","address":{"country_code":"CG","formatted_address":"MQ27+2J7, Kinkala, Republic of the Congo","locality":"Kinkala","region":"Pool"}},"labels":["soccer","sport"],"duration":0,"start_local":"2024-06-02T13:00:00","end":"2024-06-02T12:00:00Z","end_local":"2024-06-02T13:00:00","updated":"2024-06-12T18:18:27Z"},{"title":"Ligue 1 - Jeunesse Unie de Kintélé vs V.Club Mokanda","description":"Sourced from predicthq.com","category":"sports","start":"2024-06-01T14:00:00Z","geo":{"geometry":{"coordinates":[14.76417124223735,-4.349957689472036],"type":"Point"},"placekey":"@g63-97r-gzf","address":{"country_code":"CG","formatted_address":"MQ27+2J7, Kinkala, Republic of the Congo","locality":"Kinkala","region":"Pool"}},"labels":["soccer","sport"],"duration":0,"start_local":"2024-06-01T15:00:00","end":"2024-06-01T14:00:00Z","end_local":"2024-06-01T15:00:00","updated":"2024-06-12T20:20:52Z"},{"title":"Ligue 1 - CARA Brazzaville vs Nathaly's","description":"Sourced from predicthq.com","category":"sports","start":"2024-06-01T12:00:00Z","geo":{"geometry":{"coordinates":[14.76417124223735,-4.349957689472036],"type":"Point"},"placekey":"@g63-97r-gzf","address":{"country_code":"CG","formatted_address":"MQ27+2J7, Kinkala, Republic of the Congo","locality":"Kinkala","region":"Pool"}},"labels":["soccer","sport"],"duration":0,"start_local":"2024-06-01T13:00:00","end":"2024-06-01T12:00:00Z","end_local":"2024-06-01T13:00:00","updated":"2024-06-11T21:16:34Z"},{"title":"Ligue 1 - Diables Noirs vs Nouvelle Génération","description":"Sourced from predicthq.com","category":"sports","start":"2024-05-31T14:00:00Z","geo":{"geometry":{"coordinates":[14.76417124223735,-4.349957689472036],"type":"Point"},"placekey":"@g63-97r-gzf","address":{"country_code":"CG","formatted_address":"MQ27+2J7, Kinkala, Republic of the Congo","locality":"Kinkala","region":"Pool"}},"labels":["soccer","sport"],"duration":0,"start_local":"2024-05-31T15:00:00","end":"2024-05-31T14:00:00Z","end_local":"2024-05-31T15:00:00","updated":"2024-06-16T01:30:29Z"},{"title":"Ligue 1 - JS Talangaï vs Kondzo","description":"Sourced from predicthq.com","category":"sports","start":"2024-05-31T12:00:00Z","geo":{"geometry":{"coordinates":[14.76417124223735,-4.349957689472036],"type":"Point"},"placekey":"@g63-97r-gzf","address":{"country_code":"CG","formatted_address":"MQ27+2J7, Kinkala, Republic of the Congo","locality":"Kinkala","region":"Pool"}},"labels":["soccer","sport"],"duration":0,"start_local":"2024-05-31T13:00:00","end":"2024-05-31T12:00:00Z","end_local":"2024-05-31T13:00:00","updated":"2024-06-16T01:30:28Z"},{"title":"Ligue 1 - Otôho d'Oyo vs JS Talangaï","description":"Sourced from predicthq.com","category":"sports","start":"2024-05-26T14:30:00Z","geo":{"geometry":{"coordinates":[14.76417124223735,-4.349957689472036],"type":"Point"},"placekey":"@g63-97r-gzf","address":{"country_code":"CG","formatted_address":"MQ27+2J7, Kinkala, Republic of the Congo","locality":"Kinkala","region":"Pool"}},"labels":["soccer","sport"],"duration":0,"start_local":"2024-05-26T15:30:00","end":"2024-05-26T14:30:00Z","end_local":"2024-05-26T15:30:00","updated":"2024-06-12T01:50:48Z"},{"title":"Ligue 1 - Léopards de Dolisié vs V.Club Mokanda","description":"Sourced from predicthq.com","category":"sports","start":"2024-05-26T14:00:00Z","geo":{"geometry":{"coordinates":[12.685684561729431,-4.207426482768602],"type":"Point"},"placekey":"@g2c-p28-y7q","address":{"country_code":"CG","formatted_address":"Dolisie, Republic of the Congo","locality":"Dolisie","region":"Niari"}},"labels":["soccer","sport"],"duration":0,"start_local":"2024-05-26T15:00:00","end":"2024-05-26T14:00:00Z","end_local":"2024-05-26T15:00:00","updated":"2024-06-11T22:07:36Z"},{"title":"Ligue 1 - Nouvelle Génération vs CARA Brazzaville","description":"Sourced from predicthq.com","category":"sports","start":"2024-05-26T12:00:00Z","geo":{"geometry":{"coordinates":[14.76417124223735,-4.349957689472036],"type":"Point"},"placekey":"@g63-97r-gzf","address":{"country_code":"CG","formatted_address":"MQ27+2J7, Kinkala, Republic of the Congo","locality":"Kinkala","region":"Pool"}},"labels":["soccer","sport"],"duration":0,"start_local":"2024-05-26T13:00:00","end":"2024-05-26T12:00:00Z","end_local":"2024-05-26T13:00:00","updated":"2024-06-12T03:17:25Z"},{"title":"Ligue 1 - Nathaly's vs Vegas","description":"Sourced from predicthq.com","category":"sports","start":"2024-05-25T15:00:00Z","geo":{"geometry":{"coordinates":[11.865914513244643,-4.777429780006005],"type":"Point"},"placekey":"@g2p-46r-k75","address":{"country_code":"CG","formatted_address":"Av. Raymond Paillet, Pointe-Noire, Republic of the Congo","locality":"Pointe-Noire","region":"Pointe-Noire"}},"labels":["soccer","sport"],"duration":0,"start_local":"2024-05-25T16:00:00","end":"2024-05-25T15:00:00Z","end_local":"2024-05-25T16:00:00","updated":"2024-06-12T13:58:35Z"},{"title":"Ligue 1 - Kondzo vs Étoile du Congo","description":"Sourced from predicthq.com","category":"sports","start":"2024-05-25T14:30:00Z","geo":{"geometry":{"coordinates":[14.76417124223735,-4.349957689472036],"type":"Point"},"placekey":"@g63-97r-gzf","address":{"country_code":"CG","formatted_address":"MQ27+2J7, Kinkala, Republic of the Congo","locality":"Kinkala","region":"Pool"}},"labels":["soccer","sport"],"duration":0,"start_local":"2024-05-25T15:30:00","end":"2024-05-25T14:30:00Z","end_local":"2024-05-25T15:30:00","updated":"2024-06-12T01:30:07Z"},{"title":"Ligue 1 - Chéminots vs Jeunesse Unie de Kintélé","description":"Sourced from predicthq.com","category":"sports","start":"2024-05-25T13:00:00Z","geo":{"geometry":{"coordinates":[11.865914513244643,-4.777429780006005],"type":"Point"},"placekey":"@g2p-46r-k75","address":{"country_code":"CG","formatted_address":"Av. Raymond Paillet, Pointe-Noire, Republic of the Congo","locality":"Pointe-Noire","region":"Pointe-Noire"}},"labels":["soccer","sport"],"duration":0,"start_local":"2024-05-25T14:00:00","end":"2024-05-25T13:00:00Z","end_local":"2024-05-25T14:00:00","updated":"2024-06-12T01:29:30Z"},{"title":"Ligue 1 - Inter Club vs Diables Noirs","description":"Sourced from predicthq.com","category":"sports","start":"2024-05-25T12:00:00Z","geo":{"geometry":{"coordinates":[14.76417124223735,-4.349957689472036],"type":"Point"},"placekey":"@g63-97r-gzf","address":{"country_code":"CG","formatted_address":"MQ27+2J7, Kinkala, Republic of the Congo","locality":"Kinkala","region":"Pool"}},"labels":["soccer","sport"],"duration":0,"start_local":"2024-05-25T13:00:00","end":"2024-05-25T12:00:00Z","end_local":"2024-05-25T13:00:00","updated":"2024-06-12T02:17:34Z"},{"title":"Ligue 1 - Kondzo vs Léopards de Dolisié","description":"Sourced from predicthq.com","category":"sports","start":"2024-05-19T14:30:00Z","geo":{"geometry":{"coordinates":[14.76417124223735,-4.349957689472036],"type":"Point"},"placekey":"@g63-97r-gzf","address":{"country_code":"CG","formatted_address":"MQ27+2J7, Kinkala, Republic of the Congo","locality":"Kinkala","region":"Pool"}},"labels":["soccer","sport"],"duration":0,"start_local":"2024-05-19T15:30:00","end":"2024-05-19T14:30:00Z","end_local":"2024-05-19T15:30:00","updated":"2024-06-12T00:45:48Z"},{"title":"Ligue 1 - Inter Club vs Chéminots","description":"Sourced from predicthq.com","category":"sports","start":"2024-05-19T12:00:00Z","geo":{"geometry":{"coordinates":[14.76417124223735,-4.349957689472036],"type":"Point"},"placekey":"@g63-97r-gzf","address":{"country_code":"CG","formatted_address":"MQ27+2J7, Kinkala, Republic of the Congo","locality":"Kinkala","region":"Pool"}},"labels":["soccer","sport"],"duration":0,"start_local":"2024-05-19T13:00:00","end":"2024-05-19T12:00:00Z","end_local":"2024-05-19T13:00:00","updated":"2024-06-12T16:11:36Z"},{"title":"Ligue 1 - Nathaly's vs V.Club Mokanda","description":"Sourced from predicthq.com","category":"sports","start":"2024-05-18T14:30:00Z","geo":{"geometry":{"coordinates":[11.865914513244643,-4.777429780006005],"type":"Point"},"placekey":"@g2p-46r-k75","address":{"country_code":"CG","formatted_address":"Av. Raymond Paillet, Pointe-Noire, Republic of the Congo","locality":"Pointe-Noire","region":"Pointe-Noire"}},"labels":["soccer","sport"],"duration":0,"start_local":"2024-05-18T15:30:00","end":"2024-05-18T14:30:00Z","end_local":"2024-05-18T15:30:00","updated":"2024-06-12T06:11:41Z"},{"title":"Ligue 1 - CARA Brazzaville vs Étoile du Congo","description":"Sourced from predicthq.com","category":"sports","start":"2024-05-18T14:30:00Z","geo":{"geometry":{"coordinates":[14.76417124223735,-4.349957689472036],"type":"Point"},"placekey":"@g63-97r-gzf","address":{"country_code":"CG","formatted_address":"MQ27+2J7, Kinkala, Republic of the Congo","locality":"Kinkala","region":"Pool"}},"labels":["soccer","sport"],"duration":0,"start_local":"2024-05-18T15:30:00","end":"2024-05-18T14:30:00Z","end_local":"2024-05-18T15:30:00","updated":"2024-06-12T00:32:50Z"},{"title":"Ligue 1 - Jeunesse Unie de Kintélé vs Otôho d'Oyo","description":"Sourced from predicthq.com","category":"sports","start":"2024-05-18T12:00:00Z","geo":{"geometry":{"coordinates":[14.76417124223735,-4.349957689472036],"type":"Point"},"placekey":"@g63-97r-gzf","address":{"country_code":"CG","formatted_address":"MQ27+2J7, Kinkala, Republic of the Congo","locality":"Kinkala","region":"Pool"}},"labels":["soccer","sport"],"duration":0,"start_local":"2024-05-18T13:00:00","end":"2024-05-18T12:00:00Z","end_local":"2024-05-18T13:00:00","updated":"2024-06-12T04:27:03Z"},{"title":"Ligue 1 - JS Talangaï vs Nouvelle Génération","description":"Sourced from predicthq.com","category":"sports","start":"2024-05-17T14:30:00Z","geo":{"geometry":{"coordinates":[14.76417124223735,-4.349957689472036],"type":"Point"},"placekey":"@g63-97r-gzf","address":{"country_code":"CG","formatted_address":"MQ27+2J7, Kinkala, Republic of the Congo","locality":"Kinkala","region":"Pool"}},"labels":["soccer","sport"],"duration":0,"start_local":"2024-05-17T15:30:00","end":"2024-05-17T14:30:00Z","end_local":"2024-05-17T15:30:00","updated":"2024-06-12T12:16:47Z"},{"title":"Ligue 1 - Diables Noirs vs Vegas","description":"Sourced from predicthq.com","category":"sports","start":"2024-05-17T12:00:00Z","geo":{"geometry":{"coordinates":[14.76417124223735,-4.349957689472036],"type":"Point"},"placekey":"@g63-97r-gzf","address":{"country_code":"CG","formatted_address":"MQ27+2J7, Kinkala, Republic of the Congo","locality":"Kinkala","region":"Pool"}},"labels":["soccer","sport"],"duration":0,"start_local":"2024-05-17T13:00:00","end":"2024-05-17T12:00:00Z","end_local":"2024-05-17T13:00:00","updated":"2024-06-12T03:09:10Z"},{"title":"les assises des entrepreneurs","description":"Sourced from predicthq.com - C'est un événement où les entrepreneurs se réunissent pour échanger des idées, partager des expériences et trouver de nouvelles opportunités","category":"conferences","start":"2024-05-15T14:00:00Z","geo":{"geometry":{"coordinates":[15.2812803,-4.2744405],"type":"Point"},"placekey":"@g64-skz-cwk","address":{"country_code":"CG","formatted_address":"Brazzaville, Congo","locality":"Brazzaville","region":"Brazzaville"}},"labels":["business","conference"],"duration":10800,"start_local":"2024-05-15T15:00:00","end":"2024-05-15T17:00:00Z","end_local":"2024-05-15T18:00:00","updated":"2024-06-05T00:39:09Z"},{"title":"Ligue 1 - JS Talangaï vs Léopards de Dolisié","description":"Sourced from predicthq.com","category":"sports","start":"2024-05-12T17:00:00Z","geo":{"geometry":{"coordinates":[15.2491027,-4.2734758],"type":"Point"},"placekey":"@g64-sqz-hkf","address":{"country_code":"CG","formatted_address":"Av. du 5 Février, Brazzaville, Republic of the Congo","locality":"Brazzaville","region":"Brazzaville"}},"labels":["soccer","sport"],"duration":0,"start_local":"2024-05-12T18:00:00","end":"2024-05-12T17:00:00Z","end_local":"2024-05-12T18:00:00","updated":"2024-06-12T13:55:32Z"},{"title":"Ligue 1 - Nouvelle Génération vs V.Club Mokanda","description":"Sourced from predicthq.com","category":"sports","start":"2024-05-12T14:00:00Z","geo":{"geometry":{"coordinates":[15.2491027,-4.2734758],"type":"Point"},"placekey":"@g64-sqz-hkf","address":{"country_code":"CG","formatted_address":"Av. du 5 Février, Brazzaville, Republic of the Congo","locality":"Brazzaville","region":"Brazzaville"}},"labels":["soccer","sport"],"duration":0,"start_local":"2024-05-12T15:00:00","end":"2024-05-12T14:00:00Z","end_local":"2024-05-12T15:00:00","updated":"2024-06-12T08:26:52Z"},{"title":"Ligue 1 - Diables Noirs vs CARA Brazzaville","description":"Sourced from predicthq.com","category":"sports","start":"2024-05-11T17:00:00Z","geo":{"geometry":{"coordinates":[15.2491027,-4.2734758],"type":"Point"},"placekey":"@g64-sqz-hkf","address":{"country_code":"CG","formatted_address":"Av. du 5 Février, Brazzaville, Republic of the Congo","locality":"Brazzaville","region":"Brazzaville"}},"labels":["soccer","sport"],"duration":0,"start_local":"2024-05-11T18:00:00","end":"2024-05-11T17:00:00Z","end_local":"2024-05-11T18:00:00","updated":"2024-06-11T21:46:36Z"},{"title":"Ligue 1 - Chéminots vs Nathaly's","description":"Sourced from predicthq.com","category":"sports","start":"2024-05-11T14:00:00Z","geo":{"geometry":{"coordinates":[11.865914513244643,-4.777429780006005],"type":"Point"},"placekey":"@g2p-46r-k75","address":{"country_code":"CG","formatted_address":"Av. Raymond Paillet, Pointe-Noire, Republic of the Congo","locality":"Pointe-Noire","region":"Pointe-Noire"}},"labels":["soccer","sport"],"duration":0,"start_local":"2024-05-11T15:00:00","end":"2024-05-11T14:00:00Z","end_local":"2024-05-11T15:00:00","updated":"2024-06-12T07:13:23Z"},{"title":"Ligue 1 - Otôho d'Oyo vs Kondzo","description":"Sourced from predicthq.com","category":"sports","start":"2024-05-11T14:00:00Z","geo":{"geometry":{"coordinates":[15.2491027,-4.2734758],"type":"Point"},"placekey":"@g64-sqz-hkf","address":{"country_code":"CG","formatted_address":"Av. du 5 Février, Brazzaville, Republic of the Congo","locality":"Brazzaville","region":"Brazzaville"}},"labels":["soccer","sport"],"duration":0,"start_local":"2024-05-11T15:00:00","end":"2024-05-11T14:00:00Z","end_local":"2024-05-11T15:00:00","updated":"2024-06-12T05:26:38Z"},{"title":"Ligue 1 - Jeunesse Unie de Kintélé vs Étoile du Congo","description":"Sourced from predicthq.com","category":"sports","start":"2024-05-10T17:00:00Z","geo":{"geometry":{"coordinates":[15.2491027,-4.2734758],"type":"Point"},"placekey":"@g64-sqz-hkf","address":{"country_code":"CG","formatted_address":"Av. du 5 Février, Brazzaville, Republic of the Congo","locality":"Brazzaville","region":"Brazzaville"}},"labels":["soccer","sport"],"duration":0,"start_local":"2024-05-10T18:00:00","end":"2024-05-10T17:00:00Z","end_local":"2024-05-10T18:00:00","updated":"2024-06-12T06:07:08Z"},{"title":"Ligue 1 - Vegas vs Inter Club","description":"Sourced from predicthq.com","category":"sports","start":"2024-05-10T14:00:00Z","geo":{"geometry":{"coordinates":[15.2491027,-4.2734758],"type":"Point"},"placekey":"@g64-sqz-hkf","address":{"country_code":"CG","formatted_address":"Av. du 5 Février, Brazzaville, Republic of the Congo","locality":"Brazzaville","region":"Brazzaville"}},"labels":["soccer","sport"],"duration":0,"start_local":"2024-05-10T15:00:00","end":"2024-05-10T14:00:00Z","end_local":"2024-05-10T15:00:00","updated":"2024-06-12T04:48:38Z"},{"title":"Ligue 1 - JS Talangaï vs Inter Club","description":"Sourced from predicthq.com","category":"sports","start":"2024-05-06T17:00:00Z","geo":{"geometry":{"coordinates":[15.2491027,-4.2734758],"type":"Point"},"placekey":"@g64-sqz-hkf","address":{"country_code":"CG","formatted_address":"Av. du 5 Février, Brazzaville, Republic of the Congo","locality":"Brazzaville","region":"Brazzaville"}},"labels":["soccer","sport"],"duration":0,"start_local":"2024-05-06T18:00:00","end":"2024-05-06T17:00:00Z","end_local":"2024-05-06T18:00:00","updated":"2024-06-12T08:41:19Z"},{"title":"Ligue 1 - Nouvelle Génération vs Jeunesse Unie de Kintélé","description":"Sourced from predicthq.com","category":"sports","start":"2024-05-06T14:00:00Z","geo":{"geometry":{"coordinates":[15.2491027,-4.2734758],"type":"Point"},"placekey":"@g64-sqz-hkf","address":{"country_code":"CG","formatted_address":"Av. du 5 Février, Brazzaville, Republic of the Congo","locality":"Brazzaville","region":"Brazzaville"}},"labels":["soccer","sport"],"duration":0,"start_local":"2024-05-06T15:00:00","end":"2024-05-06T14:00:00Z","end_local":"2024-05-06T15:00:00","updated":"2024-06-12T02:32:48Z"},{"title":"Ligue 1 - Étoile du Congo vs Otôho d'Oyo","description":"Sourced from predicthq.com","category":"sports","start":"2024-05-05T17:00:00Z","geo":{"geometry":{"coordinates":[15.2491027,-4.2734758],"type":"Point"},"placekey":"@g64-sqz-hkf","address":{"country_code":"CG","formatted_address":"Av. du 5 Février, Brazzaville, Republic of the Congo","locality":"Brazzaville","region":"Brazzaville"}},"labels":["soccer","sport"],"duration":0,"start_local":"2024-05-05T18:00:00","end":"2024-05-05T17:00:00Z","end_local":"2024-05-05T18:00:00","updated":"2024-06-12T08:14:59Z"},{"title":"Ligue 1 - Vegas vs V.Club Mokanda","description":"Sourced from predicthq.com","category":"sports","start":"2024-05-05T15:00:00Z","geo":{"geometry":{"coordinates":[15.2491027,-4.2734758],"type":"Point"},"placekey":"@g64-sqz-hkf","address":{"country_code":"CG","formatted_address":"Av. du 5 Février, Brazzaville, Republic of the Congo","locality":"Brazzaville","region":"Brazzaville"}},"labels":["soccer","sport"],"duration":0,"start_local":"2024-05-05T16:00:00","end":"2024-05-05T15:00:00Z","end_local":"2024-05-05T16:00:00","updated":"2024-06-12T06:36:49Z"},{"title":"Ligue 1 - Diables Noirs vs Chéminots","description":"Sourced from predicthq.com","category":"sports","start":"2024-05-05T13:00:00Z","geo":{"geometry":{"coordinates":[15.2491027,-4.2734758],"type":"Point"},"placekey":"@g64-sqz-hkf","address":{"country_code":"CG","formatted_address":"Av. du 5 Février, Brazzaville, Republic of the Congo","locality":"Brazzaville","region":"Brazzaville"}},"labels":["soccer","sport"],"duration":0,"start_local":"2024-05-05T14:00:00","end":"2024-05-05T13:00:00Z","end_local":"2024-05-05T14:00:00","updated":"2024-06-11T23:42:11Z"},{"title":"Ligue 1 - Léopards de Dolisié vs CARA Brazzaville","description":"Sourced from predicthq.com","category":"sports","start":"2024-05-04T14:15:00Z","geo":{"geometry":{"coordinates":[12.685684561729431,-4.207426482768602],"type":"Point"},"placekey":"@g2c-p28-y7q","address":{"country_code":"CG","formatted_address":"Dolisie, Republic of the Congo","locality":"Dolisie","region":"Niari"}},"labels":["soccer","sport"],"duration":0,"start_local":"2024-05-04T15:15:00","end":"2024-05-04T14:15:00Z","end_local":"2024-05-04T15:15:00","updated":"2024-06-12T00:20:58Z"},{"title":"Ligue 1 - Nathaly's vs Kondzo","description":"Sourced from predicthq.com","category":"sports","start":"2024-05-04T14:00:00Z","geo":{"geometry":{"coordinates":[11.865914513244643,-4.777429780006005],"type":"Point"},"placekey":"@g2p-46r-k75","address":{"country_code":"CG","formatted_address":"Av. Raymond Paillet, Pointe-Noire, Republic of the Congo","locality":"Pointe-Noire","region":"Pointe-Noire"}},"labels":["soccer","sport"],"duration":0,"start_local":"2024-05-04T15:00:00","end":"2024-05-04T14:00:00Z","end_local":"2024-05-04T15:00:00","updated":"2024-06-11T21:56:51Z"},{"title":"Ligue 1 - Chéminots vs V.Club Mokanda","description":"Sourced from predicthq.com","category":"sports","start":"2024-04-28T15:00:00Z","geo":{"geometry":{"coordinates":[11.865914513244643,-4.777429780006005],"type":"Point"},"placekey":"@g2p-46r-k75","address":{"country_code":"CG","formatted_address":"Av. Raymond Paillet, Pointe-Noire, Republic of the Congo","locality":"Pointe-Noire","region":"Pointe-Noire"}},"labels":["soccer","sport"],"duration":0,"start_local":"2024-04-28T16:00:00","end":"2024-04-28T15:00:00Z","end_local":"2024-04-28T16:00:00","updated":"2024-06-12T09:20:44Z"},{"title":"Ligue 1 - Otôho d'Oyo vs Léopards de Dolisié","description":"Sourced from predicthq.com","category":"sports","start":"2024-04-28T14:00:00Z","geo":{"geometry":{"coordinates":[15.2491027,-4.2734758],"type":"Point"},"placekey":"@g64-sqz-hkf","address":{"country_code":"CG","formatted_address":"Av. du 5 Février, Brazzaville, Republic of the Congo","locality":"Brazzaville","region":"Brazzaville"}},"labels":["soccer","sport"],"duration":0,"start_local":"2024-04-28T15:00:00","end":"2024-04-28T14:00:00Z","end_local":"2024-04-28T15:00:00","updated":"2024-06-12T02:36:06Z"},{"title":"Ligue 1 - Nathaly's vs Inter Club","description":"Sourced from predicthq.com","category":"sports","start":"2024-04-28T13:00:00Z","geo":{"geometry":{"coordinates":[11.865914513244643,-4.777429780006005],"type":"Point"},"placekey":"@g2p-46r-k75","address":{"country_code":"CG","formatted_address":"Av. Raymond Paillet, Pointe-Noire, Republic of the Congo","locality":"Pointe-Noire","region":"Pointe-Noire"}},"labels":["soccer","sport"],"duration":0,"start_local":"2024-04-28T14:00:00","end":"2024-04-28T13:00:00Z","end_local":"2024-04-28T14:00:00","updated":"2024-06-12T13:07:27Z"},{"title":"Ligue 1 - JS Talangaï vs Diables Noirs","description":"Sourced from predicthq.com","category":"sports","start":"2024-04-27T17:00:00Z","geo":{"geometry":{"coordinates":[15.2491027,-4.2734758],"type":"Point"},"placekey":"@g64-sqz-hkf","address":{"country_code":"CG","formatted_address":"Av. du 5 Février, Brazzaville, Republic of the Congo","locality":"Brazzaville","region":"Brazzaville"}},"labels":["soccer","sport"],"duration":0,"start_local":"2024-04-27T18:00:00","end":"2024-04-27T17:00:00Z","end_local":"2024-04-27T18:00:00","updated":"2024-06-12T01:59:39Z"},{"title":"Ligue 1 - Vegas vs Kondzo","description":"Sourced from predicthq.com","category":"sports","start":"2024-04-27T14:00:00Z","geo":{"geometry":{"coordinates":[15.2491027,-4.2734758],"type":"Point"},"placekey":"@g64-sqz-hkf","address":{"country_code":"CG","formatted_address":"Av. du 5 Février, Brazzaville, Republic of the Congo","locality":"Brazzaville","region":"Brazzaville"}},"labels":["soccer","sport"],"duration":0,"start_local":"2024-04-27T15:00:00","end":"2024-04-27T14:00:00Z","end_local":"2024-04-27T15:00:00","updated":"2024-06-12T07:15:59Z"},{"title":"Ligue 1 - Étoile du Congo vs Nouvelle Génération","description":"Sourced from predicthq.com","category":"sports","start":"2024-04-26T17:00:00Z","geo":{"geometry":{"coordinates":[15.2491027,-4.2734758],"type":"Point"},"placekey":"@g64-sqz-hkf","address":{"country_code":"CG","formatted_address":"Av. du 5 Février, Brazzaville, Republic of the Congo","locality":"Brazzaville","region":"Brazzaville"}},"labels":["soccer","sport"],"duration":0,"start_local":"2024-04-26T18:00:00","end":"2024-04-26T17:00:00Z","end_local":"2024-04-26T18:00:00","updated":"2024-06-12T15:43:48Z"},{"title":"Ligue 1 - Jeunesse Unie de Kintélé vs CARA Brazzaville","description":"Sourced from predicthq.com","category":"sports","start":"2024-04-26T14:00:00Z","geo":{"geometry":{"coordinates":[15.2491027,-4.2734758],"type":"Point"},"placekey":"@g64-sqz-hkf","address":{"country_code":"CG","formatted_address":"Av. du 5 Février, Brazzaville, Republic of the Congo","locality":"Brazzaville","region":"Brazzaville"}},"labels":["soccer","sport"],"duration":0,"start_local":"2024-04-26T15:00:00","end":"2024-04-26T14:00:00Z","end_local":"2024-04-26T15:00:00","updated":"2024-06-12T14:15:04Z"},{"title":"Fête Internationale du Secrétariat","description":"Sourced from predicthq.com - Une journée spéciale pour célébrer les secrétaires du monde entier avec des ateliers, des conférences et des activités amusantes!","category":"conferences","start":"2024-04-25T08:00:00Z","geo":{"geometry":{"coordinates":[15.28504,-4.2726694],"type":"Point"},"placekey":"@g64-skz-qmk","address":{"country_code":"CG","formatted_address":"Brazzaville, Congo","locality":"Brazzaville","region":"Brazzaville"}},"labels":["business","conference"],"duration":212400,"start_local":"2024-04-25T09:00:00","end":"2024-04-27T19:00:00Z","end_local":"2024-04-27T20:00:00","updated":"2024-06-05T01:01:39Z"},{"title":"Ligue 1 - Otôho d'Oyo vs Nouvelle Génération","description":"Sourced from predicthq.com","category":"sports","start":"2024-04-21T17:30:00Z","geo":{"geometry":{"coordinates":[15.2491027,-4.2734758],"type":"Point"},"placekey":"@g64-sqz-hkf","address":{"country_code":"CG","formatted_address":"Av. du 5 Février, Brazzaville, Republic of the Congo","locality":"Brazzaville","region":"Brazzaville"}},"labels":["soccer","sport"],"duration":0,"start_local":"2024-04-21T18:30:00","end":"2024-04-21T17:30:00Z","end_local":"2024-04-21T18:30:00","updated":"2024-06-12T19:46:46Z"},{"title":"Ligue 1 - Léopards de Dolisié vs Diables Noirs","description":"Sourced from predicthq.com","category":"sports","start":"2024-04-21T14:00:00Z","geo":{"geometry":{"coordinates":[12.685684561729431,-4.207426482768602],"type":"Point"},"placekey":"@g2c-p28-y7q","address":{"country_code":"CG","formatted_address":"Dolisie, Republic of the Congo","locality":"Dolisie","region":"Niari"}},"labels":["soccer","sport"],"duration":0,"start_local":"2024-04-21T15:00:00","end":"2024-04-21T14:00:00Z","end_local":"2024-04-21T15:00:00","updated":"2024-06-12T05:50:49Z"},{"title":"Ligue 1 - V.Club Mokanda vs JS Talangaï","description":"Sourced from predicthq.com","category":"sports","start":"2024-04-21T14:00:00Z","geo":{"geometry":{"coordinates":[15.2491027,-4.2734758],"type":"Point"},"placekey":"@g64-sqz-hkf","address":{"country_code":"CG","formatted_address":"Av. du 5 Février, Brazzaville, Republic of the Congo","locality":"Brazzaville","region":"Brazzaville"}},"labels":["soccer","sport"],"duration":0,"start_local":"2024-04-21T15:00:00","end":"2024-04-21T14:00:00Z","end_local":"2024-04-21T15:00:00","updated":"2024-06-12T00:18:01Z"},{"title":"Ligue 1 - Kondzo vs Chéminots","description":"Sourced from predicthq.com","category":"sports","start":"2024-04-20T17:00:00Z","geo":{"geometry":{"coordinates":[15.2491027,-4.2734758],"type":"Point"},"placekey":"@g64-sqz-hkf","address":{"country_code":"CG","formatted_address":"Av. du 5 Février, Brazzaville, Republic of the Congo","locality":"Brazzaville","region":"Brazzaville"}},"labels":["soccer","sport"],"duration":0,"start_local":"2024-04-20T18:00:00","end":"2024-04-20T17:00:00Z","end_local":"2024-04-20T18:00:00","updated":"2024-06-12T01:48:50Z"},{"title":"Ligue 1 - Étoile du Congo vs Nathaly's","description":"Sourced from predicthq.com","category":"sports","start":"2024-04-20T14:00:00Z","geo":{"geometry":{"coordinates":[15.2491027,-4.2734758],"type":"Point"},"placekey":"@g64-sqz-hkf","address":{"country_code":"CG","formatted_address":"Av. du 5 Février, Brazzaville, Republic of the Congo","locality":"Brazzaville","region":"Brazzaville"}},"labels":["soccer","sport"],"duration":0,"start_local":"2024-04-20T15:00:00","end":"2024-04-20T14:00:00Z","end_local":"2024-04-20T15:00:00","updated":"2024-06-12T05:47:58Z"},{"title":"Ligue 1 - Inter Club vs CARA Brazzaville","description":"Sourced from predicthq.com","category":"sports","start":"2024-04-19T17:00:00Z","geo":{"geometry":{"coordinates":[15.2491027,-4.2734758],"type":"Point"},"placekey":"@g64-sqz-hkf","address":{"country_code":"CG","formatted_address":"Av. du 5 Février, Brazzaville, Republic of the Congo","locality":"Brazzaville","region":"Brazzaville"}},"labels":["soccer","sport"],"duration":0,"start_local":"2024-04-19T18:00:00","end":"2024-04-19T17:00:00Z","end_local":"2024-04-19T18:00:00","updated":"2024-06-11T23:06:15Z"},{"title":"Ligue 1 - Vegas vs Jeunesse Unie de Kintélé","description":"Sourced from predicthq.com","category":"sports","start":"2024-04-19T14:00:00Z","geo":{"geometry":{"coordinates":[15.2491027,-4.2734758],"type":"Point"},"placekey":"@g64-sqz-hkf","address":{"country_code":"CG","formatted_address":"Av. du 5 Février, Brazzaville, Republic of the Congo","locality":"Brazzaville","region":"Brazzaville"}},"labels":["soccer","sport"],"duration":0,"start_local":"2024-04-19T15:00:00","end":"2024-04-19T14:00:00Z","end_local":"2024-04-19T15:00:00","updated":"2024-06-12T12:36:59Z"},{"title":"Ligue 1 - Étoile du Congo vs JS Talangaï","description":"Sourced from predicthq.com","category":"sports","start":"2024-04-14T17:00:00Z","geo":{"geometry":{"coordinates":[15.2491027,-4.2734758],"type":"Point"},"placekey":"@g64-sqz-hkf","address":{"country_code":"CG","formatted_address":"Av. du 5 Février, Brazzaville, Republic of the Congo","locality":"Brazzaville","region":"Brazzaville"}},"labels":["soccer","sport"],"duration":0,"start_local":"2024-04-14T18:00:00","end":"2024-04-14T17:00:00Z","end_local":"2024-04-14T18:00:00","updated":"2024-06-11T21:53:41Z"},{"title":"Ligue 1 - Nathaly's vs Léopards de Dolisié","description":"Sourced from predicthq.com","category":"sports","start":"2024-04-14T14:00:00Z","geo":{"geometry":{"coordinates":[11.865914513244643,-4.777429780006005],"type":"Point"},"placekey":"@g2p-46r-k75","address":{"country_code":"CG","formatted_address":"Av. Raymond Paillet, Pointe-Noire, Republic of the Congo","locality":"Pointe-Noire","region":"Pointe-Noire"}},"labels":["soccer","sport"],"duration":0,"start_local":"2024-04-14T15:00:00","end":"2024-04-14T14:00:00Z","end_local":"2024-04-14T15:00:00","updated":"2024-06-11T22:20:22Z"},{"title":"Ligue 1 - Inter Club vs Kondzo","description":"Sourced from predicthq.com","category":"sports","start":"2024-04-14T14:00:00Z","geo":{"geometry":{"coordinates":[15.2491027,-4.2734758],"type":"Point"},"placekey":"@g64-sqz-hkf","address":{"country_code":"CG","formatted_address":"Av. du 5 Février, Brazzaville, Republic of the Congo","locality":"Brazzaville","region":"Brazzaville"}},"labels":["soccer","sport"],"duration":0,"start_local":"2024-04-14T15:00:00","end":"2024-04-14T14:00:00Z","end_local":"2024-04-14T15:00:00","updated":"2024-06-12T13:07:58Z"},{"title":"Ligue 1 - Otôho d'Oyo vs V.Club Mokanda","description":"Sourced from predicthq.com","category":"sports","start":"2024-04-13T17:00:00Z","geo":{"geometry":{"coordinates":[15.2491027,-4.2734758],"type":"Point"},"placekey":"@g64-sqz-hkf","address":{"country_code":"CG","formatted_address":"Av. du 5 Février, Brazzaville, Republic of the Congo","locality":"Brazzaville","region":"Brazzaville"}},"labels":["soccer","sport"],"duration":0,"start_local":"2024-04-13T18:00:00","end":"2024-04-13T17:00:00Z","end_local":"2024-04-13T18:00:00","updated":"2024-06-12T06:08:22Z"},{"title":"Ligue 1 - Nouvelle Génération vs Chéminots","description":"Sourced from predicthq.com","category":"sports","start":"2024-04-13T14:00:00Z","geo":{"geometry":{"coordinates":[15.2491027,-4.2734758],"type":"Point"},"placekey":"@g64-sqz-hkf","address":{"country_code":"CG","formatted_address":"Av. du 5 Février, Brazzaville, Republic of the Congo","locality":"Brazzaville","region":"Brazzaville"}},"labels":["soccer","sport"],"duration":0,"start_local":"2024-04-13T15:00:00","end":"2024-04-13T14:00:00Z","end_local":"2024-04-13T15:00:00","updated":"2024-06-11T21:24:09Z"},{"title":"Ligue 1 - Vegas vs CARA Brazzaville","description":"Sourced from predicthq.com","category":"sports","start":"2024-04-12T17:00:00Z","geo":{"geometry":{"coordinates":[15.2491027,-4.2734758],"type":"Point"},"placekey":"@g64-sqz-hkf","address":{"country_code":"CG","formatted_address":"Av. du 5 Février, Brazzaville, Republic of the Congo","locality":"Brazzaville","region":"Brazzaville"}},"labels":["soccer","sport"],"duration":0,"start_local":"2024-04-12T18:00:00","end":"2024-04-12T17:00:00Z","end_local":"2024-04-12T18:00:00","updated":"2024-06-12T13:02:58Z"},{"title":"Ligue 1 - Diables Noirs vs Jeunesse Unie de Kintélé","description":"Sourced from predicthq.com","category":"sports","start":"2024-04-12T14:00:00Z","geo":{"geometry":{"coordinates":[15.2491027,-4.2734758],"type":"Point"},"placekey":"@g64-sqz-hkf","address":{"country_code":"CG","formatted_address":"Av. du 5 Février, Brazzaville, Republic of the Congo","locality":"Brazzaville","region":"Brazzaville"}},"labels":["soccer","sport"],"duration":0,"start_local":"2024-04-12T15:00:00","end":"2024-04-12T14:00:00Z","end_local":"2024-04-12T15:00:00","updated":"2024-06-12T03:31:37Z"},{"title":"Ligue 1 - Vegas vs Léopards de Dolisié","description":"Sourced from predicthq.com","category":"sports","start":"2024-04-08T08:00:00Z","geo":{"geometry":{"coordinates":[15.2491027,-4.2734758],"type":"Point"},"placekey":"@g64-sqz-hkf","address":{"country_code":"CG","formatted_address":"Av. du 5 Février, Brazzaville, Republic of the Congo","locality":"Brazzaville","region":"Brazzaville"}},"labels":["soccer","sport"],"duration":0,"start_local":"2024-04-08T09:00:00","end":"2024-04-08T08:00:00Z","end_local":"2024-04-08T09:00:00","updated":"2024-06-12T00:59:50Z"},{"title":"Ligue 1 - V.Club Mokanda vs Étoile du Congo","description":"Sourced from predicthq.com","category":"sports","start":"2024-04-07T15:00:00Z","geo":{"geometry":{"coordinates":[11.865914513244643,-4.777429780006005],"type":"Point"},"placekey":"@g2p-46r-k75","address":{"country_code":"CG","formatted_address":"Av. Raymond Paillet, Pointe-Noire, Republic of the Congo","locality":"Pointe-Noire","region":"Pointe-Noire"}},"labels":["soccer","sport"],"duration":0,"start_local":"2024-04-07T16:00:00","end":"2024-04-07T15:00:00Z","end_local":"2024-04-07T16:00:00","updated":"2024-06-12T03:33:40Z"},{"title":"Ligue 1 - Diables Noirs vs Nathaly's","description":"Sourced from predicthq.com","category":"sports","start":"2024-04-07T14:00:00Z","geo":{"geometry":{"coordinates":[15.2491027,-4.2734758],"type":"Point"},"placekey":"@g64-sqz-hkf","address":{"country_code":"CG","formatted_address":"Av. du 5 Février, Brazzaville, Republic of the Congo","locality":"Brazzaville","region":"Brazzaville"}},"labels":["soccer","sport"],"duration":0,"start_local":"2024-04-07T15:00:00","end":"2024-04-07T14:00:00Z","end_local":"2024-04-07T15:00:00","updated":"2024-06-12T14:49:40Z"},{"title":"Ligue 1 - Chéminots vs Otôho d'Oyo","description":"Sourced from predicthq.com","category":"sports","start":"2024-04-07T13:00:00Z","geo":{"geometry":{"coordinates":[11.865914513244643,-4.777429780006005],"type":"Point"},"placekey":"@g2p-46r-k75","address":{"country_code":"CG","formatted_address":"Av. Raymond Paillet, Pointe-Noire, Republic of the Congo","locality":"Pointe-Noire","region":"Pointe-Noire"}},"labels":["soccer","sport"],"duration":0,"start_local":"2024-04-07T14:00:00","end":"2024-04-07T13:00:00Z","end_local":"2024-04-07T14:00:00","updated":"2024-06-12T05:52:59Z"},{"title":"Ligue 1 - CARA Brazzaville vs JS Talangaï","description":"Sourced from predicthq.com","category":"sports","start":"2024-04-06T17:00:00Z","geo":{"geometry":{"coordinates":[15.2491027,-4.2734758],"type":"Point"},"placekey":"@g64-sqz-hkf","address":{"country_code":"CG","formatted_address":"Av. du 5 Février, Brazzaville, Republic of the Congo","locality":"Brazzaville","region":"Brazzaville"}},"labels":["soccer","sport"],"duration":0,"start_local":"2024-04-06T18:00:00","end":"2024-04-06T17:00:00Z","end_local":"2024-04-06T18:00:00","updated":"2024-06-12T07:21:07Z"},{"title":"Ligue 1 - Nouvelle Génération vs Inter Club","description":"Sourced from predicthq.com","category":"sports","start":"2024-04-06T14:00:00Z","geo":{"geometry":{"coordinates":[15.2491027,-4.2734758],"type":"Point"},"placekey":"@g64-sqz-hkf","address":{"country_code":"CG","formatted_address":"Av. du 5 Février, Brazzaville, Republic of the Congo","locality":"Brazzaville","region":"Brazzaville"}},"labels":["soccer","sport"],"duration":0,"start_local":"2024-04-06T15:00:00","end":"2024-04-06T14:00:00Z","end_local":"2024-04-06T15:00:00","updated":"2024-06-12T14:45:49Z"}]