[{"title":"Opportunity Day","description":"Sourced from predicthq.com - La journée des opportunités de AIESEC COCODY ABIDJAN est une journée ou l'on présente les différentes offres de stage a l'international.","category":"conferences","start":"2024-08-03T10:00:00Z","geo":{"geometry":{"coordinates":[-3.9673911,5.3602303],"type":"Point"},"placekey":"@dvb-3hj-cwk","address":{"country_code":"CI","formatted_address":"Abidjan, Abidjan Autonomous District, Côte d'Ivoire","locality":"Abidjan","region":"Abidjan Autonomous District"}},"labels":["business","conference"],"duration":7200,"start_local":"2024-08-03T10:00:00","end":"2024-08-03T12:00:00Z","end_local":"2024-08-03T12:00:00","updated":"2024-06-04T06:41:25Z"},{"title":"Sunday Special Festival","description":"Sourced from predicthq.com - Explorez la gastronomie ghanéenne au Special Sunday Brunch de AfrikMe Aduane. Buffet exquis, démos culinaires, ambiance culturelle.","category":"festivals","start":"2024-07-07T11:00:00Z","geo":{"geometry":{"coordinates":[-3.9546877,5.373353],"type":"Point"},"placekey":"@dvb-3ht-rzf","address":{"country_code":"CI","formatted_address":"Abidjan, Abidjan Autonomous District, Côte d'Ivoire","locality":"Abidjan","region":"Abidjan Autonomous District"}},"labels":["festival","food"],"duration":18000,"start_local":"2024-07-07T11:00:00","end":"2024-07-07T16:00:00Z","end_local":"2024-07-07T16:00:00","updated":"2024-07-04T08:23:31Z"},{"title":"Sunday Special Festival","description":"Sourced from predicthq.com - Explorez la gastronomie ghanéenne au Special Sunday Brunch de AfrikMe Aduane. Buffet exquis, démos culinaires, ambiance culturelle.","category":"festivals","start":"2024-06-30T11:00:00Z","geo":{"geometry":{"coordinates":[-3.9546877,5.373353],"type":"Point"},"placekey":"@dvb-3ht-rzf","address":{"country_code":"CI","formatted_address":"Abidjan, Abidjan Autonomous District, Côte d'Ivoire","locality":"Abidjan","region":"Abidjan Autonomous District"}},"labels":["festival","food"],"duration":18000,"start_local":"2024-06-30T11:00:00","end":"2024-06-30T16:00:00Z","end_local":"2024-06-30T16:00:00","updated":"2024-06-27T13:48:25Z"},{"title":"Blockchain in Babi","description":"Sourced from predicthq.com - Viens découvrir le monde de la blockchain et ses opportunités avec les entrepreneurs les plus brillant de cet écosystème à ABIDJAN!","category":"conferences","start":"2024-06-29T10:00:00Z","geo":{"geometry":{"coordinates":[-3.9246499,5.3938353],"type":"Point"},"placekey":"@dvb-3kh-x5z","address":{"country_code":"CI","formatted_address":"Abidjan, Abidjan Autonomous District, Côte d'Ivoire","locality":"Abidjan","region":"Abidjan Autonomous District"}},"labels":["conference","science","technology"],"duration":28800,"start_local":"2024-06-29T10:00:00","end":"2024-06-29T18:00:00Z","end_local":"2024-06-29T18:00:00","updated":"2024-05-23T04:56:49Z"},{"title":"Financièrement Libre Grâce à Cette Enseigne Internationale","description":"Sourced from predicthq.com - Invitation à l'Événement : Financièrement Libre Grâce à Cette Enseigne Internationale","category":"conferences","start":"2024-06-29T10:00:00Z","geo":{"geometry":{"coordinates":[-3.9775413,5.338928200000001],"type":"Point"},"placekey":"@dv9-xwr-75z","address":{"country_code":"CI","formatted_address":"Abidjan, Abidjan Autonomous District, Côte d'Ivoire","locality":"Abidjan","region":"Abidjan Autonomous District"}},"labels":["business","conference"],"duration":7200,"start_local":"2024-06-29T10:00:00","end":"2024-06-29T12:00:00Z","end_local":"2024-06-29T12:00:00","updated":"2024-06-27T16:19:16Z"},{"title":"AfricArena Abidjan Summit 2024","description":"Sourced from predicthq.com - A 2-days conference that will feature pitches from 20+ startups operating all across Africa between the Seed and Growth stage.","category":"conferences","start":"2024-06-25T09:00:00Z","geo":{"geometry":{"coordinates":[-4.0172969,5.3254375],"type":"Point"},"placekey":"@dv9-xty-w49","address":{"country_code":"CI","formatted_address":"Rue Jesse Owens, Abidjan, Côte d'Ivoire","locality":"Abidjan","region":"Abidjan Autonomous District"}},"labels":["business","conference"],"duration":115200,"start_local":"2024-06-25T09:00:00","end":"2024-06-26T17:00:00Z","end_local":"2024-06-26T17:00:00","updated":"2024-06-18T18:34:03Z"},{"title":"Sunday Special Festival","description":"Sourced from predicthq.com - Explorez la gastronomie ghanéenne au Special Sunday Brunch de AfrikMe Aduane. Buffet exquis, démos culinaires, ambiance culturelle.","category":"festivals","start":"2024-06-23T11:00:00Z","geo":{"geometry":{"coordinates":[-3.9546877,5.373353],"type":"Point"},"placekey":"@dvb-3ht-rzf","address":{"country_code":"CI","formatted_address":"Abidjan, Abidjan Autonomous District, Côte d'Ivoire","locality":"Abidjan","region":"Abidjan Autonomous District"}},"labels":["festival","food"],"duration":18000,"start_local":"2024-06-23T11:00:00","end":"2024-06-23T16:00:00Z","end_local":"2024-06-23T16:00:00","updated":"2024-06-21T15:27:45Z"},{"title":"Découvrez la Clé du Bien-être et de la Liberté Financière !","description":"Sourced from predicthq.com - Rejoignez-nous pour une conférence exclusive où nous vous dévoilerons comment notre réseau peut vous aider à atteindre vos objectifs !","category":"conferences","start":"2024-06-22T15:00:00Z","geo":{"geometry":{"coordinates":[-4.0025507,5.3531951],"type":"Point"},"placekey":"@dv9-xwp-bc5","address":{"country_code":"CI","formatted_address":"Boulevard des Martyrs, Abidjan, Côte d'Ivoire","locality":"Abidjan","region":"District Autonome d'Abidjan"}},"labels":["conference","health"],"duration":7200,"start_local":"2024-06-22T15:00:00","end":"2024-06-22T17:00:00Z","end_local":"2024-06-22T17:00:00","updated":"2024-06-21T09:43:19Z"},{"title":"Découvrez la Clé du Bien-être et de la Liberté Financière !","description":"Sourced from predicthq.com - Rejoignez-nous pour une conférence exclusive où nous vous dévoilerons comment notre réseau peut vous aider à atteindre vos objectifs !","category":"conferences","start":"2024-06-22T10:00:00Z","geo":{"geometry":{"coordinates":[-4.0025507,5.3531951],"type":"Point"},"placekey":"@dv9-xwp-bc5","address":{"country_code":"CI","formatted_address":"Boulevard des Martyrs, Abidjan, Côte d'Ivoire","locality":"Abidjan","region":"District Autonome d'Abidjan"}},"labels":["conference","health"],"duration":7200,"start_local":"2024-06-22T10:00:00","end":"2024-06-22T12:00:00Z","end_local":"2024-06-22T12:00:00","updated":"2024-06-21T01:06:27Z"},{"title":"ENTREPRENDRE A 3","description":"Sourced from predicthq.com - Venez apprendre à entreprendre à trois lors de notre événement interactif et inspirant!","category":"conferences","start":"2024-06-21T17:30:00Z","geo":{"geometry":{"coordinates":[-4.0025507,5.3531951],"type":"Point"},"placekey":"@dv9-xwp-bc5","address":{"country_code":"CI","formatted_address":"Boulevard des Martyrs, Abidjan, Côte d'Ivoire","locality":"Abidjan","region":"District Autonome d'Abidjan"}},"labels":["business","conference"],"duration":14400,"start_local":"2024-06-21T17:30:00","end":"2024-06-21T21:30:00Z","end_local":"2024-06-21T21:30:00","updated":"2024-06-04T03:01:56Z"},{"title":"Sorted Wallet: Connect & Crypto","description":"Sourced from predicthq.com - A fun networking event where you can learn about how cryptocurrencies are being used to enable financial inclusion in emerging markets.","category":"conferences","start":"2024-06-20T18:00:00Z","geo":{"geometry":{"coordinates":[-3.9769794,5.2885309],"type":"Point"},"placekey":"@dv9-xwv-ysq","address":{"country_code":"CI","formatted_address":"Rue du Docteur Blanchard, Abidjan, Côte d'Ivoire","locality":"Abidjan","region":"District Autonome d'Abidjan"}},"labels":["conference","science","technology"],"duration":10800,"start_local":"2024-06-20T18:00:00","end":"2024-06-20T21:00:00Z","end_local":"2024-06-20T21:00:00","updated":"2024-05-22T19:57:09Z"},{"title":"Sunday Special Festival","description":"Sourced from predicthq.com - Explorez la gastronomie ghanéenne au Special Sunday Brunch de AfrikMe Aduane. Buffet exquis, démos culinaires, ambiance culturelle.","category":"festivals","start":"2024-06-16T11:00:00Z","geo":{"geometry":{"coordinates":[-3.9546877,5.373353],"type":"Point"},"placekey":"@dvb-3ht-rzf","address":{"country_code":"CI","formatted_address":"Abidjan, Abidjan Autonomous District, Côte d'Ivoire","locality":"Abidjan","region":"Abidjan Autonomous District"}},"labels":["festival","food"],"duration":18000,"start_local":"2024-06-16T11:00:00","end":"2024-06-16T16:00:00Z","end_local":"2024-06-16T16:00:00","updated":"2024-06-13T02:21:09Z"},{"title":"Randonnées CI : Edition 1","description":"Sourced from predicthq.com - Viens explorer la nature avec Randonnées CI : Edition 1, une journée pleine d'aventures et de découvertes !","category":"community","start":"2024-06-16T07:00:00Z","geo":{"geometry":{"coordinates":[-3.664859,5.5006674],"type":"Point"},"placekey":"@dv5-txy-s5z","address":{"country_code":"CI","formatted_address":"Alépé, District des Lagunes, Côte d'Ivoire","locality":"Alépé","region":"District des Lagunes"}},"labels":["community","outdoor","sport"],"duration":43200,"start_local":"2024-06-16T07:00:00","end":"2024-06-16T19:00:00Z","end_local":"2024-06-16T19:00:00","updated":"2024-06-06T04:30:23Z"},{"title":"1+1 Master Class","description":"Sourced from predicthq.com - Join CEIBS Associate Professor as he takes us on a journey to understand Africa’s opportunities with China and navigating the geopolitics.","category":"conferences","start":"2024-06-15T09:00:00Z","geo":{"geometry":{"coordinates":[-3.9943885999999793,5.3120096],"type":"Point"},"placekey":"@dv9-xx7-xyv","address":{"country_code":"CI","formatted_address":"Abidjan, Abidjan Autonomous District, Côte d'Ivoire","locality":"Abidjan","region":"Abidjan Autonomous District"}},"labels":["business","conference"],"duration":14400,"start_local":"2024-06-15T09:00:00","end":"2024-06-15T13:00:00Z","end_local":"2024-06-15T13:00:00","updated":"2024-06-04T07:36:24Z"},{"title":"Journée de promotion des poissons élevés en Côte d'Ivoire","description":"Sourced from predicthq.com - EXPOSITION - FORMATION - VENTE- INSTALLATION ET SUIVI DES PISCICULTURES","category":"festivals","start":"2024-06-15T08:00:00Z","geo":{"geometry":{"coordinates":[-3.9320653,5.3894946],"type":"Point"},"placekey":"@dvb-3k9-tvz","address":{"country_code":"CI","formatted_address":"Abidjan, Abidjan Autonomous District, Côte d'Ivoire","locality":"Abidjan","region":"Abidjan Autonomous District"}},"labels":["festival","food"],"duration":32400,"start_local":"2024-06-15T08:00:00","end":"2024-06-15T17:00:00Z","end_local":"2024-06-15T17:00:00","updated":"2024-06-08T08:07:53Z"},{"title":"Startup Founders, comprendre le financement en dette","description":"Sourced from predicthq.com - Venez apprendre comment les startups peuvent financer leur croissance en utilisant des prêts lors de notre événement .","category":"conferences","start":"2024-06-13T08:30:00Z","geo":{"geometry":{"coordinates":[-4.001941,5.3268452],"type":"Point"},"placekey":"@dv9-xwn-9cq","address":{"country_code":"CI","formatted_address":"Abidjan, District Autonome d'Abidjan, Côte d'Ivoire","locality":"Abidjan","region":"District Autonome d'Abidjan"}},"labels":["business","conference"],"duration":7200,"start_local":"2024-06-13T08:30:00","end":"2024-06-13T10:30:00Z","end_local":"2024-06-13T10:30:00","updated":"2024-06-13T02:05:15Z"},{"title":"AFRICA CIO TECH DAYS","description":"Sourced from predicthq.com - Thème : Les enjeux de l’IA, de la Cybersécurité et des solutions Collaboratives :\nMenaces ou Opportunités pour nos entreprises ?","category":"conferences","start":"2024-06-13T07:00:00Z","geo":{"geometry":{"coordinates":[-4.0025507,5.3531951],"type":"Point"},"placekey":"@dv9-xwp-bc5","address":{"country_code":"CI","formatted_address":"Boulevard des Martyrs, Abidjan, Côte d'Ivoire","locality":"Abidjan","region":"District Autonome d'Abidjan"}},"labels":["conference","science","technology"],"duration":126000,"start_local":"2024-06-13T07:00:00","end":"2024-06-14T18:00:00Z","end_local":"2024-06-14T18:00:00","updated":"2024-06-06T02:08:50Z"},{"title":"Sunday Special Festival","description":"Sourced from predicthq.com - Explorez la gastronomie ghanéenne au Special Sunday Brunch de AfrikMe Aduane. Buffet exquis, démos culinaires, ambiance culturelle.","category":"festivals","start":"2024-06-09T11:00:00Z","geo":{"geometry":{"coordinates":[-3.9546877,5.373353],"type":"Point"},"placekey":"@dvb-3ht-rzf","address":{"country_code":"CI","formatted_address":"Abidjan, Abidjan Autonomous District, Côte d'Ivoire","locality":"Abidjan","region":"Abidjan Autonomous District"}},"labels":["festival","food"],"duration":18000,"start_local":"2024-06-09T11:00:00","end":"2024-06-09T16:00:00Z","end_local":"2024-06-09T16:00:00","updated":"2024-06-06T01:12:30Z"},{"title":"LEADERSHIP ENTREPRENEURIAL ET LIBERTE FINANCIERE.: ACADEMY TWENTY  ONE A ABIDJAN","description":"Sourced from predicthq.com - Viens développer ton leadership entrepreneurial et apprendre à atteindre la liberté financière avec  Academy Twenty One à Abidjan!","category":"conferences","start":"2024-06-08T10:00:00Z","geo":{"geometry":{"coordinates":[-3.9935346,5.398441],"type":"Point"},"placekey":"@dvb-3h8-nh5","address":{"country_code":"CI","formatted_address":"cocody angré 22ieme, Abidjan, Côte d'Ivoire","locality":"Abidjan","region":"District Autonome d'Abidjan"}},"labels":["business","conference"],"duration":10800,"start_local":"2024-06-08T10:00:00","end":"2024-06-08T13:00:00Z","end_local":"2024-06-08T13:00:00","updated":"2024-06-06T03:24:57Z"},{"title":"SUCCESS DAY FOREVER CI","description":"Sourced from predicthq.com - Tous au parc des expositions le samedi 08 juin pour la fête des 20 ans de vies changées en Côte d'Ivoire,","category":"conferences","start":"2024-06-08T09:00:00Z","geo":{"geometry":{"coordinates":[-3.945853300000001,5.264740499999999],"type":"Point"},"placekey":"@dvb-4w2-389","address":{"country_code":"CI","formatted_address":"Abidjan, District Autonome d'Abidjan, Côte d'Ivoire","locality":"Abidjan","region":"District Autonome d'Abidjan"}},"labels":["business","conference"],"duration":10800,"start_local":"2024-06-08T09:00:00","end":"2024-06-08T12:00:00Z","end_local":"2024-06-08T12:00:00","updated":"2024-06-06T02:29:06Z"},{"title":"Enko Abidjan ouvre un Collège Anglophone à Angré : Venez découvrir notre classe pilote !","description":"Sourced from predicthq.com - Venez découvrir la classe pilote de notre nouveau collège anglophone à Angré! (Avec programme d’intégration pour non-anglophones)","category":"expos","start":"2024-06-08T09:00:00Z","geo":{"geometry":{"coordinates":[-3.9699436,5.396075799999999],"type":"Point"},"placekey":"@dvb-3h6-n5z","address":{"country_code":"CI","formatted_address":"Abidjan, District Autonome d'Abidjan, Côte d'Ivoire","locality":"Abidjan","region":"District Autonome d'Abidjan"}},"labels":["education","expo","family"],"duration":21600,"start_local":"2024-06-08T09:00:00","end":"2024-06-08T15:00:00Z","end_local":"2024-06-08T15:00:00","updated":"2024-05-23T02:10:42Z"},{"title":"Conférence-Atelier avec Lala Méïta","description":"Sourced from predicthq.com - Venez assister à une conférence-atelier inspirante avec Lala Méïta pour apprendre et échanger sur des sujets passionnants !","category":"conferences","start":"2024-06-08T09:00:00Z","geo":{"geometry":{"coordinates":[-3.9935346,5.398441],"type":"Point"},"placekey":"@dvb-3h8-nh5","address":{"country_code":"CI","formatted_address":"cocody angré 22ieme, Abidjan, Côte d'Ivoire","locality":"Abidjan","region":"District Autonome d'Abidjan"}},"labels":["conference","health"],"duration":14400,"start_local":"2024-06-08T09:00:00","end":"2024-06-08T13:00:00Z","end_local":"2024-06-08T13:00:00","updated":"2024-06-04T01:12:31Z"},{"title":"Venez vous inspirer des témoignages d'entrepreneurs multimillionnaires","description":"Sourced from predicthq.com - Viens découvrir, écouter et s'inspirer des témoignages à couper le souffle, ne manque pas cet événement !","category":"conferences","start":"2024-06-08T08:00:00Z","geo":{"geometry":{"coordinates":[-3.945853300000001,5.264740499999999],"type":"Point"},"placekey":"@dvb-4w2-389","address":{"country_code":"CI","formatted_address":"Abidjan, District Autonome d'Abidjan, Côte d'Ivoire","locality":"Abidjan","region":"District Autonome d'Abidjan"}},"labels":["business","conference"],"duration":14400,"start_local":"2024-06-08T08:00:00","end":"2024-06-08T12:00:00Z","end_local":"2024-06-08T12:00:00","updated":"2024-06-07T08:18:33Z"},{"title":"Conférence des Missions d'Afrique Francophone 2024: DIEU EST CAPABLE","description":"Sourced from predicthq.com - The SoldOut Discipling Movement invites you to attend the historic 2024 French speaking African Missions Conference : DIEU EST CAPABLE !","category":"conferences","start":"2024-06-06T10:00:00Z","geo":{"geometry":{"coordinates":[-3.9775413,5.338928200000001],"type":"Point"},"placekey":"@dv9-xwr-75z","address":{"country_code":"CI","formatted_address":"Abidjan, Abidjan Autonomous District, Côte d'Ivoire","locality":"Abidjan","region":"Abidjan Autonomous District"}},"labels":["conference","religion"],"duration":266400,"start_local":"2024-06-06T10:00:00","end":"2024-06-09T12:00:00Z","end_local":"2024-06-09T12:00:00","updated":"2024-06-04T11:09:32Z"},{"title":"Africa Meeting And Conference of the Econometric Society","description":"Sourced from predicthq.com","category":"conferences","start":"2024-06-05T09:00:00Z","geo":{"geometry":{"coordinates":[-3.989367,5.349299],"type":"Point"},"placekey":"@dv9-xwn-xdv","address":{"country_code":"CI","formatted_address":"Avenue des Grandes Ecoles, Abidjan, Côte d'Ivoire","locality":"Abidjan","region":"District Autonome d'Abidjan"}},"labels":["conference"],"duration":291600,"start_local":"2024-06-05T09:00:00","end":"2024-06-08T18:00:00Z","end_local":"2024-06-08T18:00:00","updated":"2024-05-27T22:16:57Z"},{"title":"Sunday Special Festival","description":"Sourced from predicthq.com - Explorez la gastronomie ghanéenne au Special Sunday Brunch de AfrikMe Aduane. Buffet exquis, démos culinaires, ambiance culturelle.","category":"festivals","start":"2024-06-02T11:00:00Z","geo":{"geometry":{"coordinates":[-3.9546877,5.373353],"type":"Point"},"placekey":"@dvb-3ht-rzf","address":{"country_code":"CI","formatted_address":"Abidjan, Abidjan Autonomous District, Côte d'Ivoire","locality":"Abidjan","region":"Abidjan Autonomous District"}},"labels":["festival","food"],"duration":18000,"start_local":"2024-06-02T11:00:00","end":"2024-06-02T16:00:00Z","end_local":"2024-06-02T16:00:00","updated":"2024-05-30T01:27:20Z"},{"title":"Ligue 1 - Stella vs Denguélé","description":"Sourced from predicthq.com","category":"sports","start":"2024-06-01T17:45:00Z","geo":{"geometry":{"coordinates":[-3.9925646781921387,5.305156527391162],"type":"Point"},"placekey":"@dv9-xx6-tsq","address":{"country_code":"CI","formatted_address":"8245+22M, Abidjan, Côte d'Ivoire","locality":"Abidjan","region":"Abidjan Autonomous District"}},"labels":["soccer","sport"],"duration":0,"start_local":"2024-06-01T17:45:00","end":"2024-06-01T17:45:00Z","end_local":"2024-06-01T17:45:00","updated":"2024-06-11T21:55:17Z"},{"title":"Ligue 1 - Racing d'Abidjan vs Mouna","description":"Sourced from predicthq.com","category":"sports","start":"2024-06-01T15:30:00Z","geo":{"geometry":{"coordinates":[-4.006367325782776,5.297459465942105],"type":"Point"},"placekey":"@dv9-xtz-t9z","address":{"country_code":"CI","formatted_address":"7XXV+388, Boulevard de Marseille, Abidjan, Côte d'Ivoire","locality":"Abidjan","region":"Abidjan Autonomous District"}},"labels":["soccer","sport"],"duration":0,"start_local":"2024-06-01T15:30:00","end":"2024-06-01T15:30:00Z","end_local":"2024-06-01T15:30:00","updated":"2024-06-12T01:37:19Z"},{"title":"Ligue 1 - Sporting Gagnoa vs Korhogo","description":"Sourced from predicthq.com","category":"sports","start":"2024-06-01T15:30:00Z","geo":{"geometry":{"coordinates":[-5.961402654647827,6.119145123366609],"type":"Point"},"placekey":"@dws-bpj-28v","address":{"country_code":"CI","formatted_address":"Ouragahio, Gagnoa, Côte d'Ivoire","locality":"Ouragahio, Gagnoa"}},"labels":["soccer","sport"],"duration":0,"start_local":"2024-06-01T15:30:00","end":"2024-06-01T15:30:00Z","end_local":"2024-06-01T15:30:00","updated":"2024-06-11T21:21:20Z"},{"title":"Ligue 1 - SOL vs Indenié Abengourou","description":"Sourced from predicthq.com","category":"sports","start":"2024-06-01T15:30:00Z","geo":{"geometry":{"coordinates":[-3.88971,5.359296665],"type":"Point"},"placekey":"@dvb-4wp-x3q","address":{"country_code":"CI","formatted_address":"9456+P47, Bingerville, Côte d'Ivoire","locality":"Bingerville","region":"Abidjan Autonomous District"}},"labels":["soccer","sport"],"duration":0,"start_local":"2024-06-01T15:30:00","end":"2024-06-01T15:30:00Z","end_local":"2024-06-01T15:30:00","updated":"2024-06-12T15:57:47Z"},{"title":"Ligue 1 - SOA vs Bouaké","description":"Sourced from predicthq.com","category":"sports","start":"2024-06-01T15:30:00Z","geo":{"geometry":{"coordinates":[-5.247882628,6.822538821],"type":"Point"},"placekey":"@dvc-gkt-5zz","address":{"country_code":"CI","formatted_address":"Yamoussoukro, Côte d'Ivoire","locality":"Yamoussoukro","region":"Yamoussoukro District"}},"labels":["soccer","sport"],"duration":0,"start_local":"2024-06-01T15:30:00","end":"2024-06-01T15:30:00Z","end_local":"2024-06-01T15:30:00","updated":"2024-06-12T01:48:31Z"},{"title":"Ligue 1 - Lys Sassandra vs San-Pédro","description":"Sourced from predicthq.com","category":"sports","start":"2024-06-01T15:30:00Z","geo":{"geometry":{"coordinates":[-6.629390728,4.816994255],"type":"Point"},"placekey":"@ds2-tv7-w6k","address":{"country_code":"CI","formatted_address":"R98C+Q6 San-Pedro, Côte d'Ivoire","locality":"San-Pedro","region":"Bas-Sassandra District"}},"labels":["soccer","sport"],"duration":0,"start_local":"2024-06-01T15:30:00","end":"2024-06-01T15:30:00Z","end_local":"2024-06-01T15:30:00","updated":"2024-06-12T04:10:25Z"},{"title":"Ligue 1 - Zoman vs AFAD","description":"Sourced from predicthq.com","category":"sports","start":"2024-05-31T15:30:00Z","geo":{"geometry":{"coordinates":[-3.9925646781921387,5.305156527391162],"type":"Point"},"placekey":"@dv9-xx6-tsq","address":{"country_code":"CI","formatted_address":"8245+22M, Abidjan, Côte d'Ivoire","locality":"Abidjan","region":"Abidjan Autonomous District"}},"labels":["soccer","sport"],"duration":0,"start_local":"2024-05-31T15:30:00","end":"2024-05-31T15:30:00Z","end_local":"2024-05-31T15:30:00","updated":"2024-06-12T14:27:01Z"},{"title":"Le Phare de l'Entrepreneuriat à Abidjan","description":"Sourced from predicthq.com - Viens découvrir les clés de la réussite entrepreneuriale au Phare de l'Entrepreneuriat à Abidjan.","category":"conferences","start":"2024-05-29T09:00:00Z","geo":{"geometry":{"coordinates":[-4.019718999999999,5.3230667],"type":"Point"},"placekey":"@dv9-xty-xwk","address":{"country_code":"CI","formatted_address":"Avenue Chardy, Abidjan, Côte d'Ivoire","locality":"Abidjan","region":"District Autonome d'Abidjan"}},"labels":["business","conference"],"duration":36000,"start_local":"2024-05-29T09:00:00","end":"2024-05-29T19:00:00Z","end_local":"2024-05-29T19:00:00","updated":"2024-06-05T04:30:13Z"},{"title":"Ligue 1 - AFAD vs Stella","description":"Sourced from predicthq.com","category":"sports","start":"2024-05-26T18:00:00Z","geo":{"geometry":{"coordinates":[-3.9925646781921387,5.305156527391162],"type":"Point"},"placekey":"@dv9-xx6-tsq","address":{"country_code":"CI","formatted_address":"8245+22M, Abidjan, Côte d'Ivoire","locality":"Abidjan","region":"Abidjan Autonomous District"}},"labels":["soccer","sport"],"duration":0,"start_local":"2024-05-26T18:00:00","end":"2024-05-26T18:00:00Z","end_local":"2024-05-26T18:00:00","updated":"2024-06-12T14:27:04Z"},{"title":"Ligue 1 - San-Pédro vs Racing d'Abidjan","description":"Sourced from predicthq.com","category":"sports","start":"2024-05-26T15:30:00Z","geo":{"geometry":{"coordinates":[-6.638274192810059,4.760776300762804],"type":"Point"},"placekey":"@ds2-v8z-wx5","address":{"country_code":"CI","formatted_address":"Q966+GGP, San-Pedro, Côte d'Ivoire","locality":"San-Pedro","region":"Bas-Sassandra District"}},"labels":["soccer","sport"],"duration":0,"start_local":"2024-05-26T15:30:00","end":"2024-05-26T15:30:00Z","end_local":"2024-05-26T15:30:00","updated":"2024-06-12T03:26:53Z"},{"title":"Ligue 1 - Mouna vs Lys Sassandra","description":"Sourced from predicthq.com","category":"sports","start":"2024-05-26T15:30:00Z","geo":{"geometry":{"coordinates":[-3.9925646781921387,5.305156527391162],"type":"Point"},"placekey":"@dv9-xx6-tsq","address":{"country_code":"CI","formatted_address":"8245+22M, Abidjan, Côte d'Ivoire","locality":"Abidjan","region":"Abidjan Autonomous District"}},"labels":["soccer","sport"],"duration":0,"start_local":"2024-05-26T15:30:00","end":"2024-05-26T15:30:00Z","end_local":"2024-05-26T15:30:00","updated":"2024-06-12T13:35:54Z"},{"title":"Ligue 1 - Indenié Abengourou vs Stade d'Abidjan","description":"Sourced from predicthq.com","category":"sports","start":"2024-05-26T15:30:00Z","geo":{"geometry":{"coordinates":[-4.006367325782776,5.297459465942105],"type":"Point"},"placekey":"@dv9-xtz-t9z","address":{"country_code":"CI","formatted_address":"7XXV+388, Boulevard de Marseille, Abidjan, Côte d'Ivoire","locality":"Abidjan","region":"Abidjan Autonomous District"}},"labels":["soccer","sport"],"duration":0,"start_local":"2024-05-26T15:30:00","end":"2024-05-26T15:30:00Z","end_local":"2024-05-26T15:30:00","updated":"2024-06-12T02:42:20Z"},{"title":"Ligue 1 - Bouaké vs Sporting Gagnoa","description":"Sourced from predicthq.com","category":"sports","start":"2024-05-26T15:30:00Z","geo":{"geometry":{"coordinates":[-5.044757723808289,7.682906771234329],"type":"Point"},"placekey":"@dv7-v24-j35","address":{"country_code":"CI","formatted_address":"MXM4+54C, A8, Bouake, Côte d'Ivoire","locality":"Bouake","region":"Vallée du Bandama District"}},"labels":["soccer","sport"],"duration":0,"start_local":"2024-05-26T15:30:00","end":"2024-05-26T15:30:00Z","end_local":"2024-05-26T15:30:00","updated":"2024-06-12T18:14:52Z"},{"title":"Sunday Special Festival","description":"Sourced from predicthq.com - Explorez la gastronomie ghanéenne au Special Sunday Brunch de AfrikMe Aduane. Buffet exquis, démos culinaires, ambiance culturelle.","category":"festivals","start":"2024-05-26T11:00:00Z","geo":{"geometry":{"coordinates":[-3.9546877,5.373353],"type":"Point"},"placekey":"@dvb-3ht-rzf","address":{"country_code":"CI","formatted_address":"Abidjan, Abidjan Autonomous District, Côte d'Ivoire","locality":"Abidjan","region":"Abidjan Autonomous District"}},"labels":["festival","food"],"duration":18000,"start_local":"2024-05-26T11:00:00","end":"2024-05-26T16:00:00Z","end_local":"2024-05-26T16:00:00","updated":"2024-05-23T02:26:19Z"},{"title":"Ligue 1 - ASEC Mimosas vs SOL","description":"Sourced from predicthq.com","category":"sports","start":"2024-05-25T17:45:00Z","geo":{"geometry":{"coordinates":[-3.9925646781921387,5.305156527391162],"type":"Point"},"placekey":"@dv9-xx6-tsq","address":{"country_code":"CI","formatted_address":"8245+22M, Abidjan, Côte d'Ivoire","locality":"Abidjan","region":"Abidjan Autonomous District"}},"labels":["soccer","sport"],"duration":0,"start_local":"2024-05-25T17:45:00","end":"2024-05-25T17:45:00Z","end_local":"2024-05-25T17:45:00","updated":"2024-06-12T12:34:08Z"},{"title":"Ligue 1 - Korhogo vs SOA","description":"Sourced from predicthq.com","category":"sports","start":"2024-05-25T15:30:00Z","geo":{"geometry":{"coordinates":[-3.9925646781921387,5.305156527391162],"type":"Point"},"placekey":"@dv9-xx6-tsq","address":{"country_code":"CI","formatted_address":"8245+22M, Abidjan, Côte d'Ivoire","locality":"Abidjan","region":"Abidjan Autonomous District"}},"labels":["soccer","sport"],"duration":0,"start_local":"2024-05-25T15:30:00","end":"2024-05-25T15:30:00Z","end_local":"2024-05-25T15:30:00","updated":"2024-06-12T08:46:27Z"},{"title":"LA HOPE FIERA","description":"Sourced from predicthq.com - LA HOPE FIERA est une foire au profit des enfants malades du cancer et ceux de  la chirurgie pédiatrique. C'est une foire de l'espérance.","category":"festivals","start":"2024-05-24T08:00:00Z","geo":{"geometry":{"coordinates":[-3.9546877,5.373353],"type":"Point"},"placekey":"@dvb-3ht-rzf","address":{"country_code":"CI","formatted_address":"Abidjan, Abidjan Autonomous District, Côte d'Ivoire","locality":"Abidjan","region":"Abidjan Autonomous District"}},"labels":["community","festival"],"duration":45000,"start_local":"2024-05-24T08:00:00","end":"2024-05-24T20:30:00Z","end_local":"2024-05-24T20:30:00","updated":"2024-06-05T14:26:44Z"},{"title":"Odoo Roadshow Abidjan","description":"Sourced from predicthq.com - Discover Odoo with our experts and partners in Abidjan!","category":"conferences","start":"2024-05-23T18:00:00Z","geo":{"geometry":{"coordinates":[-3.936689,5.25862],"type":"Point"},"placekey":"@dvb-4w3-fcq","address":{"country_code":"CI","formatted_address":"Bd de l'Aéroport, Abidjan, Côte d'Ivoire","locality":"Abidjan","region":"District Autonome d'Abidjan"}},"labels":["business","conference"],"duration":10800,"start_local":"2024-05-23T18:00:00","end":"2024-05-23T21:00:00Z","end_local":"2024-05-23T21:00:00","updated":"2024-06-05T04:11:13Z"},{"title":"Ligue 1 - Stade d'Abidjan vs AFAD","description":"Sourced from predicthq.com","category":"sports","start":"2024-05-19T18:00:00Z","geo":{"geometry":{"coordinates":[-3.9925646781921387,5.305156527391162],"type":"Point"},"placekey":"@dv9-xx6-tsq","address":{"country_code":"CI","formatted_address":"8245+22M, Abidjan, Côte d'Ivoire","locality":"Abidjan","region":"Abidjan Autonomous District"}},"labels":["soccer","sport"],"duration":0,"start_local":"2024-05-19T18:00:00","end":"2024-05-19T18:00:00Z","end_local":"2024-05-19T18:00:00","updated":"2024-06-12T19:03:14Z"},{"title":"Ligue 1 - SOL vs Denguélé","description":"Sourced from predicthq.com","category":"sports","start":"2024-05-19T15:30:00Z","geo":{"geometry":{"coordinates":[-3.9925646781921387,5.305156527391162],"type":"Point"},"placekey":"@dv9-xx6-tsq","address":{"country_code":"CI","formatted_address":"8245+22M, Abidjan, Côte d'Ivoire","locality":"Abidjan","region":"Abidjan Autonomous District"}},"labels":["soccer","sport"],"duration":0,"start_local":"2024-05-19T15:30:00","end":"2024-05-19T15:30:00Z","end_local":"2024-05-19T15:30:00","updated":"2024-06-12T01:59:39Z"},{"title":"Sunday Special Festival","description":"Sourced from predicthq.com - Explorez la gastronomie ghanéenne au Special Sunday Brunch de AfrikMe Aduane. Buffet exquis, démos culinaires, ambiance culturelle.","category":"festivals","start":"2024-05-19T11:00:00Z","geo":{"geometry":{"coordinates":[-3.9546877,5.373353],"type":"Point"},"placekey":"@dvb-3ht-rzf","address":{"country_code":"CI","formatted_address":"Abidjan, Abidjan Autonomous District, Côte d'Ivoire","locality":"Abidjan","region":"Abidjan Autonomous District"}},"labels":["festival","food"],"duration":18000,"start_local":"2024-05-19T11:00:00","end":"2024-05-19T16:00:00Z","end_local":"2024-05-19T16:00:00","updated":"2024-06-05T14:26:36Z"},{"title":"Ligue 1 - Zoman vs ASEC Mimosas","description":"Sourced from predicthq.com","category":"sports","start":"2024-05-18T17:45:00Z","geo":{"geometry":{"coordinates":[-3.9925646781921387,5.305156527391162],"type":"Point"},"placekey":"@dv9-xx6-tsq","address":{"country_code":"CI","formatted_address":"8245+22M, Abidjan, Côte d'Ivoire","locality":"Abidjan","region":"Abidjan Autonomous District"}},"labels":["soccer","sport"],"duration":0,"start_local":"2024-05-18T17:45:00","end":"2024-05-18T17:45:00Z","end_local":"2024-05-18T17:45:00","updated":"2024-06-12T07:15:12Z"},{"title":"Ligue 1 - SOA vs Mouna","description":"Sourced from predicthq.com","category":"sports","start":"2024-05-18T15:30:00Z","geo":{"geometry":{"coordinates":[-5.247882628,6.822538821],"type":"Point"},"placekey":"@dvc-gkt-5zz","address":{"country_code":"CI","formatted_address":"Yamoussoukro, Côte d'Ivoire","locality":"Yamoussoukro","region":"Yamoussoukro District"}},"labels":["soccer","sport"],"duration":0,"start_local":"2024-05-18T15:30:00","end":"2024-05-18T15:30:00Z","end_local":"2024-05-18T15:30:00","updated":"2024-06-11T23:14:19Z"},{"title":"Ligue 1 - Sporting Gagnoa vs San-Pédro","description":"Sourced from predicthq.com","category":"sports","start":"2024-05-18T15:30:00Z","geo":{"geometry":{"coordinates":[-5.961402654647827,6.119145123366609],"type":"Point"},"placekey":"@dws-bpj-28v","address":{"country_code":"CI","formatted_address":"Ouragahio, Gagnoa, Côte d'Ivoire","locality":"Ouragahio, Gagnoa"}},"labels":["soccer","sport"],"duration":0,"start_local":"2024-05-18T15:30:00","end":"2024-05-18T15:30:00Z","end_local":"2024-05-18T15:30:00","updated":"2024-06-12T17:01:32Z"},{"title":"Ligue 1 - Lys Sassandra vs Korhogo","description":"Sourced from predicthq.com","category":"sports","start":"2024-05-18T15:30:00Z","geo":{"geometry":{"coordinates":[-6.638274192810059,4.760776300762804],"type":"Point"},"placekey":"@ds2-v8z-wx5","address":{"country_code":"CI","formatted_address":"Q966+GGP, San-Pedro, Côte d'Ivoire","locality":"San-Pedro","region":"Bas-Sassandra District"}},"labels":["soccer","sport"],"duration":0,"start_local":"2024-05-18T15:30:00","end":"2024-05-18T15:30:00Z","end_local":"2024-05-18T15:30:00","updated":"2024-06-11T21:29:42Z"},{"title":"Ligue 1 - AFAD vs SOL","description":"Sourced from predicthq.com","category":"sports","start":"2024-05-13T18:00:00Z","geo":{"geometry":{"coordinates":[-3.9925646781921387,5.305156527391162],"type":"Point"},"placekey":"@dv9-xx6-tsq","address":{"country_code":"CI","formatted_address":"8245+22M, Abidjan, Côte d'Ivoire","locality":"Abidjan","region":"Abidjan Autonomous District"}},"labels":["soccer","sport"],"duration":0,"start_local":"2024-05-13T18:00:00","end":"2024-05-13T18:00:00Z","end_local":"2024-05-13T18:00:00","updated":"2024-06-11T23:59:21Z"},{"title":"Ligue 1 - Korhogo vs Racing d'Abidjan","description":"Sourced from predicthq.com","category":"sports","start":"2024-05-13T15:30:00Z","geo":{"geometry":{"coordinates":[-3.9925646781921387,5.305156527391162],"type":"Point"},"placekey":"@dv9-xx6-tsq","address":{"country_code":"CI","formatted_address":"8245+22M, Abidjan, Côte d'Ivoire","locality":"Abidjan","region":"Abidjan Autonomous District"}},"labels":["soccer","sport"],"duration":0,"start_local":"2024-05-13T15:30:00","end":"2024-05-13T15:30:00Z","end_local":"2024-05-13T15:30:00","updated":"2024-06-12T05:36:35Z"},{"title":"Ligue 1 - ASEC Mimosas vs Stella","description":"Sourced from predicthq.com","category":"sports","start":"2024-05-12T18:00:00Z","geo":{"geometry":{"coordinates":[-3.9925646781921387,5.305156527391162],"type":"Point"},"placekey":"@dv9-xx6-tsq","address":{"country_code":"CI","formatted_address":"8245+22M, Abidjan, Côte d'Ivoire","locality":"Abidjan","region":"Abidjan Autonomous District"}},"labels":["soccer","sport"],"duration":0,"start_local":"2024-05-12T18:00:00","end":"2024-05-12T18:00:00Z","end_local":"2024-05-12T18:00:00","updated":"2024-06-12T13:54:51Z"},{"title":"Ligue 1 - San-Pédro vs SOA","description":"Sourced from predicthq.com","category":"sports","start":"2024-05-12T15:30:00Z","geo":{"geometry":{"coordinates":[-6.638274192810059,4.760776300762804],"type":"Point"},"placekey":"@ds2-v8z-wx5","address":{"country_code":"CI","formatted_address":"Q966+GGP, San-Pedro, Côte d'Ivoire","locality":"San-Pedro","region":"Bas-Sassandra District"}},"labels":["soccer","sport"],"duration":0,"start_local":"2024-05-12T15:30:00","end":"2024-05-12T15:30:00Z","end_local":"2024-05-12T15:30:00","updated":"2024-06-12T15:16:15Z"},{"title":"Ligue 1 - Mouna vs Sporting Gagnoa","description":"Sourced from predicthq.com","category":"sports","start":"2024-05-12T15:30:00Z","geo":{"geometry":{"coordinates":[-3.88971,5.359296665],"type":"Point"},"placekey":"@dvb-4wp-x3q","address":{"country_code":"CI","formatted_address":"9456+P47, Bingerville, Côte d'Ivoire","locality":"Bingerville","region":"Abidjan Autonomous District"}},"labels":["soccer","sport"],"duration":0,"start_local":"2024-05-12T15:30:00","end":"2024-05-12T15:30:00Z","end_local":"2024-05-12T15:30:00","updated":"2024-06-12T18:07:55Z"},{"title":"Ligue 1 - Denguélé vs Stade d'Abidjan","description":"Sourced from predicthq.com","category":"sports","start":"2024-05-12T15:30:00Z","geo":{"geometry":{"coordinates":[-4.006367325782776,5.297459465942105],"type":"Point"},"placekey":"@dv9-xtz-t9z","address":{"country_code":"CI","formatted_address":"7XXV+388, Boulevard de Marseille, Abidjan, Côte d'Ivoire","locality":"Abidjan","region":"Abidjan Autonomous District"}},"labels":["soccer","sport"],"duration":0,"start_local":"2024-05-12T15:30:00","end":"2024-05-12T15:30:00Z","end_local":"2024-05-12T15:30:00","updated":"2024-06-11T23:55:19Z"},{"title":"Ligue 1 - Indenié Abengourou vs Zoman","description":"Sourced from predicthq.com","category":"sports","start":"2024-05-12T15:30:00Z","geo":{"geometry":{"coordinates":[-3.9925646781921387,5.305156527391162],"type":"Point"},"placekey":"@dv9-xx6-tsq","address":{"country_code":"CI","formatted_address":"8245+22M, Abidjan, Côte d'Ivoire","locality":"Abidjan","region":"Abidjan Autonomous District"}},"labels":["soccer","sport"],"duration":0,"start_local":"2024-05-12T15:30:00","end":"2024-05-12T15:30:00Z","end_local":"2024-05-12T15:30:00","updated":"2024-06-12T08:20:25Z"},{"title":"Ligue 1 - Bouaké vs Lys Sassandra","description":"Sourced from predicthq.com","category":"sports","start":"2024-05-12T15:30:00Z","geo":{"geometry":{"coordinates":[-5.044757723808289,7.682906771234329],"type":"Point"},"placekey":"@dv7-v24-j35","address":{"country_code":"CI","formatted_address":"MXM4+54C, A8, Bouake, Côte d'Ivoire","locality":"Bouake","region":"Vallée du Bandama District"}},"labels":["soccer","sport"],"duration":0,"start_local":"2024-05-12T15:30:00","end":"2024-05-12T15:30:00Z","end_local":"2024-05-12T15:30:00","updated":"2024-06-12T06:19:22Z"},{"title":"Sunday Special Festival","description":"Sourced from predicthq.com - Explorez la gastronomie ghanéenne au Special Sunday Brunch de AfrikMe Aduane. Buffet exquis, démos culinaires, ambiance culturelle.","category":"festivals","start":"2024-05-12T11:00:00Z","geo":{"geometry":{"coordinates":[-3.9546877,5.373353],"type":"Point"},"placekey":"@dvb-3ht-rzf","address":{"country_code":"CI","formatted_address":"Abidjan, Abidjan Autonomous District, Côte d'Ivoire","locality":"Abidjan","region":"Abidjan Autonomous District"}},"labels":["festival","food"],"duration":18000,"start_local":"2024-05-12T11:00:00","end":"2024-05-12T16:00:00Z","end_local":"2024-05-12T16:00:00","updated":"2024-06-05T17:11:09Z"},{"title":"CONFÉRENCE SUR L'ENTREPRENEURIAT","description":"Sourced from predicthq.com - Il s'agit d'une conférence-formation de grande envergure qui réunira l'univers estudiantin et des hautes représentant de l'économie mondiale","category":"conferences","start":"2024-05-11T10:00:00Z","geo":{"geometry":{"coordinates":[-3.9023653,5.3600411],"type":"Point"},"placekey":"@dvb-4xh-d9z","address":{"country_code":"CI","formatted_address":"Bingerville, Abidjan Autonomous District, Côte d'Ivoire","locality":"Bingerville","region":"Abidjan Autonomous District"}},"labels":["business","conference"],"duration":7200,"start_local":"2024-05-11T10:00:00","end":"2024-05-11T12:00:00Z","end_local":"2024-05-11T12:00:00","updated":"2024-06-05T02:44:04Z"},{"title":"Ligue 1 - Racing d'Abidjan vs ASEC Mimosas","description":"Sourced from predicthq.com","category":"sports","start":"2024-05-09T18:00:00Z","geo":{"geometry":{"coordinates":[-3.9925646781921387,5.305156527391162],"type":"Point"},"placekey":"@dv9-xx6-tsq","address":{"country_code":"CI","formatted_address":"8245+22M, Abidjan, Côte d'Ivoire","locality":"Abidjan","region":"Abidjan Autonomous District"}},"labels":["soccer","sport"],"duration":0,"start_local":"2024-05-09T18:00:00","end":"2024-05-09T18:00:00Z","end_local":"2024-05-09T18:00:00","updated":"2024-06-11T22:42:04Z"},{"title":"Ligue 1 - Lys Sassandra vs Indenié Abengourou","description":"Sourced from predicthq.com","category":"sports","start":"2024-05-09T16:00:00Z","geo":{"geometry":{"coordinates":[-6.638274192810059,4.760776300762804],"type":"Point"},"placekey":"@ds2-v8z-wx5","address":{"country_code":"CI","formatted_address":"Q966+GGP, San-Pedro, Côte d'Ivoire","locality":"San-Pedro","region":"Bas-Sassandra District"}},"labels":["soccer","sport"],"duration":0,"start_local":"2024-05-09T16:00:00","end":"2024-05-09T16:00:00Z","end_local":"2024-05-09T16:00:00","updated":"2024-06-12T17:19:41Z"},{"title":"Ligue 1 - SOL vs San-Pédro","description":"Sourced from predicthq.com","category":"sports","start":"2024-05-09T16:00:00Z","geo":{"geometry":{"coordinates":[-4.006367325782776,5.297459465942105],"type":"Point"},"placekey":"@dv9-xtz-t9z","address":{"country_code":"CI","formatted_address":"7XXV+388, Boulevard de Marseille, Abidjan, Côte d'Ivoire","locality":"Abidjan","region":"Abidjan Autonomous District"}},"labels":["soccer","sport"],"duration":0,"start_local":"2024-05-09T16:00:00","end":"2024-05-09T16:00:00Z","end_local":"2024-05-09T16:00:00","updated":"2024-06-12T07:11:42Z"},{"title":"Ligue 1 - Stade d'Abidjan vs Mouna","description":"Sourced from predicthq.com","category":"sports","start":"2024-05-09T15:30:00Z","geo":{"geometry":{"coordinates":[-3.9925646781921387,5.305156527391162],"type":"Point"},"placekey":"@dv9-xx6-tsq","address":{"country_code":"CI","formatted_address":"8245+22M, Abidjan, Côte d'Ivoire","locality":"Abidjan","region":"Abidjan Autonomous District"}},"labels":["soccer","sport"],"duration":0,"start_local":"2024-05-09T15:30:00","end":"2024-05-09T15:30:00Z","end_local":"2024-05-09T15:30:00","updated":"2024-06-12T09:33:52Z"},{"title":"Ligue 1 - Zoman vs Bouaké","description":"Sourced from predicthq.com","category":"sports","start":"2024-05-08T18:00:00Z","geo":{"geometry":{"coordinates":[-3.9925646781921387,5.305156527391162],"type":"Point"},"placekey":"@dv9-xx6-tsq","address":{"country_code":"CI","formatted_address":"8245+22M, Abidjan, Côte d'Ivoire","locality":"Abidjan","region":"Abidjan Autonomous District"}},"labels":["soccer","sport"],"duration":0,"start_local":"2024-05-08T18:00:00","end":"2024-05-08T18:00:00Z","end_local":"2024-05-08T18:00:00","updated":"2024-06-12T01:03:16Z"},{"title":"Mtalk : Mathieu Carenzo","description":"Sourced from predicthq.com - Retrouvez nous ce Mercredi 8 Mai 2024 au Mstudio pour parler des criteres de selection des business angels pour les startups africaines.","category":"conferences","start":"2024-05-08T17:30:00Z","geo":{"geometry":{"coordinates":[-4.001941,5.3268452],"type":"Point"},"placekey":"@dv9-xwn-9cq","address":{"country_code":"CI","formatted_address":"Abidjan, District Autonome d'Abidjan, Côte d'Ivoire","locality":"Abidjan","region":"District Autonome d'Abidjan"}},"labels":["business","conference"],"duration":9000,"start_local":"2024-05-08T17:30:00","end":"2024-05-08T20:00:00Z","end_local":"2024-05-08T20:00:00","updated":"2024-06-05T16:43:00Z"},{"title":"Ligue 1 - SOA vs AFAD","description":"Sourced from predicthq.com","category":"sports","start":"2024-05-08T16:00:00Z","geo":{"geometry":{"coordinates":[-5.247882628,6.822538821],"type":"Point"},"placekey":"@dvc-gkt-5zz","address":{"country_code":"CI","formatted_address":"Yamoussoukro, Côte d'Ivoire","locality":"Yamoussoukro","region":"Yamoussoukro District"}},"labels":["soccer","sport"],"duration":0,"start_local":"2024-05-08T16:00:00","end":"2024-05-08T16:00:00Z","end_local":"2024-05-08T16:00:00","updated":"2024-06-12T01:47:34Z"},{"title":"Ligue 1 - Sporting Gagnoa vs Denguélé","description":"Sourced from predicthq.com","category":"sports","start":"2024-05-08T16:00:00Z","geo":{"geometry":{"coordinates":[-5.961402654647827,6.119145123366609],"type":"Point"},"placekey":"@dws-bpj-28v","address":{"country_code":"CI","formatted_address":"Ouragahio, Gagnoa, Côte d'Ivoire","locality":"Ouragahio, Gagnoa"}},"labels":["soccer","sport"],"duration":0,"start_local":"2024-05-08T16:00:00","end":"2024-05-08T16:00:00Z","end_local":"2024-05-08T16:00:00","updated":"2024-06-12T10:38:57Z"},{"title":"Ligue 1 - Stella vs Korhogo","description":"Sourced from predicthq.com","category":"sports","start":"2024-05-08T15:30:00Z","geo":{"geometry":{"coordinates":[-3.9925646781921387,5.305156527391162],"type":"Point"},"placekey":"@dv9-xx6-tsq","address":{"country_code":"CI","formatted_address":"8245+22M, Abidjan, Côte d'Ivoire","locality":"Abidjan","region":"Abidjan Autonomous District"}},"labels":["soccer","sport"],"duration":0,"start_local":"2024-05-08T15:30:00","end":"2024-05-08T15:30:00Z","end_local":"2024-05-08T15:30:00","updated":"2024-06-12T05:42:28Z"},{"title":"Ligue 1 - ASEC Mimosas vs Lys Sassandra","description":"Sourced from predicthq.com","category":"sports","start":"2024-05-05T18:00:00Z","geo":{"geometry":{"coordinates":[-3.9925646781921387,5.305156527391162],"type":"Point"},"placekey":"@dv9-xx6-tsq","address":{"country_code":"CI","formatted_address":"8245+22M, Abidjan, Côte d'Ivoire","locality":"Abidjan","region":"Abidjan Autonomous District"}},"labels":["soccer","sport"],"duration":0,"start_local":"2024-05-05T18:00:00","end":"2024-05-05T18:00:00Z","end_local":"2024-05-05T18:00:00","updated":"2024-06-12T20:18:40Z"},{"title":"Ligue 1 - AFAD vs Sporting Gagnoa","description":"Sourced from predicthq.com","category":"sports","start":"2024-05-05T16:00:00Z","geo":{"geometry":{"coordinates":[-4.006367325782776,5.297459465942105],"type":"Point"},"placekey":"@dv9-xtz-t9z","address":{"country_code":"CI","formatted_address":"7XXV+388, Boulevard de Marseille, Abidjan, Côte d'Ivoire","locality":"Abidjan","region":"Abidjan Autonomous District"}},"labels":["soccer","sport"],"duration":0,"start_local":"2024-05-05T16:00:00","end":"2024-05-05T16:00:00Z","end_local":"2024-05-05T16:00:00","updated":"2024-06-12T00:02:32Z"},{"title":"Ligue 1 - San-Pédro vs Stade d'Abidjan","description":"Sourced from predicthq.com","category":"sports","start":"2024-05-05T16:00:00Z","geo":{"geometry":{"coordinates":[-6.638274192810059,4.760776300762804],"type":"Point"},"placekey":"@ds2-v8z-wx5","address":{"country_code":"CI","formatted_address":"Q966+GGP, San-Pedro, Côte d'Ivoire","locality":"San-Pedro","region":"Bas-Sassandra District"}},"labels":["soccer","sport"],"duration":0,"start_local":"2024-05-05T16:00:00","end":"2024-05-05T16:00:00Z","end_local":"2024-05-05T16:00:00","updated":"2024-06-11T21:21:39Z"},{"title":"Ligue 1 - Indenié Abengourou vs Racing d'Abidjan","description":"Sourced from predicthq.com","category":"sports","start":"2024-05-05T15:30:00Z","geo":{"geometry":{"coordinates":[-3.9925646781921387,5.305156527391162],"type":"Point"},"placekey":"@dv9-xx6-tsq","address":{"country_code":"CI","formatted_address":"8245+22M, Abidjan, Côte d'Ivoire","locality":"Abidjan","region":"Abidjan Autonomous District"}},"labels":["soccer","sport"],"duration":0,"start_local":"2024-05-05T15:30:00","end":"2024-05-05T15:30:00Z","end_local":"2024-05-05T15:30:00","updated":"2024-06-11T23:45:33Z"},{"title":"Sunday Special Festival","description":"Sourced from predicthq.com - Explorez la gastronomie ghanéenne au Special Sunday Brunch de AfrikMe Aduane. Buffet exquis, démos culinaires, ambiance culturelle.","category":"festivals","start":"2024-05-05T11:00:00Z","geo":{"geometry":{"coordinates":[-3.9546877,5.373353],"type":"Point"},"placekey":"@dvb-3ht-rzf","address":{"country_code":"CI","formatted_address":"Abidjan, Abidjan Autonomous District, Côte d'Ivoire","locality":"Abidjan","region":"Abidjan Autonomous District"}},"labels":["festival","food"],"duration":18000,"start_local":"2024-05-05T11:00:00","end":"2024-05-05T16:00:00Z","end_local":"2024-05-05T16:00:00","updated":"2024-06-05T10:32:51Z"},{"title":"Ligue 1 - Mouna vs SOL","description":"Sourced from predicthq.com","category":"sports","start":"2024-05-04T17:45:00Z","geo":{"geometry":{"coordinates":[-3.9925646781921387,5.305156527391162],"type":"Point"},"placekey":"@dv9-xx6-tsq","address":{"country_code":"CI","formatted_address":"8245+22M, Abidjan, Côte d'Ivoire","locality":"Abidjan","region":"Abidjan Autonomous District"}},"labels":["soccer","sport"],"duration":0,"start_local":"2024-05-04T17:45:00","end":"2024-05-04T17:45:00Z","end_local":"2024-05-04T17:45:00","updated":"2024-06-12T12:46:57Z"},{"title":"Ligue 1 - Korhogo vs Zoman","description":"Sourced from predicthq.com","category":"sports","start":"2024-05-04T16:00:00Z","geo":{"geometry":{"coordinates":[-4.006367325782776,5.297459465942105],"type":"Point"},"placekey":"@dv9-xtz-t9z","address":{"country_code":"CI","formatted_address":"7XXV+388, Boulevard de Marseille, Abidjan, Côte d'Ivoire","locality":"Abidjan","region":"Abidjan Autonomous District"}},"labels":["soccer","sport"],"duration":0,"start_local":"2024-05-04T16:00:00","end":"2024-05-04T16:00:00Z","end_local":"2024-05-04T16:00:00","updated":"2024-06-12T04:58:51Z"},{"title":"Ligue 1 - Bouaké vs Stella","description":"Sourced from predicthq.com","category":"sports","start":"2024-05-04T16:00:00Z","geo":{"geometry":{"coordinates":[-5.041949432,7.682732685],"type":"Point"},"placekey":"@dv7-v24-3yv","address":{"country_code":"CI","formatted_address":"MXM5+36 Bouake, Côte d'Ivoire","locality":"Bouake","region":"Vallée du Bandama District"}},"labels":["soccer","sport"],"duration":0,"start_local":"2024-05-04T16:00:00","end":"2024-05-04T16:00:00Z","end_local":"2024-05-04T16:00:00","updated":"2024-06-11T21:46:36Z"},{"title":"Ligue 1 - Denguélé vs SOA","description":"Sourced from predicthq.com","category":"sports","start":"2024-05-04T15:30:00Z","geo":{"geometry":{"coordinates":[-3.9925646781921387,5.305156527391162],"type":"Point"},"placekey":"@dv9-xx6-tsq","address":{"country_code":"CI","formatted_address":"8245+22M, Abidjan, Côte d'Ivoire","locality":"Abidjan","region":"Abidjan Autonomous District"}},"labels":["soccer","sport"],"duration":0,"start_local":"2024-05-04T15:30:00","end":"2024-05-04T15:30:00Z","end_local":"2024-05-04T15:30:00","updated":"2024-06-12T10:46:24Z"},{"title":"Vision Day Côte D’Ivoire","description":"Sourced from predicthq.com - Plongez dans l'histoire lors du \"Vision Day Côte d'Ivoire\" du 3 au 4 mai 2024","category":"conferences","start":"2024-05-04T13:00:00Z","geo":{"geometry":{"coordinates":[-4.086396500000001,5.3072078],"type":"Point"},"placekey":"@dv9-xvr-zzz","address":{"country_code":"CI","formatted_address":"Azito, Abidjan Autonomous District, Côte d'Ivoire","locality":"Azito","region":"Abidjan Autonomous District"}},"labels":["business","conference"],"duration":14400,"start_local":"2024-05-04T13:00:00","end":"2024-05-04T17:00:00Z","end_local":"2024-05-04T17:00:00","updated":"2024-06-05T21:07:52Z"},{"title":"FORMATION IMMOBILIERE GRATUITE","description":"Sourced from predicthq.com - Viens apprendre tout sur l'immobilier sans dépenser un sou lors de notre formation gratuite en personne!","category":"conferences","start":"2024-05-04T08:30:00Z","geo":{"geometry":{"coordinates":[-4.0082563,5.3599517],"type":"Point"},"placekey":"@dv9-xws-s89","address":{"country_code":"CI","formatted_address":"Abidjan, Abidjan Autonomous District, Côte d'Ivoire","locality":"Abidjan","region":"Abidjan Autonomous District"}},"labels":["business","conference"],"duration":19800,"start_local":"2024-05-04T08:30:00","end":"2024-05-04T14:00:00Z","end_local":"2024-05-04T14:00:00","updated":"2024-06-05T07:49:35Z"},{"title":"Salon des Animaux de Compagnie","description":"Sourced from predicthq.com - Bienvenue au Salon des Animaux de Compagnie, l'événement incontournable pour les amoureux des animaux et leurs fidèles compagnons.","category":"expos","start":"2024-05-03T08:30:00Z","geo":{"geometry":{"coordinates":[-3.9627392,5.3361618],"type":"Point"},"placekey":"@dvb-4vs-vpv","address":{"country_code":"CI","formatted_address":"Boulevard de France, Abidjan, Côte d'Ivoire","locality":"Abidjan","region":"District Autonome d'Abidjan"}},"labels":["expo"],"duration":120600,"start_local":"2024-05-03T08:30:00","end":"2024-05-04T18:00:00Z","end_local":"2024-05-04T18:00:00","updated":"2024-06-05T15:58:47Z"},{"title":"Ligue 1 - Stella vs San-Pédro","description":"Sourced from predicthq.com","category":"sports","start":"2024-04-28T18:00:00Z","geo":{"geometry":{"coordinates":[-3.9925646781921387,5.305156527391162],"type":"Point"},"placekey":"@dv9-xx6-tsq","address":{"country_code":"CI","formatted_address":"8245+22M, Abidjan, Côte d'Ivoire","locality":"Abidjan","region":"Abidjan Autonomous District"}},"labels":["soccer","sport"],"duration":0,"start_local":"2024-04-28T18:00:00","end":"2024-04-28T18:00:00Z","end_local":"2024-04-28T18:00:00","updated":"2024-06-12T08:55:27Z"},{"title":"Ligue 1 - SOL vs Korhogo","description":"Sourced from predicthq.com","category":"sports","start":"2024-04-28T15:30:00Z","geo":{"geometry":{"coordinates":[-3.9925646781921387,5.305156527391162],"type":"Point"},"placekey":"@dv9-xx6-tsq","address":{"country_code":"CI","formatted_address":"8245+22M, Abidjan, Côte d'Ivoire","locality":"Abidjan","region":"Abidjan Autonomous District"}},"labels":["soccer","sport"],"duration":0,"start_local":"2024-04-28T15:30:00","end":"2024-04-28T15:30:00Z","end_local":"2024-04-28T15:30:00","updated":"2024-06-12T04:06:37Z"},{"title":"Ligue 1 - SOA vs ASEC Mimosas","description":"Sourced from predicthq.com","category":"sports","start":"2024-04-28T15:30:00Z","geo":{"geometry":{"coordinates":[-5.044757723808289,7.682906771234329],"type":"Point"},"placekey":"@dv7-v24-j35","address":{"country_code":"CI","formatted_address":"MXM4+54C, A8, Bouake, Côte d'Ivoire","locality":"Bouake","region":"Vallée du Bandama District"}},"labels":["soccer","sport"],"duration":0,"start_local":"2024-04-28T15:30:00","end":"2024-04-28T15:30:00Z","end_local":"2024-04-28T15:30:00","updated":"2024-06-12T02:25:29Z"},{"title":"Ligue 1 - Stade d'Abidjan vs Bouaké","description":"Sourced from predicthq.com","category":"sports","start":"2024-04-27T17:45:00Z","geo":{"geometry":{"coordinates":[-3.9925646781921387,5.305156527391162],"type":"Point"},"placekey":"@dv9-xx6-tsq","address":{"country_code":"CI","formatted_address":"8245+22M, Abidjan, Côte d'Ivoire","locality":"Abidjan","region":"Abidjan Autonomous District"}},"labels":["soccer","sport"],"duration":0,"start_local":"2024-04-27T17:45:00","end":"2024-04-27T17:45:00Z","end_local":"2024-04-27T17:45:00","updated":"2024-06-12T13:51:44Z"},{"title":"Ligue 1 - Sporting Gagnoa vs Indenié Abengourou","description":"Sourced from predicthq.com","category":"sports","start":"2024-04-27T15:30:00Z","geo":{"geometry":{"coordinates":[-5.961402654647827,6.119145123366609],"type":"Point"},"placekey":"@dws-bpj-28v","address":{"country_code":"CI","formatted_address":"Ouragahio, Gagnoa, Côte d'Ivoire","locality":"Ouragahio, Gagnoa"}},"labels":["soccer","sport"],"duration":0,"start_local":"2024-04-27T15:30:00","end":"2024-04-27T15:30:00Z","end_local":"2024-04-27T15:30:00","updated":"2024-06-12T08:50:01Z"},{"title":"Ligue 1 - Lys Sassandra vs Denguélé","description":"Sourced from predicthq.com","category":"sports","start":"2024-04-27T15:30:00Z","geo":{"geometry":{"coordinates":[-6.638274192810059,4.760776300762804],"type":"Point"},"placekey":"@ds2-v8z-wx5","address":{"country_code":"CI","formatted_address":"Q966+GGP, San-Pedro, Côte d'Ivoire","locality":"San-Pedro","region":"Bas-Sassandra District"}},"labels":["soccer","sport"],"duration":0,"start_local":"2024-04-27T15:30:00","end":"2024-04-27T15:30:00Z","end_local":"2024-04-27T15:30:00","updated":"2024-06-12T11:44:36Z"},{"title":"Ligue 1 - Racing d'Abidjan vs AFAD","description":"Sourced from predicthq.com","category":"sports","start":"2024-04-27T15:30:00Z","geo":{"geometry":{"coordinates":[-3.9925646781921387,5.305156527391162],"type":"Point"},"placekey":"@dv9-xx6-tsq","address":{"country_code":"CI","formatted_address":"8245+22M, Abidjan, Côte d'Ivoire","locality":"Abidjan","region":"Abidjan Autonomous District"}},"labels":["soccer","sport"],"duration":0,"start_local":"2024-04-27T15:30:00","end":"2024-04-27T15:30:00Z","end_local":"2024-04-27T15:30:00","updated":"2024-06-12T03:52:35Z"},{"title":"Ligue 1 - Zoman vs Mouna","description":"Sourced from predicthq.com","category":"sports","start":"2024-04-27T15:30:00Z","geo":{"geometry":{"coordinates":[-4.006367325782776,5.297459465942105],"type":"Point"},"placekey":"@dv9-xtz-t9z","address":{"country_code":"CI","formatted_address":"7XXV+388, Boulevard de Marseille, Abidjan, Côte d'Ivoire","locality":"Abidjan","region":"Abidjan Autonomous District"}},"labels":["soccer","sport"],"duration":0,"start_local":"2024-04-27T15:30:00","end":"2024-04-27T15:30:00Z","end_local":"2024-04-27T15:30:00","updated":"2024-06-12T06:59:19Z"},{"title":"Ligue 1 - Korhogo vs ASEC Mimosas","description":"Sourced from predicthq.com","category":"sports","start":"2024-04-25T16:00:00Z","geo":{"geometry":{"coordinates":[-3.9925646781921387,5.305156527391162],"type":"Point"},"placekey":"@dv9-xx6-tsq","address":{"country_code":"CI","formatted_address":"8245+22M, Abidjan, Côte d'Ivoire","locality":"Abidjan","region":"Abidjan Autonomous District"}},"labels":["soccer","sport"],"duration":0,"start_local":"2024-04-25T16:00:00","end":"2024-04-25T16:00:00Z","end_local":"2024-04-25T16:00:00","updated":"2024-06-11T23:28:39Z"},{"title":"Ligue 1 - ASEC Mimosas vs Sporting Gagnoa","description":"Sourced from predicthq.com","category":"sports","start":"2024-04-21T18:00:00Z","geo":{"geometry":{"coordinates":[-3.9925646781921387,5.305156527391162],"type":"Point"},"placekey":"@dv9-xx6-tsq","address":{"country_code":"CI","formatted_address":"8245+22M, Abidjan, Côte d'Ivoire","locality":"Abidjan","region":"Abidjan Autonomous District"}},"labels":["soccer","sport"],"duration":0,"start_local":"2024-04-21T18:00:00","end":"2024-04-21T18:00:00Z","end_local":"2024-04-21T18:00:00","updated":"2024-06-12T18:01:28Z"},{"title":"Ligue 1 - Indenié Abengourou vs SOA","description":"Sourced from predicthq.com","category":"sports","start":"2024-04-21T15:30:00Z","geo":{"geometry":{"coordinates":[-4.006367325782776,5.297459465942105],"type":"Point"},"placekey":"@dv9-xtz-t9z","address":{"country_code":"CI","formatted_address":"7XXV+388, Boulevard de Marseille, Abidjan, Côte d'Ivoire","locality":"Abidjan","region":"Abidjan Autonomous District"}},"labels":["soccer","sport"],"duration":0,"start_local":"2024-04-21T15:30:00","end":"2024-04-21T15:30:00Z","end_local":"2024-04-21T15:30:00","updated":"2024-06-12T13:54:21Z"},{"title":"Ligue 1 - Bouaké vs SOL","description":"Sourced from predicthq.com","category":"sports","start":"2024-04-21T15:30:00Z","geo":{"geometry":{"coordinates":[-5.044757723808289,7.682906771234329],"type":"Point"},"placekey":"@dv7-v24-j35","address":{"country_code":"CI","formatted_address":"MXM4+54C, A8, Bouake, Côte d'Ivoire","locality":"Bouake","region":"Vallée du Bandama District"}},"labels":["soccer","sport"],"duration":0,"start_local":"2024-04-21T15:30:00","end":"2024-04-21T15:30:00Z","end_local":"2024-04-21T15:30:00","updated":"2024-06-12T05:33:30Z"},{"title":"Ligue 1 - Korhogo vs Stade d'Abidjan","description":"Sourced from predicthq.com","category":"sports","start":"2024-04-21T15:30:00Z","geo":{"geometry":{"coordinates":[-3.9925646781921387,5.305156527391162],"type":"Point"},"placekey":"@dv9-xx6-tsq","address":{"country_code":"CI","formatted_address":"8245+22M, Abidjan, Côte d'Ivoire","locality":"Abidjan","region":"Abidjan Autonomous District"}},"labels":["soccer","sport"],"duration":0,"start_local":"2024-04-21T15:30:00","end":"2024-04-21T15:30:00Z","end_local":"2024-04-21T15:30:00","updated":"2024-06-11T22:28:01Z"},{"title":"Sunday Special Festival","description":"Sourced from predicthq.com - Explorez la gastronomie ghanéenne au Special Sunday Brunch de AfrikMe Aduane. Buffet exquis, démos culinaires, ambiance culturelle.","category":"festivals","start":"2024-04-21T11:00:00Z","geo":{"geometry":{"coordinates":[-3.9546877,5.373353],"type":"Point"},"placekey":"@dvb-3ht-rzf","address":{"country_code":"CI","formatted_address":"Abidjan, Abidjan Autonomous District, Côte d'Ivoire","locality":"Abidjan","region":"Abidjan Autonomous District"}},"labels":["festival","food"],"duration":18000,"start_local":"2024-04-21T11:00:00","end":"2024-04-21T16:00:00Z","end_local":"2024-04-21T16:00:00","updated":"2024-06-05T00:34:14Z"},{"title":"Ligue 1 - Denguélé vs Racing d'Abidjan","description":"Sourced from predicthq.com","category":"sports","start":"2024-04-20T17:45:00Z","geo":{"geometry":{"coordinates":[-3.9925646781921387,5.305156527391162],"type":"Point"},"placekey":"@dv9-xx6-tsq","address":{"country_code":"CI","formatted_address":"8245+22M, Abidjan, Côte d'Ivoire","locality":"Abidjan","region":"Abidjan Autonomous District"}},"labels":["soccer","sport"],"duration":0,"start_local":"2024-04-20T17:45:00","end":"2024-04-20T17:45:00Z","end_local":"2024-04-20T17:45:00","updated":"2024-06-12T11:37:12Z"},{"title":"Ligue 1 - San-Pédro vs Zoman","description":"Sourced from predicthq.com","category":"sports","start":"2024-04-20T15:30:00Z","geo":{"geometry":{"coordinates":[-6.638274192810059,4.760776300762804],"type":"Point"},"placekey":"@ds2-v8z-wx5","address":{"country_code":"CI","formatted_address":"Q966+GGP, San-Pedro, Côte d'Ivoire","locality":"San-Pedro","region":"Bas-Sassandra District"}},"labels":["soccer","sport"],"duration":0,"start_local":"2024-04-20T15:30:00","end":"2024-04-20T15:30:00Z","end_local":"2024-04-20T15:30:00","updated":"2024-06-12T00:40:33Z"},{"title":"Ligue 1 - AFAD vs Lys Sassandra","description":"Sourced from predicthq.com","category":"sports","start":"2024-04-20T15:30:00Z","geo":{"geometry":{"coordinates":[-4.006367325782776,5.297459465942105],"type":"Point"},"placekey":"@dv9-xtz-t9z","address":{"country_code":"CI","formatted_address":"7XXV+388, Boulevard de Marseille, Abidjan, Côte d'Ivoire","locality":"Abidjan","region":"Abidjan Autonomous District"}},"labels":["soccer","sport"],"duration":0,"start_local":"2024-04-20T15:30:00","end":"2024-04-20T15:30:00Z","end_local":"2024-04-20T15:30:00","updated":"2024-06-12T15:24:18Z"},{"title":"COMMENT PARLER EN PUBLIC ? CAPTIVER ET CONVAINCRE","description":"Sourced from predicthq.com - Tu veux apprendre à parler en public de manière captivante et convaincante ? Viens nous rejoindre pour des astuces et des conseils pratiques","category":"conferences","start":"2024-04-20T09:00:00Z","geo":{"geometry":{"coordinates":[-3.990394,5.3626784],"type":"Point"},"placekey":"@dvb-3hn-nkf","address":{"country_code":"CI","formatted_address":"Rue des Jardins, Abidjan, Côte d'Ivoire","locality":"Abidjan","region":"District Autonome d'Abidjan"}},"labels":["business","conference"],"duration":10800,"start_local":"2024-04-20T09:00:00","end":"2024-04-20T12:00:00Z","end_local":"2024-04-20T12:00:00","updated":"2024-06-04T22:21:01Z"},{"title":"Cérémonie de  lancement  de l'édition II du Projet SEPAT","description":"Sourced from predicthq.com - Le vendredi 19 avril 2024, de 08h30 à 16h30, nous vous convions à la cérémonie de lancement de la deuxième édition du projet SEPAT.","category":"conferences","start":"2024-04-19T08:30:00Z","geo":{"geometry":{"coordinates":[-3.9673911,5.3602303],"type":"Point"},"placekey":"@dvb-3hj-cwk","address":{"country_code":"CI","formatted_address":"Abidjan, Abidjan Autonomous District, Côte d'Ivoire","locality":"Abidjan","region":"Abidjan Autonomous District"}},"labels":["business","conference"],"duration":28800,"start_local":"2024-04-19T08:30:00","end":"2024-04-19T16:30:00Z","end_local":"2024-04-19T16:30:00","updated":"2024-06-05T17:28:00Z"},{"title":"Ligue 1 - ASEC Mimosas vs Bouaké","description":"Sourced from predicthq.com","category":"sports","start":"2024-04-18T16:00:00Z","geo":{"geometry":{"coordinates":[-3.9925646781921387,5.305156527391162],"type":"Point"},"placekey":"@dv9-xx6-tsq","address":{"country_code":"CI","formatted_address":"8245+22M, Abidjan, Côte d'Ivoire","locality":"Abidjan","region":"Abidjan Autonomous District"}},"labels":["soccer","sport"],"duration":0,"start_local":"2024-04-18T16:00:00","end":"2024-04-18T16:00:00Z","end_local":"2024-04-18T16:00:00","updated":"2024-06-12T13:06:47Z"},{"title":"Business Network Guinée-Côte d'Ivoire","description":"Sourced from predicthq.com - Rencontre d'Affaires de coopération entre les opérateurs économiques de Guinée Conakry et de Côte d'Ivoire. Promotion des investissements...","category":"conferences","start":"2024-04-17T10:00:00Z","geo":{"geometry":{"coordinates":[-4.004768200000001,5.3271008],"type":"Point"},"placekey":"@dv9-xwn-nbk","address":{"country_code":"CI","formatted_address":"Abidjan, District Autonome d'Abidjan, Côte d'Ivoire","locality":"Abidjan","region":"District Autonome d'Abidjan"}},"labels":["business","conference"],"duration":18000,"start_local":"2024-04-17T10:00:00","end":"2024-04-17T15:00:00Z","end_local":"2024-04-17T15:00:00","updated":"2024-06-05T10:49:11Z"},{"title":"Medical & Pharma Expo Ivory Coast","description":"Sourced from predicthq.com","category":"expos","start":"2024-04-15T09:00:00Z","geo":{"geometry":{"coordinates":[-4.017926,5.324743],"type":"Point"},"placekey":"@dv9-xty-vs5","address":{"country_code":"CI","formatted_address":"Avenue Marchand, Abidjan, Côte d'Ivoire","locality":"Abidjan","region":"Abidjan Autonomous District"}},"labels":["expo"],"duration":118800,"start_local":"2024-04-15T09:00:00","end":"2024-04-16T18:00:00Z","end_local":"2024-04-16T18:00:00","updated":"2024-05-31T22:52:47Z"},{"title":"Sunday Special Festival","description":"Sourced from predicthq.com - Explorez la gastronomie ghanéenne au Special Sunday Brunch de AfrikMe Aduane. Buffet exquis, démos culinaires, ambiance culturelle.","category":"festivals","start":"2024-04-14T11:00:00Z","geo":{"geometry":{"coordinates":[-3.9546877,5.373353],"type":"Point"},"placekey":"@dvb-3ht-rzf","address":{"country_code":"CI","formatted_address":"Abidjan, Abidjan Autonomous District, Côte d'Ivoire","locality":"Abidjan","region":"Abidjan Autonomous District"}},"labels":["festival","food"],"duration":18000,"start_local":"2024-04-14T11:00:00","end":"2024-04-14T16:00:00Z","end_local":"2024-04-14T16:00:00","updated":"2024-06-05T17:41:16Z"},{"title":"Lancement la WGQSR","description":"Sourced from predicthq.com - Rejoignez la révolution des femmes. Ensemble, cultivons confiance, impact et héritage. Devenez une Working Girl Qui Se Respecte","category":"conferences","start":"2024-04-11T18:00:00Z","geo":{"geometry":{"coordinates":[-4.018452799999999,5.324050400000001],"type":"Point"},"placekey":"@dv9-xty-vzz","address":{"country_code":"CI","formatted_address":"Rue Gourgas, Abidjan, Côte d'Ivoire","locality":"Abidjan","region":"Abidjan Autonomous District"}},"labels":["business","conference"],"duration":10800,"start_local":"2024-04-11T18:00:00","end":"2024-04-11T21:00:00Z","end_local":"2024-04-11T21:00:00","updated":"2024-06-05T00:41:02Z"},{"title":"Afterwork Mstudio x Myriam Carius","description":"Sourced from predicthq.com - Tout sur la loi startup et l'instruction de la BCEAO sur les fintechs : Opportunités et défis pour les startups en UEMOA","category":"conferences","start":"2024-04-11T16:30:00Z","geo":{"geometry":{"coordinates":[-4.001941,5.3268452],"type":"Point"},"placekey":"@dv9-xwn-9cq","address":{"country_code":"CI","formatted_address":"Abidjan, District Autonome d'Abidjan, Côte d'Ivoire","locality":"Abidjan","region":"District Autonome d'Abidjan"}},"labels":["business","conference"],"duration":10800,"start_local":"2024-04-11T16:30:00","end":"2024-04-11T19:30:00Z","end_local":"2024-04-11T19:30:00","updated":"2024-06-04T22:44:04Z"},{"title":"Ligue 1 - AFAD vs ASEC Mimosas","description":"Sourced from predicthq.com","category":"sports","start":"2024-04-10T16:00:00Z","geo":{"geometry":{"coordinates":[-3.9925646781921387,5.305156527391162],"type":"Point"},"placekey":"@dv9-xx6-tsq","address":{"country_code":"CI","formatted_address":"8245+22M, Abidjan, Côte d'Ivoire","locality":"Abidjan","region":"Abidjan Autonomous District"}},"labels":["soccer","sport"],"duration":0,"start_local":"2024-04-10T16:00:00","end":"2024-04-10T16:00:00Z","end_local":"2024-04-10T16:00:00","updated":"2024-06-12T11:54:43Z"},{"title":"Développement durable pour une rentabilité en Entreprise","description":"Sourced from predicthq.com - Un événement incontournable pour découvrir comment le développement durable peut augmenter la rentabilité des entreprises.","category":"conferences","start":"2024-04-10T09:00:00Z","geo":{"geometry":{"coordinates":[-3.996552799999999,5.331534],"type":"Point"},"placekey":"@dv9-xwg-8qf","address":{"country_code":"CI","formatted_address":"Rue Sainte Marie, Abidjan, Côte d'Ivoire","locality":"Abidjan","region":"District Autonome d'Abidjan"}},"labels":["business","conference"],"duration":25200,"start_local":"2024-04-10T09:00:00","end":"2024-04-10T16:00:00Z","end_local":"2024-04-10T16:00:00","updated":"2024-06-05T09:31:40Z"},{"title":"Ligue 1 - Stella vs Racing d'Abidjan","description":"Sourced from predicthq.com","category":"sports","start":"2024-04-07T18:00:00Z","geo":{"geometry":{"coordinates":[-3.9925646781921387,5.305156527391162],"type":"Point"},"placekey":"@dv9-xx6-tsq","address":{"country_code":"CI","formatted_address":"8245+22M, Abidjan, Côte d'Ivoire","locality":"Abidjan","region":"Abidjan Autonomous District"}},"labels":["soccer","sport"],"duration":0,"start_local":"2024-04-07T18:00:00","end":"2024-04-07T18:00:00Z","end_local":"2024-04-07T18:00:00","updated":"2024-06-11T22:40:05Z"},{"title":"Ligue 1 - Stade d'Abidjan vs Sporting Gagnoa","description":"Sourced from predicthq.com","category":"sports","start":"2024-04-07T15:30:00Z","geo":{"geometry":{"coordinates":[-3.9925646781921387,5.305156527391162],"type":"Point"},"placekey":"@dv9-xx6-tsq","address":{"country_code":"CI","formatted_address":"8245+22M, Abidjan, Côte d'Ivoire","locality":"Abidjan","region":"Abidjan Autonomous District"}},"labels":["soccer","sport"],"duration":0,"start_local":"2024-04-07T15:30:00","end":"2024-04-07T15:30:00Z","end_local":"2024-04-07T15:30:00","updated":"2024-06-12T07:14:40Z"},{"title":"Ligue 1 - Bouaké vs Indenié Abengourou","description":"Sourced from predicthq.com","category":"sports","start":"2024-04-07T15:30:00Z","geo":{"geometry":{"coordinates":[-5.041949432,7.682732685],"type":"Point"},"placekey":"@dv7-v24-3yv","address":{"country_code":"CI","formatted_address":"MXM5+36 Bouake, Côte d'Ivoire","locality":"Bouake","region":"Vallée du Bandama District"}},"labels":["soccer","sport"],"duration":0,"start_local":"2024-04-07T15:30:00","end":"2024-04-07T15:30:00Z","end_local":"2024-04-07T15:30:00","updated":"2024-06-12T12:44:03Z"},{"title":"Ligue 1 - San-Pédro vs AFAD","description":"Sourced from predicthq.com","category":"sports","start":"2024-04-07T15:30:00Z","geo":{"geometry":{"coordinates":[-6.638274192810059,4.760776300762804],"type":"Point"},"placekey":"@ds2-v8z-wx5","address":{"country_code":"CI","formatted_address":"Q966+GGP, San-Pedro, Côte d'Ivoire","locality":"San-Pedro","region":"Bas-Sassandra District"}},"labels":["soccer","sport"],"duration":0,"start_local":"2024-04-07T15:30:00","end":"2024-04-07T15:30:00Z","end_local":"2024-04-07T15:30:00","updated":"2024-06-12T10:04:46Z"},{"title":"Ligue 1 - Mouna vs Denguélé","description":"Sourced from predicthq.com","category":"sports","start":"2024-04-07T15:30:00Z","geo":{"geometry":{"coordinates":[-4.006367325782776,5.297459465942105],"type":"Point"},"placekey":"@dv9-xtz-t9z","address":{"country_code":"CI","formatted_address":"7XXV+388, Boulevard de Marseille, Abidjan, Côte d'Ivoire","locality":"Abidjan","region":"Abidjan Autonomous District"}},"labels":["soccer","sport"],"duration":0,"start_local":"2024-04-07T15:30:00","end":"2024-04-07T15:30:00Z","end_local":"2024-04-07T15:30:00","updated":"2024-06-12T03:36:04Z"},{"title":"Sunday Special Festival","description":"Sourced from predicthq.com - Explorez la gastronomie ghanéenne au Special Sunday Brunch de AfrikMe Aduane. Buffet exquis, démos culinaires, ambiance culturelle.","category":"festivals","start":"2024-04-07T11:00:00Z","geo":{"geometry":{"coordinates":[-3.9546877,5.373353],"type":"Point"},"placekey":"@dvb-3ht-rzf","address":{"country_code":"CI","formatted_address":"Abidjan, Abidjan Autonomous District, Côte d'Ivoire","locality":"Abidjan","region":"Abidjan Autonomous District"}},"labels":["festival","food"],"duration":18000,"start_local":"2024-04-07T11:00:00","end":"2024-04-07T16:00:00Z","end_local":"2024-04-07T16:00:00","updated":"2024-06-04T23:32:41Z"},{"title":"CAF Champions League - Quarter-finals - ASEC Mimosas vs ES Tunis","description":"Sourced from predicthq.com","category":"sports","start":"2024-04-06T20:00:00Z","geo":{"geometry":{"coordinates":[-4.018603563308716,5.328284523763868],"type":"Point"},"placekey":"@dv9-xwk-h5z","address":{"country_code":"CI","formatted_address":"8XHJ+8J9, Boulevard de le Republique, Abidjan, Côte d'Ivoire","locality":"Abidjan","region":"Abidjan Autonomous District"}},"labels":["soccer","sport"],"duration":6973,"start_local":"2024-04-06T20:00:00","end":"2024-04-06T21:56:13Z","end_local":"2024-04-06T21:56:13","updated":"2024-06-05T10:38:39Z"},{"title":"CA 16 :","description":"Sourced from predicthq.com - RÉVEILLEZ LES HÉROS ‼️","category":"conferences","start":"2024-04-06T11:00:00Z","geo":{"geometry":{"coordinates":[-3.984574,5.373623299999998],"type":"Point"},"placekey":"@dvb-3hn-yvz","address":{"country_code":"CI","formatted_address":"Abidjan, Abidjan Autonomous District, Côte d'Ivoire","locality":"Abidjan","region":"Abidjan Autonomous District"}},"labels":["conference"],"duration":28800,"start_local":"2024-04-06T11:00:00","end":"2024-04-06T19:00:00Z","end_local":"2024-04-06T19:00:00","updated":"2024-06-05T06:09:12Z"}]