[{"title":"2024 Central Africa Think Tank Forum","description":"Sourced from predicthq.com - Let's gather for the Central Africa Think Tank Forum, where we'll brainstorm and exchange ideas to shape the future of our region","category":"conferences","start":"2024-08-21T07:00:00Z","geo":{"geometry":{"coordinates":[11.5157065,3.8713357],"type":"Point"},"placekey":"@g3j-pjs-b6k","address":{"country_code":"CM","formatted_address":"Yaoundé, Centre Region, Cameroon","locality":"Yaoundé","region":"Centre Region"}},"labels":["business","conference"],"duration":136800,"start_local":"2024-08-21T08:00:00","end":"2024-08-22T21:00:00Z","end_local":"2024-08-22T22:00:00","updated":"2024-06-11T03:32:20Z"},{"title":"OINDRE POUR REGNER..... 29 JUIN 2024 DES 17H","description":"Sourced from predicthq.com - LA PUISSANCE A LONGTEMPS ETE ENSEIGNEE A L'EGLISE. CE PROGRAMME EST LA SOMME DES DEMONSTRATIONS DES MANIFESTATIONS DE DIEU. ALORS, VIENS !!!","category":"conferences","start":"2024-07-31T09:00:00Z","geo":{"geometry":{"coordinates":[11.5412476,3.8418485],"type":"Point"},"placekey":"@g3j-pdz-zvf","address":{"country_code":"CM","formatted_address":"Yaoundé, Centre Region, Cameroon","locality":"Yaoundé","region":"Centre Region"}},"labels":["conference","religion"],"duration":7200,"start_local":"2024-07-31T10:00:00","end":"2024-07-31T11:00:00Z","end_local":"2024-07-31T12:00:00","updated":"2024-06-27T19:30:42Z"},{"title":"Atelier2 (Séminaire) : \" Choisir une université au Canada & s'inscrire \"","description":"Sourced from predicthq.com - Vous êtes jeunes bacheliers ET vous rêvez poursuivre vos études supérieures au CANADA ? Cet Atelier s'adresse à vous!","category":"conferences","start":"2024-07-20T13:00:00Z","geo":{"geometry":{"coordinates":[11.4511719,3.8022125],"type":"Point"},"placekey":"@g3j-pkg-zzz","address":{"country_code":"CM","formatted_address":"Yaoundé, Centre Region, Cameroon","locality":"Yaoundé","region":"Centre Region"}},"labels":["conference","outdoor"],"duration":14400,"start_local":"2024-07-20T14:00:00","end":"2024-07-20T17:00:00Z","end_local":"2024-07-20T18:00:00","updated":"2024-06-13T01:23:18Z"},{"title":"Salle Majesteuse","description":"Sourced from predicthq.com - espace évènementiel éphémère Yaoundé","category":"performing-arts","start":"2024-07-20T09:00:00Z","geo":{"geometry":{"coordinates":[9.213888899999999,4.216388899999999],"type":"Point"},"placekey":"@g48-w3b-g8v","address":{"country_code":"CM","formatted_address":"Buea, Southwest Region, Cameroon","locality":"Buea","region":"Southwest Region"}},"labels":["concert","music","performing-arts"],"duration":7200,"start_local":"2024-07-20T10:00:00","end":"2024-07-20T11:00:00Z","end_local":"2024-07-20T12:00:00","updated":"2024-06-13T00:46:01Z"},{"title":"REC2024","description":"Sourced from predicthq.com - Rethinking Education Connference 2024.","category":"conferences","start":"2024-07-19T07:00:00Z","geo":{"geometry":{"coordinates":[11.5062924,3.8610492],"type":"Point"},"placekey":"@g3j-pjt-975","address":{"country_code":"CM","formatted_address":"Yaoundé, Région du Centre, Cameroon","locality":"Yaoundé","region":"Région du Centre"}},"labels":["conference","education","family"],"duration":118800,"start_local":"2024-07-19T08:00:00","end":"2024-07-20T16:00:00Z","end_local":"2024-07-20T17:00:00","updated":"2024-06-04T04:14:36Z"},{"title":"FESTIVAL RECONNEXION","description":"Sourced from predicthq.com - Get ready to reconnect with good vibes, great music, tasty food, and awesome people at FESTIVAL RECONNEXION!","category":"festivals","start":"2024-07-18T09:00:00Z","geo":{"geometry":{"coordinates":[9.686980199999997,4.0454298],"type":"Point"},"placekey":"@g48-hxc-bp9","address":{"country_code":"CM","formatted_address":"Douala, Littoral Region, Cameroon","locality":"Douala","region":"Littoral Region"}},"labels":["community","festival"],"duration":32400,"start_local":"2024-07-18T10:00:00","end":"2024-07-18T18:00:00Z","end_local":"2024-07-18T19:00:00","updated":"2024-06-06T02:32:32Z"},{"title":"Road to Cameroon Tech Summit","description":"Sourced from predicthq.com - Building Micro Tech Communities","category":"conferences","start":"2024-07-15T09:00:00Z","geo":{"geometry":{"coordinates":[9.7678687,4.0510564],"type":"Point"},"placekey":"@g48-ht7-zmk","address":{"country_code":"CM","formatted_address":"Douala, Littoral Region, Cameroon","locality":"Douala","region":"Littoral Region"}},"labels":["conference","science","technology"],"duration":25200,"start_local":"2024-07-15T10:00:00","end":"2024-07-15T16:00:00Z","end_local":"2024-07-15T17:00:00","updated":"2024-06-06T05:08:50Z"},{"title":"US-CAMER DIASPO NETWORK CONFERENCE (DOUALA)","description":"Sourced from predicthq.com - A gathering for US and Cameroonian diaspora to connect, share ideas, and build a strong network for collaboration and growth.","category":"conferences","start":"2024-07-11T07:00:00Z","geo":{"geometry":{"coordinates":[9.770657,4.083834],"type":"Point"},"placekey":"@g48-j7x-zfz","address":{"country_code":"CM","formatted_address":"Douala, Littoral Region, Cameroon","locality":"Douala","region":"Littoral Region"}},"labels":["community","conference"],"duration":36000,"start_local":"2024-07-11T08:00:00","end":"2024-07-11T17:00:00Z","end_local":"2024-07-11T18:00:00","updated":"2024-06-13T00:48:32Z"},{"title":"US-CAMER DIASPO NETWORK CONFERENCE","description":"Sourced from predicthq.com - Get ready for a gathering of US and Cameroonian diaspora to network and connect at our upcoming conference!  DINNER D'AFFAIRE  25000 FRS.","category":"conferences","start":"2024-07-09T07:00:00Z","geo":{"geometry":{"coordinates":[11.5292138,3.8814148],"type":"Point"},"placekey":"@g3j-pjw-zmk","address":{"country_code":"CM","formatted_address":"Yaoundé, Centre Region, Cameroon","locality":"Yaoundé","region":"Centre Region"}},"labels":["community","conference"],"duration":36000,"start_local":"2024-07-09T08:00:00","end":"2024-07-09T17:00:00Z","end_local":"2024-07-09T18:00:00","updated":"2024-05-23T03:06:04Z"},{"title":"Conférence/Dédicace : Comment Détruire sa Réputation en 1 Clic !!","description":"Sourced from predicthq.com - Découvrez comment ”détruire” votre réputation en ligne lors de notre conférence exclusive. Inscrivez-vous dès maintenant !","category":"conferences","start":"2024-06-01T16:00:00Z","geo":{"geometry":{"coordinates":[11.5167305,3.8699507],"type":"Point"},"placekey":"@g3j-pjs-7wk","address":{"country_code":"CM","formatted_address":"Rue De Narvik, Yaoundé, Cameroon","locality":"Yaoundé","region":"Centre Region"}},"labels":["business","conference"],"duration":7200,"start_local":"2024-06-01T17:00:00","end":"2024-06-01T18:00:00Z","end_local":"2024-06-01T19:00:00","updated":"2024-06-04T06:23:14Z"},{"title":"Road to Cameroon Tech Summit","description":"Sourced from predicthq.com - Building Micro Tech Communities with Python","category":"conferences","start":"2024-06-01T09:00:00Z","geo":{"geometry":{"coordinates":[11.5202292,3.8616853],"type":"Point"},"placekey":"@g3j-pjt-4qf","address":{"country_code":"CM","formatted_address":"Yaoundé, Région du Centre, Cameroon","locality":"Yaoundé","region":"Région du Centre"}},"labels":["conference","science","technology"],"duration":25200,"start_local":"2024-06-01T10:00:00","end":"2024-06-01T16:00:00Z","end_local":"2024-06-01T17:00:00","updated":"2024-05-23T03:31:03Z"},{"title":"Road to Cameroon Tech Summit with Python","description":"Sourced from predicthq.com - Building Micro Tech Communities","category":"conferences","start":"2024-05-30T09:00:00Z","geo":{"geometry":{"coordinates":[9.248495,4.1596461],"type":"Point"},"placekey":"@g48-w53-ysq","address":{"country_code":"CM","formatted_address":"Great Soppo, Buea, Cameroon","locality":"Buea","region":"Southwest Region"}},"labels":["conference","science","technology"],"duration":25200,"start_local":"2024-05-30T10:00:00","end":"2024-05-30T16:00:00Z","end_local":"2024-05-30T17:00:00","updated":"2024-05-22T15:24:25Z"},{"title":"Revolutionizing Healthcare in Cameroon with CHIPS™","description":"Sourced from predicthq.com - We're bringing together experts to discuss how technology is transforming healthcare in Cameroon.","category":"conferences","start":"2024-05-22T07:30:00Z","geo":{"geometry":{"coordinates":[9.7678687,4.0510564],"type":"Point"},"placekey":"@g48-ht7-zmk","address":{"country_code":"CM","formatted_address":"Douala, Littoral Region, Cameroon","locality":"Douala","region":"Littoral Region"}},"labels":["conference","health"],"duration":7200,"start_local":"2024-05-22T08:30:00","end":"2024-05-22T09:30:00Z","end_local":"2024-05-22T10:30:00","updated":"2024-06-05T01:02:13Z"},{"title":"Elite One - Relegation Round - Fortuna Mfou vs Bamboutos","description":"Sourced from predicthq.com","category":"sports","start":"2024-05-02T15:00:00Z","geo":{"geometry":{"coordinates":[11.509101391,3.855112971],"type":"Point"},"placekey":"@g3j-pmf-w8v","address":{"country_code":"CM","formatted_address":"Yaoundé, Cameroon","locality":"Yaoundé","region":"Centre"}},"labels":["soccer","sport"],"duration":0,"start_local":"2024-05-02T16:00:00","end":"2024-05-02T15:00:00Z","end_local":"2024-05-02T16:00:00","updated":"2024-06-12T08:50:01Z"},{"title":"Elite One - Relegation Round - Fauve Azur Elite vs APEJES Academy","description":"Sourced from predicthq.com","category":"sports","start":"2024-05-02T15:00:00Z","geo":{"geometry":{"coordinates":[11.5429831,3.887301],"type":"Point"},"placekey":"@g3j-pdw-jqf","address":{"country_code":"CM","formatted_address":"Yaounde, Centre, Cameroon","locality":"Yaounde","region":"Centre"}},"labels":["soccer","sport"],"duration":0,"start_local":"2024-05-02T16:00:00","end":"2024-05-02T15:00:00Z","end_local":"2024-05-02T16:00:00","updated":"2024-06-12T16:12:01Z"},{"title":"Elite One - Relegation Round - UMS de Loum vs Aigle Royal","description":"Sourced from predicthq.com","category":"sports","start":"2024-05-02T15:00:00Z","geo":{"geometry":{"coordinates":[11.541431973,3.948049261],"type":"Point"},"placekey":"@b9d-9b8-cwk","address":{"country_code":"CM","formatted_address":"XG2R+86, 1 Olemb, Yaoundé, Cameroon","locality":"Yaoundé","region":"Région du Centre"}},"labels":["soccer","sport"],"duration":0,"start_local":"2024-05-02T16:00:00","end":"2024-05-02T15:00:00Z","end_local":"2024-05-02T16:00:00","updated":"2024-06-12T10:37:45Z"},{"title":"Elite One - Relegation Round - Union Douala vs Fovu Club","description":"Sourced from predicthq.com","category":"sports","start":"2024-05-02T13:00:00Z","geo":{"geometry":{"coordinates":[11.509101391,3.855112971],"type":"Point"},"placekey":"@g3j-pmf-w8v","address":{"country_code":"CM","formatted_address":"Yaoundé, Cameroon","locality":"Yaoundé","region":"Centre"}},"labels":["soccer","sport"],"duration":0,"start_local":"2024-05-02T14:00:00","end":"2024-05-02T13:00:00Z","end_local":"2024-05-02T14:00:00","updated":"2024-06-11T23:05:17Z"},{"title":"Elite One - Relegation Round - APEJES Academy vs Fortuna Mfou","description":"Sourced from predicthq.com","category":"sports","start":"2024-04-28T15:00:00Z","geo":{"geometry":{"coordinates":[11.541431973,3.948049261],"type":"Point"},"placekey":"@b9d-9b8-cwk","address":{"country_code":"CM","formatted_address":"XG2R+86, 1 Olemb, Yaoundé, Cameroon","locality":"Yaoundé","region":"Région du Centre"}},"labels":["soccer","sport"],"duration":0,"start_local":"2024-04-28T16:00:00","end":"2024-04-28T15:00:00Z","end_local":"2024-04-28T16:00:00","updated":"2024-06-11T21:09:57Z"},{"title":"Elite One - Relegation Round - PWD vs Fauve Azur Elite","description":"Sourced from predicthq.com","category":"sports","start":"2024-04-28T15:00:00Z","geo":{"geometry":{"coordinates":[11.5429831,3.887301],"type":"Point"},"placekey":"@g3j-pdw-jqf","address":{"country_code":"CM","formatted_address":"Yaounde, Centre, Cameroon","locality":"Yaounde","region":"Centre"}},"labels":["soccer","sport"],"duration":0,"start_local":"2024-04-28T16:00:00","end":"2024-04-28T15:00:00Z","end_local":"2024-04-28T16:00:00","updated":"2024-06-12T05:53:21Z"},{"title":"Elite One - Relegation Round - UMS de Loum vs Avion Academy","description":"Sourced from predicthq.com","category":"sports","start":"2024-04-28T13:00:00Z","geo":{"geometry":{"coordinates":[11.5429831,3.887301],"type":"Point"},"placekey":"@g3j-pdw-jqf","address":{"country_code":"CM","formatted_address":"Yaounde, Centre, Cameroon","locality":"Yaounde","region":"Centre"}},"labels":["soccer","sport"],"duration":0,"start_local":"2024-04-28T14:00:00","end":"2024-04-28T13:00:00Z","end_local":"2024-04-28T14:00:00","updated":"2024-06-12T09:19:21Z"},{"title":"Elite One - Relegation Round - Bamboutos vs APEJES Academy","description":"Sourced from predicthq.com","category":"sports","start":"2024-04-24T15:00:00Z","geo":{"geometry":{"coordinates":[11.5429831,3.887301],"type":"Point"},"placekey":"@g3j-pdw-jqf","address":{"country_code":"CM","formatted_address":"Yaounde, Centre, Cameroon","locality":"Yaounde","region":"Centre"}},"labels":["soccer","sport"],"duration":0,"start_local":"2024-04-24T16:00:00","end":"2024-04-24T15:00:00Z","end_local":"2024-04-24T16:00:00","updated":"2024-06-11T21:27:51Z"},{"title":"Elite One - Relegation Round - Fauve Azur Elite vs Aigle Royal","description":"Sourced from predicthq.com","category":"sports","start":"2024-04-24T13:00:00Z","geo":{"geometry":{"coordinates":[11.5429831,3.887301],"type":"Point"},"placekey":"@g3j-pdw-jqf","address":{"country_code":"CM","formatted_address":"Yaounde, Centre, Cameroon","locality":"Yaounde","region":"Centre"}},"labels":["soccer","sport"],"duration":0,"start_local":"2024-04-24T14:00:00","end":"2024-04-24T13:00:00Z","end_local":"2024-04-24T14:00:00","updated":"2024-06-12T12:08:33Z"},{"title":"Odoo Roadshow - Douala","description":"Sourced from predicthq.com - Découvrez la nouvelle version de Odoo avec nos experts & partenaires!","category":"conferences","start":"2024-04-23T17:00:00Z","geo":{"geometry":{"coordinates":[9.695202799999999,4.0261153],"type":"Point"},"placekey":"@g48-hxk-d7q","address":{"country_code":"CM","formatted_address":"Douala, Littoral Region, Cameroon","locality":"Douala","region":"Littoral Region"}},"labels":["business","conference"],"duration":10800,"start_local":"2024-04-23T18:00:00","end":"2024-04-23T20:00:00Z","end_local":"2024-04-23T21:00:00","updated":"2024-06-05T01:14:38Z"},{"title":"Elite One - Relegation Round - Fortuna Mfou vs PWD","description":"Sourced from predicthq.com","category":"sports","start":"2024-04-23T15:00:00Z","geo":{"geometry":{"coordinates":[11.5429831,3.887301],"type":"Point"},"placekey":"@g3j-pdw-jqf","address":{"country_code":"CM","formatted_address":"Yaounde, Centre, Cameroon","locality":"Yaounde","region":"Centre"}},"labels":["soccer","sport"],"duration":0,"start_local":"2024-04-23T16:00:00","end":"2024-04-23T15:00:00Z","end_local":"2024-04-23T16:00:00","updated":"2024-06-11T22:48:49Z"},{"title":"Elite One - Relegation Round - UMS de Loum vs Union Douala","description":"Sourced from predicthq.com","category":"sports","start":"2024-04-23T15:00:00Z","geo":{"geometry":{"coordinates":[11.539173326444878,3.948051376671271],"type":"Point"},"placekey":"@b9d-98v-b49","address":{"country_code":"CM","formatted_address":"XG2R+86, 1 Olemb, Yaoundé, Cameroon","locality":"Yaoundé","region":"Région du Centre"}},"labels":["soccer","sport"],"duration":0,"start_local":"2024-04-23T16:00:00","end":"2024-04-23T15:00:00Z","end_local":"2024-04-23T16:00:00","updated":"2024-06-12T16:57:26Z"},{"title":"Elite One - Relegation Round - Les Astres vs Fovu Club","description":"Sourced from predicthq.com","category":"sports","start":"2024-04-23T13:00:00Z","geo":{"geometry":{"coordinates":[11.5429831,3.887301],"type":"Point"},"placekey":"@g3j-pdw-jqf","address":{"country_code":"CM","formatted_address":"Yaounde, Centre, Cameroon","locality":"Yaounde","region":"Centre"}},"labels":["soccer","sport"],"duration":0,"start_local":"2024-04-23T14:00:00","end":"2024-04-23T13:00:00Z","end_local":"2024-04-23T14:00:00","updated":"2024-06-12T02:05:13Z"},{"title":"Elite One - Relegation Round - Aigle Royal vs Fortuna Mfou","description":"Sourced from predicthq.com","category":"sports","start":"2024-04-20T15:00:00Z","geo":{"geometry":{"coordinates":[11.5429831,3.887301],"type":"Point"},"placekey":"@g3j-pdw-jqf","address":{"country_code":"CM","formatted_address":"Yaounde, Centre, Cameroon","locality":"Yaounde","region":"Centre"}},"labels":["soccer","sport"],"duration":0,"start_local":"2024-04-20T16:00:00","end":"2024-04-20T15:00:00Z","end_local":"2024-04-20T16:00:00","updated":"2024-06-12T05:44:55Z"},{"title":"Elite One - Relegation Round - Fovu Club vs APEJES Academy","description":"Sourced from predicthq.com","category":"sports","start":"2024-04-20T13:00:00Z","geo":{"geometry":{"coordinates":[11.5429831,3.887301],"type":"Point"},"placekey":"@g3j-pdw-jqf","address":{"country_code":"CM","formatted_address":"Yaounde, Centre, Cameroon","locality":"Yaounde","region":"Centre"}},"labels":["soccer","sport"],"duration":0,"start_local":"2024-04-20T14:00:00","end":"2024-04-20T13:00:00Z","end_local":"2024-04-20T14:00:00","updated":"2024-06-12T15:29:44Z"},{"title":"Elite One - Relegation Round - PWD vs Bamboutos","description":"Sourced from predicthq.com","category":"sports","start":"2024-04-19T15:00:00Z","geo":{"geometry":{"coordinates":[11.5429831,3.887301],"type":"Point"},"placekey":"@g3j-pdw-jqf","address":{"country_code":"CM","formatted_address":"Yaounde, Centre, Cameroon","locality":"Yaounde","region":"Centre"}},"labels":["soccer","sport"],"duration":0,"start_local":"2024-04-19T16:00:00","end":"2024-04-19T15:00:00Z","end_local":"2024-04-19T16:00:00","updated":"2024-06-12T02:58:22Z"},{"title":"Elite One - Relegation Round - Les Astres vs UMS de Loum","description":"Sourced from predicthq.com","category":"sports","start":"2024-04-19T14:00:00Z","geo":{"geometry":{"coordinates":[11.541431973,3.948049261],"type":"Point"},"placekey":"@b9d-9b8-cwk","address":{"country_code":"CM","formatted_address":"XG2R+86, 1 Olemb, Yaoundé, Cameroon","locality":"Yaoundé","region":"Région du Centre"}},"labels":["soccer","sport"],"duration":0,"start_local":"2024-04-19T15:00:00","end":"2024-04-19T14:00:00Z","end_local":"2024-04-19T15:00:00","updated":"2024-06-11T22:36:18Z"},{"title":"Elite One - Relegation Round - Avion Academy vs Fauve Azur Elite","description":"Sourced from predicthq.com","category":"sports","start":"2024-04-19T13:00:00Z","geo":{"geometry":{"coordinates":[11.5429831,3.887301],"type":"Point"},"placekey":"@g3j-pdw-jqf","address":{"country_code":"CM","formatted_address":"Yaounde, Centre, Cameroon","locality":"Yaounde","region":"Centre"}},"labels":["soccer","sport"],"duration":0,"start_local":"2024-04-19T14:00:00","end":"2024-04-19T13:00:00Z","end_local":"2024-04-19T14:00:00","updated":"2024-06-12T05:28:50Z"},{"title":"Elite One - Championship Round - Victoria United vs Stade Renard","description":"Sourced from predicthq.com","category":"sports","start":"2024-04-18T14:00:00Z","geo":{"geometry":{"coordinates":[9.694023728370667,4.044404363140823],"type":"Point"},"placekey":"@g48-hyc-h89","address":{"country_code":"CM","formatted_address":"2MVV+QH5, Rue Joss, Douala, Cameroon","locality":"Douala","region":"Littoral Region"}},"labels":["soccer","sport"],"duration":0,"start_local":"2024-04-18T15:00:00","end":"2024-04-18T14:00:00Z","end_local":"2024-04-18T15:00:00","updated":"2024-06-12T14:25:20Z"},{"title":"Elite One - Championship Round - Young Sport Academy vs Colombe","description":"Sourced from predicthq.com","category":"sports","start":"2024-04-18T14:00:00Z","geo":{"geometry":{"coordinates":[9.720076,4.054239543],"type":"Point"},"placekey":"@g48-hy9-9cq","address":{"country_code":"CM","formatted_address":"Douala, Cameroon","locality":"Douala","region":"Littoral"}},"labels":["soccer","sport"],"duration":0,"start_local":"2024-04-18T15:00:00","end":"2024-04-18T14:00:00Z","end_local":"2024-04-18T15:00:00","updated":"2024-06-12T06:12:17Z"},{"title":"Elite One - Championship Round - Canon vs Gazelle","description":"Sourced from predicthq.com","category":"sports","start":"2024-04-18T12:00:00Z","geo":{"geometry":{"coordinates":[9.720076,4.054239543],"type":"Point"},"placekey":"@g48-hy9-9cq","address":{"country_code":"CM","formatted_address":"Douala, Cameroon","locality":"Douala","region":"Littoral"}},"labels":["soccer","sport"],"duration":0,"start_local":"2024-04-18T13:00:00","end":"2024-04-18T12:00:00Z","end_local":"2024-04-18T13:00:00","updated":"2024-06-12T06:47:39Z"},{"title":"Elite One - Championship Round - Cotonsport vs Dynamo de Douala","description":"Sourced from predicthq.com","category":"sports","start":"2024-04-18T12:00:00Z","geo":{"geometry":{"coordinates":[9.694023728370667,4.044404363140823],"type":"Point"},"placekey":"@g48-hyc-h89","address":{"country_code":"CM","formatted_address":"2MVV+QH5, Rue Joss, Douala, Cameroon","locality":"Douala","region":"Littoral Region"}},"labels":["soccer","sport"],"duration":0,"start_local":"2024-04-18T13:00:00","end":"2024-04-18T12:00:00Z","end_local":"2024-04-18T13:00:00","updated":"2024-06-12T04:10:45Z"},{"title":"Elite One - Relegation Round - Fortuna Mfou vs Avion Academy","description":"Sourced from predicthq.com","category":"sports","start":"2024-04-16T15:00:00Z","geo":{"geometry":{"coordinates":[11.5429831,3.887301],"type":"Point"},"placekey":"@g3j-pdw-jqf","address":{"country_code":"CM","formatted_address":"Yaounde, Centre, Cameroon","locality":"Yaounde","region":"Centre"}},"labels":["soccer","sport"],"duration":0,"start_local":"2024-04-16T16:00:00","end":"2024-04-16T15:00:00Z","end_local":"2024-04-16T16:00:00","updated":"2024-06-12T06:59:03Z"},{"title":"International Francophone Conference - AFRAVIH","description":"Sourced from predicthq.com","category":"conferences","start":"2024-04-16T08:00:00Z","geo":{"geometry":{"coordinates":[11.5003,3.890844],"type":"Point"},"placekey":"@g3j-pjk-fzz","address":{"country_code":"CM","formatted_address":"VGR2+84M, Yaoundé, Cameroon","locality":"Yaoundé","region":"Centre Region"}},"labels":["conference"],"duration":291600,"start_local":"2024-04-16T09:00:00","end":"2024-04-19T17:00:00Z","end_local":"2024-04-19T18:00:00","updated":"2024-06-05T07:50:58Z"},{"title":"Elite One - Relegation Round - Fauve Azur Elite vs Union Douala","description":"Sourced from predicthq.com","category":"sports","start":"2024-04-15T15:00:00Z","geo":{"geometry":{"coordinates":[11.5429831,3.887301],"type":"Point"},"placekey":"@g3j-pdw-jqf","address":{"country_code":"CM","formatted_address":"Yaounde, Centre, Cameroon","locality":"Yaounde","region":"Centre"}},"labels":["soccer","sport"],"duration":0,"start_local":"2024-04-15T16:00:00","end":"2024-04-15T15:00:00Z","end_local":"2024-04-15T16:00:00","updated":"2024-06-12T02:16:56Z"},{"title":"Elite One - Relegation Round - UMS de Loum vs Fovu Club","description":"Sourced from predicthq.com","category":"sports","start":"2024-04-15T15:00:00Z","geo":{"geometry":{"coordinates":[11.541431973,3.948049261],"type":"Point"},"placekey":"@b9d-9b8-cwk","address":{"country_code":"CM","formatted_address":"XG2R+86, 1 Olemb, Yaoundé, Cameroon","locality":"Yaoundé","region":"Région du Centre"}},"labels":["soccer","sport"],"duration":0,"start_local":"2024-04-15T16:00:00","end":"2024-04-15T15:00:00Z","end_local":"2024-04-15T16:00:00","updated":"2024-06-12T15:46:37Z"},{"title":"Elite One - Relegation Round - Bamboutos vs Aigle Royal","description":"Sourced from predicthq.com","category":"sports","start":"2024-04-15T13:00:00Z","geo":{"geometry":{"coordinates":[11.5429831,3.887301],"type":"Point"},"placekey":"@g3j-pdw-jqf","address":{"country_code":"CM","formatted_address":"Yaounde, Centre, Cameroon","locality":"Yaounde","region":"Centre"}},"labels":["soccer","sport"],"duration":0,"start_local":"2024-04-15T14:00:00","end":"2024-04-15T13:00:00Z","end_local":"2024-04-15T14:00:00","updated":"2024-06-11T23:44:19Z"},{"title":"Elite One - Relegation Round - APEJES Academy vs PWD","description":"Sourced from predicthq.com","category":"sports","start":"2024-04-15T13:00:00Z","geo":{"geometry":{"coordinates":[11.541431973,3.948049261],"type":"Point"},"placekey":"@b9d-9b8-cwk","address":{"country_code":"CM","formatted_address":"XG2R+86, 1 Olemb, Yaoundé, Cameroon","locality":"Yaoundé","region":"Région du Centre"}},"labels":["soccer","sport"],"duration":0,"start_local":"2024-04-15T14:00:00","end":"2024-04-15T13:00:00Z","end_local":"2024-04-15T14:00:00","updated":"2024-06-12T00:23:58Z"},{"title":"Elite One - Championship Round - Young Sport Academy vs Canon","description":"Sourced from predicthq.com","category":"sports","start":"2024-04-12T15:00:00Z","geo":{"geometry":{"coordinates":[9.739614329,4.094563747],"type":"Point"},"placekey":"@g48-j7t-9mk","address":{"country_code":"CM","formatted_address":"Douala, Cameroon","locality":"Douala","region":"Littoral"}},"labels":["soccer","sport"],"duration":0,"start_local":"2024-04-12T16:00:00","end":"2024-04-12T15:00:00Z","end_local":"2024-04-12T16:00:00","updated":"2024-06-12T01:09:54Z"},{"title":"Elite One - Championship Round - Victoria United vs Cotonsport","description":"Sourced from predicthq.com","category":"sports","start":"2024-04-12T15:00:00Z","geo":{"geometry":{"coordinates":[9.694023728370667,4.044404363140823],"type":"Point"},"placekey":"@g48-hyc-h89","address":{"country_code":"CM","formatted_address":"2MVV+QH5, Rue Joss, Douala, Cameroon","locality":"Douala","region":"Littoral Region"}},"labels":["soccer","sport"],"duration":0,"start_local":"2024-04-12T16:00:00","end":"2024-04-12T15:00:00Z","end_local":"2024-04-12T16:00:00","updated":"2024-06-11T22:25:29Z"},{"title":"Elite One - Relegation Round - Union Douala vs Fortuna Mfou","description":"Sourced from predicthq.com","category":"sports","start":"2024-04-12T15:00:00Z","geo":{"geometry":{"coordinates":[11.5429831,3.887301],"type":"Point"},"placekey":"@g3j-pdw-jqf","address":{"country_code":"CM","formatted_address":"Yaounde, Centre, Cameroon","locality":"Yaounde","region":"Centre"}},"labels":["soccer","sport"],"duration":0,"start_local":"2024-04-12T16:00:00","end":"2024-04-12T15:00:00Z","end_local":"2024-04-12T16:00:00","updated":"2024-06-11T23:32:00Z"},{"title":"Elite One - Championship Round - Dynamo de Douala vs Stade Renard","description":"Sourced from predicthq.com","category":"sports","start":"2024-04-12T13:00:00Z","geo":{"geometry":{"coordinates":[9.694023728370667,4.044404363140823],"type":"Point"},"placekey":"@g48-hyc-h89","address":{"country_code":"CM","formatted_address":"2MVV+QH5, Rue Joss, Douala, Cameroon","locality":"Douala","region":"Littoral Region"}},"labels":["soccer","sport"],"duration":0,"start_local":"2024-04-12T14:00:00","end":"2024-04-12T13:00:00Z","end_local":"2024-04-12T14:00:00","updated":"2024-06-12T05:56:35Z"},{"title":"Elite One - Relegation Round - Fovu Club vs PWD","description":"Sourced from predicthq.com","category":"sports","start":"2024-04-12T13:00:00Z","geo":{"geometry":{"coordinates":[11.5429831,3.887301],"type":"Point"},"placekey":"@g3j-pdw-jqf","address":{"country_code":"CM","formatted_address":"Yaounde, Centre, Cameroon","locality":"Yaounde","region":"Centre"}},"labels":["soccer","sport"],"duration":0,"start_local":"2024-04-12T14:00:00","end":"2024-04-12T13:00:00Z","end_local":"2024-04-12T14:00:00","updated":"2024-06-12T01:43:36Z"},{"title":"Elite One - Championship Round - Gazelle vs Colombe","description":"Sourced from predicthq.com","category":"sports","start":"2024-04-12T13:00:00Z","geo":{"geometry":{"coordinates":[9.739614329,4.094563747],"type":"Point"},"placekey":"@g48-j7t-9mk","address":{"country_code":"CM","formatted_address":"Douala, Cameroon","locality":"Douala","region":"Littoral"}},"labels":["soccer","sport"],"duration":0,"start_local":"2024-04-12T14:00:00","end":"2024-04-12T13:00:00Z","end_local":"2024-04-12T14:00:00","updated":"2024-06-11T23:49:19Z"},{"title":"Elite One - Relegation Round - Les Astres vs Fauve Azur Elite","description":"Sourced from predicthq.com","category":"sports","start":"2024-04-11T15:00:00Z","geo":{"geometry":{"coordinates":[11.539173326444878,3.948051376671271],"type":"Point"},"placekey":"@b9d-98v-b49","address":{"country_code":"CM","formatted_address":"XG2R+86, 1 Olemb, Yaoundé, Cameroon","locality":"Yaoundé","region":"Région du Centre"}},"labels":["soccer","sport"],"duration":0,"start_local":"2024-04-11T16:00:00","end":"2024-04-11T15:00:00Z","end_local":"2024-04-11T16:00:00","updated":"2024-06-12T00:15:05Z"},{"title":"Elite One - Relegation Round - Bamboutos vs Avion Academy","description":"Sourced from predicthq.com","category":"sports","start":"2024-04-11T15:00:00Z","geo":{"geometry":{"coordinates":[11.5429831,3.887301],"type":"Point"},"placekey":"@g3j-pdw-jqf","address":{"country_code":"CM","formatted_address":"Yaounde, Centre, Cameroon","locality":"Yaounde","region":"Centre"}},"labels":["soccer","sport"],"duration":0,"start_local":"2024-04-11T16:00:00","end":"2024-04-11T15:00:00Z","end_local":"2024-04-11T16:00:00","updated":"2024-06-12T01:54:26Z"},{"title":"Elite One - Relegation Round - Aigle Royal vs APEJES Academy","description":"Sourced from predicthq.com","category":"sports","start":"2024-04-11T13:00:00Z","geo":{"geometry":{"coordinates":[11.5429831,3.887301],"type":"Point"},"placekey":"@g3j-pdw-jqf","address":{"country_code":"CM","formatted_address":"Yaounde, Centre, Cameroon","locality":"Yaounde","region":"Centre"}},"labels":["soccer","sport"],"duration":0,"start_local":"2024-04-11T14:00:00","end":"2024-04-11T13:00:00Z","end_local":"2024-04-11T14:00:00","updated":"2024-06-12T09:31:51Z"},{"title":"Elite One - Championship Round - Dynamo de Douala vs Colombe","description":"Sourced from predicthq.com","category":"sports","start":"2024-04-09T15:00:00Z","geo":{"geometry":{"coordinates":[9.739614329,4.094563747],"type":"Point"},"placekey":"@g48-j7t-9mk","address":{"country_code":"CM","formatted_address":"Douala, Cameroon","locality":"Douala","region":"Littoral"}},"labels":["soccer","sport"],"duration":0,"start_local":"2024-04-09T16:00:00","end":"2024-04-09T15:00:00Z","end_local":"2024-04-09T16:00:00","updated":"2024-06-12T19:03:37Z"},{"title":"Elite One - Championship Round - Canon vs Victoria United","description":"Sourced from predicthq.com","category":"sports","start":"2024-04-09T13:00:00Z","geo":{"geometry":{"coordinates":[9.739614329,4.094563747],"type":"Point"},"placekey":"@g48-j7t-9mk","address":{"country_code":"CM","formatted_address":"Douala, Cameroon","locality":"Douala","region":"Littoral"}},"labels":["soccer","sport"],"duration":0,"start_local":"2024-04-09T14:00:00","end":"2024-04-09T13:00:00Z","end_local":"2024-04-09T14:00:00","updated":"2024-06-11T22:32:35Z"},{"title":"Elite One - Relegation Round - Fortuna Mfou vs Les Astres","description":"Sourced from predicthq.com","category":"sports","start":"2024-04-08T15:00:00Z","geo":{"geometry":{"coordinates":[11.5429831,3.887301],"type":"Point"},"placekey":"@g3j-pdw-jqf","address":{"country_code":"CM","formatted_address":"Yaounde, Centre, Cameroon","locality":"Yaounde","region":"Centre"}},"labels":["soccer","sport"],"duration":0,"start_local":"2024-04-08T16:00:00","end":"2024-04-08T15:00:00Z","end_local":"2024-04-08T16:00:00","updated":"2024-06-12T02:09:10Z"},{"title":"Elite One - Championship Round - Cotonsport vs Young Sport Academy","description":"Sourced from predicthq.com","category":"sports","start":"2024-04-08T15:00:00Z","geo":{"geometry":{"coordinates":[9.694023728370667,4.044404363140823],"type":"Point"},"placekey":"@g48-hyc-h89","address":{"country_code":"CM","formatted_address":"2MVV+QH5, Rue Joss, Douala, Cameroon","locality":"Douala","region":"Littoral Region"}},"labels":["soccer","sport"],"duration":0,"start_local":"2024-04-08T16:00:00","end":"2024-04-08T15:00:00Z","end_local":"2024-04-08T16:00:00","updated":"2024-06-12T03:56:36Z"},{"title":"Elite One - Relegation Round - APEJES Academy vs Avion Academy","description":"Sourced from predicthq.com","category":"sports","start":"2024-04-08T15:00:00Z","geo":{"geometry":{"coordinates":[11.541431973,3.948049261],"type":"Point"},"placekey":"@b9d-9b8-cwk","address":{"country_code":"CM","formatted_address":"XG2R+86, 1 Olemb, Yaoundé, Cameroon","locality":"Yaoundé","region":"Région du Centre"}},"labels":["soccer","sport"],"duration":0,"start_local":"2024-04-08T16:00:00","end":"2024-04-08T15:00:00Z","end_local":"2024-04-08T16:00:00","updated":"2024-06-12T02:55:46Z"},{"title":"Elite One - Relegation Round - PWD vs Aigle Royal","description":"Sourced from predicthq.com","category":"sports","start":"2024-04-08T13:00:00Z","geo":{"geometry":{"coordinates":[11.5429831,3.887301],"type":"Point"},"placekey":"@g3j-pdw-jqf","address":{"country_code":"CM","formatted_address":"Yaounde, Centre, Cameroon","locality":"Yaounde","region":"Centre"}},"labels":["soccer","sport"],"duration":0,"start_local":"2024-04-08T14:00:00","end":"2024-04-08T13:00:00Z","end_local":"2024-04-08T14:00:00","updated":"2024-06-12T11:41:29Z"},{"title":"Elite One - Relegation Round - Fauve Azur Elite vs UMS de Loum","description":"Sourced from predicthq.com","category":"sports","start":"2024-04-08T13:00:00Z","geo":{"geometry":{"coordinates":[11.541431973,3.948049261],"type":"Point"},"placekey":"@b9d-9b8-cwk","address":{"country_code":"CM","formatted_address":"XG2R+86, 1 Olemb, Yaoundé, Cameroon","locality":"Yaoundé","region":"Région du Centre"}},"labels":["soccer","sport"],"duration":0,"start_local":"2024-04-08T14:00:00","end":"2024-04-08T13:00:00Z","end_local":"2024-04-08T14:00:00","updated":"2024-06-12T02:21:34Z"},{"title":"Elite One - Championship Round - Stade Renard vs Gazelle","description":"Sourced from predicthq.com","category":"sports","start":"2024-04-08T13:00:00Z","geo":{"geometry":{"coordinates":[9.694023728370667,4.044404363140823],"type":"Point"},"placekey":"@g48-hyc-h89","address":{"country_code":"CM","formatted_address":"2MVV+QH5, Rue Joss, Douala, Cameroon","locality":"Douala","region":"Littoral Region"}},"labels":["soccer","sport"],"duration":0,"start_local":"2024-04-08T14:00:00","end":"2024-04-08T13:00:00Z","end_local":"2024-04-08T14:00:00","updated":"2024-06-12T02:29:25Z"},{"title":"Elite One - Relegation Round - Bamboutos vs Union Douala","description":"Sourced from predicthq.com","category":"sports","start":"2024-04-07T14:00:00Z","geo":{"geometry":{"coordinates":[11.5429831,3.887301],"type":"Point"},"placekey":"@g3j-pdw-jqf","address":{"country_code":"CM","formatted_address":"Yaounde, Centre, Cameroon","locality":"Yaounde","region":"Centre"}},"labels":["soccer","sport"],"duration":0,"start_local":"2024-04-07T15:00:00","end":"2024-04-07T14:00:00Z","end_local":"2024-04-07T15:00:00","updated":"2024-06-12T08:20:23Z"},{"title":"Elite One - Championship Round - Victoria United vs Colombe","description":"Sourced from predicthq.com","category":"sports","start":"2024-04-06T15:00:00Z","geo":{"geometry":{"coordinates":[9.739614329,4.094563747],"type":"Point"},"placekey":"@g48-j7t-9mk","address":{"country_code":"CM","formatted_address":"Douala, Cameroon","locality":"Douala","region":"Littoral"}},"labels":["soccer","sport"],"duration":0,"start_local":"2024-04-06T16:00:00","end":"2024-04-06T15:00:00Z","end_local":"2024-04-06T16:00:00","updated":"2024-06-12T04:44:28Z"},{"title":"Elite One - Championship Round - Dynamo de Douala vs Canon","description":"Sourced from predicthq.com","category":"sports","start":"2024-04-06T13:00:00Z","geo":{"geometry":{"coordinates":[9.739614329,4.094563747],"type":"Point"},"placekey":"@g48-j7t-9mk","address":{"country_code":"CM","formatted_address":"Douala, Cameroon","locality":"Douala","region":"Littoral"}},"labels":["soccer","sport"],"duration":0,"start_local":"2024-04-06T14:00:00","end":"2024-04-06T13:00:00Z","end_local":"2024-04-06T14:00:00","updated":"2024-06-12T15:56:16Z"}]