[{"title":"La Otra and Jhana Beat","description":"Sourced from predicthq.com","category":"concerts","start":"2024-09-29T01:00:00Z","geo":{"geometry":{"coordinates":[-84.07399,9.93653],"type":"Point"},"placekey":"@d5q-v4v-y7q","address":{"country_code":"CR","formatted_address":"Av. 7, Barrio Escalante, San José, 10101, Costa Rica","postcode":"10101","locality":"San José","region":"San José"}},"labels":["concert","music"],"duration":0,"start_local":"2024-09-28T19:00:00","end":"2024-09-29T01:00:00Z","end_local":"2024-09-28T19:00:00","updated":"2024-06-27T21:48:37Z"},{"title":"Hosanna 2024","description":"Sourced from predicthq.com - Este 2024 Hosanna echa las redes a la derecha, con la plena confianza en Dios y su respaldo para que la pesca sea productiva.","category":"conferences","start":"2024-09-29T00:00:00Z","geo":{"geometry":{"coordinates":[-84.110046,9.9290723],"type":"Point"},"placekey":"@d5q-v5s-qs5","address":{"country_code":"CR","formatted_address":"San José, Costa Rica","locality":"San José","region":"San José"}},"labels":["conference","religion"],"duration":10800,"start_local":"2024-09-28T18:00:00","end":"2024-09-29T03:00:00Z","end_local":"2024-09-28T21:00:00","updated":"2024-06-04T07:58:17Z"},{"title":"IABSE Congress","description":"Sourced from predicthq.com","category":"conferences","start":"2024-09-25T15:00:00Z","geo":{"geometry":{"coordinates":[-84.150745,9.975801],"type":"Point"},"placekey":"@d5q-tzx-99f","address":{"country_code":"CR","formatted_address":"Heredia Province\nHeredia\nCosta Rica","locality":"Heredia"}},"labels":["conference"],"duration":205200,"start_local":"2024-09-25T09:00:00","end":"2024-09-28T00:00:00Z","end_local":"2024-09-27T18:00:00","updated":"2024-05-28T18:18:03Z"},{"title":"Motivation Luxury Summit","description":"Sourced from predicthq.com","category":"conferences","start":"2024-09-22T15:00:00Z","geo":{"geometry":{"coordinates":[-85.845602,10.246391],"type":"Point"},"placekey":"@d5r-89h-5pv","address":{"country_code":"CR","formatted_address":"Helipuerto Hacienda Pinilla\nProvincia de Guanacaste\nGuanacaste\nCosta Rica","locality":"Belén"}},"labels":["conference"],"duration":378000,"start_local":"2024-09-22T09:00:00","end":"2024-09-27T00:00:00Z","end_local":"2024-09-26T18:00:00","updated":"2024-06-02T10:25:59Z"},{"title":"Agile Coach Camp Worldwide 2024","description":"Sourced from predicthq.com - This is the 2024 Agile Coach Camp in San José, Costa Rica. This year it will be held Saturday to Monday  prior to Agiles LATAM (25-27 Sep).","category":"conferences","start":"2024-09-21T15:00:00Z","geo":{"geometry":{"coordinates":[-84.0974901,9.9349401],"type":"Point"},"placekey":"@d5q-v4y-bff","address":{"country_code":"CR","formatted_address":"Avenida 2, San José, Costa Rica","locality":"San José","region":"San José"}},"labels":["conference","science","technology"],"duration":199800,"start_local":"2024-09-21T09:00:00","end":"2024-09-23T22:30:00Z","end_local":"2024-09-23T16:30:00","updated":"2024-06-27T16:01:08Z"},{"title":"Lentamente","description":"Sourced from predicthq.com","category":"concerts","start":"2024-09-16T01:00:00Z","geo":{"geometry":{"coordinates":[-84.0777265,9.9342289],"type":"Point"},"placekey":"@d5q-v4v-wtv","address":{"country_code":"CR","formatted_address":"WWQF+F48, Calle 3, San José, Amón, 10101, Costa Rica","postcode":"10101","locality":"San José","region":"San José"}},"labels":["concert","music"],"duration":0,"start_local":"2024-09-15T19:00:00","end":"2024-09-16T01:00:00Z","end_local":"2024-09-15T19:00:00","updated":"2024-06-11T03:37:52Z"},{"title":"Lebanon Hanover","description":"Sourced from predicthq.com","category":"concerts","start":"2024-09-15T02:00:00Z","geo":{"geometry":{"coordinates":[-84.0777265,9.9342289],"type":"Point"},"placekey":"@d5q-v4v-wtv","address":{"country_code":"CR","formatted_address":"WWQF+F48, Calle 3, San José, Amón, 10101, Costa Rica","postcode":"10101","locality":"San José","region":"San José"}},"labels":["concert","music"],"duration":0,"start_local":"2024-09-14T20:00:00","end":"2024-09-15T02:00:00Z","end_local":"2024-09-14T20:00:00","updated":"2024-06-11T02:19:50Z"},{"title":"Heresy and Xpunkha","description":"Sourced from predicthq.com","category":"concerts","start":"2024-09-14T22:00:00Z","geo":{"geometry":{"coordinates":[-83.9513,9.82086],"type":"Point"},"placekey":"@cjn-sbx-gkz","address":{"country_code":"CR","formatted_address":"R2CX+8FW, Provincia de Cartago, San Isidro, Costa Rica, Cartago, Costa Rica","locality":"Cartago"}},"labels":["concert","music"],"duration":0,"start_local":"2024-09-14T16:00:00","end":"2024-09-14T22:00:00Z","end_local":"2024-09-14T16:00:00","updated":"2024-06-11T02:48:19Z"},{"title":"Camiches, Wise Up, and Overseas","description":"Sourced from predicthq.com","category":"concerts","start":"2024-09-14T01:00:00Z","geo":{"geometry":{"coordinates":[-84.0777265,9.9342289],"type":"Point"},"placekey":"@d5q-v4v-wtv","address":{"country_code":"CR","formatted_address":"WWQF+F48, Calle 3, San José, Amón, 10101, Costa Rica","postcode":"10101","locality":"San José","region":"San José"}},"labels":["concert","music"],"duration":0,"start_local":"2024-09-13T19:00:00","end":"2024-09-14T01:00:00Z","end_local":"2024-09-13T19:00:00","updated":"2024-06-11T05:46:37Z"},{"title":"TesseracT","description":"Sourced from predicthq.com","category":"concerts","start":"2024-09-07T00:00:00Z","geo":{"geometry":{"coordinates":[-84.0490602,9.918136],"type":"Point"},"placekey":"@cjn-ssn-ffz","address":{"country_code":"CR","formatted_address":"San José, Zapote, 11801 Costa Rica","postcode":"11801","locality":"Zapote","region":"San José"}},"labels":["concert","music"],"duration":0,"start_local":"2024-09-06T18:00:00","end":"2024-09-07T00:00:00Z","end_local":"2024-09-06T18:00:00","updated":"2024-06-11T04:25:18Z"},{"title":"EXPHORE 2024 EXPO HOTELES Y RESTAURANTES","description":"Sourced from predicthq.com - Más de 200 proveedores del sector gastronómico y hospitalidad.","category":"expos","start":"2024-09-03T17:00:00Z","geo":{"geometry":{"coordinates":[-84.1504937,9.9745038],"type":"Point"},"placekey":"@d5q-tzx-6x5","address":{"country_code":"CR","formatted_address":"Pan American Highway, Heredia Province, Costa Rica","region":"Heredia Province"}},"labels":["expo","food"],"duration":201600,"start_local":"2024-09-03T11:00:00","end":"2024-09-06T01:00:00Z","end_local":"2024-09-05T19:00:00","updated":"2024-06-04T03:04:33Z"},{"title":"XTERRA Costa Rica","description":"Sourced from predicthq.com","category":"sports","start":"2024-08-24T06:00:00Z","geo":{"geometry":{"coordinates":[-85.786591,10.4814356],"type":"Point"},"placekey":"@d5q-nck-5cq","address":{"country_code":"CR","formatted_address":"Las Catalinas, Guanacaste Province, Costa Rica","locality":"Las Catalinas","region":"Guanacaste Province"}},"labels":["bicycle","marathon","outdoor-sports","running","sport","triathlon"],"duration":86399,"start_local":"2024-08-24T00:00:00","end":"2024-08-25T05:59:59Z","end_local":"2024-08-24T23:59:59","updated":"2024-06-04T04:06:21Z"},{"title":"Symposium \"Executive Functions and Frontal Lobes in Health and Disease\"","description":"Sourced from predicthq.com - This course will present the state-of-the art understanding of brain function and dysfunction.","category":"conferences","start":"2024-08-19T14:30:00Z","geo":{"geometry":{"coordinates":[-85.8406237,10.3011104],"type":"Point"},"placekey":"@d5r-8c9-rx5","address":{"country_code":"CR","formatted_address":"Calle Central, Provincia de Guanacaste, Tamarindo, Costa Rica","locality":"Tamarindo","region":"Provincia de Guanacaste"}},"labels":["conference","health"],"duration":360000,"start_local":"2024-08-19T08:30:00","end":"2024-08-23T18:30:00Z","end_local":"2024-08-23T12:30:00","updated":"2024-06-04T03:05:32Z"},{"title":"Bane, Wise Up, and Sideways","description":"Sourced from predicthq.com","category":"concerts","start":"2024-08-19T01:00:00Z","geo":{"geometry":{"coordinates":[-84.0777265,9.9342289],"type":"Point"},"placekey":"@d5q-v4v-wtv","address":{"country_code":"CR","formatted_address":"WWQF+F48, Calle 3, San José, Amón, 10101, Costa Rica","postcode":"10101","locality":"San José","region":"San José"}},"labels":["concert","music"],"duration":0,"start_local":"2024-08-18T19:00:00","end":"2024-08-19T01:00:00Z","end_local":"2024-08-18T19:00:00","updated":"2024-06-10T23:56:55Z"},{"title":"El Zar","description":"Sourced from predicthq.com","category":"concerts","start":"2024-08-18T02:00:00Z","geo":{"geometry":{"coordinates":[-84.07399,9.93653],"type":"Point"},"placekey":"@d5q-v4v-y7q","address":{"country_code":"CR","formatted_address":"Av. 7, Barrio Escalante, San José, 10101, Costa Rica","postcode":"10101","locality":"San José","region":"San José"}},"labels":["concert","music"],"duration":0,"start_local":"2024-08-17T20:00:00","end":"2024-08-18T02:00:00Z","end_local":"2024-08-17T20:00:00","updated":"2024-06-28T21:53:24Z"},{"title":"John Stringer","description":"Sourced from predicthq.com","category":"concerts","start":"2024-08-11T02:00:00Z","geo":{"geometry":{"coordinates":[-83.7358551,9.1635008],"type":"Point"},"placekey":"@cjn-p4m-jvz","address":{"country_code":"CR","formatted_address":"Uvita, Provincia de Puntarenas, Costa Rica","locality":"Uvita","region":"Provincia de Puntarenas"}},"labels":["concert","music"],"duration":0,"start_local":"2024-08-10T20:00:00","end":"2024-08-11T02:00:00Z","end_local":"2024-08-10T20:00:00","updated":"2024-06-11T05:33:37Z"},{"title":"SQL Saturday Costa Rica","description":"Sourced from predicthq.com - ¡Ven a disfrutar del SQL Saturday Cartago Costa Rica, el evento presencial que te brindará una experiencia única en el mundo de la tecnologí","category":"conferences","start":"2024-08-10T15:00:00Z","geo":{"geometry":{"coordinates":[-84.0435284,9.932936699999999],"type":"Point"},"placekey":"@d5q-v4x-td9","address":{"country_code":"CR","formatted_address":"San Pedro, San José, Costa Rica","locality":"San Pedro","region":"San José"}},"labels":["conference","science","technology"],"duration":0,"start_local":"2024-08-10T09:00:00","end":"2024-08-10T15:00:00Z","end_local":"2024-08-10T09:00:00","updated":"2024-05-29T08:55:45Z"},{"title":"John Stringer","description":"Sourced from predicthq.com","category":"concerts","start":"2024-08-09T13:00:00Z","geo":{"geometry":{"coordinates":[-83.7358551,9.1635008],"type":"Point"},"placekey":"@cjn-p4m-jvz","address":{"country_code":"CR","formatted_address":"Uvita, Provincia de Puntarenas, Costa Rica","locality":"Uvita","region":"Provincia de Puntarenas"}},"labels":["concert","music"],"duration":0,"start_local":"2024-08-09T07:00:00","end":"2024-08-09T13:00:00Z","end_local":"2024-08-09T07:00:00","updated":"2024-06-11T07:04:17Z"},{"title":"John Stringer","description":"Sourced from predicthq.com","category":"concerts","start":"2024-08-08T13:00:00Z","geo":{"geometry":{"coordinates":[-83.7358551,9.1635008],"type":"Point"},"placekey":"@cjn-p4m-jvz","address":{"country_code":"CR","formatted_address":"Uvita, Provincia de Puntarenas, Costa Rica","locality":"Uvita","region":"Provincia de Puntarenas"}},"labels":["concert","music"],"duration":0,"start_local":"2024-08-08T07:00:00","end":"2024-08-08T13:00:00Z","end_local":"2024-08-08T07:00:00","updated":"2024-06-11T01:11:29Z"},{"title":"John Stringer","description":"Sourced from predicthq.com","category":"concerts","start":"2024-08-07T13:00:00Z","geo":{"geometry":{"coordinates":[-83.7358551,9.1635008],"type":"Point"},"placekey":"@cjn-p4m-jvz","address":{"country_code":"CR","formatted_address":"Uvita, Provincia de Puntarenas, Costa Rica","locality":"Uvita","region":"Provincia de Puntarenas"}},"labels":["concert","music"],"duration":0,"start_local":"2024-08-07T07:00:00","end":"2024-08-07T13:00:00Z","end_local":"2024-08-07T07:00:00","updated":"2024-06-11T00:37:48Z"},{"title":"John Stringer","description":"Sourced from predicthq.com","category":"concerts","start":"2024-08-06T13:00:00Z","geo":{"geometry":{"coordinates":[-83.7358551,9.1635008],"type":"Point"},"placekey":"@cjn-p4m-jvz","address":{"country_code":"CR","formatted_address":"Uvita, Provincia de Puntarenas, Costa Rica","locality":"Uvita","region":"Provincia de Puntarenas"}},"labels":["concert","music"],"duration":0,"start_local":"2024-08-06T07:00:00","end":"2024-08-06T13:00:00Z","end_local":"2024-08-06T07:00:00","updated":"2024-06-11T05:33:07Z"},{"title":"John Stringer","description":"Sourced from predicthq.com","category":"concerts","start":"2024-08-05T13:00:00Z","geo":{"geometry":{"coordinates":[-83.7358551,9.1635008],"type":"Point"},"placekey":"@cjn-p4m-jvz","address":{"country_code":"CR","formatted_address":"Uvita, Provincia de Puntarenas, Costa Rica","locality":"Uvita","region":"Provincia de Puntarenas"}},"labels":["concert","music"],"duration":0,"start_local":"2024-08-05T07:00:00","end":"2024-08-05T13:00:00Z","end_local":"2024-08-05T07:00:00","updated":"2024-06-11T06:39:03Z"},{"title":"John Stringer","description":"Sourced from predicthq.com","category":"concerts","start":"2024-08-04T13:00:00Z","geo":{"geometry":{"coordinates":[-83.7358551,9.1635008],"type":"Point"},"placekey":"@cjn-p4m-jvz","address":{"country_code":"CR","formatted_address":"Uvita, Provincia de Puntarenas, Costa Rica","locality":"Uvita","region":"Provincia de Puntarenas"}},"labels":["concert","music"],"duration":0,"start_local":"2024-08-04T07:00:00","end":"2024-08-04T13:00:00Z","end_local":"2024-08-04T07:00:00","updated":"2024-06-11T01:48:46Z"},{"title":"Canina and Girl Ultra","description":"Sourced from predicthq.com","category":"concerts","start":"2024-08-04T01:00:00Z","geo":{"geometry":{"coordinates":[-84.07399,9.93653],"type":"Point"},"placekey":"@d5q-v4v-y7q","address":{"country_code":"CR","formatted_address":"Av. 7, Barrio Escalante, San José, 10101, Costa Rica","postcode":"10101","locality":"San José","region":"San José"}},"labels":["concert","music"],"duration":0,"start_local":"2024-08-03T19:00:00","end":"2024-08-04T01:00:00Z","end_local":"2024-08-03T19:00:00","updated":"2024-06-11T09:14:30Z"},{"title":"John Stringer","description":"Sourced from predicthq.com","category":"concerts","start":"2024-08-04T00:00:00Z","geo":{"geometry":{"coordinates":[-83.7358551,9.1635008],"type":"Point"},"placekey":"@cjn-p4m-jvz","address":{"country_code":"CR","formatted_address":"Uvita, Provincia de Puntarenas, Costa Rica","locality":"Uvita","region":"Provincia de Puntarenas"}},"labels":["concert","music"],"duration":0,"start_local":"2024-08-03T18:00:00","end":"2024-08-04T00:00:00Z","end_local":"2024-08-03T18:00:00","updated":"2024-06-11T00:09:29Z"},{"title":"Caloncho","description":"Sourced from predicthq.com","category":"concerts","start":"2024-08-02T03:00:00Z","geo":{"geometry":{"coordinates":[-84.0692158,9.9335036],"type":"Point"},"placekey":"@d5q-v4v-ju5","address":{"country_code":"CR","formatted_address":"Av. Central, El Carmen, San José, Costa Rica","locality":"San José","region":"San José"}},"labels":["concert","music"],"duration":0,"start_local":"2024-08-01T21:00:00","end":"2024-08-02T03:00:00Z","end_local":"2024-08-01T21:00:00","updated":"2024-06-11T00:20:54Z"},{"title":"Ajax Roadshow San José| Domina Tu Espacio","description":"Sourced from predicthq.com - ¡Potencia tu negocio con los nuevos productos que presentarán Ajax junto a Intrade en San José el próximo 31 de julio!","category":"expos","start":"2024-07-31T14:00:00Z","geo":{"geometry":{"coordinates":[-84.105157,9.945688],"type":"Point"},"placekey":"@d5q-yrr-v9f","address":{"country_code":"CR","formatted_address":"Residencial, Diag. 23A, San José, Robledal, 10107, Costa Rica","postcode":"10107","locality":"San José","region":"San José"}},"labels":["business","expo"],"duration":14400,"start_local":"2024-07-31T08:00:00","end":"2024-07-31T18:00:00Z","end_local":"2024-07-31T12:00:00","updated":"2024-06-20T14:05:49Z"},{"title":"Mosher","description":"Sourced from predicthq.com","category":"concerts","start":"2024-07-28T04:00:00Z","geo":{"geometry":{"coordinates":[-84.0872097,9.9060775],"type":"Point"},"placekey":"@d5q-v4t-y9z","address":{"country_code":"CR","formatted_address":"WW47+C4M, San José Province, San Sebastian, Presidentes, Costa Rica","locality":"San Sebastian","region":"San José Province"}},"labels":["concert","music"],"duration":0,"start_local":"2024-07-27T22:00:00","end":"2024-07-28T04:00:00Z","end_local":"2024-07-27T22:00:00","updated":"2024-07-02T22:56:46Z"},{"title":"Comer y Sentir: Taller de Nutrición Emocional","description":"Sourced from predicthq.com - ¿Ya te diste cuenta de que comes emocionalmente y quieres entender mejor esta relación? ¡Entonces este taller es para ti!","category":"conferences","start":"2024-07-26T22:00:00Z","geo":{"geometry":{"coordinates":[-85.7728119,10.3685825],"type":"Point"},"placekey":"@d5q-mxn-xh5","address":{"country_code":"CR","formatted_address":"Huacas, Provincia de Guanacaste, Costa Rica","locality":"Huacas","region":"Provincia de Guanacaste"}},"labels":["conference","health"],"duration":5400,"start_local":"2024-07-26T16:00:00","end":"2024-07-26T23:30:00Z","end_local":"2024-07-26T17:30:00","updated":"2024-06-27T16:13:19Z"},{"title":"Satón and Liberosis","description":"Sourced from predicthq.com","category":"concerts","start":"2024-07-26T01:00:00Z","geo":{"geometry":{"coordinates":[-84.07306,9.93697],"type":"Point"},"placekey":"@d5q-v4v-y7q","address":{"country_code":"CR","formatted_address":"WWQH+4H4, San José Province, San José, Otoya, 10101, Costa Rica","postcode":"10101","locality":"San José","region":"San José Province"}},"labels":["concert","music"],"duration":0,"start_local":"2024-07-25T19:00:00","end":"2024-07-26T01:00:00Z","end_local":"2024-07-25T19:00:00","updated":"2024-06-26T05:22:22Z"},{"title":"Inspector","description":"Sourced from predicthq.com","category":"concerts","start":"2024-07-21T01:00:00Z","geo":{"geometry":{"coordinates":[-84.0490602,9.918136],"type":"Point"},"placekey":"@cjn-ssn-ffz","address":{"country_code":"CR","formatted_address":"San José, Zapote, 11801 Costa Rica","postcode":"11801","locality":"Zapote","region":"San José"}},"labels":["concert","music"],"duration":0,"start_local":"2024-07-20T19:00:00","end":"2024-07-21T01:00:00Z","end_local":"2024-07-20T19:00:00","updated":"2024-06-12T16:43:06Z"},{"title":"20th Annual Costa Rica Mountain Retreat","description":"Sourced from predicthq.com","category":"community","start":"2024-07-20T04:00:00Z","geo":{"geometry":{"coordinates":[-84.18626,10.05729],"type":"Point"},"placekey":"@d5q-ymb-nwk","address":{"country_code":"CR","formatted_address":"Alajuela, Provincia de Alajuela, Costa Rica","locality":"Alajuela","region":"Provincia de Alajuela"}},"labels":["community","health"],"duration":690300,"start_local":"2024-07-19T22:00:00","end":"2024-07-28T03:45:00Z","end_local":"2024-07-27T21:45:00","updated":"2024-06-04T00:55:25Z"},{"title":"Touché Amoré","description":"Sourced from predicthq.com","category":"concerts","start":"2024-07-19T01:00:00Z","geo":{"geometry":{"coordinates":[-84.0777265,9.9342289],"type":"Point"},"placekey":"@d5q-v4v-wtv","address":{"country_code":"CR","formatted_address":"WWQF+F48, Calle 3, San José, Amón, 10101, Costa Rica","postcode":"10101","locality":"San José","region":"San José"}},"labels":["concert","music"],"duration":0,"start_local":"2024-07-18T19:00:00","end":"2024-07-19T01:00:00Z","end_local":"2024-07-18T19:00:00","updated":"2024-06-19T04:48:32Z"},{"title":"Fast Track Costa Rica Conference","description":"Sourced from predicthq.com","category":"conferences","start":"2024-07-18T15:00:00Z","geo":{"geometry":{"coordinates":[-84.153986,9.946342],"type":"Point"},"placekey":"@d5q-tzq-w6k","address":{"country_code":"CR","formatted_address":"San José Province, San José, 1001 Costa Rica","postcode":"1001","locality":"San José","region":"San José Province"}},"labels":["conference"],"duration":205200,"start_local":"2024-07-18T09:00:00","end":"2024-07-21T00:00:00Z","end_local":"2024-07-20T18:00:00","updated":"2024-05-28T20:15:53Z"},{"title":"Latin American and Caribbean Consortium of Engineering Institutions International Multi-Conference for Engineering, Education and Technology","description":"Sourced from predicthq.com","category":"conferences","start":"2024-07-17T15:00:00Z","geo":{"geometry":{"coordinates":[-84.099033,9.9396],"type":"Point"},"placekey":"@d5q-v4z-ghq","address":{"country_code":"CR","formatted_address":"Sabana Norte, contiguo al Parque Metropolitano La Sabana, San José Province, San José, Gral Cañas, 10108, Costa Rica","postcode":"10108","locality":"San José","region":"San José Province"}},"labels":["conference"],"duration":205200,"start_local":"2024-07-17T09:00:00","end":"2024-07-20T00:00:00Z","end_local":"2024-07-19T18:00:00","updated":"2024-06-02T07:41:11Z"},{"title":"LACCEI International Multi-Conference for Engineering, Education and Technology","description":"Sourced from predicthq.com","category":"conferences","start":"2024-07-15T15:00:00Z","geo":{"geometry":{"coordinates":[-84.099033,9.9396],"type":"Point"},"placekey":"@d5q-v4z-ghq","address":{"country_code":"CR","formatted_address":"Sabana Norte, contiguo al Parque Metropolitano La Sabana, San José Province, San José, Gral Cañas, 10108, Costa Rica","postcode":"10108","locality":"San José","region":"San José Province"}},"labels":["conference"],"duration":378000,"start_local":"2024-07-15T09:00:00","end":"2024-07-20T00:00:00Z","end_local":"2024-07-19T18:00:00","updated":"2024-06-02T04:15:09Z"},{"title":"International Federation of Classification Societies","description":"Sourced from predicthq.com","category":"conferences","start":"2024-07-15T15:00:00Z","geo":{"geometry":{"coordinates":[-84.0540894,9.9366931],"type":"Point"},"placekey":"@d5q-v4x-k9f","address":{"country_code":"CR","formatted_address":"San Pedro, San José, Costa Rica","locality":"San Pedro","region":"San José"}},"labels":["conference"],"duration":378000,"start_local":"2024-07-15T09:00:00","end":"2024-07-20T00:00:00Z","end_local":"2024-07-19T18:00:00","updated":"2024-06-02T01:17:54Z"},{"title":"Sinisa Tamamovic","description":"Sourced from predicthq.com","category":"concerts","start":"2024-07-13T04:00:00Z","geo":{"geometry":{"coordinates":[-84.1984464,9.9632986],"type":"Point"},"placekey":"@d5q-tzs-tjv","address":{"country_code":"CR","formatted_address":"Parque Comercial Lindora, San José, Santa Ana, 10903, Costa Rica","postcode":"10903","locality":"Santa Ana","region":"San José"}},"labels":["concert","music"],"duration":0,"start_local":"2024-07-12T22:00:00","end":"2024-07-13T04:00:00Z","end_local":"2024-07-12T22:00:00","updated":"2024-07-03T08:37:10Z"},{"title":"Sello Azul - Un viaje de descubrimiento a través del paladar","description":"Sourced from predicthq.com - Invita: ULACIT","category":"expos","start":"2024-07-12T00:00:00Z","geo":{"geometry":{"coordinates":[-84.06456000000003,9.925783],"type":"Point"},"placekey":"@d5q-v4p-cqz","address":{"country_code":"CR","formatted_address":"San José, San José Province, Costa Rica","locality":"San José","region":"San José Province"}},"labels":["expo"],"duration":3600,"start_local":"2024-07-11T18:00:00","end":"2024-07-12T01:00:00Z","end_local":"2024-07-11T19:00:00","updated":"2024-06-27T11:50:00Z"},{"title":"Sello Azul - Bastilla: El despertar de la revolución","description":"Sourced from predicthq.com - Invita: ULACIT","category":"conferences","start":"2024-07-11T21:00:00Z","geo":{"geometry":{"coordinates":[-84.06456000000003,9.925783],"type":"Point"},"placekey":"@d5q-v4p-cqz","address":{"country_code":"CR","formatted_address":"San José, San José Province, Costa Rica","locality":"San José","region":"San José Province"}},"labels":["conference","performing-arts"],"duration":3600,"start_local":"2024-07-11T15:00:00","end":"2024-07-11T22:00:00Z","end_local":"2024-07-11T16:00:00","updated":"2024-06-27T09:05:36Z"},{"title":"XXXV Conferencia Internacional de la Palabra","description":"Sourced from predicthq.com - Tiempo Profético que encenderá las llama de nuestras generaciones.","category":"conferences","start":"2024-07-11T00:00:00Z","geo":{"geometry":{"coordinates":[-84.0777602,9.960405000000002],"type":"Point"},"placekey":"@d5q-yqv-6rk","address":{"country_code":"CR","formatted_address":"San Juan, San José, Costa Rica","locality":"San Juan","region":"San José"}},"labels":["conference","religion"],"duration":140400,"start_local":"2024-07-10T18:00:00","end":"2024-07-12T15:00:00Z","end_local":"2024-07-12T09:00:00","updated":"2024-06-04T10:56:33Z"},{"title":"Congreso Nacional de Ventas Costa Rica","description":"Sourced from predicthq.com - Descubre cómo maximizar tus resultados y eficiencia en el mundo de las ventas.","category":"conferences","start":"2024-07-09T14:00:00Z","geo":{"geometry":{"coordinates":[-84.1509675,9.9765055],"type":"Point"},"placekey":"@d5q-tzx-975","address":{"country_code":"CR","formatted_address":"Heredia Province, Costa Rica","region":"Heredia Province"}},"labels":["business","conference"],"duration":36000,"start_local":"2024-07-09T08:00:00","end":"2024-07-10T00:00:00Z","end_local":"2024-07-09T18:00:00","updated":"2024-06-11T00:30:03Z"},{"title":"Bronco","description":"Sourced from predicthq.com","category":"concerts","start":"2024-07-07T02:00:00Z","geo":{"geometry":{"coordinates":[-84.0907246,9.9280694],"type":"Point"},"placekey":"@d5q-v4y-g8v","address":{"country_code":"CR","formatted_address":"WWH5+6PC, San José, Bolivar, Costa Rica","locality":"San José","region":"San José"}},"labels":["concert","music"],"duration":0,"start_local":"2024-07-06T20:00:00","end":"2024-07-07T02:00:00Z","end_local":"2024-07-06T20:00:00","updated":"2024-06-11T01:02:51Z"},{"title":"Sexores","description":"Sourced from predicthq.com","category":"concerts","start":"2024-07-07T02:00:00Z","geo":{"geometry":{"coordinates":[-84.0777265,9.9342289],"type":"Point"},"placekey":"@d5q-v4v-wtv","address":{"country_code":"CR","formatted_address":"WWQF+F48, Calle 3, San José, Amón, 10101, Costa Rica","postcode":"10101","locality":"San José","region":"San José"}},"labels":["concert","music"],"duration":0,"start_local":"2024-07-06T20:00:00","end":"2024-07-07T02:00:00Z","end_local":"2024-07-06T20:00:00","updated":"2024-06-11T03:33:46Z"},{"title":"CONCIERTO: NACIDOS DE NUEVO","description":"Sourced from predicthq.com - ¡Ven a disfrutar de un concierto increíble con TODOS PARA UNO y déjate llevar por la música en vivo y todos juntos adoremos a nuestro Señor!","category":"concerts","start":"2024-07-06T22:30:00Z","geo":{"geometry":{"coordinates":[-83.9949206,9.9077434],"type":"Point"},"placekey":"@cjn-ssk-r8v","address":{"country_code":"CR","formatted_address":"Tres Rios, Cartago Province, Costa Rica","locality":"Tres Rios","region":"Cartago Province"}},"labels":["concert","music"],"duration":10800,"start_local":"2024-07-06T16:30:00","end":"2024-07-07T01:30:00Z","end_local":"2024-07-06T19:30:00","updated":"2024-06-27T02:33:32Z"},{"title":"Sacha Robotti, MishCatt, and Kevin Knapp","description":"Sourced from predicthq.com","category":"concerts","start":"2024-07-06T02:00:00Z","geo":{"geometry":{"coordinates":[-84.19083,9.94851],"type":"Point"},"placekey":"@d5q-tzr-xkf","address":{"country_code":"CR","formatted_address":"Lindora, del puente sobre el virilla, 100 norte, 600 oeste San Rafael, San Jose, Costa Rica","locality":"San Jose"}},"labels":["concert","music"],"duration":0,"start_local":"2024-07-05T20:00:00","end":"2024-07-06T02:00:00Z","end_local":"2024-07-05T20:00:00","updated":"2024-06-29T06:08:57Z"},{"title":"An Open Window to Empower Teaching Approaches and Strategies Using Artificial Intelligence","description":"Sourced from predicthq.com","category":"expos","start":"2024-07-03T06:00:00Z","geo":{"geometry":{"coordinates":[-84.099033,9.9396],"type":"Point"},"placekey":"@d5q-v4z-ghq","address":{"country_code":"CR","formatted_address":"Sabana Norte, contiguo al Parque Metropolitano La Sabana, San José Province, San José, Gral Cañas, 10108, Costa Rica","postcode":"10108","locality":"San José","region":"San José Province"}},"labels":["expo"],"duration":259199,"start_local":"2024-07-03T00:00:00","end":"2024-07-06T05:59:59Z","end_local":"2024-07-05T23:59:59","updated":"2024-06-02T04:13:19Z"},{"title":"Celebremos el 40 Campeonato de Saprissa","description":"Sourced from predicthq.com - ¡Ven a celebrar los 40 años de historia del Deportivo Saprissa con nosotros en un evento lleno de emoción y pasión futbolera!","category":"community","start":"2024-07-01T14:00:00Z","geo":{"geometry":{"coordinates":[-84.0854432,9.955793199999999],"type":"Point"},"placekey":"@d5q-yrn-vfz","address":{"country_code":"CR","formatted_address":"San José Province, Costa Rica","region":"San José Province"}},"labels":["community","sport"],"duration":21600,"start_local":"2024-07-01T08:00:00","end":"2024-07-01T20:00:00Z","end_local":"2024-07-01T14:00:00","updated":"2024-06-27T21:11:01Z"},{"title":"AQUIHAYAQUIHAY","description":"Sourced from predicthq.com","category":"concerts","start":"2024-07-01T03:00:00Z","geo":{"geometry":{"coordinates":[-84.07399,9.93653],"type":"Point"},"placekey":"@d5q-v4v-y7q","address":{"country_code":"CR","formatted_address":"Av. 7, Barrio Escalante, San José, 10101, Costa Rica","postcode":"10101","locality":"San José","region":"San José"}},"labels":["concert","music"],"duration":0,"start_local":"2024-06-30T21:00:00","end":"2024-07-01T03:00:00Z","end_local":"2024-06-30T21:00:00","updated":"2024-06-11T04:10:55Z"},{"title":"AIPC Annual Conference","description":"Sourced from predicthq.com","category":"conferences","start":"2024-06-30T15:00:00Z","geo":{"geometry":{"coordinates":[-84.150745,9.975801],"type":"Point"},"placekey":"@d5q-tzx-99f","address":{"country_code":"CR","formatted_address":"Heredia Province\nHeredia\nCosta Rica","locality":"Heredia"}},"labels":["conference"],"duration":205200,"start_local":"2024-06-30T09:00:00","end":"2024-07-03T00:00:00Z","end_local":"2024-07-02T18:00:00","updated":"2024-05-28T18:08:46Z"},{"title":"PRIDE Costa Rica","description":"Sourced from predicthq.com","category":"festivals","start":"2024-06-30T06:00:00Z","geo":{"geometry":{"coordinates":[-84.0907246,9.9280694],"type":"Point"},"placekey":"@d5q-v4y-g8v","address":{"country_code":"CR","formatted_address":"Parque Metropolitano La Sabana, San José, Sabana, Costa Rica","locality":"San José","region":"San José"}},"labels":["festival","music"],"duration":86399,"start_local":"2024-06-30T00:00:00","end":"2024-07-01T05:59:59Z","end_local":"2024-06-30T23:59:59","updated":"2024-06-12T22:58:15Z"},{"title":"OCASO Underground Music Festival 2024","description":"Sourced from predicthq.com","category":"festivals","start":"2024-06-30T06:00:00Z","geo":{"geometry":{"coordinates":[-85.7936015,10.1108926],"type":"Point"},"placekey":"@d5r-jzv-5mk","address":{"country_code":"CR","formatted_address":"La Joya Lagarto, Provincia de Guanacaste, Santa Cruzz, Costa Rica","locality":"Santa Cruzz","region":"Provincia de Guanacaste"}},"labels":["concert","festival","music"],"duration":0,"start_local":"2024-06-30T00:00:00","end":"2024-06-30T06:00:00Z","end_local":"2024-06-30T00:00:00","updated":"2024-06-30T05:35:29Z"},{"title":"Felipe Moya","description":"Sourced from predicthq.com","category":"concerts","start":"2024-06-29T04:00:00Z","geo":{"geometry":{"coordinates":[-84.05574,9.93306],"type":"Point"},"placekey":"@d5q-v4w-vvf","address":{"country_code":"CR","formatted_address":"WWMX+M62, Jose María Muñoz, San José, San Pedro, Saprissa, Costa Rica","locality":"San Pedro","region":"San José"}},"labels":["concert","music"],"duration":0,"start_local":"2024-06-28T22:00:00","end":"2024-06-29T04:00:00Z","end_local":"2024-06-28T22:00:00","updated":"2024-06-13T22:55:41Z"},{"title":"Felipe Moya","description":"Sourced from predicthq.com","category":"concerts","start":"2024-06-28T03:00:00Z","geo":{"geometry":{"coordinates":[-84.0693893,9.9333477],"type":"Point"},"placekey":"@d5q-v4v-ju5","address":{"country_code":"CR","formatted_address":"WWMJ+86Q, El Carmen, San José Province, San José, 10101, Costa Rica","postcode":"10101","locality":"San José","region":"San José"}},"labels":["concert","music"],"duration":0,"start_local":"2024-06-27T21:00:00","end":"2024-06-28T03:00:00Z","end_local":"2024-06-27T21:00:00","updated":"2024-06-14T00:52:07Z"},{"title":"\"Los desafíos de la criminalidad en la realidad costarricense\"","description":"Sourced from predicthq.com - ¡te esperamos con los expertos internacionales Erika Ziemak y Tim Schellberg para comprender nuevos horizontes de la criminología!","category":"conferences","start":"2024-06-25T00:00:00Z","geo":{"geometry":{"coordinates":[-84.0721903,9.9337579],"type":"Point"},"placekey":"@d5q-v4p-5zz","address":{"country_code":"CR","formatted_address":"Avenida Central, San José, 10101 Costa Rica","locality":"San José","postcode":"10101","region":"San José"}},"labels":["community","conference"],"duration":7200,"start_local":"2024-06-24T18:00:00","end":"2024-06-25T02:00:00Z","end_local":"2024-06-24T20:00:00","updated":"2024-06-13T01:20:55Z"},{"title":"International Congress of Biological Control","description":"Sourced from predicthq.com","category":"conferences","start":"2024-06-24T15:00:00Z","geo":{"geometry":{"coordinates":[-84.105157,9.945688],"type":"Point"},"placekey":"@d5q-yrr-v9f","address":{"country_code":"CR","formatted_address":"Residencial, Diag. 23A, San José, Robledal, 10107, Costa Rica","postcode":"10107","locality":"San José","region":"San José"}},"labels":["conference"],"duration":291600,"start_local":"2024-06-24T09:00:00","end":"2024-06-28T00:00:00Z","end_local":"2024-06-27T18:00:00","updated":"2024-05-27T22:41:25Z"},{"title":"Turnstones","description":"Sourced from predicthq.com","category":"concerts","start":"2024-06-24T01:00:00Z","geo":{"geometry":{"coordinates":[-84.07715,9.93857],"type":"Point"},"placekey":"@d5q-v4v-xqz","address":{"country_code":"CR","formatted_address":"Avenida 11 y, Calle 3, Amón, San José, 10101, Costa Rica","postcode":"10101","locality":"San José","region":"San José"}},"labels":["concert","music"],"duration":0,"start_local":"2024-06-23T19:00:00","end":"2024-06-24T01:00:00Z","end_local":"2024-06-23T19:00:00","updated":"2024-06-11T01:16:56Z"},{"title":"Soft Kill, Adiós Cometa, and Wise Up","description":"Sourced from predicthq.com","category":"concerts","start":"2024-06-23T02:00:00Z","geo":{"geometry":{"coordinates":[-84.0777265,9.9342289],"type":"Point"},"placekey":"@d5q-v4v-wtv","address":{"country_code":"CR","formatted_address":"WWQF+F48, Calle 3, San José, Amón, 10101, Costa Rica","postcode":"10101","locality":"San José","region":"San José"}},"labels":["concert","music"],"duration":0,"start_local":"2024-06-22T20:00:00","end":"2024-06-23T02:00:00Z","end_local":"2024-06-22T20:00:00","updated":"2024-06-11T01:49:02Z"},{"title":"KAP in Escazu","description":"Sourced from predicthq.com - 60 min live transmission of Kundalini and non dual energy","category":"conferences","start":"2024-06-22T22:00:00Z","geo":{"geometry":{"coordinates":[-84.13949699999999,9.913604],"type":"Point"},"placekey":"@d5q-v5h-v4v","address":{"country_code":"CR","formatted_address":"Calle 132, San José, Escazú, Costa Rica","locality":"Escazú","region":"San José"}},"labels":["community","conference"],"duration":7200,"start_local":"2024-06-22T16:00:00","end":"2024-06-23T00:00:00Z","end_local":"2024-06-22T18:00:00","updated":"2024-06-13T00:57:45Z"},{"title":"Art Of Collision","description":"Sourced from predicthq.com","category":"concerts","start":"2024-06-22T21:00:00Z","geo":{"geometry":{"coordinates":[-84.07752,9.964],"type":"Point"},"placekey":"@d5q-yqt-w8v","address":{"country_code":"CR","formatted_address":"Frente a Plaza Tibás, San Jose, Costa Rica","locality":"San Jose"}},"labels":["concert","music"],"duration":0,"start_local":"2024-06-22T15:00:00","end":"2024-06-22T21:00:00Z","end_local":"2024-06-22T15:00:00","updated":"2024-06-21T21:04:51Z"},{"title":"Sello Azul - Día de la Música","description":"Sourced from predicthq.com - Invita: ULACIT","category":"concerts","start":"2024-06-21T23:00:00Z","geo":{"geometry":{"coordinates":[-84.06456000000003,9.925783],"type":"Point"},"placekey":"@d5q-v4p-cqz","address":{"country_code":"CR","formatted_address":"San José, San José Province, Costa Rica","locality":"San José","region":"San José Province"}},"labels":["concert","music"],"duration":3600,"start_local":"2024-06-21T17:00:00","end":"2024-06-22T00:00:00Z","end_local":"2024-06-21T18:00:00","updated":"2024-06-20T05:59:53Z"},{"title":"Sello Azul - Cuento: “Encuentros al Derecho y al Revés","description":"Sourced from predicthq.com - Invita: ULACIT","category":"conferences","start":"2024-06-20T21:00:00Z","geo":{"geometry":{"coordinates":[-84.06456000000003,9.925783],"type":"Point"},"placekey":"@d5q-v4p-cqz","address":{"country_code":"CR","formatted_address":"San José, San José Province, Costa Rica","locality":"San José","region":"San José Province"}},"labels":["conference","performing-arts"],"duration":3600,"start_local":"2024-06-20T15:00:00","end":"2024-06-20T22:00:00Z","end_local":"2024-06-20T16:00:00","updated":"2024-06-13T00:28:49Z"},{"title":"Sello Azul - Retos de las personas migrantes y solicitantes de asilo en CR","description":"Sourced from predicthq.com - Invita: ULACIT","category":"conferences","start":"2024-06-20T20:00:00Z","geo":{"geometry":{"coordinates":[-84.06456000000003,9.925783],"type":"Point"},"placekey":"@d5q-v4p-cqz","address":{"country_code":"CR","formatted_address":"San José, San José Province, Costa Rica","locality":"San José","region":"San José Province"}},"labels":["conference","performing-arts"],"duration":3600,"start_local":"2024-06-20T14:00:00","end":"2024-06-20T21:00:00Z","end_local":"2024-06-20T15:00:00","updated":"2024-06-13T00:44:19Z"},{"title":"Blue Stamp - Music Day Concert by Rockapellas","description":"Sourced from predicthq.com - Invita: ULACIT","category":"performing-arts","start":"2024-06-18T23:00:00Z","geo":{"geometry":{"coordinates":[-84.06456000000003,9.925783],"type":"Point"},"placekey":"@d5q-v4p-cqz","address":{"country_code":"CR","formatted_address":"San José, San José Province, Costa Rica","locality":"San José","region":"San José Province"}},"labels":["concert","music","performing-arts"],"duration":3600,"start_local":"2024-06-18T17:00:00","end":"2024-06-19T00:00:00Z","end_local":"2024-06-18T18:00:00","updated":"2024-06-13T00:57:45Z"},{"title":"endemia, Bufonic, and Nossara","description":"Sourced from predicthq.com","category":"concerts","start":"2024-06-16T02:00:00Z","geo":{"geometry":{"coordinates":[-84.07582,9.93612],"type":"Point"},"placekey":"@d5q-v4v-vzz","address":{"country_code":"CR","formatted_address":"C. 5, El Carmen, San José, 10101, Costa Rica","postcode":"10101","locality":"San José","region":"San José"}},"labels":["concert","music"],"duration":0,"start_local":"2024-06-15T20:00:00","end":"2024-06-16T02:00:00Z","end_local":"2024-06-15T20:00:00","updated":"2024-06-30T02:11:11Z"},{"title":"Project Dance Costa Rica 2024","description":"Sourced from predicthq.com - Los 3DIAS incluyen: concierto al aire libre con presentaciones, clases magistrales de danza,  presentación en vivo de ProjectDance, Instrucc","category":"conferences","start":"2024-06-14T19:00:00Z","geo":{"geometry":{"coordinates":[-84.11118580000004,9.998686099999999],"type":"Point"},"placekey":"@d5q-yrt-ks5","address":{"country_code":"CR","formatted_address":"Heredia, Costa Rica","locality":"Heredia","region":"Heredia"}},"labels":["conference","performing-arts"],"duration":183600,"start_local":"2024-06-14T13:00:00","end":"2024-06-16T22:00:00Z","end_local":"2024-06-16T16:00:00","updated":"2024-06-04T00:47:56Z"},{"title":"World Congress on Industrial Biotechnology","description":"Sourced from predicthq.com","category":"conferences","start":"2024-06-14T15:00:00Z","geo":{"geometry":{"coordinates":[-84.166259,10.017092],"type":"Point"},"placekey":"@d5q-yrg-zxq","address":{"country_code":"CR","formatted_address":"Heredia, Costa Rica","region":"Heredia"}},"labels":["conference"],"duration":118800,"start_local":"2024-06-14T09:00:00","end":"2024-06-16T00:00:00Z","end_local":"2024-06-15T18:00:00","updated":"2024-06-01T06:14:36Z"},{"title":"Shimdra","description":"Sourced from predicthq.com","category":"concerts","start":"2024-06-14T00:00:00Z","geo":{"geometry":{"coordinates":[-84.0907,9.92807],"type":"Point"},"placekey":"@d5q-v4y-g8v","address":{"country_code":"CR","formatted_address":"WWMJ+8MG, C. 23, San José, La California, 10101, Costa Rica","postcode":"10101","locality":"San José","region":"San José"}},"labels":["concert","music"],"duration":0,"start_local":"2024-06-13T18:00:00","end":"2024-06-14T00:00:00Z","end_local":"2024-06-13T18:00:00","updated":"2024-06-28T00:47:14Z"},{"title":"Sello Azul - Impacto de los carteles y las guerrillas en Colombia","description":"Sourced from predicthq.com - Invita: ULACIT","category":"conferences","start":"2024-06-13T23:00:00Z","geo":{"geometry":{"coordinates":[-84.06456000000003,9.925783],"type":"Point"},"placekey":"@d5q-v4p-cqz","address":{"country_code":"CR","formatted_address":"San José, San José Province, Costa Rica","locality":"San José","region":"San José Province"}},"labels":["conference","performing-arts"],"duration":3600,"start_local":"2024-06-13T17:00:00","end":"2024-06-14T00:00:00Z","end_local":"2024-06-13T18:00:00","updated":"2024-06-13T00:57:45Z"},{"title":"Sello Azul - La dulce historia detrás de los caramelos colombianos","description":"Sourced from predicthq.com - Invita: ULACIT","category":"conferences","start":"2024-06-13T22:00:00Z","geo":{"geometry":{"coordinates":[-84.06456000000003,9.925783],"type":"Point"},"placekey":"@d5q-v4p-cqz","address":{"country_code":"CR","formatted_address":"San José, San José Province, Costa Rica","locality":"San José","region":"San José Province"}},"labels":["conference","performing-arts"],"duration":3600,"start_local":"2024-06-13T16:00:00","end":"2024-06-13T23:00:00Z","end_local":"2024-06-13T17:00:00","updated":"2024-06-13T00:34:46Z"},{"title":"SA- El simbolismo de las mariposas amarillas en 100 años de soledad","description":"Sourced from predicthq.com - Invita: ULACIT","category":"conferences","start":"2024-06-13T21:00:00Z","geo":{"geometry":{"coordinates":[-84.06456000000003,9.925783],"type":"Point"},"placekey":"@d5q-v4p-cqz","address":{"country_code":"CR","formatted_address":"San José, San José Province, Costa Rica","locality":"San José","region":"San José Province"}},"labels":["conference","performing-arts"],"duration":3600,"start_local":"2024-06-13T15:00:00","end":"2024-06-13T22:00:00Z","end_local":"2024-06-13T16:00:00","updated":"2024-06-13T01:26:43Z"},{"title":"Sello Azul - Qué chimba el vallenato","description":"Sourced from predicthq.com - Invita: ULACIT","category":"performing-arts","start":"2024-06-13T20:00:00Z","geo":{"geometry":{"coordinates":[-84.06456000000003,9.925783],"type":"Point"},"placekey":"@d5q-v4p-cqz","address":{"country_code":"CR","formatted_address":"San José, San José Province, Costa Rica","locality":"San José","region":"San José Province"}},"labels":["concert","music","performing-arts"],"duration":3600,"start_local":"2024-06-13T14:00:00","end":"2024-06-13T21:00:00Z","end_local":"2024-06-13T15:00:00","updated":"2024-06-13T01:28:05Z"},{"title":"Sello Azul - Desclosetados: ¿Opción, deber o consecuencia?","description":"Sourced from predicthq.com - Invita: ULACIT","category":"conferences","start":"2024-06-12T23:00:00Z","geo":{"geometry":{"coordinates":[-84.0774429,9.9412355],"type":"Point"},"placekey":"@d5q-v4v-brk","address":{"country_code":"CR","formatted_address":"WWRC+GVW, San José, San Francisco, Tournón, Costa Rica","locality":"San Francisco","region":"San José"}},"labels":["conference","performing-arts"],"duration":3600,"start_local":"2024-06-12T17:00:00","end":"2024-06-13T00:00:00Z","end_local":"2024-06-12T18:00:00","updated":"2024-06-11T03:47:16Z"},{"title":"Vinos y Poemas","description":"Sourced from predicthq.com - Una noche para alimentar sus sentidos con poemas, vinos naturales de Kat House y tu voz expresivo!","category":"festivals","start":"2024-06-09T01:00:00Z","geo":{"geometry":{"coordinates":[-82.7558746,9.6560854],"type":"Point"},"placekey":"@cmy-253-2p9","address":{"country_code":"CR","formatted_address":"Calle 213, Limón, Puerto Viejo de Talamanca, Costa Rica","locality":"Puerto Viejo de Talamanca","region":"Limón"}},"labels":["festival","food"],"duration":10800,"start_local":"2024-06-08T19:00:00","end":"2024-06-09T04:00:00Z","end_local":"2024-06-08T22:00:00","updated":"2024-05-30T03:50:57Z"},{"title":"Felipe Moya","description":"Sourced from predicthq.com","category":"concerts","start":"2024-06-07T03:00:00Z","geo":{"geometry":{"coordinates":[-84.0693893,9.9333477],"type":"Point"},"placekey":"@d5q-v4v-ju5","address":{"country_code":"CR","formatted_address":"WWMJ+86Q, El Carmen, San José Province, San José, 10101, Costa Rica","postcode":"10101","locality":"San José","region":"San José"}},"labels":["concert","music"],"duration":0,"start_local":"2024-06-06T21:00:00","end":"2024-06-07T03:00:00Z","end_local":"2024-06-06T21:00:00","updated":"2024-06-21T15:24:20Z"},{"title":"Launch of DFO-WMU Empowering Women Gender Equality Strategy & Action Plan","description":"Sourced from predicthq.com - Towards gender equality in ocean science and ocean governance: Gender equality strategy and action plan for ocean-related institutions.","category":"conferences","start":"2024-06-06T23:30:00Z","geo":{"geometry":{"coordinates":[-84.153986,9.946342],"type":"Point"},"placekey":"@d5q-tzq-w6k","address":{"country_code":"CR","formatted_address":"San José Province, San José, 1001 Costa Rica","postcode":"1001","locality":"San José","region":"San José Province"}},"labels":["conference","science","technology"],"duration":9000,"start_local":"2024-06-06T17:30:00","end":"2024-06-07T02:00:00Z","end_local":"2024-06-06T20:00:00","updated":"2024-05-30T03:49:21Z"},{"title":"ForoCAP 2024 - San José, Costa Rica","description":"Sourced from predicthq.com - Espacio para hacer una pausa, tomarse el tiempo de abrirse, conocer y profundizar sobre el método con grandes firmas del periodismo.","category":"conferences","start":"2024-06-06T18:00:00Z","geo":{"geometry":{"coordinates":[-84.0629919,9.937315199999999],"type":"Point"},"placekey":"@d5q-v4x-xnq","address":{"country_code":"CR","formatted_address":"San José Province, San José, 10101 Costa Rica","locality":"San José","postcode":"10101","region":"San José Province"}},"labels":["business","conference"],"duration":122400,"start_local":"2024-06-06T12:00:00","end":"2024-06-08T04:00:00Z","end_local":"2024-06-07T22:00:00","updated":"2024-06-04T04:38:58Z"},{"title":"OPEN HOUSE 2024-2025 COTEPECOS","description":"Sourced from predicthq.com - Ven al OPEN HOUSE 2024-2025 COTEPECOS para conocer más sobre nuestra comunidad y las oportunidades que ofrecemos. ¡Te esperamos!","category":"expos","start":"2024-06-06T15:00:00Z","geo":{"geometry":{"coordinates":[-84.0907246,9.9280694],"type":"Point"},"placekey":"@d5q-v4y-g8v","address":{"country_code":"CR","formatted_address":"San José, Costa Rica","locality":"San José","region":"San José"}},"labels":["expo"],"duration":194400,"start_local":"2024-06-06T09:00:00","end":"2024-06-08T21:00:00Z","end_local":"2024-06-08T15:00:00","updated":"2024-06-04T07:15:20Z"},{"title":"Cumbre Latinoamericana de Relaciones Públicas y Comunicación estratégica","description":"Sourced from predicthq.com - El Evento Académico de Relaciones Públicas y Estrategias de Comunicación más importante de la región","category":"conferences","start":"2024-06-06T14:00:00Z","geo":{"geometry":{"coordinates":[-84.0802278,9.940989600000002],"type":"Point"},"placekey":"@d5q-v4v-pjv","address":{"country_code":"CR","formatted_address":"Calle 4, San José, Costa Rica","locality":"San José","region":"San José"}},"labels":["business","conference"],"duration":118800,"start_local":"2024-06-06T08:00:00","end":"2024-06-07T23:00:00Z","end_local":"2024-06-07T17:00:00","updated":"2024-06-04T00:00:08Z"},{"title":"Kundalini Activation by Emilia","description":"Sourced from predicthq.com - Join Emilia for an in-person Kundalini Activation session to awaken your vital energy and experience a transformative journey within you","category":"conferences","start":"2024-06-04T23:00:00Z","geo":{"geometry":{"coordinates":[-85.1747259,9.6698147],"type":"Point"},"placekey":"@d5r-jdx-pvz","address":{"country_code":"CR","formatted_address":"Puntarenas Province, Costa Rica","region":"Puntarenas Province"}},"labels":["conference","religion"],"duration":7200,"start_local":"2024-06-04T17:00:00","end":"2024-06-05T01:00:00Z","end_local":"2024-06-04T19:00:00","updated":"2024-06-04T11:52:08Z"},{"title":"Poder Menstrual","description":"Sourced from predicthq.com - Este 2024 Nosotras Women Connecting y Cíclica te traemos LA conferencia sobre Menstruación, para que puedas conectar con tu cíclo.","category":"conferences","start":"2024-06-04T14:45:00Z","geo":{"geometry":{"coordinates":[-84.06130830000001,9.934069299999999],"type":"Point"},"placekey":"@d5q-v4x-yjv","address":{"country_code":"CR","formatted_address":"San Pedro, San José Province, Costa Rica","locality":"San Pedro","region":"San José Province"}},"labels":["conference","health"],"duration":11700,"start_local":"2024-06-04T08:45:00","end":"2024-06-04T18:00:00Z","end_local":"2024-06-04T12:00:00","updated":"2024-05-23T03:57:45Z"},{"title":"Art Of Collision","description":"Sourced from predicthq.com","category":"concerts","start":"2024-06-02T02:00:00Z","geo":{"geometry":{"coordinates":[-84.1235,9.99877],"type":"Point"},"placekey":"@d5q-yr7-8d9","address":{"country_code":"CR","formatted_address":"Avenida 2 &, C. 16, Heredia, Cubujuqui, Costa Rica","locality":"Heredia","region":"Heredia"}},"labels":["concert","music"],"duration":0,"start_local":"2024-06-01T20:00:00","end":"2024-06-02T02:00:00Z","end_local":"2024-06-01T20:00:00","updated":"2024-06-16T02:15:36Z"},{"title":"Anfitrionas: Hablemos de Tecnología by Costa Rica Power BI 2024","description":"Sourced from predicthq.com - Evento gratuito organizado por la Comunidad de Costa Rica Power BI para incentivar la participación del talento femenino en carreras STEAM.","category":"conferences","start":"2024-06-01T14:00:00Z","geo":{"geometry":{"coordinates":[-84.0987888,9.9319633],"type":"Point"},"placekey":"@d5q-v4y-xkf","address":{"country_code":"CR","formatted_address":"Ruta Nacional Secundaria 167, San José, Costa Rica","locality":"San José","region":"San José"}},"labels":["conference","science","technology"],"duration":16200,"start_local":"2024-06-01T08:00:00","end":"2024-06-01T18:30:00Z","end_local":"2024-06-01T12:30:00","updated":"2024-05-31T23:06:04Z"},{"title":"Friendlies - Friendlies 1 - Costa Rica vs Uruguay","description":"Sourced from predicthq.com","category":"sports","start":"2024-06-01T02:00:00Z","geo":{"geometry":{"coordinates":[-84.1077296,9.9368345],"type":"Point"},"placekey":"@d5q-v4y-sbk","address":{"country_code":"CR","formatted_address":"WVPR+PW San José Province, San José, Costa Rica","locality":"San José","region":"San José Province"}},"labels":["soccer","sport"],"duration":7106,"start_local":"2024-05-31T20:00:00","end":"2024-06-01T03:58:26Z","end_local":"2024-05-31T21:58:26","updated":"2024-06-01T06:34:06Z"},{"title":"IPSALU Tantra Kriya Yoga: Level 1 Cobra Breath Intensive with Nayano and Aly Khan","description":"Sourced from predicthq.com","category":"community","start":"2024-05-30T00:00:00Z","geo":{"geometry":{"coordinates":[-84.63455,10.40948],"type":"Point"},"placekey":"@d5q-zjh-qmk","address":{"country_code":"CR","formatted_address":"Alajuela Province, Costa Rica","region":"Alajuela Province"}},"labels":["community","health"],"duration":327600,"start_local":"2024-05-29T18:00:00","end":"2024-06-02T19:00:00Z","end_local":"2024-06-02T13:00:00","updated":"2024-06-05T10:05:45Z"},{"title":"Blue Stamp- Falcon’s Welcome Concert by Rockapellas","description":"Sourced from predicthq.com - Invita: ULACIT","category":"concerts","start":"2024-05-29T23:00:00Z","geo":{"geometry":{"coordinates":[-84.0774429,9.9412355],"type":"Point"},"placekey":"@d5q-v4v-brk","address":{"country_code":"CR","formatted_address":"WWRC+GVW, San José, San Francisco, Tournón, Costa Rica","locality":"San Francisco","region":"San José"}},"labels":["concert","music"],"duration":3600,"start_local":"2024-05-29T17:00:00","end":"2024-05-30T00:00:00Z","end_local":"2024-05-29T18:00:00","updated":"2024-06-12T23:23:21Z"},{"title":"2024 Pan American Masters Weightlifting Championship","description":"Sourced from predicthq.com - Get ready to witness the best master weightlifting event at the Pan American Masters Weightlifting Championship, happening in person","category":"community","start":"2024-05-29T13:00:00Z","geo":{"geometry":{"coordinates":[-84.1853179,9.9799635],"type":"Point"},"placekey":"@d5q-tzz-rff","address":{"country_code":"CR","formatted_address":"San Antonio, Heredia Province, Costa Rica","locality":"San Antonio","region":"Heredia Province"}},"labels":["community","sport"],"duration":388800,"start_local":"2024-05-29T07:00:00","end":"2024-06-03T01:00:00Z","end_local":"2024-06-02T19:00:00","updated":"2024-06-05T00:59:00Z"},{"title":"Twin Tribes and Silk Wolf","description":"Sourced from predicthq.com","category":"concerts","start":"2024-05-29T02:00:00Z","geo":{"geometry":{"coordinates":[-84.0777265,9.9342289],"type":"Point"},"placekey":"@d5q-v4v-wtv","address":{"country_code":"CR","formatted_address":"WWQF+F48, Calle 3, San José, Amón, 10101, Costa Rica","postcode":"10101","locality":"San José","region":"San José"}},"labels":["concert","music"],"duration":0,"start_local":"2024-05-28T20:00:00","end":"2024-05-29T02:00:00Z","end_local":"2024-05-28T20:00:00","updated":"2024-06-12T02:25:33Z"},{"title":"Tarja","description":"Sourced from predicthq.com","category":"concerts","start":"2024-05-29T01:00:00Z","geo":{"geometry":{"coordinates":[-84.0490602,9.918136],"type":"Point"},"placekey":"@cjn-ssn-ffz","address":{"country_code":"CR","formatted_address":"San José, Zapote, 11801 Costa Rica","postcode":"11801","locality":"Zapote","region":"San José"}},"labels":["concert","music"],"duration":0,"start_local":"2024-05-28T19:00:00","end":"2024-05-29T01:00:00Z","end_local":"2024-05-28T19:00:00","updated":"2024-06-12T05:40:23Z"},{"title":"Sello Azul -Charla Interactiva: Elecciones 2024 -","description":"Sourced from predicthq.com - Invita: ULACIT","category":"conferences","start":"2024-05-27T22:00:00Z","geo":{"geometry":{"coordinates":[-84.0774429,9.9412355],"type":"Point"},"placekey":"@d5q-v4v-brk","address":{"country_code":"CR","formatted_address":"WWRC+GVW, San José, San Francisco, Tournón, Costa Rica","locality":"San Francisco","region":"San José"}},"labels":["conference"],"duration":3600,"start_local":"2024-05-27T16:00:00","end":"2024-05-27T23:00:00Z","end_local":"2024-05-27T17:00:00","updated":"2024-06-12T05:41:38Z"},{"title":"Sello Azul - Ritmos venezolanos","description":"Sourced from predicthq.com - Invita: ULACIT","category":"conferences","start":"2024-05-27T21:00:00Z","geo":{"geometry":{"coordinates":[-84.0774429,9.9412355],"type":"Point"},"placekey":"@d5q-v4v-brk","address":{"country_code":"CR","formatted_address":"WWRC+GVW, San José, San Francisco, Tournón, Costa Rica","locality":"San Francisco","region":"San José"}},"labels":["conference","performing-arts"],"duration":3600,"start_local":"2024-05-27T15:00:00","end":"2024-05-27T22:00:00Z","end_local":"2024-05-27T16:00:00","updated":"2024-06-12T06:08:40Z"},{"title":"Sello Azul - Sabores de Venezuela: Cocina Criolla","description":"Sourced from predicthq.com - Invita: ULACIT","category":"conferences","start":"2024-05-27T17:00:00Z","geo":{"geometry":{"coordinates":[-84.0774429,9.9412355],"type":"Point"},"placekey":"@d5q-v4v-brk","address":{"country_code":"CR","formatted_address":"WWRC+GVW, San José, San Francisco, Tournón, Costa Rica","locality":"San Francisco","region":"San José"}},"labels":["conference","performing-arts"],"duration":3600,"start_local":"2024-05-27T11:00:00","end":"2024-05-27T18:00:00Z","end_local":"2024-05-27T12:00:00","updated":"2024-06-11T21:17:53Z"},{"title":"Noche de Adoración con CIMIENTOS","description":"Sourced from predicthq.com - MÁS DE UN AÑO DE NUESTRA ÚLTIMA NOCHE DE ADORACIÓN!!! Acompáñanos en una excusa más para conectar con Dios y adorar juntos...","category":"concerts","start":"2024-05-27T00:00:00Z","geo":{"geometry":{"coordinates":[-84.02314349999999,9.8758048],"type":"Point"},"placekey":"@d5q-v5c-9vf","address":{"country_code":"CR","formatted_address":"San José, Costa Rica","region":"San José"}},"labels":["concert","music","religion"],"duration":7200,"start_local":"2024-05-26T18:00:00","end":"2024-05-27T02:00:00Z","end_local":"2024-05-26T20:00:00","updated":"2024-06-05T19:33:34Z"},{"title":"Primera División - Clausura - Finals - Deportivo Saprissa vs Alajuelense","description":"Sourced from predicthq.com","category":"sports","start":"2024-05-26T22:00:00Z","geo":{"geometry":{"coordinates":[-84.0753087,9.9655063],"type":"Point"},"placekey":"@d5q-yqt-ysq","address":{"country_code":"CR","formatted_address":"Tibás, Provincia de San José, Costa Rica","locality":"Tibás","region":"Provincia de San José"}},"labels":["soccer","sport"],"duration":6775,"start_local":"2024-05-26T16:00:00","end":"2024-05-26T23:52:55Z","end_local":"2024-05-26T17:52:55","updated":"2024-05-28T23:35:09Z"},{"title":"Overshock, Box in Mind, Insanity, and Asthma Slave","description":"Sourced from predicthq.com","category":"concerts","start":"2024-05-25T22:00:00Z","geo":{"geometry":{"coordinates":[-84.34763,10.08984],"type":"Point"},"placekey":"@d5q-snt-wff","address":{"country_code":"CR","formatted_address":"Centro comercial, Local #19, Sarchí, Alajuela, Costa Rica","locality":"Alajuela"}},"labels":["concert","music"],"duration":0,"start_local":"2024-05-25T16:00:00","end":"2024-05-25T22:00:00Z","end_local":"2024-05-25T16:00:00","updated":"2024-06-12T07:28:12Z"},{"title":"Primera División - Clausura - Finals - Alajuelense vs Deportivo Saprissa","description":"Sourced from predicthq.com","category":"sports","start":"2024-05-23T02:00:00Z","geo":{"geometry":{"coordinates":[-84.2089283,10.0216363],"type":"Point"},"placekey":"@d5q-tz8-zfz","address":{"country_code":"CR","formatted_address":"Alajuela, Alajuela Province, Costa Rica","locality":"Alajuela","region":"Alajuela Province"}},"labels":["soccer","sport"],"duration":8362,"start_local":"2024-05-22T20:00:00","end":"2024-05-23T04:19:22Z","end_local":"2024-05-22T22:19:22","updated":"2024-05-24T11:27:27Z"},{"title":"Maximizar el valor de los Datos con Erwin","description":"Sourced from predicthq.com - Del Modelo al Market Place","category":"conferences","start":"2024-05-22T21:00:00Z","geo":{"geometry":{"coordinates":[-84.11942640000001,9.957573899999998],"type":"Point"},"placekey":"@d5q-yrs-3bk","address":{"country_code":"CR","formatted_address":"San José, San José Province, Costa Rica","locality":"San José","region":"San José Province"}},"labels":["conference","science","technology"],"duration":10800,"start_local":"2024-05-22T15:00:00","end":"2024-05-23T00:00:00Z","end_local":"2024-05-22T18:00:00","updated":"2024-06-05T02:46:48Z"},{"title":"EXTREME FEST VI","description":"Sourced from predicthq.com","category":"festivals","start":"2024-05-21T06:00:00Z","geo":{"geometry":{"coordinates":[-84.0490602,9.918136],"type":"Point"},"placekey":"@cjn-ssn-ffz","address":{"country_code":"CR","formatted_address":"San José, Zapote, 11801 Costa Rica","postcode":"11801","locality":"Zapote","region":"San José"}},"labels":["festival","music"],"duration":86399,"start_local":"2024-05-21T00:00:00","end":"2024-05-22T05:59:59Z","end_local":"2024-05-21T23:59:59","updated":"2024-05-25T03:43:47Z"},{"title":"Primera División - Clausura - Semi-finals - Deportivo Saprissa vs San Carlos","description":"Sourced from predicthq.com","category":"sports","start":"2024-05-19T23:00:00Z","geo":{"geometry":{"coordinates":[-84.0753087,9.9655063],"type":"Point"},"placekey":"@d5q-yqt-ysq","address":{"country_code":"CR","formatted_address":"Tibás, Provincia de San José, Costa Rica","locality":"Tibás","region":"Provincia de San José"}},"labels":["soccer","sport"],"duration":6705,"start_local":"2024-05-19T17:00:00","end":"2024-05-20T00:51:45Z","end_local":"2024-05-19T18:51:45","updated":"2024-05-28T23:56:59Z"},{"title":"Liga de Ascenso - Clausura - Finals - Jicaral vs Santa Ana","description":"Sourced from predicthq.com","category":"sports","start":"2024-05-19T17:00:00Z","geo":{"geometry":{"coordinates":[-85.11950612068176,9.958304719493697],"type":"Point"},"placekey":"@d5r-jj7-nbk","address":{"country_code":"CR","formatted_address":"75 metros sur del Colegio Técnico Profesional de, Provincia de Puntarenas, Jicaral, 60104, Costa Rica","postcode":"60104","locality":"Jicaral","region":"Provincia de Puntarenas"}},"labels":["soccer","sport"],"duration":0,"start_local":"2024-05-19T11:00:00","end":"2024-05-19T17:00:00Z","end_local":"2024-05-19T11:00:00","updated":"2024-06-11T21:50:15Z"},{"title":"Topics in Anesthesia","description":"Sourced from predicthq.com","category":"expos","start":"2024-05-19T06:00:00Z","geo":{"geometry":{"coordinates":[-85.811662,10.3996],"type":"Point"},"placekey":"@d5r-8s4-ygk","address":{"country_code":"CR","formatted_address":"Provincia de Guanacaste, Costa Rica","region":"Provincia de Guanacaste"}},"labels":["expo"],"duration":518399,"start_local":"2024-05-19T00:00:00","end":"2024-05-25T05:59:59Z","end_local":"2024-05-24T23:59:59","updated":"2024-05-27T10:39:23Z"},{"title":"Primera División - Clausura - Semi-finals - Herediano vs Alajuelense","description":"Sourced from predicthq.com","category":"sports","start":"2024-05-19T02:00:00Z","geo":{"geometry":{"coordinates":[-84.1604518,10.0408244],"type":"Point"},"placekey":"@d5q-ymd-2p9","address":{"country_code":"CR","formatted_address":"Santa Bárbara de Heredia, Heredia Province, Costa Rica","locality":"Santa Bárbara de Heredia","region":"Heredia Province"}},"labels":["soccer","sport"],"duration":9819,"start_local":"2024-05-18T20:00:00","end":"2024-05-19T04:43:39Z","end_local":"2024-05-18T22:43:39","updated":"2024-05-28T23:38:18Z"},{"title":"Felipe Moya","description":"Sourced from predicthq.com","category":"concerts","start":"2024-05-17T03:00:00Z","geo":{"geometry":{"coordinates":[-84.0693893,9.9333477],"type":"Point"},"placekey":"@d5q-v4v-ju5","address":{"country_code":"CR","formatted_address":"WWMJ+86Q, El Carmen, San José Province, San José, 10101, Costa Rica","postcode":"10101","locality":"San José","region":"San José"}},"labels":["concert","music"],"duration":0,"start_local":"2024-05-16T21:00:00","end":"2024-05-17T03:00:00Z","end_local":"2024-05-16T21:00:00","updated":"2024-06-12T10:47:49Z"},{"title":"Primera División - Clausura - Semi-finals - San Carlos vs Deportivo Saprissa","description":"Sourced from predicthq.com","category":"sports","start":"2024-05-17T01:00:00Z","geo":{"geometry":{"coordinates":[-84.4288158416748,10.321168045091188],"type":"Point"},"placekey":"@d5q-szz-3h5","address":{"country_code":"CR","formatted_address":"50 mts Este de Sedeco, 21001, Av. 6, Provincia de Alajuela, Cd Quesada, Costa Rica","locality":"Ciudad Quesada","region":"Provincia de Alajuela"}},"labels":["soccer","sport"],"duration":7351,"start_local":"2024-05-16T19:00:00","end":"2024-05-17T03:02:31Z","end_local":"2024-05-16T21:02:31","updated":"2024-06-05T00:38:46Z"},{"title":"“Lov’in Me” Women’s Wellness Retreat","description":"Sourced from predicthq.com","category":"community","start":"2024-05-16T23:00:00Z","geo":{"geometry":{"coordinates":[-84.21417,10.01594],"type":"Point"},"placekey":"@d5q-tz8-xyv","address":{"country_code":"CR","formatted_address":"Alajuela, Alajuela Province, Costa Rica","locality":"Alajuela","region":"Alajuela Province"}},"labels":["community","health"],"duration":237600,"start_local":"2024-05-16T17:00:00","end":"2024-05-19T17:00:00Z","end_local":"2024-05-19T11:00:00","updated":"2024-06-05T02:49:01Z"},{"title":"Primera División - Clausura - Semi-finals - Alajuelense vs Herediano","description":"Sourced from predicthq.com","category":"sports","start":"2024-05-16T02:00:00Z","geo":{"geometry":{"coordinates":[-84.2089283,10.0216363],"type":"Point"},"placekey":"@d5q-tz8-zfz","address":{"country_code":"CR","formatted_address":"Alajuela, Alajuela Province, Costa Rica","locality":"Alajuela","region":"Alajuela Province"}},"labels":["soccer","sport"],"duration":7477,"start_local":"2024-05-15T20:00:00","end":"2024-05-16T04:04:37Z","end_local":"2024-05-15T22:04:37","updated":"2024-05-24T11:36:11Z"},{"title":"Vanesa Martín","description":"Sourced from predicthq.com","category":"concerts","start":"2024-05-15T02:00:00Z","geo":{"geometry":{"coordinates":[-84.0794185,9.9335199],"type":"Point"},"placekey":"@d5q-v4v-wzf","address":{"country_code":"CR","formatted_address":"WWMC+C64, C. Central Alfredo Volio, San José, Merced, 1000, Costa Rica","postcode":"1000","locality":"San José","region":"San José"}},"labels":["concert","music"],"duration":0,"start_local":"2024-05-14T20:00:00","end":"2024-05-15T02:00:00Z","end_local":"2024-05-14T20:00:00","updated":"2024-07-05T11:32:56Z"},{"title":"Liga de Ascenso - Clausura - Finals - Santa Ana vs Jicaral","description":"Sourced from predicthq.com","category":"sports","start":"2024-05-14T01:00:00Z","geo":{"geometry":{"coordinates":[-84.2136383,9.931610896],"type":"Point"},"placekey":"@d5q-ty9-r49","address":{"country_code":"CR","formatted_address":"Santa Ana, Costa Rica","locality":"Santa Ana"}},"labels":["soccer","sport"],"duration":0,"start_local":"2024-05-13T19:00:00","end":"2024-05-14T01:00:00Z","end_local":"2024-05-13T19:00:00","updated":"2024-06-12T01:30:36Z"},{"title":"Primera División - Clausura - Municipal Grecia vs San Carlos","description":"Sourced from predicthq.com","category":"sports","start":"2024-05-12T21:00:00Z","geo":{"geometry":{"coordinates":[-84.24370805476991,9.996035404313789],"type":"Point"},"placekey":"@d5q-v25-99f","address":{"country_code":"CR","formatted_address":"Alajuela, Costa Rica","locality":"Alajuela"}},"labels":["soccer","sport"],"duration":6827,"start_local":"2024-05-12T15:00:00","end":"2024-05-12T22:53:47Z","end_local":"2024-05-12T16:53:47","updated":"2024-06-05T10:30:28Z"},{"title":"Primera División - Clausura - Pérez Zeledón vs Municipal Liberia","description":"Sourced from predicthq.com","category":"sports","start":"2024-05-12T21:00:00Z","geo":{"geometry":{"coordinates":[-83.7048021,9.3689162],"type":"Point"},"placekey":"@cjn-pny-mzf","address":{"country_code":"CR","formatted_address":"Provincia de San José, San Isidro de El General, 11901 Costa Rica","postcode":"11901","locality":"San Isidro de El General","region":"Provincia de San José"}},"labels":["soccer","sport"],"duration":6851,"start_local":"2024-05-12T15:00:00","end":"2024-05-12T22:54:11Z","end_local":"2024-05-12T16:54:11","updated":"2024-05-24T06:47:55Z"},{"title":"Primera División - Clausura - Alajuelense vs Guanacasteca","description":"Sourced from predicthq.com","category":"sports","start":"2024-05-12T21:00:00Z","geo":{"geometry":{"coordinates":[-84.2089283,10.0216363],"type":"Point"},"placekey":"@d5q-tz8-zfz","address":{"country_code":"CR","formatted_address":"Alajuela, Alajuela Province, Costa Rica","locality":"Alajuela","region":"Alajuela Province"}},"labels":["soccer","sport"],"duration":6915,"start_local":"2024-05-12T15:00:00","end":"2024-05-12T22:55:15Z","end_local":"2024-05-12T16:55:15","updated":"2024-05-24T12:21:15Z"},{"title":"Primera División - Clausura - Sporting San José vs Herediano","description":"Sourced from predicthq.com","category":"sports","start":"2024-05-12T21:00:00Z","geo":{"geometry":{"coordinates":[-84.1302367,9.94273],"type":"Point"},"placekey":"@d5q-v5q-yvz","address":{"country_code":"CR","formatted_address":"WVV9+3WR, San José Province, San José, Alfa, Costa Rica","locality":"San José","region":"San José Province"}},"labels":["soccer","sport"],"duration":6842,"start_local":"2024-05-12T15:00:00","end":"2024-05-12T22:54:02Z","end_local":"2024-05-12T16:54:02","updated":"2024-06-05T11:48:31Z"},{"title":"Primera División - Clausura - Deportivo Saprissa vs Santos de Guápiles","description":"Sourced from predicthq.com","category":"sports","start":"2024-05-12T21:00:00Z","geo":{"geometry":{"coordinates":[-84.0753087,9.9655063],"type":"Point"},"placekey":"@d5q-yqt-ysq","address":{"country_code":"CR","formatted_address":"Tibás, Provincia de San José, Costa Rica","locality":"Tibás","region":"Provincia de San José"}},"labels":["soccer","sport"],"duration":6834,"start_local":"2024-05-12T15:00:00","end":"2024-05-12T22:53:54Z","end_local":"2024-05-12T16:53:54","updated":"2024-05-28T23:38:47Z"},{"title":"Maratón de San José","description":"Sourced from predicthq.com","category":"sports","start":"2024-05-12T06:00:00Z","geo":{"geometry":{"coordinates":[-84.0907246,9.9280694],"type":"Point"},"placekey":"@d5q-v4y-g8v","address":{"country_code":"CR","formatted_address":"San José, Costa Rica","locality":"San José","region":"San José"}},"labels":["outdoor-sports","running","sport"],"duration":86399,"start_local":"2024-05-12T00:00:00","end":"2024-05-13T05:59:59Z","end_local":"2024-05-12T23:59:59","updated":"2024-06-05T03:59:18Z"},{"title":"DJ Minx","description":"Sourced from predicthq.com","category":"concerts","start":"2024-05-12T02:00:00Z","geo":{"geometry":{"coordinates":[-84.19083,9.94851],"type":"Point"},"placekey":"@d5q-tzr-xkf","address":{"country_code":"CR","formatted_address":"Lindora, del puente sobre el virilla, 100 norte, 600 oeste San Rafael, San Jose, Costa Rica","locality":"San Jose"}},"labels":["concert","music"],"duration":0,"start_local":"2024-05-11T20:00:00","end":"2024-05-12T02:00:00Z","end_local":"2024-05-11T20:00:00","updated":"2024-06-12T04:04:14Z"},{"title":"UB40","description":"Sourced from predicthq.com","category":"concerts","start":"2024-05-12T01:00:00Z","geo":{"geometry":{"coordinates":[-84.4382721,10.391583],"type":"Point"},"placekey":"@d5q-xnc-7qz","address":{"country_code":"CR","formatted_address":"de la plaza de futbol de La Guácima, 1km al norte y 300 mts este, Alajuela, Costa Rica","locality":"Alajuela"}},"labels":["concert","music"],"duration":0,"start_local":"2024-05-11T19:00:00","end":"2024-05-12T01:00:00Z","end_local":"2024-05-11T19:00:00","updated":"2024-06-11T22:04:14Z"},{"title":"Carcass","description":"Sourced from predicthq.com","category":"concerts","start":"2024-05-12T01:00:00Z","geo":{"geometry":{"coordinates":[-84.0490602,9.918136],"type":"Point"},"placekey":"@cjn-ssn-ffz","address":{"country_code":"CR","formatted_address":"San José, Zapote, 11801 Costa Rica","postcode":"11801","locality":"Zapote","region":"San José"}},"labels":["concert","music"],"duration":0,"start_local":"2024-05-11T19:00:00","end":"2024-05-12T01:00:00Z","end_local":"2024-05-11T19:00:00","updated":"2024-06-12T13:16:38Z"},{"title":"Primera División - Clausura - Puntarenas vs Cartaginés","description":"Sourced from predicthq.com","category":"sports","start":"2024-05-11T22:00:00Z","geo":{"geometry":{"coordinates":[-84.838932,9.9764296],"type":"Point"},"placekey":"@d5q-vm7-68v","address":{"country_code":"CR","formatted_address":"Avenida Central, Provincia de Puntarenas, Puntarenas, Costa Rica","locality":"Puntarenas","region":"Provincia de Puntarenas"}},"labels":["soccer","sport"],"duration":11159,"start_local":"2024-05-11T16:00:00","end":"2024-05-12T01:05:59Z","end_local":"2024-05-11T19:05:59","updated":"2024-06-05T06:02:59Z"},{"title":"Miranda!","description":"Sourced from predicthq.com","category":"concerts","start":"2024-05-11T02:00:00Z","geo":{"geometry":{"coordinates":[-84.0490602,9.918136],"type":"Point"},"placekey":"@cjn-ssn-ffz","address":{"country_code":"CR","formatted_address":"San José, Zapote, 11801 Costa Rica","postcode":"11801","locality":"Zapote","region":"San José"}},"labels":["concert","music"],"duration":0,"start_local":"2024-05-10T20:00:00","end":"2024-05-11T02:00:00Z","end_local":"2024-05-10T20:00:00","updated":"2024-06-12T18:36:03Z"},{"title":"Picha, Pentahijueputa, and Religious Infection","description":"Sourced from predicthq.com","category":"community","start":"2024-05-11T01:00:00Z","geo":{"geometry":{"coordinates":[-84.1209068,9.9976143],"type":"Point"},"placekey":"@d5q-yr7-4sq","address":{"country_code":"CR","formatted_address":"2V2P+2XF, Pedro Henríquez Ureña, Heredia, 40101, Costa Rica","postcode":"40101","locality":"Heredia","region":"Heredia"}},"labels":["concert","music"],"duration":0,"start_local":"2024-05-10T19:00:00","end":"2024-05-11T01:00:00Z","end_local":"2024-05-10T19:00:00","updated":"2024-06-05T04:07:09Z"},{"title":"VIP w The Wailers & Julian Marley in Costa Rica","description":"Sourced from predicthq.com - Costa Rica Vacaaaaiiiiiii!!! Not only VIP meet & Greet with The Wailers & Julian Marley but a day at the best Resort in Costa Rica!!","category":"community","start":"2024-05-10T22:00:00Z","geo":{"geometry":{"coordinates":[-84.1772353,9.9761205],"type":"Point"},"placekey":"@d5q-tzz-ndv","address":{"country_code":"CR","formatted_address":"Belén, Heredia, Costa Rica","locality":"Belén","region":"Heredia"}},"labels":["concert","music"],"duration":241200,"start_local":"2024-05-10T16:00:00","end":"2024-05-13T17:00:00Z","end_local":"2024-05-13T11:00:00","updated":"2024-06-12T07:41:14Z"},{"title":"Tech Day Costa Rica","description":"Sourced from predicthq.com - En un mundo que cambia a diario, tenemos que estar siempre INNOVANDO","category":"conferences","start":"2024-05-09T14:00:00Z","geo":{"geometry":{"coordinates":[-84.1509675,9.9765055],"type":"Point"},"placekey":"@d5q-tzx-975","address":{"country_code":"CR","formatted_address":"Heredia Province, Costa Rica","region":"Heredia Province"}},"labels":["conference","science","technology"],"duration":36000,"start_local":"2024-05-09T08:00:00","end":"2024-05-10T00:00:00Z","end_local":"2024-05-09T18:00:00","updated":"2024-06-12T03:41:07Z"},{"title":"Primera División - Clausura - Herediano vs Puntarenas","description":"Sourced from predicthq.com","category":"sports","start":"2024-05-09T02:30:00Z","geo":{"geometry":{"coordinates":[-84.1604518,10.0408244],"type":"Point"},"placekey":"@d5q-ymd-2p9","address":{"country_code":"CR","formatted_address":"Santa Bárbara de Heredia, Heredia Province, Costa Rica","locality":"Santa Bárbara de Heredia","region":"Heredia Province"}},"labels":["soccer","sport"],"duration":6911,"start_local":"2024-05-08T20:30:00","end":"2024-05-09T04:25:11Z","end_local":"2024-05-08T22:25:11","updated":"2024-05-28T23:44:52Z"},{"title":"Primera División - Clausura - Santos de Guápiles vs Alajuelense","description":"Sourced from predicthq.com","category":"sports","start":"2024-05-09T01:00:00Z","geo":{"geometry":{"coordinates":[-83.7899301,10.2114656],"type":"Point"},"placekey":"@cmx-rkm-5s5","address":{"country_code":"CR","formatted_address":"149, Limón, Guápiles, Costa Rica","locality":"Guápiles","region":"Limón"}},"labels":["soccer","sport"],"duration":6905,"start_local":"2024-05-08T19:00:00","end":"2024-05-09T02:55:05Z","end_local":"2024-05-08T20:55:05","updated":"2024-06-05T18:26:26Z"},{"title":"Primera División - Clausura - Cartaginés vs Sporting San José","description":"Sourced from predicthq.com","category":"sports","start":"2024-05-09T00:00:00Z","geo":{"geometry":{"coordinates":[-83.918931,9.858454],"type":"Point"},"placekey":"@cjn-ss8-w6k","address":{"country_code":"CR","formatted_address":"Provincia de Cartago, Cartago, Costa Rica, 30101 Costa Rica","postcode":"30101","locality":"Cartago, Costa Rica","region":"Provincia de Cartago"}},"labels":["soccer","sport"],"duration":6716,"start_local":"2024-05-08T18:00:00","end":"2024-05-09T01:51:56Z","end_local":"2024-05-08T19:51:56","updated":"2024-05-24T23:44:25Z"},{"title":"Primera División - Clausura - Guanacasteca vs Pérez Zeledón","description":"Sourced from predicthq.com","category":"sports","start":"2024-05-08T21:00:00Z","geo":{"geometry":{"coordinates":[-85.433334,10.6359639],"type":"Point"},"placekey":"@d5q-j53-wp9","address":{"country_code":"CR","formatted_address":"918,, C. 13, Provincia de Guanacaste, Liberia, Moracia, Costa Rica","locality":"Liberia","region":"Provincia de Guanacaste"}},"labels":["soccer","sport"],"duration":6856,"start_local":"2024-05-08T15:00:00","end":"2024-05-08T22:54:16Z","end_local":"2024-05-08T16:54:16","updated":"2024-06-05T19:12:31Z"},{"title":"Primera División - Clausura - Municipal Liberia vs Municipal Grecia","description":"Sourced from predicthq.com","category":"sports","start":"2024-05-08T02:00:00Z","geo":{"geometry":{"coordinates":[-85.433334,10.6359639],"type":"Point"},"placekey":"@d5q-j53-wp9","address":{"country_code":"CR","formatted_address":"918,, C. 13, Provincia de Guanacaste, Liberia, Moracia, Costa Rica","locality":"Liberia","region":"Provincia de Guanacaste"}},"labels":["soccer","sport"],"duration":6997,"start_local":"2024-05-07T20:00:00","end":"2024-05-08T03:56:37Z","end_local":"2024-05-07T21:56:37","updated":"2024-06-05T12:46:33Z"},{"title":"Primera División - Clausura - San Carlos vs Deportivo Saprissa","description":"Sourced from predicthq.com","category":"sports","start":"2024-05-08T01:00:00Z","geo":{"geometry":{"coordinates":[-84.4288158416748,10.321168045091188],"type":"Point"},"placekey":"@d5q-szz-3h5","address":{"country_code":"CR","formatted_address":"50 mts Este de Sedeco, 21001, Av. 6, Provincia de Alajuela, Cd Quesada, Costa Rica","locality":"Ciudad Quesada","region":"Provincia de Alajuela"}},"labels":["soccer","sport"],"duration":7131,"start_local":"2024-05-07T19:00:00","end":"2024-05-08T02:58:51Z","end_local":"2024-05-07T20:58:51","updated":"2024-06-05T05:30:27Z"},{"title":"Liga de Ascenso - Clausura - Semi-finals - Escorpiones Belén vs Santa Ana","description":"Sourced from predicthq.com","category":"sports","start":"2024-05-07T01:00:00Z","geo":{"geometry":{"coordinates":[-84.1928780078888,9.977002833075671],"type":"Point"},"placekey":"@d5q-tzy-qj9","address":{"country_code":"CR","formatted_address":"San Antonio de Belén, Costa Rica","locality":"San Antonio de Belén"}},"labels":["soccer","sport"],"duration":0,"start_local":"2024-05-06T19:00:00","end":"2024-05-07T01:00:00Z","end_local":"2024-05-06T19:00:00","updated":"2024-06-12T07:14:52Z"},{"title":"Cocofunka","description":"Sourced from predicthq.com","category":"concerts","start":"2024-05-06T00:00:00Z","geo":{"geometry":{"coordinates":[-84.0692158,9.9335036],"type":"Point"},"placekey":"@d5q-v4v-ju5","address":{"country_code":"CR","formatted_address":"Av. Central, El Carmen, San José, Costa Rica","locality":"San José","region":"San José"}},"labels":["concert","music"],"duration":0,"start_local":"2024-05-05T18:00:00","end":"2024-05-06T00:00:00Z","end_local":"2024-05-05T18:00:00","updated":"2024-06-12T03:43:13Z"},{"title":"Primera División - Clausura - Puntarenas vs Deportivo Saprissa","description":"Sourced from predicthq.com","category":"sports","start":"2024-05-05T21:00:00Z","geo":{"geometry":{"coordinates":[-84.838932,9.9764296],"type":"Point"},"placekey":"@d5q-vm7-68v","address":{"country_code":"CR","formatted_address":"Avenida Central, Provincia de Puntarenas, Puntarenas, Costa Rica","locality":"Puntarenas","region":"Provincia de Puntarenas"}},"labels":["soccer","sport"],"duration":6698,"start_local":"2024-05-05T15:00:00","end":"2024-05-05T22:51:38Z","end_local":"2024-05-05T16:51:38","updated":"2024-06-12T04:40:52Z"},{"title":"Liga de Ascenso - Clausura - Semi-finals - Jicaral vs Uruguay","description":"Sourced from predicthq.com","category":"sports","start":"2024-05-05T17:15:00Z","geo":{"geometry":{"coordinates":[-85.11950612068176,9.958304719493697],"type":"Point"},"placekey":"@d5r-jj7-nbk","address":{"country_code":"CR","formatted_address":"75 metros sur del Colegio Técnico Profesional de, Provincia de Puntarenas, Jicaral, 60104, Costa Rica","postcode":"60104","locality":"Jicaral","region":"Provincia de Puntarenas"}},"labels":["soccer","sport"],"duration":0,"start_local":"2024-05-05T11:15:00","end":"2024-05-05T17:15:00Z","end_local":"2024-05-05T11:15:00","updated":"2024-06-12T06:28:15Z"},{"title":"Primera División - Clausura - Cartaginés vs Santos de Guápiles","description":"Sourced from predicthq.com","category":"sports","start":"2024-05-05T17:00:00Z","geo":{"geometry":{"coordinates":[-83.918931,9.858454],"type":"Point"},"placekey":"@cjn-ss8-w6k","address":{"country_code":"CR","formatted_address":"Provincia de Cartago, Cartago, Costa Rica, 30101 Costa Rica","postcode":"30101","locality":"Cartago, Costa Rica","region":"Provincia de Cartago"}},"labels":["soccer","sport"],"duration":6985,"start_local":"2024-05-05T11:00:00","end":"2024-05-05T18:56:25Z","end_local":"2024-05-05T12:56:25","updated":"2024-06-12T06:03:13Z"},{"title":"Prueba Día Familiar Mcfia","description":"Sourced from predicthq.com - ¡Ven a la Prueba y demuestra tus habilidades en un ambiente divertido y relajado!","category":"festivals","start":"2024-05-05T15:00:00Z","geo":{"geometry":{"coordinates":[-84.0907246,9.9280694],"type":"Point"},"placekey":"@d5q-v4y-g8v","address":{"country_code":"CR","formatted_address":"San José, Costa Rica","locality":"San José","region":"San José"}},"labels":["education","family","festival"],"duration":14400,"start_local":"2024-05-05T09:00:00","end":"2024-05-05T19:00:00Z","end_local":"2024-05-05T13:00:00","updated":"2024-06-05T00:43:22Z"},{"title":"DR·leo","description":"Sourced from predicthq.com","category":"concerts","start":"2024-05-05T03:00:00Z","geo":{"geometry":{"coordinates":[-84.15049,9.9745],"type":"Point"},"placekey":"@d5q-tzx-6x5","address":{"country_code":"CR","formatted_address":"Autopista General Cañas, Heredia, Costa Rica","locality":"Heredia"}},"labels":["concert","music"],"duration":0,"start_local":"2024-05-04T21:00:00","end":"2024-05-05T03:00:00Z","end_local":"2024-05-04T21:00:00","updated":"2024-06-12T01:36:47Z"},{"title":"Primera División - Clausura - Sporting San José vs Alajuelense","description":"Sourced from predicthq.com","category":"sports","start":"2024-05-05T01:00:00Z","geo":{"geometry":{"coordinates":[-84.1302367,9.94273],"type":"Point"},"placekey":"@d5q-v5q-yvz","address":{"country_code":"CR","formatted_address":"WVV9+3WR, San José Province, San José, Alfa, Costa Rica","locality":"San José","region":"San José Province"}},"labels":["soccer","sport"],"duration":7021,"start_local":"2024-05-04T19:00:00","end":"2024-05-05T02:57:01Z","end_local":"2024-05-04T20:57:01","updated":"2024-06-11T22:15:27Z"},{"title":"Primera División - Clausura - Pérez Zeledón vs Herediano","description":"Sourced from predicthq.com","category":"sports","start":"2024-05-05T01:00:00Z","geo":{"geometry":{"coordinates":[-83.7048021,9.3689162],"type":"Point"},"placekey":"@cjn-pny-mzf","address":{"country_code":"CR","formatted_address":"Provincia de San José, San Isidro de El General, 11901 Costa Rica","postcode":"11901","locality":"San Isidro de El General","region":"Provincia de San José"}},"labels":["soccer","sport"],"duration":7205,"start_local":"2024-05-04T19:00:00","end":"2024-05-05T03:00:05Z","end_local":"2024-05-04T21:00:05","updated":"2024-06-12T06:30:31Z"},{"title":"Jeremy Facknitz @ Expressions Coffee & Community","description":"Sourced from predicthq.com","category":"performing-arts","start":"2024-05-05T01:00:00Z","geo":{"geometry":{"coordinates":[-83.72074,9.9403],"type":"Point"},"placekey":"@cjn-sqy-975","address":{"country_code":"CR","formatted_address":"Turrialba, Provincia de Cartago, Costa Rica","locality":"Turrialba","region":"Provincia de Cartago"}},"labels":["entertainment","music","performing-arts"],"duration":0,"start_local":"2024-05-04T19:00:00","end":"2024-05-05T01:00:00Z","end_local":"2024-05-04T19:00:00","updated":"2024-06-04T21:48:24Z"},{"title":"Seminarios DAN World en Playas del Coco, Costa Rica","description":"Sourced from predicthq.com - Seminarios presenciales de seguridad en el buceo presentado por DAN World.  La inscripción es obligatoria para participar.","category":"conferences","start":"2024-05-04T00:30:00Z","geo":{"geometry":{"coordinates":[-85.69736189999999,10.548516],"type":"Point"},"placekey":"@d5q-ndm-7kf","address":{"country_code":"CR","formatted_address":"Coco, Guanacaste Province, Costa Rica","locality":"Coco","region":"Guanacaste Province"}},"labels":["conference","health"],"duration":10800,"start_local":"2024-05-03T18:30:00","end":"2024-05-04T03:30:00Z","end_local":"2024-05-03T21:30:00","updated":"2024-06-04T22:43:55Z"},{"title":"Primera División - Clausura - Municipal Grecia vs Guanacasteca","description":"Sourced from predicthq.com","category":"sports","start":"2024-05-03T21:00:00Z","geo":{"geometry":{"coordinates":[-84.24370805476991,9.996035404313789],"type":"Point"},"placekey":"@d5q-v25-99f","address":{"country_code":"CR","formatted_address":"Alajuela, Costa Rica","locality":"Alajuela"}},"labels":["soccer","sport"],"duration":6772,"start_local":"2024-05-03T15:00:00","end":"2024-05-03T22:52:52Z","end_local":"2024-05-03T16:52:52","updated":"2024-06-12T06:09:06Z"},{"title":"Seminarios DAN World en Heredia, Costa Rica","description":"Sourced from predicthq.com - Seminarios presenciales de seguridad en el buceo presentado por DAN World.  La inscripción es obligatoria para participar.","category":"conferences","start":"2024-05-03T00:30:00Z","geo":{"geometry":{"coordinates":[-84.101565,10.00034],"type":"Point"},"placekey":"@d5q-yrt-7nq","address":{"country_code":"CR","formatted_address":"Heredia, Heredia Province, Costa Rica","locality":"Heredia","region":"Heredia Province"}},"labels":["conference","health"],"duration":10800,"start_local":"2024-05-02T18:30:00","end":"2024-05-03T03:30:00Z","end_local":"2024-05-02T21:30:00","updated":"2024-06-05T12:55:27Z"},{"title":"Primera División - Clausura - Cartaginés vs Pérez Zeledón","description":"Sourced from predicthq.com","category":"sports","start":"2024-05-01T21:00:00Z","geo":{"geometry":{"coordinates":[-83.918931,9.858454],"type":"Point"},"placekey":"@cjn-ss8-w6k","address":{"country_code":"CR","formatted_address":"Provincia de Cartago, Cartago, Costa Rica, 30101 Costa Rica","postcode":"30101","locality":"Cartago, Costa Rica","region":"Provincia de Cartago"}},"labels":["soccer","sport"],"duration":7112,"start_local":"2024-05-01T15:00:00","end":"2024-05-01T22:58:32Z","end_local":"2024-05-01T16:58:32","updated":"2024-06-11T23:38:44Z"},{"title":"Ces Castro","description":"Sourced from predicthq.com","category":"concerts","start":"2024-05-01T04:00:00Z","geo":{"geometry":{"coordinates":[-84.07473,9.92578],"type":"Point"},"placekey":"@d5q-v4n-f2k","address":{"country_code":"CR","formatted_address":"Casa Matute, C. 21, González Lahmann, San José, Costa Rica","locality":"San José","region":"San José"}},"labels":["concert","music"],"duration":0,"start_local":"2024-04-30T22:00:00","end":"2024-05-01T04:00:00Z","end_local":"2024-04-30T22:00:00","updated":"2024-06-12T09:22:16Z"},{"title":"Primera División - Clausura - Herediano vs Alajuelense","description":"Sourced from predicthq.com","category":"sports","start":"2024-05-01T02:00:00Z","geo":{"geometry":{"coordinates":[-84.1604518,10.0408244],"type":"Point"},"placekey":"@d5q-ymd-2p9","address":{"country_code":"CR","formatted_address":"Santa Bárbara de Heredia, Heredia Province, Costa Rica","locality":"Santa Bárbara de Heredia","region":"Heredia Province"}},"labels":["soccer","sport"],"duration":7218,"start_local":"2024-04-30T20:00:00","end":"2024-05-01T04:00:18Z","end_local":"2024-04-30T22:00:18","updated":"2024-06-12T08:22:32Z"},{"title":"Liga de Ascenso - Clausura - Semi-finals - Santa Ana vs Escorpiones Belén","description":"Sourced from predicthq.com","category":"sports","start":"2024-04-30T01:00:00Z","geo":{"geometry":{"coordinates":[-84.2136383,9.931610896],"type":"Point"},"placekey":"@d5q-ty9-r49","address":{"country_code":"CR","formatted_address":"Santa Ana, Costa Rica","locality":"Santa Ana"}},"labels":["soccer","sport"],"duration":0,"start_local":"2024-04-29T19:00:00","end":"2024-04-30T01:00:00Z","end_local":"2024-04-29T19:00:00","updated":"2024-06-11T22:21:25Z"},{"title":"SahajaYoga: Belleza y el poder de tu corazón, con música y meditación.","description":"Sourced from predicthq.com - SahajaYoga: Experimenta la belleza y el poder de tu corazón, con música y meditación.","category":"concerts","start":"2024-04-29T00:30:00Z","geo":{"geometry":{"coordinates":[-83.92180119999999,9.864964599999999],"type":"Point"},"placekey":"@cjn-ss8-nbk","address":{"country_code":"CR","formatted_address":"Avenida 2, Cartago Province, Cartago, Costa Rica","locality":"Cartago","region":"Cartago Province"}},"labels":["concert","health","music"],"duration":5400,"start_local":"2024-04-28T18:30:00","end":"2024-04-29T02:00:00Z","end_local":"2024-04-28T20:00:00","updated":"2024-06-05T05:01:10Z"},{"title":"Primera División - Clausura - Deportivo Saprissa vs Guanacasteca","description":"Sourced from predicthq.com","category":"sports","start":"2024-04-28T22:00:00Z","geo":{"geometry":{"coordinates":[-84.0753087,9.9655063],"type":"Point"},"placekey":"@d5q-yqt-ysq","address":{"country_code":"CR","formatted_address":"Tibás, Provincia de San José, Costa Rica","locality":"Tibás","region":"Provincia de San José"}},"labels":["soccer","sport"],"duration":6833,"start_local":"2024-04-28T16:00:00","end":"2024-04-28T23:53:53Z","end_local":"2024-04-28T17:53:53","updated":"2024-05-29T00:04:29Z"},{"title":"Liga de Ascenso - Clausura - Semi-finals - Uruguay vs Jicaral","description":"Sourced from predicthq.com","category":"sports","start":"2024-04-28T20:00:00Z","geo":{"geometry":{"coordinates":[-84.0070224,9.9730139],"type":"Point"},"placekey":"@cjn-svc-ks5","address":{"country_code":"CR","formatted_address":"Vásquez de Coronado, Provincia de San José, San Isidro, Costa Rica","locality":"San Isidro","region":"Provincia de San José"}},"labels":["soccer","sport"],"duration":0,"start_local":"2024-04-28T14:00:00","end":"2024-04-28T20:00:00Z","end_local":"2024-04-28T14:00:00","updated":"2024-06-12T19:43:35Z"},{"title":"SahajaYoga: Belleza y el poder de tu corazón, con música y meditación.","description":"Sourced from predicthq.com - SahajaYoga: Experimenta la belleza y el poder de tu corazón, con música y meditación.","category":"concerts","start":"2024-04-28T17:00:00Z","geo":{"geometry":{"coordinates":[-84.1152388,10.0174734],"type":"Point"},"placekey":"@d5q-yrf-4n5","address":{"country_code":"CR","formatted_address":"Heredia, Barva, 40205 Costa Rica","locality":"Barva","postcode":"40205","region":"Heredia"}},"labels":["concert","health","music"],"duration":5400,"start_local":"2024-04-28T11:00:00","end":"2024-04-28T18:30:00Z","end_local":"2024-04-28T12:30:00","updated":"2024-06-05T08:50:46Z"},{"title":"tony delgado","description":"Sourced from predicthq.com","category":"concerts","start":"2024-04-28T02:00:00Z","geo":{"geometry":{"coordinates":[-84.0777265,9.9342289],"type":"Point"},"placekey":"@d5q-v4v-wtv","address":{"country_code":"CR","formatted_address":"WWQF+F48, Calle 3, San José, Amón, 10101, Costa Rica","postcode":"10101","locality":"San José","region":"San José"}},"labels":["concert","music"],"duration":0,"start_local":"2024-04-27T20:00:00","end":"2024-04-28T02:00:00Z","end_local":"2024-04-27T20:00:00","updated":"2024-06-12T13:33:40Z"},{"title":"Concierto Sebas Guillem y Alexis Morales","description":"Sourced from predicthq.com - Un concierto súper especial con el cantante Sebas Guillem y el trompetista Alexis Morales en La Colmena","category":"concerts","start":"2024-04-28T02:00:00Z","geo":{"geometry":{"coordinates":[-84.1183195,9.933465799999999],"type":"Point"},"placekey":"@d5q-v5s-wkz","address":{"country_code":"CR","formatted_address":"San José, San José Province, Costa Rica","locality":"San José","region":"San José Province"}},"labels":["concert","music"],"duration":7200,"start_local":"2024-04-27T20:00:00","end":"2024-04-28T04:00:00Z","end_local":"2024-04-27T22:00:00","updated":"2024-06-12T01:38:09Z"},{"title":"Primera División - Clausura - Sporting San José vs Municipal Liberia","description":"Sourced from predicthq.com","category":"sports","start":"2024-04-28T00:00:00Z","geo":{"geometry":{"coordinates":[-84.1302367,9.94273],"type":"Point"},"placekey":"@d5q-v5q-yvz","address":{"country_code":"CR","formatted_address":"WVV9+3WR, San José Province, San José, Alfa, Costa Rica","locality":"San José","region":"San José Province"}},"labels":["soccer","sport"],"duration":7107,"start_local":"2024-04-27T18:00:00","end":"2024-04-28T01:58:27Z","end_local":"2024-04-27T19:58:27","updated":"2024-06-05T05:19:07Z"},{"title":"Primera División - Clausura - Municipal Grecia vs Santos de Guápiles","description":"Sourced from predicthq.com","category":"sports","start":"2024-04-27T21:00:00Z","geo":{"geometry":{"coordinates":[-84.24370805476991,9.996035404313789],"type":"Point"},"placekey":"@d5q-v25-99f","address":{"country_code":"CR","formatted_address":"Alajuela, Costa Rica","locality":"Alajuela"}},"labels":["soccer","sport"],"duration":7083,"start_local":"2024-04-27T15:00:00","end":"2024-04-27T22:58:03Z","end_local":"2024-04-27T16:58:03","updated":"2024-06-05T14:58:49Z"},{"title":"Primera División - Clausura - Puntarenas vs San Carlos","description":"Sourced from predicthq.com","category":"sports","start":"2024-04-27T21:00:00Z","geo":{"geometry":{"coordinates":[-84.838932,9.9764296],"type":"Point"},"placekey":"@d5q-vm7-68v","address":{"country_code":"CR","formatted_address":"Avenida Central, Provincia de Puntarenas, Puntarenas, Costa Rica","locality":"Puntarenas","region":"Provincia de Puntarenas"}},"labels":["soccer","sport"],"duration":6958,"start_local":"2024-04-27T15:00:00","end":"2024-04-27T22:55:58Z","end_local":"2024-04-27T16:55:58","updated":"2024-06-05T10:19:35Z"},{"title":"Sello Azul - Armonías Sostenibles: Concierto por la Hora del Planeta","description":"Sourced from predicthq.com - Invita: ULACIT","category":"concerts","start":"2024-04-26T23:00:00Z","geo":{"geometry":{"coordinates":[-84.06456000000003,9.925783],"type":"Point"},"placekey":"@d5q-v4p-cqz","address":{"country_code":"CR","formatted_address":"San José, San José Province, Costa Rica","locality":"San José","region":"San José Province"}},"labels":["concert","music"],"duration":3600,"start_local":"2024-04-26T17:00:00","end":"2024-04-27T00:00:00Z","end_local":"2024-04-26T18:00:00","updated":"2024-06-05T01:46:09Z"},{"title":"Outside the circle, Sideways, Overshock, and Unborn Prophecy","description":"Sourced from predicthq.com","category":"concerts","start":"2024-04-26T00:00:00Z","geo":{"geometry":{"coordinates":[-84.07399,9.93653],"type":"Point"},"placekey":"@d5q-v4v-y7q","address":{"country_code":"CR","formatted_address":"Av. 7, Barrio Escalante, San José, 10101, Costa Rica","postcode":"10101","locality":"San José","region":"San José"}},"labels":["concert","music"],"duration":0,"start_local":"2024-04-25T18:00:00","end":"2024-04-26T00:00:00Z","end_local":"2024-04-25T18:00:00","updated":"2024-06-12T13:58:18Z"},{"title":"VOcation Costa Rica","description":"Sourced from predicthq.com - A Conference for the Business of Voiceover... in Paradise! Join us for 4 days of learning, networking, and growing as a VO business!","category":"conferences","start":"2024-04-25T20:00:00Z","geo":{"geometry":{"coordinates":[-85.44367059999999,10.6267399],"type":"Point"},"placekey":"@d5q-j56-dd9","address":{"country_code":"CR","formatted_address":"Liberia, Guanacaste Province, Costa Rica","locality":"Liberia","region":"Guanacaste Province"}},"labels":["conference","entertainment"],"duration":237600,"start_local":"2024-04-25T14:00:00","end":"2024-04-28T14:00:00Z","end_local":"2024-04-28T08:00:00","updated":"2024-06-04T23:24:05Z"},{"title":"Primera División - Clausura - Municipal Liberia vs San Carlos","description":"Sourced from predicthq.com","category":"sports","start":"2024-04-25T02:00:00Z","geo":{"geometry":{"coordinates":[-85.433334,10.6359639],"type":"Point"},"placekey":"@d5q-j53-wp9","address":{"country_code":"CR","formatted_address":"918,, C. 13, Provincia de Guanacaste, Liberia, Moracia, Costa Rica","locality":"Liberia","region":"Provincia de Guanacaste"}},"labels":["soccer","sport"],"duration":7248,"start_local":"2024-04-24T20:00:00","end":"2024-04-25T04:00:48Z","end_local":"2024-04-24T22:00:48","updated":"2024-06-12T10:00:39Z"},{"title":"Mon Laferte","description":"Sourced from predicthq.com","category":"concerts","start":"2024-04-24T01:00:00Z","geo":{"geometry":{"coordinates":[-84.10327,9.93813],"type":"Point"},"placekey":"@d5q-v4y-qvf","address":{"country_code":"CR","formatted_address":"La Sabana, San José, Sabana, Costa Rica","locality":"San José","region":"San José"}},"labels":["concert","music"],"duration":0,"start_local":"2024-04-23T19:00:00","end":"2024-04-24T01:00:00Z","end_local":"2024-04-23T19:00:00","updated":"2024-06-28T02:04:31Z"},{"title":"Groove Light","description":"Sourced from predicthq.com","category":"concerts","start":"2024-04-23T23:00:00Z","geo":{"geometry":{"coordinates":[-84.0511025,9.9301517],"type":"Point"},"placekey":"@d5q-v4x-rkz","address":{"country_code":"CR","formatted_address":"San Pedro, Montes de Oca, San Jose, Costa Rica","locality":"San Jose"}},"labels":["concert","music"],"duration":0,"start_local":"2024-04-23T17:00:00","end":"2024-04-23T23:00:00Z","end_local":"2024-04-23T17:00:00","updated":"2024-06-12T15:47:12Z"},{"title":"Primera División - Clausura - Guanacasteca vs Herediano","description":"Sourced from predicthq.com","category":"sports","start":"2024-04-23T02:00:00Z","geo":{"geometry":{"coordinates":[-85.433334,10.6359639],"type":"Point"},"placekey":"@d5q-j53-wp9","address":{"country_code":"CR","formatted_address":"918,, C. 13, Provincia de Guanacaste, Liberia, Moracia, Costa Rica","locality":"Liberia","region":"Provincia de Guanacaste"}},"labels":["soccer","sport"],"duration":7208,"start_local":"2024-04-22T20:00:00","end":"2024-04-23T04:00:08Z","end_local":"2024-04-22T22:00:08","updated":"2024-06-05T11:29:27Z"},{"title":"Sello Azul - Seguridad Laboral","description":"Sourced from predicthq.com - Invita: ULACIT","category":"conferences","start":"2024-04-23T00:00:00Z","geo":{"geometry":{"coordinates":[-84.0775302798,9.94149683476],"type":"Point"},"placekey":"@d5q-v4v-brk","address":{"country_code":"CR","formatted_address":"San Francisco, San José, Costa Rica","locality":"San Francisco","region":"San José"}},"labels":["conference","performing-arts"],"duration":3600,"start_local":"2024-04-22T18:00:00","end":"2024-04-23T01:00:00Z","end_local":"2024-04-22T19:00:00","updated":"2024-06-05T05:10:05Z"},{"title":"Primera División - Clausura - San Carlos vs Sporting San José","description":"Sourced from predicthq.com","category":"sports","start":"2024-04-22T01:15:00Z","geo":{"geometry":{"coordinates":[-84.4288158416748,10.321168045091188],"type":"Point"},"placekey":"@d5q-szz-3h5","address":{"country_code":"CR","formatted_address":"50 mts Este de Sedeco, 21001, Av. 6, Provincia de Alajuela, Cd Quesada, Costa Rica","locality":"Ciudad Quesada","region":"Provincia de Alajuela"}},"labels":["soccer","sport"],"duration":7058,"start_local":"2024-04-21T19:15:00","end":"2024-04-22T03:12:38Z","end_local":"2024-04-21T21:12:38","updated":"2024-06-05T00:42:41Z"},{"title":"Primera División - Clausura - Municipal Liberia vs Cartaginés","description":"Sourced from predicthq.com","category":"sports","start":"2024-04-22T00:00:00Z","geo":{"geometry":{"coordinates":[-85.433334,10.6359639],"type":"Point"},"placekey":"@d5q-j53-wp9","address":{"country_code":"CR","formatted_address":"918,, C. 13, Provincia de Guanacaste, Liberia, Moracia, Costa Rica","locality":"Liberia","region":"Provincia de Guanacaste"}},"labels":["soccer","sport"],"duration":7114,"start_local":"2024-04-21T18:00:00","end":"2024-04-22T01:58:34Z","end_local":"2024-04-21T19:58:34","updated":"2024-06-05T04:37:39Z"},{"title":"Primera División - Clausura - Santos de Guápiles vs Puntarenas","description":"Sourced from predicthq.com","category":"sports","start":"2024-04-21T23:00:00Z","geo":{"geometry":{"coordinates":[-83.7899301,10.2114656],"type":"Point"},"placekey":"@cmx-rkm-5s5","address":{"country_code":"CR","formatted_address":"149, Limón, Guápiles, Costa Rica","locality":"Guápiles","region":"Limón"}},"labels":["soccer","sport"],"duration":7210,"start_local":"2024-04-21T17:00:00","end":"2024-04-22T01:00:10Z","end_local":"2024-04-21T19:00:10","updated":"2024-06-05T02:16:08Z"},{"title":"Liga de Ascenso - Clausura - Quarter-finals - Quepos Cambute vs Santa Ana","description":"Sourced from predicthq.com","category":"sports","start":"2024-04-21T20:00:00Z","geo":{"geometry":{"coordinates":[-84.20793791,9.490494493],"type":"Point"},"placekey":"@cjn-ngu-c89","address":{"country_code":"CR","formatted_address":"FQRR+6R3, Damas District, Puntarenas Province, Quepos, Costa Rica","locality":"Quepos","region":"Puntarenas Province"}},"labels":["soccer","sport"],"duration":0,"start_local":"2024-04-21T14:00:00","end":"2024-04-21T20:00:00Z","end_local":"2024-04-21T14:00:00","updated":"2024-06-11T21:18:38Z"},{"title":"Liga de Ascenso - Clausura - Quarter-finals - Limón Black Star vs Jicaral","description":"Sourced from predicthq.com","category":"sports","start":"2024-04-21T20:00:00Z","geo":{"geometry":{"coordinates":[-83.0331924,9.9912106],"type":"Point"},"placekey":"@cmx-zfc-djv","address":{"country_code":"CR","formatted_address":"Limon, Limón Province, Costa Rica","locality":"Limon","region":"Limón Province"}},"labels":["soccer","sport"],"duration":0,"start_local":"2024-04-21T14:00:00","end":"2024-04-21T20:00:00Z","end_local":"2024-04-21T14:00:00","updated":"2024-06-12T09:41:28Z"},{"title":"Primera División - Clausura - Alajuelense vs Deportivo Saprissa","description":"Sourced from predicthq.com","category":"sports","start":"2024-04-21T02:00:00Z","geo":{"geometry":{"coordinates":[-84.2089283,10.0216363],"type":"Point"},"placekey":"@d5q-tz8-zfz","address":{"country_code":"CR","formatted_address":"Alajuela, Alajuela Province, Costa Rica","locality":"Alajuela","region":"Alajuela Province"}},"labels":["soccer","sport"],"duration":7306,"start_local":"2024-04-20T20:00:00","end":"2024-04-21T04:01:46Z","end_local":"2024-04-20T22:01:46","updated":"2024-05-24T11:15:10Z"},{"title":"Primera División - Clausura - Pérez Zeledón vs Municipal Grecia","description":"Sourced from predicthq.com","category":"sports","start":"2024-04-20T22:00:00Z","geo":{"geometry":{"coordinates":[-83.7048021,9.3689162],"type":"Point"},"placekey":"@cjn-pny-mzf","address":{"country_code":"CR","formatted_address":"Provincia de San José, San Isidro de El General, 11901 Costa Rica","postcode":"11901","locality":"San Isidro de El General","region":"Provincia de San José"}},"labels":["soccer","sport"],"duration":7361,"start_local":"2024-04-20T16:00:00","end":"2024-04-21T00:02:41Z","end_local":"2024-04-20T18:02:41","updated":"2024-05-24T07:09:24Z"},{"title":"Liga de Ascenso - Clausura - Quarter-finals - AD Sarchí vs Uruguay","description":"Sourced from predicthq.com","category":"sports","start":"2024-04-20T20:00:00Z","geo":{"geometry":{"coordinates":[-84.24370805476991,9.996035404313789],"type":"Point"},"placekey":"@d5q-v25-99f","address":{"country_code":"CR","formatted_address":"Alajuela, Costa Rica","locality":"Alajuela"}},"labels":["soccer","sport"],"duration":0,"start_local":"2024-04-20T14:00:00","end":"2024-04-20T20:00:00Z","end_local":"2024-04-20T14:00:00","updated":"2024-06-12T07:17:40Z"},{"title":"ROCK FEST X1","description":"Sourced from predicthq.com","category":"festivals","start":"2024-04-20T06:00:00Z","geo":{"geometry":{"coordinates":[-84.08043,9.93871],"type":"Point"},"placekey":"@d5q-v4v-ysq","address":{"country_code":"CR","formatted_address":"WWQ9+FQ5, Av 9, San José, Paso De La Vaca, Costa Rica","locality":"San José","region":"San José"}},"labels":["festival","music"],"duration":86399,"start_local":"2024-04-20T00:00:00","end":"2024-04-21T05:59:59Z","end_local":"2024-04-20T23:59:59","updated":"2024-06-05T21:47:23Z"},{"title":"Liga de Ascenso - Clausura - Quarter-finals - Escorpiones Belén vs Marineros","description":"Sourced from predicthq.com","category":"sports","start":"2024-04-20T02:00:00Z","geo":{"geometry":{"coordinates":[-84.1928780078888,9.977002833075671],"type":"Point"},"placekey":"@d5q-tzy-qj9","address":{"country_code":"CR","formatted_address":"San Antonio de Belén, Costa Rica","locality":"San Antonio de Belén"}},"labels":["soccer","sport"],"duration":0,"start_local":"2024-04-19T20:00:00","end":"2024-04-20T02:00:00Z","end_local":"2024-04-19T20:00:00","updated":"2024-06-12T08:46:27Z"},{"title":"Revolución de las finanzas en Costa Rica","description":"Sourced from predicthq.com - Te invitamos a ser parte de la revolución financiera en Costa Rica: un evento donde presentaremos una nueva herramienta financiera que Wink.","category":"conferences","start":"2024-04-20T01:00:00Z","geo":{"geometry":{"coordinates":[-84.10769839999999,9.9371142],"type":"Point"},"placekey":"@d5q-yrr-4gk","address":{"country_code":"CR","formatted_address":"San José, Costa Rica","locality":"San José","region":"San José"}},"labels":["business","conference"],"duration":9000,"start_local":"2024-04-19T19:00:00","end":"2024-04-20T03:30:00Z","end_local":"2024-04-19T21:30:00","updated":"2024-06-05T01:20:52Z"},{"title":"Fundraising Event - Día de los pueblos originarios","description":"Sourced from predicthq.com - ¡Ven y apoya nuestra causa con un evento de recaudación de fondos!","category":"festivals","start":"2024-04-19T23:30:00Z","geo":{"geometry":{"coordinates":[-84.1183195,9.933465799999999],"type":"Point"},"placekey":"@d5q-v5s-wkz","address":{"country_code":"CR","formatted_address":"San José, San José Province, Costa Rica","locality":"San José","region":"San José Province"}},"labels":["festival","fundraiser"],"duration":19800,"start_local":"2024-04-19T17:30:00","end":"2024-04-20T05:00:00Z","end_local":"2024-04-19T23:00:00","updated":"2024-06-12T00:14:43Z"},{"title":"Felipe Moya","description":"Sourced from predicthq.com","category":"concerts","start":"2024-04-19T03:00:00Z","geo":{"geometry":{"coordinates":[-84.0693893,9.9333477],"type":"Point"},"placekey":"@d5q-v4v-ju5","address":{"country_code":"CR","formatted_address":"WWMJ+86Q, El Carmen, San José Province, San José, 10101, Costa Rica","postcode":"10101","locality":"San José","region":"San José"}},"labels":["concert","music"],"duration":0,"start_local":"2024-04-18T21:00:00","end":"2024-04-19T03:00:00Z","end_local":"2024-04-18T21:00:00","updated":"2024-06-12T07:43:52Z"},{"title":"Primera División - Clausura - Herediano vs Cartaginés","description":"Sourced from predicthq.com","category":"sports","start":"2024-04-19T02:00:00Z","geo":{"geometry":{"coordinates":[-84.1604518,10.0408244],"type":"Point"},"placekey":"@d5q-ymd-2p9","address":{"country_code":"CR","formatted_address":"Santa Bárbara de Heredia, Heredia Province, Costa Rica","locality":"Santa Bárbara de Heredia","region":"Heredia Province"}},"labels":["soccer","sport"],"duration":6884,"start_local":"2024-04-18T20:00:00","end":"2024-04-19T03:54:44Z","end_local":"2024-04-18T21:54:44","updated":"2024-05-28T23:34:27Z"},{"title":"Karol Barboza, Fabiola Roudha, and Leiden","description":"Sourced from predicthq.com","category":"concerts","start":"2024-04-19T01:00:00Z","geo":{"geometry":{"coordinates":[-83.6773928,9.7539596],"type":"Point"},"placekey":"@cjn-s5w-h89","address":{"country_code":"CR","formatted_address":"Cartago, Costa Rica","locality":"Cartago"}},"labels":["concert","music"],"duration":0,"start_local":"2024-04-18T19:00:00","end":"2024-04-19T01:00:00Z","end_local":"2024-04-18T19:00:00","updated":"2024-06-12T02:36:01Z"},{"title":"Charla Alimentación Consciente - The Buzz La Colmena Talks","description":"Sourced from predicthq.com - Charla gratuita, parte del espacio de todos los jueves en La Colmena \"The Buzz La Colmena Talks\"","category":"conferences","start":"2024-04-19T00:00:00Z","geo":{"geometry":{"coordinates":[-84.1183195,9.933465799999999],"type":"Point"},"placekey":"@d5q-v5s-wkz","address":{"country_code":"CR","formatted_address":"San José, San José Province, Costa Rica","locality":"San José","region":"San José Province"}},"labels":["conference","food"],"duration":3600,"start_local":"2024-04-18T18:00:00","end":"2024-04-19T01:00:00Z","end_local":"2024-04-18T19:00:00","updated":"2024-06-11T23:38:32Z"},{"title":"Kundalini Activation","description":"Sourced from predicthq.com - Direct energy transmissions that activate the kundalini awakening in the body, a gentle way to awaken your innate life force within.","category":"conferences","start":"2024-04-18T23:00:00Z","geo":{"geometry":{"coordinates":[-85.1747259,9.6698147],"type":"Point"},"placekey":"@d5r-jdx-pvz","address":{"country_code":"CR","formatted_address":"Puntarenas Province, Costa Rica","region":"Puntarenas Province"}},"labels":["conference","religion"],"duration":7200,"start_local":"2024-04-18T17:00:00","end":"2024-04-19T01:00:00Z","end_local":"2024-04-18T19:00:00","updated":"2024-06-05T02:32:14Z"},{"title":"Sello Azul -Bailando en Argentina","description":"Sourced from predicthq.com - Invita: ULACIT","category":"concerts","start":"2024-04-18T23:00:00Z","geo":{"geometry":{"coordinates":[-84.0774429,9.9412355],"type":"Point"},"placekey":"@d5q-v4v-brk","address":{"country_code":"CR","formatted_address":"WWRC+GVW, San José, San Francisco, Tournón, Costa Rica","locality":"San Francisco","region":"San José"}},"labels":["concert","music"],"duration":3600,"start_local":"2024-04-18T17:00:00","end":"2024-04-19T00:00:00Z","end_local":"2024-04-18T18:00:00","updated":"2024-06-12T01:07:03Z"},{"title":"Primera División - Clausura - Alajuelense vs Municipal Grecia","description":"Sourced from predicthq.com","category":"sports","start":"2024-04-18T02:00:00Z","geo":{"geometry":{"coordinates":[-84.2089283,10.0216363],"type":"Point"},"placekey":"@d5q-tz8-zfz","address":{"country_code":"CR","formatted_address":"Alajuela, Alajuela Province, Costa Rica","locality":"Alajuela","region":"Alajuela Province"}},"labels":["soccer","sport"],"duration":7104,"start_local":"2024-04-17T20:00:00","end":"2024-04-18T03:58:24Z","end_local":"2024-04-17T21:58:24","updated":"2024-05-24T11:35:13Z"},{"title":"Anthrax and Overkill","description":"Sourced from predicthq.com","category":"concerts","start":"2024-04-18T01:00:00Z","geo":{"geometry":{"coordinates":[-84.0490602,9.918136],"type":"Point"},"placekey":"@cjn-ssn-ffz","address":{"country_code":"CR","formatted_address":"San José, Zapote, 11801 Costa Rica","postcode":"11801","locality":"Zapote","region":"San José"}},"labels":["concert","music"],"duration":0,"start_local":"2024-04-17T19:00:00","end":"2024-04-18T01:00:00Z","end_local":"2024-04-17T19:00:00","updated":"2024-06-11T21:56:55Z"},{"title":"Primera División - Clausura - Sporting San José vs Santos de Guápiles","description":"Sourced from predicthq.com","category":"sports","start":"2024-04-18T00:00:00Z","geo":{"geometry":{"coordinates":[-84.1302367,9.94273],"type":"Point"},"placekey":"@d5q-v5q-yvz","address":{"country_code":"CR","formatted_address":"WVV9+3WR, San José Province, San José, Alfa, Costa Rica","locality":"San José","region":"San José Province"}},"labels":["soccer","sport"],"duration":7008,"start_local":"2024-04-17T18:00:00","end":"2024-04-18T01:56:48Z","end_local":"2024-04-17T19:56:48","updated":"2024-06-05T05:28:45Z"},{"title":"Primera División - Clausura - Guanacasteca vs San Carlos","description":"Sourced from predicthq.com","category":"sports","start":"2024-04-17T21:00:00Z","geo":{"geometry":{"coordinates":[-85.4550548,10.139124],"type":"Point"},"placekey":"@d5r-hqr-9xq","address":{"country_code":"CR","formatted_address":"4GQV+JXW, Av. 6, Provincia de Guanacaste, Nicoya, Chorotega, Costa Rica","locality":"Nicoya","region":"Provincia de Guanacaste"}},"labels":["soccer","sport"],"duration":7421,"start_local":"2024-04-17T15:00:00","end":"2024-04-17T23:03:41Z","end_local":"2024-04-17T17:03:41","updated":"2024-06-05T01:58:23Z"},{"title":"Primera División - Clausura - Puntarenas vs Pérez Zeledón","description":"Sourced from predicthq.com","category":"sports","start":"2024-04-17T21:00:00Z","geo":{"geometry":{"coordinates":[-84.838932,9.9764296],"type":"Point"},"placekey":"@d5q-vm7-68v","address":{"country_code":"CR","formatted_address":"Avenida Central, Provincia de Puntarenas, Puntarenas, Costa Rica","locality":"Puntarenas","region":"Provincia de Puntarenas"}},"labels":["soccer","sport"],"duration":7031,"start_local":"2024-04-17T15:00:00","end":"2024-04-17T22:57:11Z","end_local":"2024-04-17T16:57:11","updated":"2024-06-05T11:33:22Z"},{"title":"Seminario Certificado","description":"Sourced from predicthq.com - * Parison Control, Servoválvulas, tipos, funcionamientos y aplicaciones en plásticos*","category":"conferences","start":"2024-04-17T15:00:00Z","geo":{"geometry":{"coordinates":[-84.16126,9.978872],"type":"Point"},"placekey":"@d5q-tzv-wzf","address":{"country_code":"CR","formatted_address":"General Canas Highway San Jose 71880 Costa Rica","locality":"San José"}},"labels":["business","conference"],"duration":25200,"start_local":"2024-04-17T09:00:00","end":"2024-04-17T22:00:00Z","end_local":"2024-04-17T16:00:00","updated":"2024-06-05T11:06:01Z"},{"title":"Primera División - Clausura - Deportivo Saprissa vs Municipal Liberia","description":"Sourced from predicthq.com","category":"sports","start":"2024-04-17T02:00:00Z","geo":{"geometry":{"coordinates":[-84.0753087,9.9655063],"type":"Point"},"placekey":"@d5q-yqt-ysq","address":{"country_code":"CR","formatted_address":"Tibás, Provincia de San José, Costa Rica","locality":"Tibás","region":"Provincia de San José"}},"labels":["soccer","sport"],"duration":6926,"start_local":"2024-04-16T20:00:00","end":"2024-04-17T03:55:26Z","end_local":"2024-04-16T21:55:26","updated":"2024-05-28T23:54:00Z"},{"title":"Sello Azul - Descifrando estrategias innovadoras: El  Caso de Singapur","description":"Sourced from predicthq.com - Invita: ULACIT","category":"conferences","start":"2024-04-16T22:00:00Z","geo":{"geometry":{"coordinates":[-84.0777975,9.9413653],"type":"Point"},"placekey":"@d5q-v4v-pqf","address":{"country_code":"CR","formatted_address":"San Francisco, San José, Costa Rica","locality":"San Francisco","region":"San José"}},"labels":["conference"],"duration":3600,"start_local":"2024-04-16T16:00:00","end":"2024-04-16T23:00:00Z","end_local":"2024-04-16T17:00:00","updated":"2024-06-05T20:37:13Z"},{"title":"Liga de Ascenso - Clausura - Quarter-finals - Santa Ana vs Quepos Cambute","description":"Sourced from predicthq.com","category":"sports","start":"2024-04-16T01:00:00Z","geo":{"geometry":{"coordinates":[-84.2136383,9.931610896],"type":"Point"},"placekey":"@d5q-ty9-r49","address":{"country_code":"CR","formatted_address":"Santa Ana, Costa Rica","locality":"Santa Ana"}},"labels":["soccer","sport"],"duration":0,"start_local":"2024-04-15T19:00:00","end":"2024-04-16T01:00:00Z","end_local":"2024-04-15T19:00:00","updated":"2024-06-12T04:23:51Z"},{"title":"Caminata y Compañerismo, Bocas del Toro. 16 de marzo, 5am.","description":"Sourced from predicthq.com - Caminata Recreativa y Compañerismo Cristiano, Bocas del Toro. 16 de marzo. ₡12.000 por persona.  Incluye Transporte e ingreso a la finca.","category":"community","start":"2024-04-15T10:30:00Z","geo":{"geometry":{"coordinates":[-84.1197643,9.9981413],"type":"Point"},"placekey":"@d5q-yr7-7wk","address":{"country_code":"CR","formatted_address":"Heredia, Heredia Province, Costa Rica","locality":"Heredia","region":"Heredia Province"}},"labels":["community","outdoor","sport"],"duration":34200,"start_local":"2024-04-15T04:30:00","end":"2024-04-15T20:00:00Z","end_local":"2024-04-15T14:00:00","updated":"2024-06-04T22:15:55Z"},{"title":"Manda Moor and Green Velvet","description":"Sourced from predicthq.com","category":"concerts","start":"2024-04-15T01:00:00Z","geo":{"geometry":{"coordinates":[-84.19083,9.94851],"type":"Point"},"placekey":"@d5q-tzr-xkf","address":{"country_code":"CR","formatted_address":"Lindora, del puente sobre el virilla, 100 norte, 600 oeste San Rafael, San Jose, Costa Rica","locality":"San Jose"}},"labels":["concert","music"],"duration":0,"start_local":"2024-04-14T19:00:00","end":"2024-04-15T01:00:00Z","end_local":"2024-04-14T19:00:00","updated":"2024-06-12T11:30:33Z"},{"title":"Liga de Ascenso - Clausura - Quarter-finals - Uruguay vs AD Sarchí","description":"Sourced from predicthq.com","category":"sports","start":"2024-04-14T21:00:00Z","geo":{"geometry":{"coordinates":[-84.0070224,9.9730139],"type":"Point"},"placekey":"@cjn-svc-ks5","address":{"country_code":"CR","formatted_address":"Vásquez de Coronado, Provincia de San José, San Isidro, Costa Rica","locality":"San Isidro","region":"Provincia de San José"}},"labels":["soccer","sport"],"duration":0,"start_local":"2024-04-14T15:00:00","end":"2024-04-14T21:00:00Z","end_local":"2024-04-14T15:00:00","updated":"2024-06-11T22:42:27Z"},{"title":"Tuti","description":"Sourced from predicthq.com","category":"concerts","start":"2024-04-14T20:00:00Z","geo":{"geometry":{"coordinates":[-84.14615,9.9207],"type":"Point"},"placekey":"@d5q-v5h-nyv","address":{"country_code":"CR","formatted_address":"Escazú, San Jose, Costa Rica","locality":"San Jose"}},"labels":["concert","music"],"duration":0,"start_local":"2024-04-14T14:00:00","end":"2024-04-14T20:00:00Z","end_local":"2024-04-14T14:00:00","updated":"2024-06-12T13:37:03Z"},{"title":"Liga de Ascenso - Clausura - Quarter-finals - Jicaral vs Limón Black Star","description":"Sourced from predicthq.com","category":"sports","start":"2024-04-14T17:15:00Z","geo":{"geometry":{"coordinates":[-85.11950612068176,9.958304719493697],"type":"Point"},"placekey":"@d5r-jj7-nbk","address":{"country_code":"CR","formatted_address":"75 metros sur del Colegio Técnico Profesional de, Provincia de Puntarenas, Jicaral, 60104, Costa Rica","postcode":"60104","locality":"Jicaral","region":"Provincia de Puntarenas"}},"labels":["soccer","sport"],"duration":0,"start_local":"2024-04-14T11:15:00","end":"2024-04-14T17:15:00Z","end_local":"2024-04-14T11:15:00","updated":"2024-06-11T23:57:09Z"},{"title":"World Congress on Industrial Biotechnology","description":"Sourced from predicthq.com","category":"conferences","start":"2024-04-14T15:00:00Z","geo":{"geometry":{"coordinates":[-84.166259,10.017092],"type":"Point"},"placekey":"@d5q-yrg-zxq","address":{"country_code":"CR","formatted_address":"Heredia, Costa Rica","region":"Heredia"}},"labels":["conference"],"duration":118800,"start_local":"2024-04-14T09:00:00","end":"2024-04-16T00:00:00Z","end_local":"2024-04-15T18:00:00","updated":"2024-06-05T08:22:34Z"},{"title":"Libélula Electronic Music Festival","description":"Sourced from predicthq.com","category":"festivals","start":"2024-04-14T06:00:00Z","geo":{"geometry":{"coordinates":[-84.19083,9.94851],"type":"Point"},"placekey":"@d5q-tzr-xkf","address":{"country_code":"CR","formatted_address":"Lindora, del puente sobre el virilla, 100 norte, 600 oeste San Rafael, San Jose, Costa Rica","locality":"San Jose"}},"labels":["festival","music"],"duration":86399,"start_local":"2024-04-14T00:00:00","end":"2024-04-15T05:59:59Z","end_local":"2024-04-14T23:59:59","updated":"2024-06-05T09:53:38Z"},{"title":"Maraton Cartago","description":"Sourced from predicthq.com","category":"sports","start":"2024-04-14T06:00:00Z","geo":{"geometry":{"coordinates":[-83.9161935,9.8638091],"type":"Point"},"placekey":"@cjn-ss9-jd9","address":{"country_code":"CR","formatted_address":"Cartago, Provincia de Cartago, Costa Rica","locality":"Cartago","region":"Provincia de Cartago"}},"labels":["outdoor-sports","running","sport"],"duration":86399,"start_local":"2024-04-14T00:00:00","end":"2024-04-15T05:59:59Z","end_local":"2024-04-14T23:59:59","updated":"2024-06-05T03:07:49Z"},{"title":"Primera División - Clausura - Pérez Zeledón vs Alajuelense","description":"Sourced from predicthq.com","category":"sports","start":"2024-04-14T02:30:00Z","geo":{"geometry":{"coordinates":[-83.7048021,9.3689162],"type":"Point"},"placekey":"@cjn-pny-mzf","address":{"country_code":"CR","formatted_address":"Provincia de San José, San Isidro de El General, 11901 Costa Rica","postcode":"11901","locality":"San Isidro de El General","region":"Provincia de San José"}},"labels":["soccer","sport"],"duration":7406,"start_local":"2024-04-13T20:30:00","end":"2024-04-14T04:33:26Z","end_local":"2024-04-13T22:33:26","updated":"2024-05-24T06:46:52Z"},{"title":"Javier Medina","description":"Sourced from predicthq.com","category":"concerts","start":"2024-04-14T02:00:00Z","geo":{"geometry":{"coordinates":[-84.11984,9.99743],"type":"Point"},"placekey":"@d5q-yr7-7wk","address":{"country_code":"CR","formatted_address":"2V2P+C3W, Av. 5, Heredia, Costa Rica","locality":"Heredia","region":"Heredia"}},"labels":["concert","music"],"duration":0,"start_local":"2024-04-13T20:00:00","end":"2024-04-14T02:00:00Z","end_local":"2024-04-13T20:00:00","updated":"2024-06-12T13:19:27Z"},{"title":"Barzo","description":"Sourced from predicthq.com","category":"community","start":"2024-04-14T01:00:00Z","geo":{"geometry":{"coordinates":[-85.78167,10.41608],"type":"Point"},"placekey":"@d5r-8tp-p7q","address":{"country_code":"CR","formatted_address":"Guanacaste, Costa Rica","locality":"Guanacaste"}},"labels":["concert","music"],"duration":0,"start_local":"2024-04-13T19:00:00","end":"2024-04-14T01:00:00Z","end_local":"2024-04-13T19:00:00","updated":"2024-05-25T02:48:57Z"},{"title":"Liga de Ascenso - Clausura - Quarter-finals - Marineros vs Escorpiones Belén","description":"Sourced from predicthq.com","category":"sports","start":"2024-04-14T01:00:00Z","geo":{"geometry":{"coordinates":[-84.4288158416748,10.321168045091188],"type":"Point"},"placekey":"@d5q-szz-3h5","address":{"country_code":"CR","formatted_address":"50 mts Este de Sedeco, 21001, Av. 6, Provincia de Alajuela, Cd Quesada, Costa Rica","locality":"Ciudad Quesada","region":"Provincia de Alajuela"}},"labels":["soccer","sport"],"duration":0,"start_local":"2024-04-13T19:00:00","end":"2024-04-14T01:00:00Z","end_local":"2024-04-13T19:00:00","updated":"2024-06-11T23:39:50Z"},{"title":"Primera División - Clausura - Santos de Guápiles vs Herediano","description":"Sourced from predicthq.com","category":"sports","start":"2024-04-14T00:00:00Z","geo":{"geometry":{"coordinates":[-83.7899301,10.2114656],"type":"Point"},"placekey":"@cmx-rkm-5s5","address":{"country_code":"CR","formatted_address":"149, Limón, Guápiles, Costa Rica","locality":"Guápiles","region":"Limón"}},"labels":["soccer","sport"],"duration":6726,"start_local":"2024-04-13T18:00:00","end":"2024-04-14T01:52:06Z","end_local":"2024-04-13T19:52:06","updated":"2024-06-05T05:41:01Z"},{"title":"Primera División - Clausura - Cartaginés vs San Carlos","description":"Sourced from predicthq.com","category":"sports","start":"2024-04-13T23:45:00Z","geo":{"geometry":{"coordinates":[-83.918931,9.858454],"type":"Point"},"placekey":"@cjn-ss8-w6k","address":{"country_code":"CR","formatted_address":"Provincia de Cartago, Cartago, Costa Rica, 30101 Costa Rica","postcode":"30101","locality":"Cartago, Costa Rica","region":"Provincia de Cartago"}},"labels":["soccer","sport"],"duration":6995,"start_local":"2024-04-13T17:45:00","end":"2024-04-14T01:41:35Z","end_local":"2024-04-13T19:41:35","updated":"2024-05-24T23:55:05Z"},{"title":"Primera División - Clausura - Municipal Grecia vs Deportivo Saprissa","description":"Sourced from predicthq.com","category":"sports","start":"2024-04-13T21:00:00Z","geo":{"geometry":{"coordinates":[-84.24370805476991,9.996035404313789],"type":"Point"},"placekey":"@d5q-v25-99f","address":{"country_code":"CR","formatted_address":"Alajuela, Costa Rica","locality":"Alajuela"}},"labels":["soccer","sport"],"duration":6990,"start_local":"2024-04-13T15:00:00","end":"2024-04-13T22:56:30Z","end_local":"2024-04-13T16:56:30","updated":"2024-06-04T21:47:21Z"},{"title":"Primera División - Clausura - Puntarenas vs Sporting San José","description":"Sourced from predicthq.com","category":"sports","start":"2024-04-13T21:00:00Z","geo":{"geometry":{"coordinates":[-84.838932,9.9764296],"type":"Point"},"placekey":"@d5q-vm7-68v","address":{"country_code":"CR","formatted_address":"Avenida Central, Provincia de Puntarenas, Puntarenas, Costa Rica","locality":"Puntarenas","region":"Provincia de Puntarenas"}},"labels":["soccer","sport"],"duration":7187,"start_local":"2024-04-13T15:00:00","end":"2024-04-13T22:59:47Z","end_local":"2024-04-13T16:59:47","updated":"2024-06-05T07:43:45Z"},{"title":"AWAKEN – HEAL – TRANSFORM WOMEN'S RETREAT COSTA RICA APRIL 13-20, 2024","description":"Sourced from predicthq.com","category":"community","start":"2024-04-13T20:00:00Z","geo":{"geometry":{"coordinates":[-84.18626,10.05729],"type":"Point"},"placekey":"@d5q-ymb-nwk","address":{"country_code":"CR","formatted_address":"Alajuela, Provincia de Alajuela, Costa Rica","locality":"Alajuela","region":"Provincia de Alajuela"}},"labels":["community","health"],"duration":597600,"start_local":"2024-04-13T14:00:00","end":"2024-04-20T18:00:00Z","end_local":"2024-04-20T12:00:00","updated":"2024-06-05T15:37:20Z"},{"title":"RIDEFEST Red Motors","description":"Sourced from predicthq.com - En el RideFest, podrás explorar una amplia gama de modelos disponibles así como accesorios, promociones especiales y opciones de financiamie","category":"expos","start":"2024-04-13T15:00:00Z","geo":{"geometry":{"coordinates":[-84.10214649999999,9.950779400000002],"type":"Point"},"placekey":"@d5q-yrr-x3q","address":{"country_code":"CR","formatted_address":"San José, San José Province, Costa Rica","locality":"San José","region":"San José Province"}},"labels":["expo","outdoor"],"duration":25200,"start_local":"2024-04-13T09:00:00","end":"2024-04-13T22:00:00Z","end_local":"2024-04-13T16:00:00","updated":"2024-06-05T01:09:49Z"},{"title":"Post/Reaper","description":"Sourced from predicthq.com","category":"festivals","start":"2024-04-13T06:00:00Z","geo":{"geometry":{"coordinates":[-84.1209068,9.9976143],"type":"Point"},"placekey":"@d5q-yr7-4sq","address":{"country_code":"CR","formatted_address":"2V2P+2XF, Pedro Henríquez Ureña, Heredia, 40101, Costa Rica","postcode":"40101","locality":"Heredia","region":"Heredia"}},"labels":["festival","music"],"duration":86399,"start_local":"2024-04-13T00:00:00","end":"2024-04-14T05:59:59Z","end_local":"2024-04-13T23:59:59","updated":"2024-06-05T06:46:02Z"},{"title":"Primera División - Clausura - Municipal Liberia vs Guanacasteca","description":"Sourced from predicthq.com","category":"sports","start":"2024-04-13T02:00:00Z","geo":{"geometry":{"coordinates":[-85.433334,10.6359639],"type":"Point"},"placekey":"@d5q-j53-wp9","address":{"country_code":"CR","formatted_address":"918,, C. 13, Provincia de Guanacaste, Liberia, Moracia, Costa Rica","locality":"Liberia","region":"Provincia de Guanacaste"}},"labels":["soccer","sport"],"duration":7293,"start_local":"2024-04-12T20:00:00","end":"2024-04-13T04:01:33Z","end_local":"2024-04-12T22:01:33","updated":"2024-06-05T17:43:21Z"},{"title":"Sello Azul - Concierto: inspiración literaria con Rockapellas","description":"Sourced from predicthq.com - Invita: ULACIT","category":"conferences","start":"2024-04-11T00:00:00Z","geo":{"geometry":{"coordinates":[-84.077530615,9.94145126139],"type":"Point"},"placekey":"@d5q-v4v-brk","address":{"country_code":"CR","formatted_address":"San Francisco, San José, Costa Rica","locality":"San Francisco","region":"San José"}},"labels":["conference"],"duration":3600,"start_local":"2024-04-10T18:00:00","end":"2024-04-11T01:00:00Z","end_local":"2024-04-10T19:00:00","updated":"2024-06-04T21:56:00Z"},{"title":"Sello Azul - Uso de herramientas basadas en IA como alternativa de lectura","description":"Sourced from predicthq.com - Invita: ULACIT","category":"conferences","start":"2024-04-10T20:00:00Z","geo":{"geometry":{"coordinates":[-84.0777975,9.9413653],"type":"Point"},"placekey":"@d5q-v4v-pqf","address":{"country_code":"CR","formatted_address":"San Francisco, San José, Costa Rica","locality":"San Francisco","region":"San José"}},"labels":["conference"],"duration":3600,"start_local":"2024-04-10T14:00:00","end":"2024-04-10T21:00:00Z","end_local":"2024-04-10T15:00:00","updated":"2024-06-05T08:22:34Z"},{"title":"Sello Azul - Surrounding the library","description":"Sourced from predicthq.com - Invita: ULACIT","category":"conferences","start":"2024-04-10T17:00:00Z","geo":{"geometry":{"coordinates":[-84.0777975,9.9413653],"type":"Point"},"placekey":"@d5q-v4v-pqf","address":{"country_code":"CR","formatted_address":"San Francisco, San José, Costa Rica","locality":"San Francisco","region":"San José"}},"labels":["conference"],"duration":3600,"start_local":"2024-04-10T11:00:00","end":"2024-04-10T18:00:00Z","end_local":"2024-04-10T12:00:00","updated":"2024-06-05T05:06:32Z"},{"title":"Sello Azul - Ulacit talks: la mirada de una chica STEM siendo Bookstagramer","description":"Sourced from predicthq.com - Invita: ULACIT","category":"conferences","start":"2024-04-09T23:00:00Z","geo":{"geometry":{"coordinates":[-84.0777975,9.9413653],"type":"Point"},"placekey":"@d5q-v4v-pqf","address":{"country_code":"CR","formatted_address":"San Francisco, San José, Costa Rica","locality":"San Francisco","region":"San José"}},"labels":["conference"],"duration":3600,"start_local":"2024-04-09T17:00:00","end":"2024-04-10T00:00:00Z","end_local":"2024-04-09T18:00:00","updated":"2024-06-05T07:48:32Z"},{"title":"Sello Azul - Análisis: ¿Necesita Harry Potter terapia psicológica?.....","description":"Sourced from predicthq.com - Invita: ULACIT","category":"conferences","start":"2024-04-09T20:00:00Z","geo":{"geometry":{"coordinates":[-84.0777975,9.9413653],"type":"Point"},"placekey":"@d5q-v4v-pqf","address":{"country_code":"CR","formatted_address":"San Francisco, San José, Costa Rica","locality":"San Francisco","region":"San José"}},"labels":["conference"],"duration":3600,"start_local":"2024-04-09T14:00:00","end":"2024-04-09T21:00:00Z","end_local":"2024-04-09T15:00:00","updated":"2024-06-05T06:27:21Z"},{"title":"Sello Azul - Taller de encuadernación","description":"Sourced from predicthq.com - Invita: ULACIT","category":"conferences","start":"2024-04-09T16:00:00Z","geo":{"geometry":{"coordinates":[-84.0777975,9.9413653],"type":"Point"},"placekey":"@d5q-v4v-pqf","address":{"country_code":"CR","formatted_address":"San Francisco, San José, Costa Rica","locality":"San Francisco","region":"San José"}},"labels":["conference"],"duration":7200,"start_local":"2024-04-09T10:00:00","end":"2024-04-09T18:00:00Z","end_local":"2024-04-09T12:00:00","updated":"2024-06-05T04:23:25Z"},{"title":"Friendlies Women - Friendlies 1 - Costa Rica vs Peru","description":"Sourced from predicthq.com","category":"sports","start":"2024-04-09T16:00:00Z","geo":{"geometry":{"coordinates":[-84.20120071135597,9.973938125809896],"type":"Point"},"placekey":"@d5q-txt-hnq","address":{"country_code":"CR","formatted_address":"Radial San Antonio, San Rafael, Alajuela, Costa Rica","locality":"Alajuela"}},"labels":["closed-doors","soccer","sport"],"duration":92694,"start_local":"2024-04-09T10:00:00","end":"2024-04-10T17:44:54Z","end_local":"2024-04-10T11:44:54","updated":"2024-06-05T19:53:38Z"},{"title":"Vuelo de los deseos","description":"Sourced from predicthq.com - Sumérgete en la magia de los sueños hechos danza con los estudiantes del World Gym y artistas invitados.","category":"concerts","start":"2024-04-07T23:30:00Z","geo":{"geometry":{"coordinates":[-84.1369175,9.935832099999999],"type":"Point"},"placekey":"@d5q-v5q-tn5","address":{"country_code":"CR","formatted_address":"San Rafael de Escazú, San José Province, Costa Rica","locality":"San Rafael de Escazú","region":"San José Province"}},"labels":["concert","music","religion"],"duration":9000,"start_local":"2024-04-07T17:30:00","end":"2024-04-08T02:00:00Z","end_local":"2024-04-07T20:00:00","updated":"2024-06-12T00:04:19Z"},{"title":"Primera División - Clausura - Deportivo Saprissa vs Sporting San José","description":"Sourced from predicthq.com","category":"sports","start":"2024-04-07T23:00:00Z","geo":{"geometry":{"coordinates":[-84.0753087,9.9655063],"type":"Point"},"placekey":"@d5q-yqt-ysq","address":{"country_code":"CR","formatted_address":"Tibás, Provincia de San José, Costa Rica","locality":"Tibás","region":"Provincia de San José"}},"labels":["soccer","sport"],"duration":7483,"start_local":"2024-04-07T17:00:00","end":"2024-04-08T01:04:43Z","end_local":"2024-04-07T19:04:43","updated":"2024-05-28T23:31:03Z"},{"title":"Primera División - Clausura - Guanacasteca vs Puntarenas","description":"Sourced from predicthq.com","category":"sports","start":"2024-04-07T21:00:00Z","geo":{"geometry":{"coordinates":[-85.4550548,10.139124],"type":"Point"},"placekey":"@d5r-hqr-9xq","address":{"country_code":"CR","formatted_address":"4GQV+JXW, Av. 6, Provincia de Guanacaste, Nicoya, Chorotega, Costa Rica","locality":"Nicoya","region":"Provincia de Guanacaste"}},"labels":["soccer","sport"],"duration":7093,"start_local":"2024-04-07T15:00:00","end":"2024-04-07T22:58:13Z","end_local":"2024-04-07T16:58:13","updated":"2024-06-04T23:22:59Z"},{"title":"Liga de Ascenso - Clausura - Limón Black Star vs Consultants Desamparados","description":"Sourced from predicthq.com","category":"sports","start":"2024-04-07T20:00:00Z","geo":{"geometry":{"coordinates":[-83.0331924,9.9912106],"type":"Point"},"placekey":"@cmx-zfc-djv","address":{"country_code":"CR","formatted_address":"Limon, Limón Province, Costa Rica","locality":"Limon","region":"Limón Province"}},"labels":["soccer","sport"],"duration":0,"start_local":"2024-04-07T14:00:00","end":"2024-04-07T20:00:00Z","end_local":"2024-04-07T14:00:00","updated":"2024-06-11T23:31:42Z"},{"title":"Liga de Ascenso - Clausura - COFUTPA vs Jacó","description":"Sourced from predicthq.com","category":"sports","start":"2024-04-07T20:00:00Z","geo":{"geometry":{"coordinates":[-84.42979,10.0575489],"type":"Point"},"placekey":"@d5q-sn6-y35","address":{"country_code":"CR","formatted_address":"3H5C+434, Alajuela Province, Palmares, Costa Rica","locality":"Palmares","region":"Alajuela Province"}},"labels":["soccer","sport"],"duration":0,"start_local":"2024-04-07T14:00:00","end":"2024-04-07T20:00:00Z","end_local":"2024-04-07T14:00:00","updated":"2024-06-12T08:17:28Z"},{"title":"Liga de Ascenso - Clausura - Marineros vs AD Sarchí","description":"Sourced from predicthq.com","category":"sports","start":"2024-04-07T20:00:00Z","geo":{"geometry":{"coordinates":[-84.4288158416748,10.321168045091188],"type":"Point"},"placekey":"@d5q-szz-3h5","address":{"country_code":"CR","formatted_address":"50 mts Este de Sedeco, 21001, Av. 6, Provincia de Alajuela, Cd Quesada, Costa Rica","locality":"Ciudad Quesada","region":"Provincia de Alajuela"}},"labels":["soccer","sport"],"duration":0,"start_local":"2024-04-07T14:00:00","end":"2024-04-07T20:00:00Z","end_local":"2024-04-07T14:00:00","updated":"2024-06-11T21:37:39Z"},{"title":"Liga de Ascenso - Clausura - Turrialba vs Guadalupe","description":"Sourced from predicthq.com","category":"sports","start":"2024-04-07T20:00:00Z","geo":{"geometry":{"coordinates":[-83.68123054504,9.90590837339],"type":"Point"},"placekey":"@cjn-sn9-r49","address":{"country_code":"CR","formatted_address":"Cartago Province, Turrialba, Las Americas, Costa Rica","locality":"Turrialba","region":"Cartago Province"}},"labels":["soccer","sport"],"duration":0,"start_local":"2024-04-07T14:00:00","end":"2024-04-07T20:00:00Z","end_local":"2024-04-07T14:00:00","updated":"2024-06-12T09:53:22Z"},{"title":"Liga de Ascenso - Clausura - Quepos Cambute vs Jicaral","description":"Sourced from predicthq.com","category":"sports","start":"2024-04-07T20:00:00Z","geo":{"geometry":{"coordinates":[-84.20793791,9.490494493],"type":"Point"},"placekey":"@cjn-ngu-c89","address":{"country_code":"CR","formatted_address":"FQRR+6R3, Damas District, Puntarenas Province, Quepos, Costa Rica","locality":"Quepos","region":"Puntarenas Province"}},"labels":["soccer","sport"],"duration":0,"start_local":"2024-04-07T14:00:00","end":"2024-04-07T20:00:00Z","end_local":"2024-04-07T14:00:00","updated":"2024-06-12T01:44:06Z"},{"title":"Liga de Ascenso - Clausura - Santa Ana vs Escorpiones Belén","description":"Sourced from predicthq.com","category":"sports","start":"2024-04-07T20:00:00Z","geo":{"geometry":{"coordinates":[-84.2136383,9.931610896],"type":"Point"},"placekey":"@d5q-ty9-r49","address":{"country_code":"CR","formatted_address":"Santa Ana, Costa Rica","locality":"Santa Ana"}},"labels":["soccer","sport"],"duration":0,"start_local":"2024-04-07T14:00:00","end":"2024-04-07T20:00:00Z","end_local":"2024-04-07T14:00:00","updated":"2024-06-12T20:08:19Z"},{"title":"Primera División - Clausura - Herediano vs Municipal Grecia","description":"Sourced from predicthq.com","category":"sports","start":"2024-04-07T02:00:00Z","geo":{"geometry":{"coordinates":[-84.1604518,10.0408244],"type":"Point"},"placekey":"@d5q-ymd-2p9","address":{"country_code":"CR","formatted_address":"Santa Bárbara de Heredia, Heredia Province, Costa Rica","locality":"Santa Bárbara de Heredia","region":"Heredia Province"}},"labels":["soccer","sport"],"duration":7197,"start_local":"2024-04-06T20:00:00","end":"2024-04-07T03:59:57Z","end_local":"2024-04-06T21:59:57","updated":"2024-05-29T00:02:44Z"},{"title":"Barzo and F.A.V.","description":"Sourced from predicthq.com","category":"community","start":"2024-04-07T02:00:00Z","geo":{"geometry":{"coordinates":[-84.0782726,9.9342456],"type":"Point"},"placekey":"@d5q-v4v-xbk","address":{"country_code":"CR","formatted_address":"WWMC+MMX, C. 1, El Carmen, San José, 10101, Costa Rica","postcode":"10101","locality":"San José","region":"San José"}},"labels":["concert","music"],"duration":0,"start_local":"2024-04-06T20:00:00","end":"2024-04-07T02:00:00Z","end_local":"2024-04-06T20:00:00","updated":"2024-06-05T01:46:53Z"},{"title":"Primera División - Clausura - San Carlos vs Pérez Zeledón","description":"Sourced from predicthq.com","category":"sports","start":"2024-04-07T01:15:00Z","geo":{"geometry":{"coordinates":[-84.4288158416748,10.321168045091188],"type":"Point"},"placekey":"@d5q-szz-3h5","address":{"country_code":"CR","formatted_address":"50 mts Este de Sedeco, 21001, Av. 6, Provincia de Alajuela, Cd Quesada, Costa Rica","locality":"Ciudad Quesada","region":"Provincia de Alajuela"}},"labels":["soccer","sport"],"duration":6850,"start_local":"2024-04-06T19:15:00","end":"2024-04-07T03:09:10Z","end_local":"2024-04-06T21:09:10","updated":"2024-06-05T09:36:12Z"},{"title":"Altercados and Xpunkha","description":"Sourced from predicthq.com","category":"concerts","start":"2024-04-07T01:00:00Z","geo":{"geometry":{"coordinates":[-84.04004,9.92631],"type":"Point"},"placekey":"@cjn-ssp-7yv","address":{"country_code":"CR","formatted_address":"25m al Este de la POPS, frente a Plaza Freses, Curridabat, San Jose, Costa Rica","locality":"San Jose"}},"labels":["concert","music"],"duration":0,"start_local":"2024-04-06T19:00:00","end":"2024-04-07T01:00:00Z","end_local":"2024-04-06T19:00:00","updated":"2024-06-12T03:46:42Z"},{"title":"Primera División - Clausura - Santos de Guápiles vs Municipal Liberia","description":"Sourced from predicthq.com","category":"sports","start":"2024-04-06T23:00:00Z","geo":{"geometry":{"coordinates":[-83.7899301,10.2114656],"type":"Point"},"placekey":"@cmx-rkm-5s5","address":{"country_code":"CR","formatted_address":"149, Limón, Guápiles, Costa Rica","locality":"Guápiles","region":"Limón"}},"labels":["soccer","sport"],"duration":7092,"start_local":"2024-04-06T17:00:00","end":"2024-04-07T00:58:12Z","end_local":"2024-04-06T18:58:12","updated":"2024-06-05T04:38:16Z"},{"title":"Primera División - Clausura - Cartaginés vs Alajuelense","description":"Sourced from predicthq.com","category":"sports","start":"2024-04-06T23:00:00Z","geo":{"geometry":{"coordinates":[-83.918931,9.858454],"type":"Point"},"placekey":"@cjn-ss8-w6k","address":{"country_code":"CR","formatted_address":"Provincia de Cartago, Cartago, Costa Rica, 30101 Costa Rica","postcode":"30101","locality":"Cartago, Costa Rica","region":"Provincia de Cartago"}},"labels":["soccer","sport"],"duration":7003,"start_local":"2024-04-06T17:00:00","end":"2024-04-07T00:56:43Z","end_local":"2024-04-06T18:56:43","updated":"2024-05-24T23:27:55Z"},{"title":"Emi Galvan","description":"Sourced from predicthq.com","category":"concerts","start":"2024-04-06T21:00:00Z","geo":{"geometry":{"coordinates":[-84.1509675,9.9765055],"type":"Point"},"placekey":"@d5q-tzx-975","address":{"country_code":"CR","formatted_address":"Autop. Gral. Cañas, San José, Costa Rica","locality":"San José","region":"San José"}},"labels":["concert","music"],"duration":0,"start_local":"2024-04-06T15:00:00","end":"2024-04-06T21:00:00Z","end_local":"2024-04-06T15:00:00","updated":"2024-06-11T23:13:41Z"},{"title":"Friendlies Women - Friendlies 1 - Costa Rica vs Peru","description":"Sourced from predicthq.com","category":"sports","start":"2024-04-06T21:00:00Z","geo":{"geometry":{"coordinates":[-84.2089283,10.0216363],"type":"Point"},"placekey":"@d5q-tz8-zfz","address":{"country_code":"CR","formatted_address":"Alajuela, Alajuela Province, Costa Rica","locality":"Alajuela","region":"Alajuela Province"}},"labels":["soccer","sport"],"duration":935677,"start_local":"2024-04-06T15:00:00","end":"2024-04-17T16:54:37Z","end_local":"2024-04-17T10:54:37","updated":"2024-05-24T11:25:48Z"},{"title":"Costa Rica Hot Yoga Field Trip","description":"Sourced from predicthq.com","category":"community","start":"2024-04-06T16:00:00Z","geo":{"geometry":{"coordinates":[-84.18626,10.05729],"type":"Point"},"placekey":"@d5q-ymb-nwk","address":{"country_code":"CR","formatted_address":"Alajuela, Provincia de Alajuela, Costa Rica","locality":"Alajuela","region":"Provincia de Alajuela"}},"labels":["community","health"],"duration":428400,"start_local":"2024-04-06T10:00:00","end":"2024-04-11T15:00:00Z","end_local":"2024-04-11T09:00:00","updated":"2024-06-11T15:47:35Z"},{"title":"Presentación exclusiva: F 800 GS, F 900 GS y F 900 GS ADV","description":"Sourced from predicthq.com - ¡Redescubre la emoción sobre dos ruedas con BMW Motorrad!","category":"expos","start":"2024-04-06T01:00:00Z","geo":{"geometry":{"coordinates":[-84.106495,9.9184955],"type":"Point"},"placekey":"@d5q-v5r-vzz","address":{"country_code":"CR","formatted_address":"Avenida 36, San José, Costa Rica","locality":"San José","region":"San José"}},"labels":["expo","outdoor"],"duration":9000,"start_local":"2024-04-05T19:00:00","end":"2024-04-06T03:30:00Z","end_local":"2024-04-05T21:30:00","updated":"2024-06-05T00:18:54Z"}]