[{"title":"Friendlies Women - Friendlies 2 - Cuba vs Belize","description":"Sourced from predicthq.com","category":"sports","start":"2024-08-18T22:00:00Z","geo":{"geometry":{"coordinates":[-82.4128035,23.1074558],"type":"Point"},"placekey":"@8ds-6b4-y7q","address":{"country_code":"CU","formatted_address":"Av. 41, La Habana, Cuba","locality":"La Habana","region":"La Habana"}},"labels":["soccer","sport"],"duration":0,"start_local":"2024-08-18T18:00:00","end":"2024-08-18T22:00:00Z","end_local":"2024-08-18T18:00:00","updated":"2024-06-21T15:49:15Z"},{"title":"Friendlies Women - Friendlies 2 - Cuba vs Belize","description":"Sourced from predicthq.com","category":"sports","start":"2024-08-16T01:00:00Z","geo":{"geometry":{"coordinates":[-82.4128035,23.1074558],"type":"Point"},"placekey":"@8ds-6b4-y7q","address":{"country_code":"CU","formatted_address":"Av. 41, La Habana, Cuba","locality":"La Habana","region":"La Habana"}},"labels":["soccer","sport"],"duration":0,"start_local":"2024-08-15T21:00:00","end":"2024-08-16T01:00:00Z","end_local":"2024-08-15T21:00:00","updated":"2024-06-21T12:59:36Z"},{"title":"Feria Alimentos Cuba","description":"Sourced from predicthq.com - Food Exhibition","category":"expos","start":"2024-05-21T04:00:00Z","geo":{"geometry":{"coordinates":[-82.4627352,23.085249],"type":"Point"},"placekey":"@8ds-6cv-rc5","address":{"country_code":"CU","formatted_address":"17, La Habana, Cuba","locality":"La Habana","region":"La Habana"}},"labels":["expo","packaging","product","technology"],"duration":259199,"start_local":"2024-05-21T00:00:00","end":"2024-05-24T03:59:59Z","end_local":"2024-05-23T23:59:59","updated":"2024-06-30T04:03:40Z"},{"title":"FECONS","description":"Sourced from predicthq.com - International Fair of Construction","category":"expos","start":"2024-04-23T04:00:00Z","geo":{"geometry":{"coordinates":[-82.4627352,23.085249],"type":"Point"},"placekey":"@8ds-6cv-rc5","address":{"country_code":"CU","formatted_address":"17, La Habana, Cuba","locality":"La Habana","region":"La Habana"}},"labels":["construction","expo","technology"],"duration":345599,"start_local":"2024-04-23T00:00:00","end":"2024-04-27T03:59:59Z","end_local":"2024-04-26T23:59:59","updated":"2024-07-03T13:32:19Z"}]