[{"title":"Trail d'Santiago","description":"Sourced from predicthq.com","category":"sports","start":"2024-06-15T01:00:00Z","geo":{"geometry":{"coordinates":[-23.6011216,15.0532335],"type":"Point"},"placekey":"@9wh-cs5-4qf","address":{"country_code":"CV","formatted_address":"São Jorge dos Órgãos, São Lourenço dos Órgãos, Cabo Verde","locality":"São Jorge dos Órgãos","region":"São Lourenço dos Órgãos"}},"labels":["outdoor-sports","running","sport"],"duration":86399,"start_local":"2024-06-15T00:00:00","end":"2024-06-16T00:59:59Z","end_local":"2024-06-15T23:59:59","updated":"2024-06-11T01:16:46Z"},{"title":"Transforme a sua Saude e Bem-Estar","description":"Sourced from predicthq.com - Venha aprender dicas e práticas para transformar sua saúde e bem-estar em nosso evento presencial!","category":"conferences","start":"2024-04-08T18:30:00Z","geo":{"geometry":{"coordinates":[-23.5266725,14.9160079],"type":"Point"},"placekey":"@9wh-f38-cnq","address":{"country_code":"CV","formatted_address":"Avenida do Palmarejo, Praia, Cabo Verde","locality":"Praia","region":"Praia"}},"labels":["conference","health"],"duration":9000,"start_local":"2024-04-08T17:30:00","end":"2024-04-08T21:00:00Z","end_local":"2024-04-08T20:00:00","updated":"2024-06-11T23:27:05Z"},{"title":"On The Low","description":"Sourced from predicthq.com - Come vibe with us at On The Low, where we keep things chill and low-key for a laid-back and intimate experience!","category":"concerts","start":"2024-04-07T00:00:00Z","geo":{"geometry":{"coordinates":[-24.975855,16.8514653],"type":"Point"},"placekey":"@b5f-kqj-y5f","address":{"country_code":"CV","formatted_address":"Estrada Mindelo-Calhau, Cabo Verde","locality":"Cabo Verde","region":"São Vicente"}},"labels":["concert","music"],"duration":16200,"start_local":"2024-04-06T23:00:00","end":"2024-04-07T04:30:00Z","end_local":"2024-04-07T03:30:00","updated":"2024-06-05T11:35:03Z"}]