[{"title":"Curacao North Sea Jazz Festival","description":"Sourced from predicthq.com","category":"festivals","start":"2024-08-29T04:00:00Z","geo":{"geometry":{"coordinates":[-68.96395,12.12081],"type":"Point"},"placekey":"@cm4-7tr-jy9","address":{"country_code":"CW","formatted_address":"Z/N Piscaderaweg, Willemstad, Curaçao","locality":"Willemstad","region":"Curaçao"}},"labels":["festival","music"],"duration":259199,"start_local":"2024-08-29T00:00:00","end":"2024-09-01T03:59:59Z","end_local":"2024-08-31T23:59:59","updated":"2024-06-11T01:49:13Z"},{"title":"Curacao National Championship AA -2024","description":"Sourced from predicthq.com - Highest Level of Local Baseball in Curacao","category":"community","start":"2024-07-11T00:00:00Z","geo":{"geometry":{"coordinates":[-68.8706867,12.1294315],"type":"Point"},"placekey":"@cm4-7t2-dvz","address":{"country_code":"CW","formatted_address":"Weg Naar Santa Catharina, Willemstad, Curaçao","locality":"Willemstad","region":"Curaçao"}},"labels":["community","sport"],"duration":10800,"start_local":"2024-07-10T20:00:00","end":"2024-07-11T03:00:00Z","end_local":"2024-07-10T23:00:00","updated":"2024-06-13T01:46:50Z"},{"title":"Friendlies Women - Friendlies 2 - Trinidad and Tobago vs Curaçao","description":"Sourced from predicthq.com","category":"sports","start":"2024-06-03T23:00:00Z","geo":{"geometry":{"coordinates":[-68.88892536441803,12.154018267473853],"type":"Point"},"placekey":"@cm4-7sz-r49","address":{"country_code":"CW","formatted_address":"Bonamweg 49 nst., Brievengat, Curaçao","locality":"Brievengat"}},"labels":["soccer","sport"],"duration":0,"start_local":"2024-06-03T19:00:00","end":"2024-06-03T23:00:00Z","end_local":"2024-06-03T19:00:00","updated":"2024-06-12T16:14:48Z"},{"title":"Friendlies Women - Friendlies 2 - Trinidad and Tobago vs Aruba","description":"Sourced from predicthq.com","category":"sports","start":"2024-06-02T23:00:00Z","geo":{"geometry":{"coordinates":[-68.88892536441803,12.154018267473853],"type":"Point"},"placekey":"@cm4-7sz-r49","address":{"country_code":"CW","formatted_address":"Bonamweg 49 nst., Brievengat, Curaçao","locality":"Brievengat"}},"labels":["soccer","sport"],"duration":0,"start_local":"2024-06-02T19:00:00","end":"2024-06-02T23:00:00Z","end_local":"2024-06-02T19:00:00","updated":"2024-06-11T21:27:32Z"},{"title":"Friendlies Women - Friendlies 2 - Aruba vs Curaçao","description":"Sourced from predicthq.com","category":"sports","start":"2024-06-01T23:00:00Z","geo":{"geometry":{"coordinates":[-68.88892536441803,12.154018267473853],"type":"Point"},"placekey":"@cm4-7sz-r49","address":{"country_code":"CW","formatted_address":"Bonamweg 49 nst., Brievengat, Curaçao","locality":"Brievengat"}},"labels":["soccer","sport"],"duration":0,"start_local":"2024-06-01T19:00:00","end":"2024-06-01T23:00:00Z","end_local":"2024-06-01T19:00:00","updated":"2024-06-12T02:18:05Z"},{"title":"Friendlies Women - Friendlies 2 - Curaçao vs Trinidad and Tobago","description":"Sourced from predicthq.com","category":"sports","start":"2024-05-30T23:00:00Z","geo":{"geometry":{"coordinates":[-68.88892536441803,12.154018267473853],"type":"Point"},"placekey":"@cm4-7sz-r49","address":{"country_code":"CW","formatted_address":"Bonamweg 49 nst., Brievengat, Curaçao","locality":"Brievengat"}},"labels":["soccer","sport"],"duration":0,"start_local":"2024-05-30T19:00:00","end":"2024-05-30T23:00:00Z","end_local":"2024-05-30T19:00:00","updated":"2024-06-11T21:56:07Z"},{"title":"Friendlies Women - Friendlies 2 - Aruba vs Trinidad and Tobago","description":"Sourced from predicthq.com","category":"sports","start":"2024-05-29T23:00:00Z","geo":{"geometry":{"coordinates":[-68.88892536441803,12.154018267473853],"type":"Point"},"placekey":"@cm4-7sz-r49","address":{"country_code":"CW","formatted_address":"Bonamweg 49 nst., Brievengat, Curaçao","locality":"Brievengat"}},"labels":["soccer","sport"],"duration":0,"start_local":"2024-05-29T19:00:00","end":"2024-05-29T23:00:00Z","end_local":"2024-05-29T19:00:00","updated":"2024-06-12T04:48:18Z"},{"title":"De ongeziene voordelen van AI voor jouw onderneming","description":"Sourced from predicthq.com - Bespaar kostbare tijd, verhoog de productiviteit en optimaliseer efficiëntie met slimme AI-tools.","category":"conferences","start":"2024-05-29T19:00:00Z","geo":{"geometry":{"coordinates":[-68.9642051,12.1185846],"type":"Point"},"placekey":"@cm4-7tr-m6k","address":{"country_code":"CW","formatted_address":"429P+C8M, Piscaderaweg, Willemstad, Curaçao","locality":"Willemstad","region":"Curaçao"}},"labels":["conference","science","technology"],"duration":7200,"start_local":"2024-05-29T15:00:00","end":"2024-05-29T21:00:00Z","end_local":"2024-05-29T17:00:00","updated":"2024-06-05T15:42:44Z"},{"title":"Friendlies Women - Friendlies 2 - Curaçao vs Aruba","description":"Sourced from predicthq.com","category":"sports","start":"2024-05-28T23:00:00Z","geo":{"geometry":{"coordinates":[-68.88892536441803,12.154018267473853],"type":"Point"},"placekey":"@cm4-7sz-r49","address":{"country_code":"CW","formatted_address":"Bonamweg 49 nst., Brievengat, Curaçao","locality":"Brievengat"}},"labels":["soccer","sport"],"duration":0,"start_local":"2024-05-28T19:00:00","end":"2024-05-28T23:00:00Z","end_local":"2024-05-28T19:00:00","updated":"2024-06-12T08:44:59Z"},{"title":"Bòmbòshi","description":"Sourced from predicthq.com - Wak bon pèrdè!","category":"concerts","start":"2024-05-18T02:30:00Z","geo":{"geometry":{"coordinates":[-68.93261749999999,12.1057713],"type":"Point"},"placekey":"@cm4-7ts-ygk","address":{"country_code":"CW","formatted_address":"Madurostraat, Willemstad, Curaçao","locality":"Willemstad","region":"Curaçao"}},"labels":["concert","music"],"duration":0,"start_local":"2024-05-17T22:30:00","end":"2024-05-18T02:30:00Z","end_local":"2024-05-17T22:30:00","updated":"2024-06-12T12:19:51Z"},{"title":"Public Lecture: International Business and Export of Island-Based Firms.","description":"Sourced from predicthq.com - Public Lecture","category":"conferences","start":"2024-05-16T22:30:00Z","geo":{"geometry":{"coordinates":[-68.96103819999999,12.157384],"type":"Point"},"placekey":"@cm4-7t8-4qf","address":{"country_code":"CW","formatted_address":"Jan Noorduynweg, Willemstad, Curaçao","locality":"Willemstad","region":"Curaçao"}},"labels":["business","conference"],"duration":5400,"start_local":"2024-05-16T18:30:00","end":"2024-05-17T00:00:00Z","end_local":"2024-05-16T20:00:00","updated":"2024-06-05T04:19:02Z"},{"title":"How can Curaçao Prosper in the Era of Change and Change of Era","description":"Sourced from predicthq.com - A seminar by Mr. Eric Panneflek","category":"conferences","start":"2024-05-15T20:00:00Z","geo":{"geometry":{"coordinates":[-68.9388484,12.1054667],"type":"Point"},"placekey":"@cm4-7ts-ysq","address":{"country_code":"CW","formatted_address":"Baden Powellweg, Willemstad, Curaçao","locality":"Willemstad","region":"Curaçao"}},"labels":["business","conference"],"duration":7200,"start_local":"2024-05-15T16:00:00","end":"2024-05-15T22:00:00Z","end_local":"2024-05-15T18:00:00","updated":"2024-06-04T23:32:26Z"},{"title":"Launch Event: Medical & Wellness Tourism Export Strategy","description":"Sourced from predicthq.com - World Class Medical Services: Curaçao, the Island of Healing","category":"conferences","start":"2024-05-14T22:00:00Z","geo":{"geometry":{"coordinates":[-68.9355575,12.1080989],"type":"Point"},"placekey":"@cm4-7ts-pjv","address":{"country_code":"CW","formatted_address":"Klipstraat, Willemstad, Curaçao","locality":"Willemstad","region":"Curaçao"}},"labels":["conference","health"],"duration":7200,"start_local":"2024-05-14T18:00:00","end":"2024-05-15T00:00:00Z","end_local":"2024-05-14T20:00:00","updated":"2024-06-05T04:32:36Z"},{"title":"AI Horizons: Powering Your Export Strategy into the Future","description":"Sourced from predicthq.com - The Benefits of Using AI to Take Your Business Global","category":"conferences","start":"2024-05-14T14:00:00Z","geo":{"geometry":{"coordinates":[-68.96103819999999,12.157384],"type":"Point"},"placekey":"@cm4-7t8-4qf","address":{"country_code":"CW","formatted_address":"Jan Noorduynweg, Willemstad, Curaçao","locality":"Willemstad","region":"Curaçao"}},"labels":["conference","science","technology"],"duration":7200,"start_local":"2024-05-14T10:00:00","end":"2024-05-14T16:00:00Z","end_local":"2024-05-14T12:00:00","updated":"2024-06-04T23:34:22Z"},{"title":"Blissful Bhajans & Meditation","description":"Sourced from predicthq.com - An evening full of Bhakti ( music to fill the heart) and meditation","category":"concerts","start":"2024-04-29T00:00:00Z","geo":{"geometry":{"coordinates":[-68.8799858,12.102827],"type":"Point"},"placekey":"@cm4-7sx-zpv","address":{"country_code":"CW","formatted_address":"Willemstad, Curaçao","locality":"Willemstad","region":"Curaçao"}},"labels":["concert","music","religion"],"duration":3600,"start_local":"2024-04-28T20:00:00","end":"2024-04-29T01:00:00Z","end_local":"2024-04-28T21:00:00","updated":"2024-06-05T01:50:06Z"},{"title":"Don Chilton","description":"Sourced from predicthq.com","category":"concerts","start":"2024-04-15T15:00:00Z","geo":{"geometry":{"coordinates":[-68.899292,12.0889606],"type":"Point"},"placekey":"@cm4-87h-5mk","address":{"country_code":"CW","formatted_address":"Bapor Kibrá, Willemstad, Curaçao","locality":"Willemstad","region":"Curaçao"}},"labels":["concert","music"],"duration":0,"start_local":"2024-04-15T11:00:00","end":"2024-04-15T15:00:00Z","end_local":"2024-04-15T11:00:00","updated":"2024-06-12T01:07:22Z"}]