[{"title":"Chris King - Elvis Tribute Artist, Radio Presenter and Restaurant Owner","description":"Sourced from predicthq.com","category":"community","start":"2024-10-02T17:30:00Z","geo":{"geometry":{"coordinates":[32.4072266,34.7749519],"type":"Point"},"placekey":"@7yb-4p5-9cq","address":{"country_code":"CY","formatted_address":"Tombs of the Kings Avenue, 8015 Chloraka, Cyprus","locality":"Chloraka","postcode":"8015","region":"Paphos"}},"labels":["concert","music"],"duration":0,"start_local":"2024-10-02T20:30:00","end":"2024-10-02T17:30:00Z","end_local":"2024-10-02T20:30:00","updated":"2024-06-04T00:19:37Z"},{"title":"Chris King - Elvis Tribute Artist, Radio Presenter and Restaurant Owner","description":"Sourced from predicthq.com","category":"community","start":"2024-09-30T17:30:00Z","geo":{"geometry":{"coordinates":[32.4072266,34.7749519],"type":"Point"},"placekey":"@7yb-4p5-9cq","address":{"country_code":"CY","formatted_address":"Tombs of the Kings Avenue, 8015 Chloraka, Cyprus","locality":"Chloraka","postcode":"8015","region":"Paphos"}},"labels":["concert","music"],"duration":0,"start_local":"2024-09-30T20:30:00","end":"2024-09-30T17:30:00Z","end_local":"2024-09-30T20:30:00","updated":"2024-06-04T11:50:52Z"},{"title":"RAGE | Larnaca | Savino","description":"Sourced from predicthq.com","category":"community","start":"2024-09-28T19:00:00Z","geo":{"geometry":{"coordinates":[33.63733,34.91203],"type":"Point"},"placekey":"@6cc-ngv-jjv","address":{"country_code":"CY","formatted_address":"Λαική Γειτονιά, 6022 Larnaca, Cyprus","locality":"Larnaca","postcode":"6022","region":"Larnaca"}},"labels":["community","entertainment"],"duration":0,"start_local":"2024-09-28T22:00:00","end":"2024-09-28T19:00:00Z","end_local":"2024-09-28T22:00:00","updated":"2024-06-04T07:40:03Z"},{"title":"Chris King - Elvis Tribute Artist, Radio Presenter and Restaurant owner","description":"Sourced from predicthq.com","category":"community","start":"2024-09-27T17:30:00Z","geo":{"geometry":{"coordinates":[32.4217796,34.7753944],"type":"Point"},"placekey":"@7yb-4p4-ygk","address":{"country_code":"CY","formatted_address":"8010 Paphos, Cyprus","locality":"Paphos","postcode":"8010","region":"Paphos"}},"labels":["concert","music"],"duration":0,"start_local":"2024-09-27T20:30:00","end":"2024-09-27T17:30:00Z","end_local":"2024-09-27T20:30:00","updated":"2024-06-04T11:27:44Z"},{"title":"Chris King - Elvis Tribute Artist, Radio Presenter and Restaurant Owner","description":"Sourced from predicthq.com","category":"community","start":"2024-09-25T17:30:00Z","geo":{"geometry":{"coordinates":[32.4072266,34.7749519],"type":"Point"},"placekey":"@7yb-4p5-9cq","address":{"country_code":"CY","formatted_address":"Tombs of the Kings Avenue, 8015 Chloraka, Cyprus","locality":"Chloraka","postcode":"8015","region":"Paphos"}},"labels":["concert","music"],"duration":0,"start_local":"2024-09-25T20:30:00","end":"2024-09-25T17:30:00Z","end_local":"2024-09-25T20:30:00","updated":"2024-06-04T04:51:11Z"},{"title":"Chris King - Elvis Tribute Artist, Radio Presenter and Restaurant Owner","description":"Sourced from predicthq.com","category":"community","start":"2024-09-23T17:30:00Z","geo":{"geometry":{"coordinates":[32.4072266,34.7749519],"type":"Point"},"placekey":"@7yb-4p5-9cq","address":{"country_code":"CY","formatted_address":"Tombs of the Kings Avenue, 8015 Chloraka, Cyprus","locality":"Chloraka","postcode":"8015","region":"Paphos"}},"labels":["concert","music"],"duration":0,"start_local":"2024-09-23T20:30:00","end":"2024-09-23T17:30:00Z","end_local":"2024-09-23T20:30:00","updated":"2024-06-04T00:25:40Z"},{"title":"Spartaque","description":"Sourced from predicthq.com","category":"concerts","start":"2024-09-20T19:00:00Z","geo":{"geometry":{"coordinates":[33.0205448,34.6605925],"type":"Point"},"placekey":"@7yb-5pq-s3q","address":{"country_code":"CY","formatted_address":"31 Tsiflikoudia Street, Limassol 3010, Cyprus","postcode":"3010","locality":"Limassol","region":"Limassol"}},"labels":["concert","music"],"duration":0,"start_local":"2024-09-20T22:00:00","end":"2024-09-20T19:00:00Z","end_local":"2024-09-20T22:00:00","updated":"2024-06-17T23:27:53Z"},{"title":"Chris King - Elvis Tribute Artist, Radio Presenter and Restaurant owner","description":"Sourced from predicthq.com","category":"community","start":"2024-09-20T17:30:00Z","geo":{"geometry":{"coordinates":[32.4217796,34.7753944],"type":"Point"},"placekey":"@7yb-4p4-ygk","address":{"country_code":"CY","formatted_address":"8010 Paphos, Cyprus","locality":"Paphos","postcode":"8010","region":"Paphos"}},"labels":["concert","music"],"duration":0,"start_local":"2024-09-20T20:30:00","end":"2024-09-20T17:30:00Z","end_local":"2024-09-20T20:30:00","updated":"2024-06-04T00:57:24Z"},{"title":"Beonix Festival","description":"Sourced from predicthq.com","category":"festivals","start":"2024-09-19T21:00:00Z","geo":{"geometry":{"coordinates":[33.0205448,34.6605925],"type":"Point"},"placekey":"@7yb-5pq-s3q","address":{"country_code":"CY","formatted_address":"31 Tsiflikoudia Street, Limassol 3010, Cyprus","postcode":"3010","locality":"Limassol","region":"Limassol"}},"labels":["festival","music"],"duration":259199,"start_local":"2024-09-20T00:00:00","end":"2024-09-22T20:59:59Z","end_local":"2024-09-22T23:59:59","updated":"2024-06-11T10:28:58Z"},{"title":"Chris King - Elvis Tribute Artist, Radio Presenter and Restaurant Owner","description":"Sourced from predicthq.com","category":"community","start":"2024-09-18T17:30:00Z","geo":{"geometry":{"coordinates":[32.4072266,34.7749519],"type":"Point"},"placekey":"@7yb-4p5-9cq","address":{"country_code":"CY","formatted_address":"Tombs of the Kings Avenue, 8015 Chloraka, Cyprus","locality":"Chloraka","postcode":"8015","region":"Paphos"}},"labels":["concert","music"],"duration":0,"start_local":"2024-09-18T20:30:00","end":"2024-09-18T17:30:00Z","end_local":"2024-09-18T20:30:00","updated":"2024-06-04T03:09:20Z"},{"title":"Chris King - Elvis Tribute Artist, Radio Presenter and Restaurant Owner","description":"Sourced from predicthq.com","category":"community","start":"2024-09-16T17:30:00Z","geo":{"geometry":{"coordinates":[32.4072266,34.7749519],"type":"Point"},"placekey":"@7yb-4p5-9cq","address":{"country_code":"CY","formatted_address":"Tombs of the Kings Avenue, 8015 Chloraka, Cyprus","locality":"Chloraka","postcode":"8015","region":"Paphos"}},"labels":["concert","music"],"duration":0,"start_local":"2024-09-16T20:30:00","end":"2024-09-16T17:30:00Z","end_local":"2024-09-16T20:30:00","updated":"2024-06-04T00:20:40Z"},{"title":"Chris King - Elvis Tribute Artist, Radio Presenter and Restaurant owner","description":"Sourced from predicthq.com","category":"community","start":"2024-09-13T17:30:00Z","geo":{"geometry":{"coordinates":[32.4217796,34.7753944],"type":"Point"},"placekey":"@7yb-4p4-ygk","address":{"country_code":"CY","formatted_address":"8010 Paphos, Cyprus","locality":"Paphos","postcode":"8010","region":"Paphos"}},"labels":["concert","music"],"duration":0,"start_local":"2024-09-13T20:30:00","end":"2024-09-13T17:30:00Z","end_local":"2024-09-13T20:30:00","updated":"2024-06-04T04:53:50Z"},{"title":"WN Conference Cyprus","description":"Sourced from predicthq.com","category":"conferences","start":"2024-09-12T06:00:00Z","geo":{"geometry":{"coordinates":[33.173807,34.711735],"type":"Point"},"placekey":"@7yb-9dt-bp9","address":{"country_code":"CY","formatted_address":"Old Limassol - Nicosia Road\nLimassol 4534\nCyprus","locality":"Limassol"}},"labels":["conference"],"duration":118800,"start_local":"2024-09-12T09:00:00","end":"2024-09-13T15:00:00Z","end_local":"2024-09-13T18:00:00","updated":"2024-06-30T04:25:06Z"},{"title":"Chris King - Elvis Tribute Artist, Radio Presenter and Restaurant Owner","description":"Sourced from predicthq.com","category":"community","start":"2024-09-11T17:30:00Z","geo":{"geometry":{"coordinates":[32.4072266,34.7749519],"type":"Point"},"placekey":"@7yb-4p5-9cq","address":{"country_code":"CY","formatted_address":"Tombs of the Kings Avenue, 8015 Chloraka, Cyprus","locality":"Chloraka","postcode":"8015","region":"Paphos"}},"labels":["concert","music"],"duration":0,"start_local":"2024-09-11T20:30:00","end":"2024-09-11T17:30:00Z","end_local":"2024-09-11T20:30:00","updated":"2024-06-04T03:20:50Z"},{"title":"Chris King - Elvis Tribute Artist, Radio Presenter and Restaurant Owner","description":"Sourced from predicthq.com","category":"community","start":"2024-09-09T17:30:00Z","geo":{"geometry":{"coordinates":[32.4072266,34.7749519],"type":"Point"},"placekey":"@7yb-4p5-9cq","address":{"country_code":"CY","formatted_address":"Tombs of the Kings Avenue, 8015 Chloraka, Cyprus","locality":"Chloraka","postcode":"8015","region":"Paphos"}},"labels":["concert","music"],"duration":0,"start_local":"2024-09-09T20:30:00","end":"2024-09-09T17:30:00Z","end_local":"2024-09-09T20:30:00","updated":"2024-06-04T05:05:40Z"},{"title":"UEFA Nations League - League C - Cyprus vs Kosovo","description":"Sourced from predicthq.com","category":"sports","start":"2024-09-09T16:00:00Z","geo":{"geometry":{"coordinates":[33.59774577207485,34.92621766105783],"type":"Point"},"placekey":"@6cb-ynx-zs5","address":{"country_code":"CY","formatted_address":"Lárnaka (Larnaca), Cyprus","locality":"Lárnaka (Larnaca) "}},"labels":["soccer","sport"],"duration":0,"start_local":"2024-09-09T19:00:00","end":"2024-09-09T16:00:00Z","end_local":"2024-09-09T19:00:00","updated":"2024-06-11T04:20:50Z"},{"title":"eCAADe Conference","description":"Sourced from predicthq.com","category":"conferences","start":"2024-09-09T06:00:00Z","geo":{"geometry":{"coordinates":[33.377018,35.160001],"type":"Point"},"placekey":"@6cb-yft-7bk","address":{"country_code":"CY","formatted_address":"Kallipoleos 75, Nicosia 1678, Cyprus","postcode":"1678","locality":"Nicosia","region":"Nicosia"}},"labels":["conference"],"duration":378000,"start_local":"2024-09-09T09:00:00","end":"2024-09-13T15:00:00Z","end_local":"2024-09-13T18:00:00","updated":"2024-06-01T15:12:58Z"},{"title":"Ed Sheeran and Calum Scott","description":"Sourced from predicthq.com","category":"concerts","start":"2024-09-08T16:00:00Z","geo":{"geometry":{"coordinates":[33.6394692,34.9173612],"type":"Point"},"placekey":"@6cc-ngv-kfz","address":{"country_code":"CY","formatted_address":"Marina, Larnaka 6017, Cyprus","postcode":"6017","locality":"Larnaka","region":"Larnaka"}},"labels":["concert","music"],"duration":0,"start_local":"2024-09-08T19:00:00","end":"2024-09-08T16:00:00Z","end_local":"2024-09-08T19:00:00","updated":"2024-07-03T15:24:39Z"},{"title":"Ed Sheeran and Calum Scott","description":"Sourced from predicthq.com","category":"concerts","start":"2024-09-07T17:00:00Z","geo":{"geometry":{"coordinates":[33.6394692,34.9173612],"type":"Point"},"placekey":"@6cc-ngv-kfz","address":{"country_code":"CY","formatted_address":"Marina, Larnaka 6017, Cyprus","postcode":"6017","locality":"Larnaka","region":"Larnaka"}},"labels":["concert","music"],"duration":0,"start_local":"2024-09-07T20:00:00","end":"2024-09-07T17:00:00Z","end_local":"2024-09-07T20:00:00","updated":"2024-07-03T20:27:52Z"},{"title":"Chris King - Elvis Tribute Artist, Radio Presenter and Restaurant owner","description":"Sourced from predicthq.com","category":"community","start":"2024-09-06T17:30:00Z","geo":{"geometry":{"coordinates":[32.4217796,34.7753944],"type":"Point"},"placekey":"@7yb-4p4-ygk","address":{"country_code":"CY","formatted_address":"8010 Paphos, Cyprus","locality":"Paphos","postcode":"8010","region":"Paphos"}},"labels":["concert","music"],"duration":0,"start_local":"2024-09-06T20:30:00","end":"2024-09-06T17:30:00Z","end_local":"2024-09-06T20:30:00","updated":"2024-06-04T10:20:55Z"},{"title":"Chris King - Elvis Tribute Artist, Radio Presenter and Restaurant Owner","description":"Sourced from predicthq.com","category":"community","start":"2024-09-04T17:30:00Z","geo":{"geometry":{"coordinates":[32.4072266,34.7749519],"type":"Point"},"placekey":"@7yb-4p5-9cq","address":{"country_code":"CY","formatted_address":"Tombs of the Kings Avenue, 8015 Chloraka, Cyprus","locality":"Chloraka","postcode":"8015","region":"Paphos"}},"labels":["concert","music"],"duration":0,"start_local":"2024-09-04T20:30:00","end":"2024-09-04T17:30:00Z","end_local":"2024-09-04T20:30:00","updated":"2024-06-04T02:21:50Z"},{"title":"Chris King - Elvis Tribute Artist, Radio Presenter and Restaurant Owner","description":"Sourced from predicthq.com","category":"community","start":"2024-09-02T17:30:00Z","geo":{"geometry":{"coordinates":[32.4072266,34.7749519],"type":"Point"},"placekey":"@7yb-4p5-9cq","address":{"country_code":"CY","formatted_address":"Tombs of the Kings Avenue, 8015 Chloraka, Cyprus","locality":"Chloraka","postcode":"8015","region":"Paphos"}},"labels":["concert","music"],"duration":0,"start_local":"2024-09-02T20:30:00","end":"2024-09-02T17:30:00Z","end_local":"2024-09-02T20:30:00","updated":"2024-06-04T00:57:36Z"},{"title":"Chris King - Elvis Tribute Artist, Radio Presenter and Restaurant owner","description":"Sourced from predicthq.com","category":"community","start":"2024-08-30T17:30:00Z","geo":{"geometry":{"coordinates":[32.4217796,34.7753944],"type":"Point"},"placekey":"@7yb-4p4-ygk","address":{"country_code":"CY","formatted_address":"8010 Paphos, Cyprus","locality":"Paphos","postcode":"8010","region":"Paphos"}},"labels":["concert","music"],"duration":0,"start_local":"2024-08-30T20:30:00","end":"2024-08-30T17:30:00Z","end_local":"2024-08-30T20:30:00","updated":"2024-06-04T04:47:24Z"},{"title":"Chris King - Elvis Tribute Artist, Radio Presenter and Restaurant Owner","description":"Sourced from predicthq.com","category":"community","start":"2024-08-28T17:30:00Z","geo":{"geometry":{"coordinates":[32.4072266,34.7749519],"type":"Point"},"placekey":"@7yb-4p5-9cq","address":{"country_code":"CY","formatted_address":"Tombs of the Kings Avenue, 8015 Chloraka, Cyprus","locality":"Chloraka","postcode":"8015","region":"Paphos"}},"labels":["concert","music"],"duration":0,"start_local":"2024-08-28T20:30:00","end":"2024-08-28T17:30:00Z","end_local":"2024-08-28T20:30:00","updated":"2024-06-04T00:25:40Z"},{"title":"Chris King - Elvis Tribute Artist, Radio Presenter and Restaurant Owner","description":"Sourced from predicthq.com","category":"community","start":"2024-08-26T17:30:00Z","geo":{"geometry":{"coordinates":[32.4072266,34.7749519],"type":"Point"},"placekey":"@7yb-4p5-9cq","address":{"country_code":"CY","formatted_address":"Tombs of the Kings Avenue, 8015 Chloraka, Cyprus","locality":"Chloraka","postcode":"8015","region":"Paphos"}},"labels":["concert","music"],"duration":0,"start_local":"2024-08-26T20:30:00","end":"2024-08-26T17:30:00Z","end_local":"2024-08-26T20:30:00","updated":"2024-06-04T00:02:54Z"},{"title":"Chris King - Elvis Tribute Artist, Radio Presenter and Restaurant owner","description":"Sourced from predicthq.com","category":"community","start":"2024-08-23T17:30:00Z","geo":{"geometry":{"coordinates":[32.4217796,34.7753944],"type":"Point"},"placekey":"@7yb-4p4-ygk","address":{"country_code":"CY","formatted_address":"8010 Paphos, Cyprus","locality":"Paphos","postcode":"8010","region":"Paphos"}},"labels":["concert","music"],"duration":0,"start_local":"2024-08-23T20:30:00","end":"2024-08-23T17:30:00Z","end_local":"2024-08-23T20:30:00","updated":"2024-06-04T08:53:03Z"},{"title":"ARKADYAN","description":"Sourced from predicthq.com","category":"concerts","start":"2024-08-23T16:00:00Z","geo":{"geometry":{"coordinates":[32.9939215,34.6475592],"type":"Point"},"placekey":"@7yb-5p5-87q","address":{"country_code":"CY","formatted_address":"Nikou Kavadia Limassol, Cyprus 3150, Cyprus","postcode":"3150","locality":"Cyprus","region":"Limasol"}},"labels":["concert","music"],"duration":0,"start_local":"2024-08-23T19:00:00","end":"2024-08-23T16:00:00Z","end_local":"2024-08-23T19:00:00","updated":"2024-07-03T23:45:29Z"},{"title":"Chris King - Elvis Tribute Artist, Radio Presenter and Restaurant Owner","description":"Sourced from predicthq.com","category":"community","start":"2024-08-21T17:30:00Z","geo":{"geometry":{"coordinates":[32.4072266,34.7749519],"type":"Point"},"placekey":"@7yb-4p5-9cq","address":{"country_code":"CY","formatted_address":"Tombs of the Kings Avenue, 8015 Chloraka, Cyprus","locality":"Chloraka","postcode":"8015","region":"Paphos"}},"labels":["concert","music"],"duration":0,"start_local":"2024-08-21T20:30:00","end":"2024-08-21T17:30:00Z","end_local":"2024-08-21T20:30:00","updated":"2024-06-04T11:41:11Z"},{"title":"Chris King - Elvis Tribute Artist, Radio Presenter and Restaurant Owner","description":"Sourced from predicthq.com","category":"community","start":"2024-08-19T17:30:00Z","geo":{"geometry":{"coordinates":[32.4072266,34.7749519],"type":"Point"},"placekey":"@7yb-4p5-9cq","address":{"country_code":"CY","formatted_address":"Tombs of the Kings Avenue, 8015 Chloraka, Cyprus","locality":"Chloraka","postcode":"8015","region":"Paphos"}},"labels":["concert","music"],"duration":0,"start_local":"2024-08-19T20:30:00","end":"2024-08-19T17:30:00Z","end_local":"2024-08-19T20:30:00","updated":"2024-06-04T05:21:06Z"},{"title":"MAXI MERAKI","description":"Sourced from predicthq.com","category":"concerts","start":"2024-08-18T13:00:00Z","geo":{"geometry":{"coordinates":[33.1079977,34.7025872],"type":"Point"},"placekey":"@7yb-9d9-mff","address":{"country_code":"CY","formatted_address":"Amathountos, Mouttagiaka 4531, Cyprus","postcode":"4531","locality":"Mouttagiaka","region":"Limassol"}},"labels":["concert","music"],"duration":0,"start_local":"2024-08-18T16:00:00","end":"2024-08-18T13:00:00Z","end_local":"2024-08-18T16:00:00","updated":"2024-07-03T22:32:26Z"},{"title":"Chris King - Elvis Tribute Artist, Radio Presenter and Restaurant owner","description":"Sourced from predicthq.com","category":"community","start":"2024-08-16T17:30:00Z","geo":{"geometry":{"coordinates":[32.4217796,34.7753944],"type":"Point"},"placekey":"@7yb-4p4-ygk","address":{"country_code":"CY","formatted_address":"8010 Paphos, Cyprus","locality":"Paphos","postcode":"8010","region":"Paphos"}},"labels":["concert","music"],"duration":0,"start_local":"2024-08-16T20:30:00","end":"2024-08-16T17:30:00Z","end_local":"2024-08-16T20:30:00","updated":"2024-06-04T03:21:04Z"},{"title":"Chris King - Elvis Tribute Artist, Radio Presenter and Restaurant Owner","description":"Sourced from predicthq.com","category":"community","start":"2024-08-14T17:30:00Z","geo":{"geometry":{"coordinates":[32.4072266,34.7749519],"type":"Point"},"placekey":"@7yb-4p5-9cq","address":{"country_code":"CY","formatted_address":"Tombs of the Kings Avenue, 8015 Chloraka, Cyprus","locality":"Chloraka","postcode":"8015","region":"Paphos"}},"labels":["concert","music"],"duration":0,"start_local":"2024-08-14T20:30:00","end":"2024-08-14T17:30:00Z","end_local":"2024-08-14T20:30:00","updated":"2024-06-04T01:16:51Z"},{"title":"Chris King - Elvis Tribute Artist, Radio Presenter and Restaurant Owner","description":"Sourced from predicthq.com","category":"community","start":"2024-08-12T17:30:00Z","geo":{"geometry":{"coordinates":[32.4072266,34.7749519],"type":"Point"},"placekey":"@7yb-4p5-9cq","address":{"country_code":"CY","formatted_address":"Tombs of the Kings Avenue, 8015 Chloraka, Cyprus","locality":"Chloraka","postcode":"8015","region":"Paphos"}},"labels":["concert","music"],"duration":0,"start_local":"2024-08-12T20:30:00","end":"2024-08-12T17:30:00Z","end_local":"2024-08-12T20:30:00","updated":"2024-06-04T02:50:20Z"},{"title":"Neighborhood Festival","description":"Sourced from predicthq.com - The biggest neighborhood festival in Cyprus","category":"festivals","start":"2024-08-10T07:00:00Z","geo":{"geometry":{"coordinates":[33.4025949,35.1120715],"type":"Point"},"placekey":"@6cb-ygg-ht9","address":{"country_code":"CY","formatted_address":"Ayias Kyriakis, 2202 Geri, Cyprus","locality":"Geri","postcode":"2202","region":"Nicosia"}},"labels":["concert","music"],"duration":7200,"start_local":"2024-08-10T10:00:00","end":"2024-08-10T09:00:00Z","end_local":"2024-08-10T12:00:00","updated":"2024-07-04T11:20:11Z"},{"title":"Chris King - Elvis Tribute Artist, Radio Presenter and Restaurant owner","description":"Sourced from predicthq.com","category":"community","start":"2024-08-09T17:30:00Z","geo":{"geometry":{"coordinates":[32.4217796,34.7753944],"type":"Point"},"placekey":"@7yb-4p4-ygk","address":{"country_code":"CY","formatted_address":"8010 Paphos, Cyprus","locality":"Paphos","postcode":"8010","region":"Paphos"}},"labels":["concert","music"],"duration":0,"start_local":"2024-08-09T20:30:00","end":"2024-08-09T17:30:00Z","end_local":"2024-08-09T20:30:00","updated":"2024-06-04T01:22:50Z"},{"title":"Chris King - Elvis Tribute Artist, Radio Presenter and Restaurant Owner","description":"Sourced from predicthq.com","category":"community","start":"2024-08-07T17:30:00Z","geo":{"geometry":{"coordinates":[32.4072266,34.7749519],"type":"Point"},"placekey":"@7yb-4p5-9cq","address":{"country_code":"CY","formatted_address":"Tombs of the Kings Avenue, 8015 Chloraka, Cyprus","locality":"Chloraka","postcode":"8015","region":"Paphos"}},"labels":["concert","music"],"duration":0,"start_local":"2024-08-07T20:30:00","end":"2024-08-07T17:30:00Z","end_local":"2024-08-07T20:30:00","updated":"2024-06-04T07:59:00Z"},{"title":"Chris King - Elvis Tribute Artist, Radio Presenter and Restaurant Owner","description":"Sourced from predicthq.com","category":"community","start":"2024-08-05T17:30:00Z","geo":{"geometry":{"coordinates":[32.4072266,34.7749519],"type":"Point"},"placekey":"@7yb-4p5-9cq","address":{"country_code":"CY","formatted_address":"Tombs of the Kings Avenue, 8015 Chloraka, Cyprus","locality":"Chloraka","postcode":"8015","region":"Paphos"}},"labels":["concert","music"],"duration":0,"start_local":"2024-08-05T20:30:00","end":"2024-08-05T17:30:00Z","end_local":"2024-08-05T20:30:00","updated":"2024-06-04T04:37:41Z"},{"title":"LyOsun","description":"Sourced from predicthq.com","category":"concerts","start":"2024-08-03T18:00:00Z","geo":{"geometry":{"coordinates":[33.62006,34.91822],"type":"Point"},"placekey":"@6cb-yp4-9pv","address":{"country_code":"CY","formatted_address":"1hs Apriliou 3, Larnaca, Cyprus","locality":"Larnaca","region":"Larnaca"}},"labels":["concert","music"],"duration":0,"start_local":"2024-08-03T21:00:00","end":"2024-08-03T18:00:00Z","end_local":"2024-08-03T21:00:00","updated":"2024-06-17T16:24:41Z"},{"title":"Chris King - Elvis Tribute Artist, Radio Presenter and Restaurant owner","description":"Sourced from predicthq.com","category":"community","start":"2024-08-02T17:30:00Z","geo":{"geometry":{"coordinates":[32.4217796,34.7753944],"type":"Point"},"placekey":"@7yb-4p4-ygk","address":{"country_code":"CY","formatted_address":"8010 Paphos, Cyprus","locality":"Paphos","postcode":"8010","region":"Paphos"}},"labels":["concert","music"],"duration":0,"start_local":"2024-08-02T20:30:00","end":"2024-08-02T17:30:00Z","end_local":"2024-08-02T20:30:00","updated":"2024-06-04T06:30:47Z"},{"title":"Eran Hersh","description":"Sourced from predicthq.com","category":"concerts","start":"2024-08-02T14:00:00Z","geo":{"geometry":{"coordinates":[33.1731125,34.7110488],"type":"Point"},"placekey":"@7yb-9dt-bp9","address":{"country_code":"CY","formatted_address":"Limassol, Cyprus","locality":"Limassol","region":"Limassol"}},"labels":["concert","music"],"duration":0,"start_local":"2024-08-02T17:00:00","end":"2024-08-02T14:00:00Z","end_local":"2024-08-02T17:00:00","updated":"2024-06-21T21:51:48Z"},{"title":"Chris King - Elvis Tribute Artist, Radio Presenter and Restaurant Owner","description":"Sourced from predicthq.com","category":"community","start":"2024-07-31T17:30:00Z","geo":{"geometry":{"coordinates":[32.4072266,34.7749519],"type":"Point"},"placekey":"@7yb-4p5-9cq","address":{"country_code":"CY","formatted_address":"Tombs of the Kings Avenue, 8015 Chloraka, Cyprus","locality":"Chloraka","postcode":"8015","region":"Paphos"}},"labels":["concert","music"],"duration":0,"start_local":"2024-07-31T20:30:00","end":"2024-07-31T17:30:00Z","end_local":"2024-07-31T20:30:00","updated":"2024-06-04T09:08:31Z"},{"title":"Eurasian Conference on Language & Social Sciences","description":"Sourced from predicthq.com","category":"conferences","start":"2024-07-30T06:00:00Z","geo":{"geometry":{"coordinates":[33.344758,35.324946],"type":"Point"},"placekey":"@6cb-z3c-st9","address":{"country_code":"CY","formatted_address":"99320 Cyprus, Dr Fazıl Küçük Caddesi, Ozanköy"}},"labels":["conference"],"duration":118800,"start_local":"2024-07-30T09:00:00","end":"2024-07-31T15:00:00Z","end_local":"2024-07-31T18:00:00","updated":"2024-06-01T00:31:20Z"},{"title":"Chris King - Elvis Tribute Artist, Radio Presenter and Restaurant Owner","description":"Sourced from predicthq.com","category":"community","start":"2024-07-29T17:30:00Z","geo":{"geometry":{"coordinates":[32.4072266,34.7749519],"type":"Point"},"placekey":"@7yb-4p5-9cq","address":{"country_code":"CY","formatted_address":"Tombs of the Kings Avenue, 8015 Chloraka, Cyprus","locality":"Chloraka","postcode":"8015","region":"Paphos"}},"labels":["concert","music"],"duration":0,"start_local":"2024-07-29T20:30:00","end":"2024-07-29T17:30:00Z","end_local":"2024-07-29T20:30:00","updated":"2024-06-04T03:25:58Z"},{"title":"Chris King - Elvis Tribute Artist, Radio Presenter and Restaurant owner","description":"Sourced from predicthq.com","category":"community","start":"2024-07-26T17:30:00Z","geo":{"geometry":{"coordinates":[32.4217796,34.7753944],"type":"Point"},"placekey":"@7yb-4p4-ygk","address":{"country_code":"CY","formatted_address":"8010 Paphos, Cyprus","locality":"Paphos","postcode":"8010","region":"Paphos"}},"labels":["concert","music"],"duration":0,"start_local":"2024-07-26T20:30:00","end":"2024-07-26T17:30:00Z","end_local":"2024-07-26T20:30:00","updated":"2024-06-04T01:27:39Z"},{"title":"Chris King - Elvis Tribute Artist, Radio Presenter and Restaurant Owner","description":"Sourced from predicthq.com","category":"community","start":"2024-07-24T17:30:00Z","geo":{"geometry":{"coordinates":[32.4072266,34.7749519],"type":"Point"},"placekey":"@7yb-4p5-9cq","address":{"country_code":"CY","formatted_address":"Tombs of the Kings Avenue, 8015 Chloraka, Cyprus","locality":"Chloraka","postcode":"8015","region":"Paphos"}},"labels":["concert","music"],"duration":0,"start_local":"2024-07-24T20:30:00","end":"2024-07-24T17:30:00Z","end_local":"2024-07-24T20:30:00","updated":"2024-06-04T04:11:07Z"},{"title":"Chris King - Elvis Tribute Artist, Radio Presenter and Restaurant Owner","description":"Sourced from predicthq.com","category":"community","start":"2024-07-22T17:30:00Z","geo":{"geometry":{"coordinates":[32.4072266,34.7749519],"type":"Point"},"placekey":"@7yb-4p5-9cq","address":{"country_code":"CY","formatted_address":"Tombs of the Kings Avenue, 8015 Chloraka, Cyprus","locality":"Chloraka","postcode":"8015","region":"Paphos"}},"labels":["concert","music"],"duration":0,"start_local":"2024-07-22T20:30:00","end":"2024-07-22T17:30:00Z","end_local":"2024-07-22T20:30:00","updated":"2024-06-04T02:54:46Z"},{"title":"ISTQB® Foundation Exam and Training Course - Larnaca, Cyprus","description":"Sourced from predicthq.com - ISTQB® FOUNDATION TRAINING COURSE\nThe aim of this course is to provide you with the knowledge and skills to pass an exam","category":"conferences","start":"2024-07-22T06:00:00Z","geo":{"geometry":{"coordinates":[33.6231723,34.9002535],"type":"Point"},"placekey":"@6cc-ngw-fpv","address":{"country_code":"CY","formatted_address":"6029 Larnaca, Cyprus","locality":"Larnaca","postcode":"6029","region":"Larnaca"}},"labels":["business","conference"],"duration":27000,"start_local":"2024-07-22T09:00:00","end":"2024-07-22T13:30:00Z","end_local":"2024-07-22T16:30:00","updated":"2024-06-28T07:54:59Z"},{"title":"Full-Moon Ride Limassol","description":"Sourced from predicthq.com - Join us for a magical intercultural night bike ride under the full moon in Limassol!","category":"community","start":"2024-07-21T04:00:00Z","geo":{"geometry":{"coordinates":[33.0482537,34.6751027],"type":"Point"},"placekey":"@7yb-9f6-6c5","address":{"country_code":"CY","formatted_address":"Spyrou Araouzou, 3036 Limassol, Cyprus","locality":"Limassol","postcode":"3036","region":"Limassol"}},"labels":["community","outdoor","sport"],"duration":52200,"start_local":"2024-07-21T07:00:00","end":"2024-07-21T18:30:00Z","end_local":"2024-07-21T21:30:00","updated":"2024-07-04T11:45:25Z"},{"title":"Anatolian Sessions","description":"Sourced from predicthq.com","category":"concerts","start":"2024-07-20T19:00:00Z","geo":{"geometry":{"coordinates":[33.364792,35.333928],"type":"Point"},"placekey":"@6cb-z32-rtv","address":{"country_code":"CY","formatted_address":"Cratos 9999 Kyrenia, Kyrenia, Cyprus, Kyrenia, Cyprus","locality":"Kyrenia"}},"labels":["concert","music"],"duration":0,"start_local":"2024-07-20T22:00:00","end":"2024-07-20T19:00:00Z","end_local":"2024-07-20T22:00:00","updated":"2024-06-10T23:49:21Z"},{"title":"Juan Hansen","description":"Sourced from predicthq.com","category":"concerts","start":"2024-07-20T19:00:00Z","geo":{"geometry":{"coordinates":[33.63751,34.88997],"type":"Point"},"placekey":"@6cc-ngz-2zf","address":{"country_code":"CY","formatted_address":"VJQQ+X2J, Larnaca 6028, Cyprus","postcode":"6028","locality":"Larnaca","region":"Larnaca"}},"labels":["concert","music"],"duration":0,"start_local":"2024-07-20T22:00:00","end":"2024-07-20T19:00:00Z","end_local":"2024-07-20T22:00:00","updated":"2024-06-20T19:04:26Z"},{"title":"Nico de Andrea","description":"Sourced from predicthq.com","category":"concerts","start":"2024-07-20T16:00:00Z","geo":{"geometry":{"coordinates":[33.0722095,34.6892275],"type":"Point"},"placekey":"@7yb-9fn-rtv","address":{"country_code":"CY","formatted_address":"6, Προμαχών Ελευθερίας, Αγ. Αθανάσιος, Cyprus","locality":"Άγιος Αθανάσιος","region":"Limasol"}},"labels":["concert","music"],"duration":0,"start_local":"2024-07-20T19:00:00","end":"2024-07-20T16:00:00Z","end_local":"2024-07-20T19:00:00","updated":"2024-06-28T22:01:15Z"},{"title":"Sunset Sessions 2 OPEN AIR Sandy Beach Paphos Cyprus","description":"Sourced from predicthq.com","category":"festivals","start":"2024-07-19T21:00:00Z","geo":{"geometry":{"coordinates":[32.3937216,34.8129726],"type":"Point"},"placekey":"@7yb-4qy-8sq","address":{"country_code":"CY","formatted_address":"Lempa 8260, Cyprus","postcode":"8260","locality":"Lempa"}},"labels":["festival","music"],"duration":86399,"start_local":"2024-07-20T00:00:00","end":"2024-07-20T20:59:59Z","end_local":"2024-07-20T23:59:59","updated":"2024-06-23T21:30:08Z"},{"title":"Chris King - Elvis Tribute Artist, Radio Presenter and Restaurant owner","description":"Sourced from predicthq.com","category":"community","start":"2024-07-19T17:30:00Z","geo":{"geometry":{"coordinates":[32.4217796,34.7753944],"type":"Point"},"placekey":"@7yb-4p4-ygk","address":{"country_code":"CY","formatted_address":"8010 Paphos, Cyprus","locality":"Paphos","postcode":"8010","region":"Paphos"}},"labels":["concert","music"],"duration":0,"start_local":"2024-07-19T20:30:00","end":"2024-07-19T17:30:00Z","end_local":"2024-07-19T20:30:00","updated":"2024-06-04T03:06:28Z"},{"title":"UEFA Europa League - 1st Qualifying Round - Pafos vs Elfsborg","description":"Sourced from predicthq.com","category":"sports","start":"2024-07-18T16:00:00Z","geo":{"geometry":{"coordinates":[32.93918961,34.693474872],"type":"Point"},"placekey":"@7yb-998-t9z","address":{"country_code":"CY","formatted_address":"MWVQ+8H2, Kolossi, Cyprus","locality":"Kolossi","region":"Limassol"}},"labels":["soccer","sport"],"duration":0,"start_local":"2024-07-18T19:00:00","end":"2024-07-18T16:00:00Z","end_local":"2024-07-18T19:00:00","updated":"2024-06-24T19:53:29Z"},{"title":"DEELforHOST","description":"Sourced from predicthq.com - Digital Employer Engagement and Learning for Hospitality and Tourism under Pandemic and Other Crisis Situations","category":"conferences","start":"2024-07-18T07:30:00Z","geo":{"geometry":{"coordinates":[32.4334442,34.7754652],"type":"Point"},"placekey":"@7yb-4p5-4qf","address":{"country_code":"CY","formatted_address":"Ampelokipon, 8027 Paphos, Cyprus","locality":"Paphos","postcode":"8027","region":"Paphos"}},"labels":["business","conference"],"duration":9000,"start_local":"2024-07-18T10:30:00","end":"2024-07-18T10:00:00Z","end_local":"2024-07-18T13:00:00","updated":"2024-07-04T05:37:11Z"},{"title":"Chris King - Elvis Tribute Artist, Radio Presenter and Restaurant Owner","description":"Sourced from predicthq.com","category":"community","start":"2024-07-17T17:30:00Z","geo":{"geometry":{"coordinates":[32.4072266,34.7749519],"type":"Point"},"placekey":"@7yb-4p5-9cq","address":{"country_code":"CY","formatted_address":"Tombs of the Kings Avenue, 8015 Chloraka, Cyprus","locality":"Chloraka","postcode":"8015","region":"Paphos"}},"labels":["concert","music"],"duration":0,"start_local":"2024-07-17T20:30:00","end":"2024-07-17T17:30:00Z","end_local":"2024-07-17T20:30:00","updated":"2024-06-04T02:53:18Z"},{"title":"Chris King - Elvis Tribute Artist, Radio Presenter and Restaurant Owner","description":"Sourced from predicthq.com","category":"community","start":"2024-07-15T17:30:00Z","geo":{"geometry":{"coordinates":[32.4072266,34.7749519],"type":"Point"},"placekey":"@7yb-4p5-9cq","address":{"country_code":"CY","formatted_address":"Tombs of the Kings Avenue, 8015 Chloraka, Cyprus","locality":"Chloraka","postcode":"8015","region":"Paphos"}},"labels":["concert","music"],"duration":0,"start_local":"2024-07-15T20:30:00","end":"2024-07-15T17:30:00Z","end_local":"2024-07-15T20:30:00","updated":"2024-06-04T05:25:18Z"},{"title":"Chris King - Elvis Tribute Artist, Radio Presenter and Restaurant owner","description":"Sourced from predicthq.com","category":"community","start":"2024-07-12T17:30:00Z","geo":{"geometry":{"coordinates":[32.4217796,34.7753944],"type":"Point"},"placekey":"@7yb-4p4-ygk","address":{"country_code":"CY","formatted_address":"8010 Paphos, Cyprus","locality":"Paphos","postcode":"8010","region":"Paphos"}},"labels":["concert","music"],"duration":0,"start_local":"2024-07-12T20:30:00","end":"2024-07-12T17:30:00Z","end_local":"2024-07-12T20:30:00","updated":"2024-06-04T06:41:48Z"},{"title":"Vibes Overseas 2024 - WaitList","description":"Sourced from predicthq.com - We are taking the Vibes Overseas this summer! Home is boring, it’s time to escape! Will you be joining us?","category":"festivals","start":"2024-07-12T09:00:00Z","geo":{"geometry":{"coordinates":[33.998545,34.9899889],"type":"Point"},"placekey":"@6cc-n4h-x5z","address":{"country_code":"CY","formatted_address":"Louka Louka, 5330 Ayia Napa, Cyprus","locality":"Ayia Napa","postcode":"5330","region":"Ammochostos"}},"labels":["festival","music"],"duration":410400,"start_local":"2024-07-12T12:00:00","end":"2024-07-17T03:00:00Z","end_local":"2024-07-17T06:00:00","updated":"2024-06-09T08:17:51Z"},{"title":"Chris King - Elvis Tribute Artist, Radio Presenter and Restaurant Owner","description":"Sourced from predicthq.com","category":"community","start":"2024-07-10T17:30:00Z","geo":{"geometry":{"coordinates":[32.4072266,34.7749519],"type":"Point"},"placekey":"@7yb-4p5-9cq","address":{"country_code":"CY","formatted_address":"Tombs of the Kings Avenue, 8015 Chloraka, Cyprus","locality":"Chloraka","postcode":"8015","region":"Paphos"}},"labels":["concert","music"],"duration":0,"start_local":"2024-07-10T20:30:00","end":"2024-07-10T17:30:00Z","end_local":"2024-07-10T20:30:00","updated":"2024-06-04T10:11:02Z"},{"title":"Chris King - Elvis Tribute Artist, Radio Presenter and Restaurant Owner","description":"Sourced from predicthq.com","category":"community","start":"2024-07-08T17:30:00Z","geo":{"geometry":{"coordinates":[32.4072266,34.7749519],"type":"Point"},"placekey":"@7yb-4p5-9cq","address":{"country_code":"CY","formatted_address":"Tombs of the Kings Avenue, 8015 Chloraka, Cyprus","locality":"Chloraka","postcode":"8015","region":"Paphos"}},"labels":["concert","music"],"duration":0,"start_local":"2024-07-08T20:30:00","end":"2024-07-08T17:30:00Z","end_local":"2024-07-08T20:30:00","updated":"2024-06-04T09:10:53Z"},{"title":"CruCast @ Aqua Club","description":"Sourced from predicthq.com - CruCast Every Monday in Aqua club","category":"concerts","start":"2024-07-07T23:00:00Z","geo":{"geometry":{"coordinates":[33.9968677,34.9884531],"type":"Point"},"placekey":"@6cc-n4j-ch5","address":{"country_code":"CY","formatted_address":"Katalymaton 10, Ayia Napa, Cyprus","locality":"Ayia Napa","region":"Ammochostos"}},"labels":["concert","music"],"duration":18000,"start_local":"2024-07-08T02:00:00","end":"2024-07-08T04:00:00Z","end_local":"2024-07-08T07:00:00","updated":"2024-07-04T03:39:07Z"},{"title":"Sunset Sessions Pool Party","description":"Sourced from predicthq.com - Sunset Sessions Pool Party @ Fedrania Gardens Hotel Ayia Napa's Newest Pool Party","category":"community","start":"2024-07-07T13:00:00Z","geo":{"geometry":{"coordinates":[34.0002782,34.9887366],"type":"Point"},"placekey":"@6cc-n4h-wtv","address":{"country_code":"CY","formatted_address":"5330 Ayia Napa, Cyprus","locality":"Ayia Napa","postcode":"5330","region":"Gazimağusa"}},"labels":["concert","music"],"duration":21600,"start_local":"2024-07-07T16:00:00","end":"2024-07-07T19:00:00Z","end_local":"2024-07-07T22:00:00","updated":"2024-07-04T00:59:39Z"},{"title":"Boozy Bingo Ayia Napa","description":"Sourced from predicthq.com - BOOZY BINGO IS HERE","category":"community","start":"2024-07-06T17:30:00Z","geo":{"geometry":{"coordinates":[33.9969,34.9882],"type":"Point"},"placekey":"@6cc-n4j-ch5","address":{"country_code":"CY","formatted_address":"5330 Ayia Napa, Cyprus","locality":"Ayia Napa","postcode":"5330","region":"Gazimağusa"}},"labels":["concert","music"],"duration":10800,"start_local":"2024-07-06T20:30:00","end":"2024-07-06T20:30:00Z","end_local":"2024-07-06T23:30:00","updated":"2024-07-04T11:43:52Z"},{"title":"Ayia Napa Euro Fanzone 2024","description":"Sourced from predicthq.com - Join us in Ayia Napa's Official Fanzone to watch England vs Switzerland! Enjoy the match on a giant screen, surrounded by England fans!","category":"concerts","start":"2024-07-06T14:00:00Z","geo":{"geometry":{"coordinates":[33.9969,34.9882],"type":"Point"},"placekey":"@6cc-n4j-ch5","address":{"country_code":"CY","formatted_address":"5330 Ayia Napa, Cyprus","locality":"Ayia Napa","postcode":"5330","region":"Gazimağusa"}},"labels":["concert","music"],"duration":18000,"start_local":"2024-07-06T17:00:00","end":"2024-07-06T19:00:00Z","end_local":"2024-07-06T22:00:00","updated":"2024-07-04T10:11:58Z"},{"title":"LOST with DANCEkowski!!","description":"Sourced from predicthq.com - Munich's finest Andre Dancekowski, will be dishing up his trademark mix of upbeat house, disco, garage, soul, acid and all things in between","category":"performing-arts","start":"2024-07-06T09:00:00Z","geo":{"geometry":{"coordinates":[33.0431998,34.6711452],"type":"Point"},"placekey":"@7yb-9f6-6rk","address":{"country_code":"CY","formatted_address":"Spyrou Araouzou, 3036 Limassol, Cyprus","locality":"Limassol","postcode":"3036","region":"Limassol"}},"labels":["concert","music","performing-arts"],"duration":23400,"start_local":"2024-07-06T12:00:00","end":"2024-07-06T15:30:00Z","end_local":"2024-07-06T18:30:00","updated":"2024-05-23T03:42:18Z"},{"title":"Agenda White party in Aqua Club","description":"Sourced from predicthq.com - Agenda White Party at Aqua Club","category":"community","start":"2024-07-05T23:30:00Z","geo":{"geometry":{"coordinates":[33.9968677,34.9884531],"type":"Point"},"placekey":"@6cc-n4j-ch5","address":{"country_code":"CY","formatted_address":"Katalymaton 10, Ayia Napa, Cyprus","locality":"Ayia Napa","region":"Ammochostos"}},"labels":["concert","music"],"duration":16200,"start_local":"2024-07-06T02:30:00","end":"2024-07-06T04:00:00Z","end_local":"2024-07-06T07:00:00","updated":"2024-07-04T22:01:29Z"},{"title":"Pedrik","description":"Sourced from predicthq.com","category":"community","start":"2024-07-05T19:00:00Z","geo":{"geometry":{"coordinates":[33.043023,34.673224],"type":"Point"},"placekey":"@7yb-9f6-73q","address":{"country_code":"CY","formatted_address":"Ζικ Ζακ 10, Limassol 3036, Cyprus","postcode":"3036","locality":"Limassol","region":"Limassol"}},"labels":["concert","music"],"duration":0,"start_local":"2024-07-05T22:00:00","end":"2024-07-05T19:00:00Z","end_local":"2024-07-05T22:00:00","updated":"2024-06-04T01:26:04Z"},{"title":"Chris King - Elvis Tribute Artist, Radio Presenter and Restaurant owner","description":"Sourced from predicthq.com","category":"community","start":"2024-07-05T17:30:00Z","geo":{"geometry":{"coordinates":[32.4217796,34.7753944],"type":"Point"},"placekey":"@7yb-4p4-ygk","address":{"country_code":"CY","formatted_address":"8010 Paphos, Cyprus","locality":"Paphos","postcode":"8010","region":"Paphos"}},"labels":["concert","music"],"duration":0,"start_local":"2024-07-05T20:30:00","end":"2024-07-05T17:30:00Z","end_local":"2024-07-05T20:30:00","updated":"2024-06-03T23:46:42Z"},{"title":"ΛΟΥΗΣ NIGHT SHOW LIVE 2024 (SEASON FINALE)","description":"Sourced from predicthq.com - Παρευρεθείτε στη ζωντανή μετάδοση του season finale της σατιρικής εκπομπής του ALPHA Κύπρου \"ΛΟΥΗΣ NIGHT SHOW\", με τον Λούη Πατσαλίδη!","category":"performing-arts","start":"2024-07-05T17:00:00Z","geo":{"geometry":{"coordinates":[33.42845339999997,35.0177169],"type":"Point"},"placekey":"@6cb-z4w-8n5","address":{"country_code":"CY","formatted_address":"Evaggelou Floraki, 2540 Dali, Cyprus","locality":"Dali","postcode":"2540","region":"Nicosia"}},"labels":["concert","music","performing-arts"],"duration":14100,"start_local":"2024-07-05T20:00:00","end":"2024-07-05T20:55:00Z","end_local":"2024-07-05T23:55:00","updated":"2024-07-04T00:29:37Z"},{"title":"House of Tech","description":"Sourced from predicthq.com - House of Tech is a brand new event for summer 2024 and it’s what it says in the name..the only Techno night in Ayia Napa is here","category":"conferences","start":"2024-07-04T23:30:00Z","geo":{"geometry":{"coordinates":[33.9968677,34.9884531],"type":"Point"},"placekey":"@6cc-n4j-ch5","address":{"country_code":"CY","formatted_address":"Katalymaton 10, Ayia Napa, Cyprus","locality":"Ayia Napa","region":"Ammochostos"}},"labels":["conference","science","technology"],"duration":12600,"start_local":"2024-07-05T02:30:00","end":"2024-07-05T03:00:00Z","end_local":"2024-07-05T06:00:00","updated":"2024-07-04T12:09:05Z"},{"title":"Chris King - Elvis Tribute Artist, Radio Presenter and Restaurant Owner","description":"Sourced from predicthq.com","category":"community","start":"2024-07-03T17:30:00Z","geo":{"geometry":{"coordinates":[32.4072266,34.7749519],"type":"Point"},"placekey":"@7yb-4p5-9cq","address":{"country_code":"CY","formatted_address":"Tombs of the Kings Avenue, 8015 Chloraka, Cyprus","locality":"Chloraka","postcode":"8015","region":"Paphos"}},"labels":["concert","music"],"duration":0,"start_local":"2024-07-03T20:30:00","end":"2024-07-03T17:30:00Z","end_local":"2024-07-03T20:30:00","updated":"2024-06-04T05:19:20Z"},{"title":"Chris King - Elvis Tribute Artist, Radio Presenter and Restaurant Owner","description":"Sourced from predicthq.com","category":"community","start":"2024-07-01T17:30:00Z","geo":{"geometry":{"coordinates":[32.4072266,34.7749519],"type":"Point"},"placekey":"@7yb-4p5-9cq","address":{"country_code":"CY","formatted_address":"Tombs of the Kings Avenue, 8015 Chloraka, Cyprus","locality":"Chloraka","postcode":"8015","region":"Paphos"}},"labels":["concert","music"],"duration":0,"start_local":"2024-07-01T20:30:00","end":"2024-07-01T17:30:00Z","end_local":"2024-07-01T20:30:00","updated":"2024-06-04T04:40:33Z"},{"title":"CruCast @ Aqua Club","description":"Sourced from predicthq.com - CruCast Every Monday in Aqua club","category":"concerts","start":"2024-06-30T23:00:00Z","geo":{"geometry":{"coordinates":[33.9968677,34.9884531],"type":"Point"},"placekey":"@6cc-n4j-ch5","address":{"country_code":"CY","formatted_address":"Katalymaton 10, Ayia Napa, Cyprus","locality":"Ayia Napa","region":"Ammochostos"}},"labels":["concert","music"],"duration":18000,"start_local":"2024-07-01T02:00:00","end":"2024-07-01T04:00:00Z","end_local":"2024-07-01T07:00:00","updated":"2024-06-27T07:31:23Z"},{"title":"Musia Totibadze","description":"Sourced from predicthq.com","category":"concerts","start":"2024-06-30T16:00:00Z","geo":{"geometry":{"coordinates":[33.0379258,34.6748699],"type":"Point"},"placekey":"@7yb-9f6-26k","address":{"country_code":"CY","formatted_address":"Eleftherias 132, Limassol 3042, Cyprus","postcode":"3042","locality":"Limassol","region":"Limassol"}},"labels":["concert","music"],"duration":0,"start_local":"2024-06-30T19:00:00","end":"2024-06-30T16:00:00Z","end_local":"2024-06-30T19:00:00","updated":"2024-07-01T10:06:47Z"},{"title":"Sunset Sessions Pool Party","description":"Sourced from predicthq.com - Sunset Sessions Pool Party @ Fedrania Gardens Hotel Ayia Napa's Newest Pool Party","category":"community","start":"2024-06-30T13:00:00Z","geo":{"geometry":{"coordinates":[34.0002782,34.9887366],"type":"Point"},"placekey":"@6cc-n4h-wtv","address":{"country_code":"CY","formatted_address":"5330 Ayia Napa, Cyprus","locality":"Ayia Napa","postcode":"5330","region":"Gazimağusa"}},"labels":["concert","music"],"duration":21600,"start_local":"2024-06-30T16:00:00","end":"2024-06-30T19:00:00Z","end_local":"2024-06-30T22:00:00","updated":"2024-06-27T06:53:47Z"},{"title":"Boozy Bingo Ayia Napa","description":"Sourced from predicthq.com - BOOZY BINGO IS HERE","category":"community","start":"2024-06-29T17:30:00Z","geo":{"geometry":{"coordinates":[33.9969,34.9882],"type":"Point"},"placekey":"@6cc-n4j-ch5","address":{"country_code":"CY","formatted_address":"5330 Ayia Napa, Cyprus","locality":"Ayia Napa","postcode":"5330","region":"Gazimağusa"}},"labels":["concert","music"],"duration":10800,"start_local":"2024-06-29T20:30:00","end":"2024-06-29T20:30:00Z","end_local":"2024-06-29T23:30:00","updated":"2024-06-27T07:42:34Z"},{"title":"Dentist opportunities in the UK - Cyprus","description":"Sourced from predicthq.com - Visit us in Cyprus to find out how to work as a dentist in the UK with mydentist.","category":"conferences","start":"2024-06-29T08:00:00Z","geo":{"geometry":{"coordinates":[33.338985,35.1602581],"type":"Point"},"placekey":"@6cb-yw3-bzf","address":{"country_code":"CY","formatted_address":"Diogenous, 2404 Egkomi Lefkosias, Cyprus","locality":"Egkomi Lefkosias","postcode":"2404","region":"Nicosia"}},"labels":["business","conference"],"duration":10800,"start_local":"2024-06-29T11:00:00","end":"2024-06-29T11:00:00Z","end_local":"2024-06-29T14:00:00","updated":"2024-06-04T04:11:34Z"},{"title":"Agenda White party in Aqua Club","description":"Sourced from predicthq.com - Agenda White Party at Aqua Club","category":"community","start":"2024-06-28T23:30:00Z","geo":{"geometry":{"coordinates":[33.9968677,34.9884531],"type":"Point"},"placekey":"@6cc-n4j-ch5","address":{"country_code":"CY","formatted_address":"Katalymaton 10, Ayia Napa, Cyprus","locality":"Ayia Napa","region":"Ammochostos"}},"labels":["concert","music"],"duration":16200,"start_local":"2024-06-29T02:30:00","end":"2024-06-29T04:00:00Z","end_local":"2024-06-29T07:00:00","updated":"2024-06-27T05:18:37Z"},{"title":"Chris King - Elvis Tribute Artist, Radio Presenter and Restaurant owner","description":"Sourced from predicthq.com","category":"community","start":"2024-06-28T17:30:00Z","geo":{"geometry":{"coordinates":[32.4217796,34.7753944],"type":"Point"},"placekey":"@7yb-4p4-ygk","address":{"country_code":"CY","formatted_address":"8010 Paphos, Cyprus","locality":"Paphos","postcode":"8010","region":"Paphos"}},"labels":["concert","music"],"duration":0,"start_local":"2024-06-28T20:30:00","end":"2024-06-28T17:30:00Z","end_local":"2024-06-28T20:30:00","updated":"2024-06-04T04:00:50Z"},{"title":"House of Tech","description":"Sourced from predicthq.com - House of Tech is a brand new event for summer 2024 and it’s what it says in the name..the only Techno night in Ayia Napa is here","category":"conferences","start":"2024-06-27T23:30:00Z","geo":{"geometry":{"coordinates":[33.9968677,34.9884531],"type":"Point"},"placekey":"@6cc-n4j-ch5","address":{"country_code":"CY","formatted_address":"Katalymaton 10, Ayia Napa, Cyprus","locality":"Ayia Napa","region":"Ammochostos"}},"labels":["conference","science","technology"],"duration":12600,"start_local":"2024-06-28T02:30:00","end":"2024-06-28T03:00:00Z","end_local":"2024-06-28T06:00:00","updated":"2024-06-27T14:40:59Z"},{"title":"Echo chaos in paradise June fall-winter fashion show","description":"Sourced from predicthq.com - Join us for the Echo Chaos in Paradise June Fall-Winter Fashion Show, where fashion meets paradise in a chaotic yet stylish extravaganza on","category":"concerts","start":"2024-06-27T13:00:00Z","geo":{"geometry":{"coordinates":[33.38227639999999,35.1855659],"type":"Point"},"placekey":"@6cb-yzv-3h5","address":{"country_code":"CY","formatted_address":"1022 Nicosia, Cyprus","locality":"Nicosia","postcode":"1022","region":"Nicosia"}},"labels":["concert","fashion","music"],"duration":25200,"start_local":"2024-06-27T16:00:00","end":"2024-06-27T20:00:00Z","end_local":"2024-06-27T23:00:00","updated":"2024-06-04T07:15:31Z"},{"title":"Chris King - Elvis Tribute Artist, Radio Presenter and Restaurant Owner","description":"Sourced from predicthq.com","category":"community","start":"2024-06-26T17:30:00Z","geo":{"geometry":{"coordinates":[32.4072266,34.7749519],"type":"Point"},"placekey":"@7yb-4p5-9cq","address":{"country_code":"CY","formatted_address":"Tombs of the Kings Avenue, 8015 Chloraka, Cyprus","locality":"Chloraka","postcode":"8015","region":"Paphos"}},"labels":["concert","music"],"duration":0,"start_local":"2024-06-26T20:30:00","end":"2024-06-26T17:30:00Z","end_local":"2024-06-26T20:30:00","updated":"2024-06-04T04:21:25Z"},{"title":"Chris King - Elvis Tribute Artist, Radio Presenter and Restaurant Owner","description":"Sourced from predicthq.com","category":"community","start":"2024-06-24T17:30:00Z","geo":{"geometry":{"coordinates":[32.4072266,34.7749519],"type":"Point"},"placekey":"@7yb-4p5-9cq","address":{"country_code":"CY","formatted_address":"Tombs of the Kings Avenue, 8015 Chloraka, Cyprus","locality":"Chloraka","postcode":"8015","region":"Paphos"}},"labels":["concert","music"],"duration":0,"start_local":"2024-06-24T20:30:00","end":"2024-06-24T17:30:00Z","end_local":"2024-06-24T20:30:00","updated":"2024-06-04T01:23:24Z"},{"title":"ISTQB® Foundation Exam and Training Course - Larnaca, Cyprus","description":"Sourced from predicthq.com - ISTQB® FOUNDATION TRAINING COURSE\nThe aim of this course is to provide you with the knowledge and skills to pass an exam","category":"conferences","start":"2024-06-24T06:00:00Z","geo":{"geometry":{"coordinates":[33.6231723,34.9002535],"type":"Point"},"placekey":"@6cc-ngw-fpv","address":{"country_code":"CY","formatted_address":"6029 Larnaca, Cyprus","locality":"Larnaca","postcode":"6029","region":"Larnaca"}},"labels":["business","conference"],"duration":27000,"start_local":"2024-06-24T09:00:00","end":"2024-06-24T13:30:00Z","end_local":"2024-06-24T16:30:00","updated":"2024-06-11T01:05:18Z"},{"title":"CruCast @ Aqua Club","description":"Sourced from predicthq.com - CruCast Every Monday in Aqua club","category":"concerts","start":"2024-06-23T23:00:00Z","geo":{"geometry":{"coordinates":[33.9968677,34.9884531],"type":"Point"},"placekey":"@6cc-n4j-ch5","address":{"country_code":"CY","formatted_address":"Katalymaton 10, Ayia Napa, Cyprus","locality":"Ayia Napa","region":"Ammochostos"}},"labels":["concert","music"],"duration":18000,"start_local":"2024-06-24T02:00:00","end":"2024-06-24T04:00:00Z","end_local":"2024-06-24T07:00:00","updated":"2024-06-21T06:39:09Z"},{"title":"Sunset Sessions Pool Party","description":"Sourced from predicthq.com - Sunset Sessions Pool Party @ Fedrania Gardens Hotel Ayia Napa's Newest Pool Party","category":"community","start":"2024-06-23T13:00:00Z","geo":{"geometry":{"coordinates":[34.0002782,34.9887366],"type":"Point"},"placekey":"@6cc-n4h-wtv","address":{"country_code":"CY","formatted_address":"5330 Ayia Napa, Cyprus","locality":"Ayia Napa","postcode":"5330","region":"Gazimağusa"}},"labels":["concert","music"],"duration":21600,"start_local":"2024-06-23T16:00:00","end":"2024-06-23T19:00:00Z","end_local":"2024-06-23T22:00:00","updated":"2024-06-20T17:44:18Z"},{"title":"PDDG Conference","description":"Sourced from predicthq.com","category":"conferences","start":"2024-06-23T06:00:00Z","geo":{"geometry":{"coordinates":[33.071394,34.688832],"type":"Point"},"placekey":"@7yb-9fn-rrk","address":{"country_code":"CY","formatted_address":"Promachon Eleftherias\nLimassol 4013\nCyprus","locality":"Limassol"}},"labels":["conference"],"duration":291600,"start_local":"2024-06-23T09:00:00","end":"2024-06-26T15:00:00Z","end_local":"2024-06-26T18:00:00","updated":"2024-05-28T01:03:01Z"},{"title":"Boozy Bingo Ayia Napa","description":"Sourced from predicthq.com - BOOZY BINGO IS HERE","category":"community","start":"2024-06-22T17:30:00Z","geo":{"geometry":{"coordinates":[33.9969,34.9882],"type":"Point"},"placekey":"@6cc-n4j-ch5","address":{"country_code":"CY","formatted_address":"5330 Ayia Napa, Cyprus","locality":"Ayia Napa","postcode":"5330","region":"Gazimağusa"}},"labels":["concert","music"],"duration":10800,"start_local":"2024-06-22T20:30:00","end":"2024-06-22T20:30:00Z","end_local":"2024-06-22T23:30:00","updated":"2024-06-20T18:43:53Z"},{"title":"Agenda White party in Aqua Club","description":"Sourced from predicthq.com - Agenda White Party at Aqua Club","category":"community","start":"2024-06-21T23:30:00Z","geo":{"geometry":{"coordinates":[33.9968677,34.9884531],"type":"Point"},"placekey":"@6cc-n4j-ch5","address":{"country_code":"CY","formatted_address":"Katalymaton 10, Ayia Napa, Cyprus","locality":"Ayia Napa","region":"Ammochostos"}},"labels":["concert","music"],"duration":16200,"start_local":"2024-06-22T02:30:00","end":"2024-06-22T04:00:00Z","end_local":"2024-06-22T07:00:00","updated":"2024-06-20T17:44:18Z"},{"title":"Helena Paparizou","description":"Sourced from predicthq.com","category":"concerts","start":"2024-06-21T18:30:00Z","geo":{"geometry":{"coordinates":[33.1331516,34.7094644],"type":"Point"},"placekey":"@7yb-9dw-sbk","address":{"country_code":"CY","formatted_address":"75 Amathounta Avenue Limassol, Agios Tychon 4532, Cyprus","postcode":"4532","locality":"Agios Tychon","region":"Limassol"}},"labels":["concert","music"],"duration":0,"start_local":"2024-06-21T21:30:00","end":"2024-06-21T18:30:00Z","end_local":"2024-06-21T21:30:00","updated":"2024-07-05T18:34:19Z"},{"title":"MAXI MERAKI","description":"Sourced from predicthq.com","category":"concerts","start":"2024-06-21T18:00:00Z","geo":{"geometry":{"coordinates":[33.0722095,34.6892275],"type":"Point"},"placekey":"@7yb-9fn-rtv","address":{"country_code":"CY","formatted_address":"6, Προμαχών Ελευθερίας, Αγ. Αθανάσιος, Cyprus","locality":"Άγιος Αθανάσιος","region":"Limasol"}},"labels":["concert","music"],"duration":0,"start_local":"2024-06-21T21:00:00","end":"2024-06-21T18:00:00Z","end_local":"2024-06-21T21:00:00","updated":"2024-07-05T18:11:57Z"},{"title":"Chris King - Elvis Tribute Artist, Radio Presenter and Restaurant owner","description":"Sourced from predicthq.com","category":"community","start":"2024-06-21T17:30:00Z","geo":{"geometry":{"coordinates":[32.4217796,34.7753944],"type":"Point"},"placekey":"@7yb-4p4-ygk","address":{"country_code":"CY","formatted_address":"8010 Paphos, Cyprus","locality":"Paphos","postcode":"8010","region":"Paphos"}},"labels":["concert","music"],"duration":0,"start_local":"2024-06-21T20:30:00","end":"2024-06-21T17:30:00Z","end_local":"2024-06-21T20:30:00","updated":"2024-06-04T02:54:45Z"},{"title":"International College of Dentists European Section Annual Meeting","description":"Sourced from predicthq.com","category":"conferences","start":"2024-06-21T06:00:00Z","geo":{"geometry":{"coordinates":[33.173807,34.711735],"type":"Point"},"placekey":"@7yb-9dt-bp9","address":{"country_code":"CY","formatted_address":"Old Limassol - Nicosia Road\nLimassol 4534\nCyprus","locality":"Limassol"}},"labels":["conference"],"duration":205200,"start_local":"2024-06-21T09:00:00","end":"2024-06-23T15:00:00Z","end_local":"2024-06-23T18:00:00","updated":"2024-06-02T01:48:59Z"},{"title":"House of Tech","description":"Sourced from predicthq.com - House of Tech is a brand new event for summer 2024 and it’s what it says in the name..the only Techno night in Ayia Napa is here","category":"conferences","start":"2024-06-20T23:30:00Z","geo":{"geometry":{"coordinates":[33.9968677,34.9884531],"type":"Point"},"placekey":"@6cc-n4j-ch5","address":{"country_code":"CY","formatted_address":"Katalymaton 10, Ayia Napa, Cyprus","locality":"Ayia Napa","region":"Ammochostos"}},"labels":["conference","science","technology"],"duration":12600,"start_local":"2024-06-21T02:30:00","end":"2024-06-21T03:00:00Z","end_local":"2024-06-21T06:00:00","updated":"2024-06-20T15:48:37Z"},{"title":"Nicosia: CCASS / CYMC Networking Event","description":"Sourced from predicthq.com","category":"conferences","start":"2024-06-19T21:00:00Z","geo":{"geometry":{"coordinates":[33.362084,35.163764],"type":"Point"},"placekey":"@6cb-yft-skf","address":{"country_code":"CY","formatted_address":"Spyrou Kyprianou Avenue, 1075 Nicosia, Cyprus","locality":"Nicosia","postcode":"1075","region":"Nicosia"}},"labels":["conference"],"duration":86399,"start_local":"2024-06-20T00:00:00","end":"2024-06-20T20:59:59Z","end_local":"2024-06-20T23:59:59","updated":"2024-06-16T00:48:22Z"},{"title":"Chris King - Elvis Tribute Artist, Radio Presenter and Restaurant Owner","description":"Sourced from predicthq.com","category":"community","start":"2024-06-19T17:30:00Z","geo":{"geometry":{"coordinates":[32.4072266,34.7749519],"type":"Point"},"placekey":"@7yb-4p5-9cq","address":{"country_code":"CY","formatted_address":"Tombs of the Kings Avenue, 8015 Chloraka, Cyprus","locality":"Chloraka","postcode":"8015","region":"Paphos"}},"labels":["concert","music"],"duration":0,"start_local":"2024-06-19T20:30:00","end":"2024-06-19T17:30:00Z","end_local":"2024-06-19T20:30:00","updated":"2024-06-04T08:39:02Z"},{"title":"International Conference on Engineering of Complex Computer Systems","description":"Sourced from predicthq.com","category":"conferences","start":"2024-06-18T21:00:00Z","geo":{"geometry":{"coordinates":[33.167392,34.712884],"type":"Point"},"placekey":"@7yb-9dt-9xq","address":{"country_code":"CY","formatted_address":"Amathountos Avenue 502, Pyrgos 4520, Cyprus","postcode":"4520","locality":"Pyrgos","region":"Limassol"}},"labels":["conference"],"duration":259199,"start_local":"2024-06-19T00:00:00","end":"2024-06-21T20:59:59Z","end_local":"2024-06-21T23:59:59","updated":"2024-06-16T00:57:26Z"},{"title":"EIT Community RIS HUB Cyprus Kick-Off | Supporting the Cyprus Innovation Ecosystem","description":"Sourced from predicthq.com - Join us for the EIT Community RIS HUB Cyprus Kick-Off event, where we'll be supporting the Cyprus Innovation Ecosystem together!","category":"conferences","start":"2024-06-18T10:30:00Z","geo":{"geometry":{"coordinates":[33.364808,35.1736755],"type":"Point"},"placekey":"@6cb-yft-p5f","address":{"country_code":"CY","formatted_address":"Αγίου Δημητρίου, 1016 Lefkoşa, Cyprus","locality":"Lefkoşa","postcode":"1016"}},"labels":["business","conference"],"duration":21600,"start_local":"2024-06-18T13:30:00","end":"2024-06-18T16:30:00Z","end_local":"2024-06-18T19:30:00","updated":"2024-06-04T05:21:13Z"},{"title":"Chris King - Elvis Tribute Artist, Radio Presenter and Restaurant Owner","description":"Sourced from predicthq.com","category":"community","start":"2024-06-17T17:30:00Z","geo":{"geometry":{"coordinates":[32.4072266,34.7749519],"type":"Point"},"placekey":"@7yb-4p5-9cq","address":{"country_code":"CY","formatted_address":"Tombs of the Kings Avenue, 8015 Chloraka, Cyprus","locality":"Chloraka","postcode":"8015","region":"Paphos"}},"labels":["concert","music"],"duration":0,"start_local":"2024-06-17T20:30:00","end":"2024-06-17T17:30:00Z","end_local":"2024-06-17T20:30:00","updated":"2024-06-04T07:34:30Z"},{"title":"CruCast @ Aqua Club","description":"Sourced from predicthq.com - CruCast Every Monday in Aqua club","category":"concerts","start":"2024-06-16T23:00:00Z","geo":{"geometry":{"coordinates":[33.9968677,34.9884531],"type":"Point"},"placekey":"@6cc-n4j-ch5","address":{"country_code":"CY","formatted_address":"Katalymaton 10, Ayia Napa, Cyprus","locality":"Ayia Napa","region":"Ammochostos"}},"labels":["concert","music"],"duration":18000,"start_local":"2024-06-17T02:00:00","end":"2024-06-17T04:00:00Z","end_local":"2024-06-17T07:00:00","updated":"2024-06-13T01:40:22Z"},{"title":"James Joyce Ulysses, Musicality in his work- Nicosia 16 June","description":"Sourced from predicthq.com - Part of the 3rd edition of the annual Bloomsday festival celebrating the life and work of Irish writer James Joyce","category":"festivals","start":"2024-06-16T17:00:00Z","geo":{"geometry":{"coordinates":[33.3656704,35.1736632],"type":"Point"},"placekey":"@6cb-yft-ks5","address":{"country_code":"CY","formatted_address":"Eptanisou, 1016 Nicosia, Cyprus","locality":"Nicosia","postcode":"1016"}},"labels":["community","festival"],"duration":5400,"start_local":"2024-06-16T20:00:00","end":"2024-06-16T18:30:00Z","end_local":"2024-06-16T21:30:00","updated":"2024-06-09T16:31:05Z"},{"title":"Sunset Sessions Pool Party","description":"Sourced from predicthq.com - Sunset Sessions Pool Party @ Fedrania Gardens Hotel Ayia Napa's Newest Pool Party","category":"community","start":"2024-06-16T13:00:00Z","geo":{"geometry":{"coordinates":[34.0002782,34.9887366],"type":"Point"},"placekey":"@6cc-n4h-wtv","address":{"country_code":"CY","formatted_address":"5330 Ayia Napa, Cyprus","locality":"Ayia Napa","postcode":"5330","region":"Gazimağusa"}},"labels":["concert","music"],"duration":21600,"start_local":"2024-06-16T16:00:00","end":"2024-06-16T19:00:00Z","end_local":"2024-06-16T22:00:00","updated":"2024-06-13T00:45:35Z"},{"title":"Junior Faculty Consortium","description":"Sourced from predicthq.com","category":"conferences","start":"2024-06-16T06:00:00Z","geo":{"geometry":{"coordinates":[32.362449,34.856923],"type":"Point"},"placekey":"@7yb-b6r-snq","address":{"country_code":"CY","formatted_address":"Coral Bay Ave 70, Peyia 8575, Cyprus","postcode":"8575","locality":"Peyia"}},"labels":["conference"],"duration":32400,"start_local":"2024-06-16T09:00:00","end":"2024-06-16T15:00:00Z","end_local":"2024-06-16T18:00:00","updated":"2024-06-02T05:01:28Z"},{"title":"StraMandriamo","description":"Sourced from predicthq.com","category":"sports","start":"2024-06-15T21:00:00Z","geo":{"geometry":{"coordinates":[32.5323996,34.7154419],"type":"Point"},"placekey":"@7yb-47g-j5f","address":{"country_code":"CY","formatted_address":"8504 Mandria, Cyprus","locality":"Mandria","postcode":"8504","region":"Paphos"}},"labels":["outdoor-sports","running","sport"],"duration":86399,"start_local":"2024-06-16T00:00:00","end":"2024-06-16T20:59:59Z","end_local":"2024-06-16T23:59:59","updated":"2024-06-04T00:57:00Z"},{"title":"Boozy Bingo Ayia Napa","description":"Sourced from predicthq.com - BOOZY BINGO IS HERE","category":"community","start":"2024-06-15T17:30:00Z","geo":{"geometry":{"coordinates":[33.9969,34.9882],"type":"Point"},"placekey":"@6cc-n4j-ch5","address":{"country_code":"CY","formatted_address":"5330 Ayia Napa, Cyprus","locality":"Ayia Napa","postcode":"5330","region":"Gazimağusa"}},"labels":["concert","music"],"duration":10800,"start_local":"2024-06-15T20:30:00","end":"2024-06-15T20:30:00Z","end_local":"2024-06-15T23:30:00","updated":"2024-06-13T16:16:09Z"},{"title":"James Joyce Ulysses, Views of the afterlife- Limassol 15 June","description":"Sourced from predicthq.com - Part of the 3rd edition of the annual Bloomsday festival celebrating the the life and work of Irish writer James Joyce","category":"festivals","start":"2024-06-15T17:30:00Z","geo":{"geometry":{"coordinates":[33.0365624,34.68795679999999],"type":"Point"},"placekey":"@7yb-9dy-y7q","address":{"country_code":"CY","formatted_address":"Andrea Kalvou, 3085 Limassol, Cyprus","locality":"Limassol","postcode":"3085","region":"Limassol"}},"labels":["community","festival"],"duration":3600,"start_local":"2024-06-15T20:30:00","end":"2024-06-15T18:30:00Z","end_local":"2024-06-15T21:30:00","updated":"2024-06-08T16:32:45Z"},{"title":"FEAR and OPPORTUNITY: A Brave New World","description":"Sourced from predicthq.com - Learn to see fear not as a problem, but as a chance for new opportunities.","category":"conferences","start":"2024-06-15T07:00:00Z","geo":{"geometry":{"coordinates":[33.0256962,34.674545],"type":"Point"},"placekey":"@7yb-9f6-bx5","address":{"country_code":"CY","formatted_address":"Misiaouli & Kavazoglou, 3016 Limassol, Cyprus","locality":"Limassol","postcode":"3016","region":"Limassol"}},"labels":["conference","science","technology"],"duration":27000,"start_local":"2024-06-15T10:00:00","end":"2024-06-15T14:30:00Z","end_local":"2024-06-15T17:30:00","updated":"2024-05-23T03:42:18Z"},{"title":"Agenda White party in Aqua Club","description":"Sourced from predicthq.com - Agenda White Party at Aqua Club","category":"community","start":"2024-06-14T23:30:00Z","geo":{"geometry":{"coordinates":[33.9968677,34.9884531],"type":"Point"},"placekey":"@6cc-n4j-ch5","address":{"country_code":"CY","formatted_address":"Katalymaton 10, Ayia Napa, Cyprus","locality":"Ayia Napa","region":"Ammochostos"}},"labels":["concert","music"],"duration":16200,"start_local":"2024-06-15T02:30:00","end":"2024-06-15T04:00:00Z","end_local":"2024-06-15T07:00:00","updated":"2024-06-13T00:36:46Z"},{"title":"Chris King - Elvis Tribute Artist, Radio Presenter and Restaurant owner","description":"Sourced from predicthq.com","category":"community","start":"2024-06-14T17:30:00Z","geo":{"geometry":{"coordinates":[32.4217796,34.7753944],"type":"Point"},"placekey":"@7yb-4p4-ygk","address":{"country_code":"CY","formatted_address":"8010 Paphos, Cyprus","locality":"Paphos","postcode":"8010","region":"Paphos"}},"labels":["concert","music"],"duration":0,"start_local":"2024-06-14T20:30:00","end":"2024-06-14T17:30:00Z","end_local":"2024-06-14T20:30:00","updated":"2024-06-04T02:18:37Z"},{"title":"James Joyce Ulysses, An internal journey of return- Larnaca 14 June","description":"Sourced from predicthq.com - Part of the 3rd edition of the annual Bloomsday festival celebrating the life and work of Irish writer James Joyce","category":"festivals","start":"2024-06-14T16:30:00Z","geo":{"geometry":{"coordinates":[33.6340608,34.9127175],"type":"Point"},"placekey":"@6cc-ngv-9mk","address":{"country_code":"CY","formatted_address":"Constantinou Kalogera, 6021 Larnaca, Cyprus","locality":"Larnaca","postcode":"6021","region":"Larnaca"}},"labels":["community","festival"],"duration":5400,"start_local":"2024-06-14T19:30:00","end":"2024-06-14T18:00:00Z","end_local":"2024-06-14T21:00:00","updated":"2024-06-11T06:50:29Z"},{"title":"House of Tech","description":"Sourced from predicthq.com - House of Tech is a brand new event for summer 2024 and it’s what it says in the name..the only Techno night in Ayia Napa is here","category":"conferences","start":"2024-06-13T23:30:00Z","geo":{"geometry":{"coordinates":[33.9968677,34.9884531],"type":"Point"},"placekey":"@6cc-n4j-ch5","address":{"country_code":"CY","formatted_address":"Katalymaton 10, Ayia Napa, Cyprus","locality":"Ayia Napa","region":"Ammochostos"}},"labels":["conference","science","technology"],"duration":12600,"start_local":"2024-06-14T02:30:00","end":"2024-06-14T03:00:00Z","end_local":"2024-06-14T06:00:00","updated":"2024-06-13T00:33:38Z"},{"title":"Runnign Under the Moon","description":"Sourced from predicthq.com","category":"sports","start":"2024-06-13T21:00:00Z","geo":{"geometry":{"coordinates":[33.3598366,35.1338417],"type":"Point"},"placekey":"@6cb-yfw-3dv","address":{"country_code":"CY","formatted_address":"2034 Strovolos, Cyprus","locality":"Strovolos","postcode":"2034","region":"Nicosia"}},"labels":["outdoor-sports","running","sport"],"duration":86399,"start_local":"2024-06-14T00:00:00","end":"2024-06-14T20:59:59Z","end_local":"2024-06-14T23:59:59","updated":"2024-06-04T03:16:03Z"},{"title":"National Day of Portugal","description":"Sourced from predicthq.com - National Day of Portugal","category":"festivals","start":"2024-06-13T16:00:00Z","geo":{"geometry":{"coordinates":[33.38227639999999,35.1855659],"type":"Point"},"placekey":"@6cb-yzv-3h5","address":{"country_code":"CY","formatted_address":"1022 Nicosia, Cyprus","locality":"Nicosia","postcode":"1022","region":"Nicosia"}},"labels":["community","festival"],"duration":7200,"start_local":"2024-06-13T19:00:00","end":"2024-06-13T18:00:00Z","end_local":"2024-06-13T21:00:00","updated":"2024-06-06T21:14:43Z"},{"title":"European Conference on Information Systems","description":"Sourced from predicthq.com","category":"conferences","start":"2024-06-13T06:00:00Z","geo":{"geometry":{"coordinates":[32.362449,34.856923],"type":"Point"},"placekey":"@7yb-b6r-snq","address":{"country_code":"CY","formatted_address":"Coral Bay Ave 70, Peyia 8575, Cyprus","postcode":"8575","locality":"Peyia"}},"labels":["conference"],"duration":550800,"start_local":"2024-06-13T09:00:00","end":"2024-06-19T15:00:00Z","end_local":"2024-06-19T18:00:00","updated":"2024-06-02T04:59:47Z"},{"title":"Chris King - Elvis Tribute Artist, Radio Presenter and Restaurant Owner","description":"Sourced from predicthq.com","category":"community","start":"2024-06-12T17:30:00Z","geo":{"geometry":{"coordinates":[32.4072266,34.7749519],"type":"Point"},"placekey":"@7yb-4p5-9cq","address":{"country_code":"CY","formatted_address":"Tombs of the Kings Avenue, 8015 Chloraka, Cyprus","locality":"Chloraka","postcode":"8015","region":"Paphos"}},"labels":["concert","music"],"duration":0,"start_local":"2024-06-12T20:30:00","end":"2024-06-12T17:30:00Z","end_local":"2024-06-12T20:30:00","updated":"2024-06-04T02:45:22Z"},{"title":"Nicosia: Nutrition for Well-being and Resilience","description":"Sourced from predicthq.com","category":"expos","start":"2024-06-10T21:00:00Z","geo":{"geometry":{"coordinates":[33.406967,35.056459],"type":"Point"},"placekey":"@6cb-ygh-m8v","address":{"country_code":"CY","formatted_address":"E138, 2540 Dali, Cyprus","locality":"Dali","postcode":"2540","region":"Nicosia"}},"labels":["expo"],"duration":86399,"start_local":"2024-06-11T00:00:00","end":"2024-06-11T20:59:59Z","end_local":"2024-06-11T23:59:59","updated":"2024-07-02T14:35:18Z"},{"title":"Chris King - Elvis Tribute Artist, Radio Presenter and Restaurant Owner","description":"Sourced from predicthq.com","category":"community","start":"2024-06-10T17:30:00Z","geo":{"geometry":{"coordinates":[32.4072266,34.7749519],"type":"Point"},"placekey":"@7yb-4p5-9cq","address":{"country_code":"CY","formatted_address":"Tombs of the Kings Avenue, 8015 Chloraka, Cyprus","locality":"Chloraka","postcode":"8015","region":"Paphos"}},"labels":["concert","music"],"duration":0,"start_local":"2024-06-10T20:30:00","end":"2024-06-10T17:30:00Z","end_local":"2024-06-10T20:30:00","updated":"2024-06-04T08:31:36Z"},{"title":"CruCast @ Aqua Club","description":"Sourced from predicthq.com - CruCast Every Monday in Aqua club","category":"concerts","start":"2024-06-09T23:00:00Z","geo":{"geometry":{"coordinates":[33.9968677,34.9884531],"type":"Point"},"placekey":"@6cc-n4j-ch5","address":{"country_code":"CY","formatted_address":"Katalymaton 10, Ayia Napa, Cyprus","locality":"Ayia Napa","region":"Ammochostos"}},"labels":["concert","music"],"duration":18000,"start_local":"2024-06-10T02:00:00","end":"2024-06-10T04:00:00Z","end_local":"2024-06-10T07:00:00","updated":"2024-06-04T10:42:47Z"},{"title":"International Conference on Software and Systems Reuse","description":"Sourced from predicthq.com","category":"conferences","start":"2024-06-09T21:00:00Z","geo":{"geometry":{"coordinates":[33.167392,34.712884],"type":"Point"},"placekey":"@7yb-9dt-9xq","address":{"country_code":"CY","formatted_address":"Amathountos Avenue 502, Pyrgos 4520, Cyprus","postcode":"4520","locality":"Pyrgos","region":"Limassol"}},"labels":["conference"],"duration":259199,"start_local":"2024-06-10T00:00:00","end":"2024-06-12T20:59:59Z","end_local":"2024-06-12T23:59:59","updated":"2024-05-31T22:56:09Z"},{"title":"Sunset Sessions Pool Party","description":"Sourced from predicthq.com - Sunset Sessions Pool Party @ Fedrania Gardens Hotel Ayia Napa's Newest Pool Party","category":"community","start":"2024-06-09T13:00:00Z","geo":{"geometry":{"coordinates":[34.0002782,34.9887366],"type":"Point"},"placekey":"@6cc-n4h-wtv","address":{"country_code":"CY","formatted_address":"5330 Ayia Napa, Cyprus","locality":"Ayia Napa","postcode":"5330","region":"Gazimağusa"}},"labels":["concert","music"],"duration":21600,"start_local":"2024-06-09T16:00:00","end":"2024-06-09T19:00:00Z","end_local":"2024-06-09T22:00:00","updated":"2024-06-06T05:18:39Z"},{"title":"Valeron","description":"Sourced from predicthq.com","category":"concerts","start":"2024-06-09T12:00:00Z","geo":{"geometry":{"coordinates":[32.9930846,34.6462265],"type":"Point"},"placekey":"@7yb-5p5-5cq","address":{"country_code":"CY","formatted_address":"Nikou Kavvadia, Limassol 3150, Cyprus","postcode":"3150","locality":"Limassol","region":"Limassol"}},"labels":["concert","music"],"duration":0,"start_local":"2024-06-09T15:00:00","end":"2024-06-09T12:00:00Z","end_local":"2024-06-09T15:00:00","updated":"2024-06-23T12:05:21Z"},{"title":"DJ Francis James","description":"Sourced from predicthq.com","category":"concerts","start":"2024-06-08T16:00:00Z","geo":{"geometry":{"coordinates":[32.3937216,34.8129726],"type":"Point"},"placekey":"@7yb-4qy-8sq","address":{"country_code":"CY","formatted_address":"Lempa 8260, Cyprus","postcode":"8260","locality":"Lempa"}},"labels":["concert","music"],"duration":0,"start_local":"2024-06-08T19:00:00","end":"2024-06-08T16:00:00Z","end_local":"2024-06-08T19:00:00","updated":"2024-06-22T16:12:21Z"},{"title":"RUN FOR KHARKIV","description":"Sourced from predicthq.com - RUN FOR KHARKIV is a charity run in Limassol dedicated to raising funds for charity organizations and businesses in Kharkiv","category":"community","start":"2024-06-08T16:00:00Z","geo":{"geometry":{"coordinates":[33.0482537,34.6751027],"type":"Point"},"placekey":"@7yb-9f6-6c5","address":{"country_code":"CY","formatted_address":"Spyrou Araouzou, 3036 Limassol, Cyprus","locality":"Limassol","postcode":"3036","region":"Limassol"}},"labels":["community","fundraiser","sport"],"duration":3600,"start_local":"2024-06-08T19:00:00","end":"2024-06-08T17:00:00Z","end_local":"2024-06-08T20:00:00","updated":"2024-05-30T06:25:01Z"},{"title":"Artist Talk - Fikos 'Me and My Monkey'","description":"Sourced from predicthq.com - Join us at Edit Gallery for an Artist Talk with Fikos, discussing his unique Byzantine style and \"Me and My Monkey\" exhibition.","category":"conferences","start":"2024-06-08T08:00:00Z","geo":{"geometry":{"coordinates":[33.0440131,34.6831095],"type":"Point"},"placekey":"@7yb-9f2-m49","address":{"country_code":"CY","formatted_address":"Agias Zonis, 3027 Limassol, Cyprus","locality":"Limassol","postcode":"3027","region":"Limassol"}},"labels":["conference","performing-arts"],"duration":3600,"start_local":"2024-06-08T11:00:00","end":"2024-06-08T09:00:00Z","end_local":"2024-06-08T12:00:00","updated":"2024-06-06T02:36:51Z"},{"title":"HERitage Amplified RELOAD","description":"Sourced from predicthq.com - This gathering aims to amplify the voices and contributions of women from diverse backgrounds on the world's largest online encyclopedia","category":"concerts","start":"2024-06-08T06:00:00Z","geo":{"geometry":{"coordinates":[33.38227639999999,35.1855659],"type":"Point"},"placekey":"@6cb-yzv-3h5","address":{"country_code":"CY","formatted_address":"1022 Nicosia, Cyprus","locality":"Nicosia","postcode":"1022","region":"Nicosia"}},"labels":["concert","music"],"duration":21600,"start_local":"2024-06-08T09:00:00","end":"2024-06-08T12:00:00Z","end_local":"2024-06-08T15:00:00","updated":"2024-06-04T07:01:21Z"},{"title":"Agenda White party in Aqua Club","description":"Sourced from predicthq.com - Agenda White Party at Aqua Club","category":"community","start":"2024-06-07T23:30:00Z","geo":{"geometry":{"coordinates":[33.9968677,34.9884531],"type":"Point"},"placekey":"@6cc-n4j-ch5","address":{"country_code":"CY","formatted_address":"Katalymaton 10, Ayia Napa, Cyprus","locality":"Ayia Napa","region":"Ammochostos"}},"labels":["concert","music"],"duration":16200,"start_local":"2024-06-08T02:30:00","end":"2024-06-08T04:00:00Z","end_local":"2024-06-08T07:00:00","updated":"2024-06-06T02:32:28Z"},{"title":"Chris King - Elvis Tribute Artist, Radio Presenter and Restaurant owner","description":"Sourced from predicthq.com","category":"community","start":"2024-06-07T17:30:00Z","geo":{"geometry":{"coordinates":[32.4217796,34.7753944],"type":"Point"},"placekey":"@7yb-4p4-ygk","address":{"country_code":"CY","formatted_address":"8010 Paphos, Cyprus","locality":"Paphos","postcode":"8010","region":"Paphos"}},"labels":["concert","music"],"duration":0,"start_local":"2024-06-07T20:30:00","end":"2024-06-07T17:30:00Z","end_local":"2024-06-07T20:30:00","updated":"2024-06-04T04:15:39Z"},{"title":"House of Tech","description":"Sourced from predicthq.com - House of Tech is a brand new event for summer 2024 and it’s what it says in the name..the only Techno night in Ayia Napa is here","category":"conferences","start":"2024-06-06T23:30:00Z","geo":{"geometry":{"coordinates":[33.9968677,34.9884531],"type":"Point"},"placekey":"@6cc-n4j-ch5","address":{"country_code":"CY","formatted_address":"Katalymaton 10, Ayia Napa, Cyprus","locality":"Ayia Napa","region":"Ammochostos"}},"labels":["conference","science","technology"],"duration":12600,"start_local":"2024-06-07T02:30:00","end":"2024-06-07T03:00:00Z","end_local":"2024-06-07T06:00:00","updated":"2024-06-06T02:10:08Z"},{"title":"Мечты о Большом Городе","description":"Sourced from predicthq.com - Шедевры архитектуры модернизма близ Муниципального сада и пирса Энериос","category":"festivals","start":"2024-06-06T16:00:00Z","geo":{"geometry":{"coordinates":[33.0534038,34.6863894],"type":"Point"},"placekey":"@7yb-9f2-b49","address":{"country_code":"CY","formatted_address":"Arch. Makarios III Avenue, 3105 Limassol, Cyprus","locality":"Limassol","postcode":"3105","region":"Limassol"}},"labels":["festival","outdoor"],"duration":10800,"start_local":"2024-06-06T19:00:00","end":"2024-06-06T19:00:00Z","end_local":"2024-06-06T22:00:00","updated":"2024-06-06T04:31:21Z"},{"title":"Election for European Parliament Cyprus","description":"Sourced from predicthq.com - The European Parliament election will take place over four days, from June 6th to 9th, 2024.\nAt Stake in this Election:\n\nAll 720 seats in the European Union Parliament\n\nSeveral EU member states will also hold national elections (Belgian Chamber of Representatives, Bulgarian National Assembly) and local elections (Belgium, Cyprus, Ireland, Malta, Hungary, Romania).\nGovernment Structure: \n\nChief of State: European Commission President Ursula VON DER LEYEN (since 1 December 2019)\nHead of Government: President of the European Council Charles MICHEL (since 1 December 2019)\nAssembly: two legislative organs; the European Parliament (705 seats as of April 2024) and the Council of the European Union (27 seats)\n\nElectoral System: \n\nThe Council of the European Union is composed of heads of state or government from each of the 27 EU member states. \nMember states may choose their own electoral systems for European Parliament elections so long as they are based on proportional representation or the single transferable vote. Members serve 5-year renewable terms. By law, Parliament may contain up to 750 seats, and each member state is allocated 6 to 96 seats depending on its population. Seats are reapportioned each election, and 720 members will be elected in 2024 according to the following country divisions:\n\nGermany: 96 seats\nFrance: 81\nItaly: 76\nSpain: 61\nPoland: 53\nRomania: 33\nNetherlands: 31\nBelgium: 22\nGreece: 21\nCzechia: 21\nSweden: 21\nPortugal: 21\nHungary: 21\nAustria: 20\nBulgaria: 17\nDenmark: 15\nFinland: 15\nSlovakia: 15\nIreland: 14\nCroatia: 12\nLithuania: 11\nSlovenia: 9\nLatvia: 9\nEstonia: 7\nCyprus: 6\nLuxembourg: 6\nMalta: 6\n\n\n\nLast Election:\nIn 2019, the European People’s Party (Christian Democrats) won the largest share of seats with 182. Voter turnout was 50.97%.\nInformation for Voters:\nHow to vote (available in 24 languages)\nNew/Unique in this Election: \n720 seats will be contested in the 2024 EU Parliament election, down from 750 in the 2019 election but up from 705 active members as of April 2024.\nKey Deadlines:\n\nCandidate filing deadline:  Varies by member state\nVoter registration deadline: Varies by member state\n\nMain Parties in this Election:\n\nEuropean People’s Party / Christian Democrats (EPP)\n\nSeats won in last election: 177 out of 705\n\n\nProgressive Alliance of Socialists and Democrats (S&D)\n\nSeats won in last election: 140 out of 705\n\n\nRenew Europe\n\nSeats won in last election: 102 out of 705\n\n\nGreens/European Free Alliance\n\nSeats won in last election: 72 out of 705\n\n\nEuropean Conservatives and Reformists\n\nSeats won in last election: 68 out of 705\n\n\nIdentity and Democracy\n\nSeats won in last election: 59 out of 705\n\n\nThe Left – GUE/NGL\n\nSeats won in last election: 37 out of 705\n\n\n\nThere will also be independent/non-attached candidates, and 50 such candidates were elected in 2019.\nPopulation and Registered Voters:\n\nPopulation: 448,753,823 (2023)\n\nGender Data:\n\nFemale Population: 229,400,684 (2023)\nCEDAW Status: Not signed\nGender Quota:  Varies by member state; 11 member states have “binding” quotas that require a certain quantity of each gender to be elected, while an additional 10 member states require candidate lists to contain a certain proportion of candidates of different genders.\nFemale Candidates in this election: Yes\nNumber of Female Legislators (pre-election): 279 out of 705 (39.6%) in the EU Parliament\nHuman Development Index (HDI) Position: varies by member state \nSocial Institutions and Gender Index (SIGI) Categorization: Varies by member state\n\nDisability Data:\n\nCRPD Status: Signed 30 March 2007, Ratified 23 December 2010\nProjected population with a disability: 71,800,612 (2023 est.)\n\nIFES Resources:\n\nDoes IFES have a presence in the European Union: Yes, the IFES Regional Europe Office is located in the Czech Republic and coordinates programming in EU and non-EU countries  \nElection Snapshot: Yes","category":"politics","start":"2024-06-06T00:00:00Z","geo":{"geometry":{"coordinates":[33.429859,35.126413],"type":"Point"},"address":{"country_code":"CY","formatted_address":"Cyprus"}},"labels":["election","parliament","politics"],"duration":86399,"start_local":"2024-06-06T00:00:00","end":"2024-06-06T23:59:59Z","end_local":"2024-06-06T23:59:59","updated":"2024-06-12T01:34:28Z"},{"title":"Chris King - Elvis Tribute Artist, Radio Presenter and Restaurant Owner","description":"Sourced from predicthq.com","category":"community","start":"2024-06-05T17:30:00Z","geo":{"geometry":{"coordinates":[32.4072266,34.7749519],"type":"Point"},"placekey":"@7yb-4p5-9cq","address":{"country_code":"CY","formatted_address":"Tombs of the Kings Avenue, 8015 Chloraka, Cyprus","locality":"Chloraka","postcode":"8015","region":"Paphos"}},"labels":["concert","music"],"duration":0,"start_local":"2024-06-05T20:30:00","end":"2024-06-05T17:30:00Z","end_local":"2024-06-05T20:30:00","updated":"2024-06-04T02:57:02Z"},{"title":"Мечты о Большом Городе","description":"Sourced from predicthq.com - Шедевры архитектуры модернизма близ Муниципального сада и пирса Энериос","category":"festivals","start":"2024-06-04T16:00:00Z","geo":{"geometry":{"coordinates":[33.0534038,34.6863894],"type":"Point"},"placekey":"@7yb-9f2-b49","address":{"country_code":"CY","formatted_address":"Arch. Makarios III Avenue, 3105 Limassol, Cyprus","locality":"Limassol","postcode":"3105","region":"Limassol"}},"labels":["festival","outdoor"],"duration":9000,"start_local":"2024-06-04T19:00:00","end":"2024-06-04T18:30:00Z","end_local":"2024-06-04T21:30:00","updated":"2024-06-02T04:43:42Z"},{"title":"Brand You: Personal Branding for Professionals","description":"Sourced from predicthq.com - Designed to help you create a personal brand that resonates and captivates, making you seen, heard and unforgettable.","category":"conferences","start":"2024-06-04T07:00:00Z","geo":{"geometry":{"coordinates":[33.0233715,34.6919454],"type":"Point"},"placekey":"@7yb-9dy-rc5","address":{"country_code":"CY","formatted_address":"Vasileos Konstantinou, 3077 Limassol, Cyprus","locality":"Limassol","postcode":"3077","region":"Limassol"}},"labels":["business","conference"],"duration":28800,"start_local":"2024-06-04T10:00:00","end":"2024-06-04T15:00:00Z","end_local":"2024-06-04T18:00:00","updated":"2024-06-04T07:04:33Z"},{"title":"Chris King - Elvis Tribute Artist, Radio Presenter and Restaurant Owner","description":"Sourced from predicthq.com","category":"community","start":"2024-06-03T17:30:00Z","geo":{"geometry":{"coordinates":[32.4072266,34.7749519],"type":"Point"},"placekey":"@7yb-4p5-9cq","address":{"country_code":"CY","formatted_address":"Tombs of the Kings Avenue, 8015 Chloraka, Cyprus","locality":"Chloraka","postcode":"8015","region":"Paphos"}},"labels":["concert","music"],"duration":0,"start_local":"2024-06-03T20:30:00","end":"2024-06-03T17:30:00Z","end_local":"2024-06-03T20:30:00","updated":"2024-06-04T04:14:19Z"},{"title":"1 км Архитектуры","description":"Sourced from predicthq.com - Целый километр эстетических открытий и бурной истории Лимассола за последние полтора столетия","category":"festivals","start":"2024-06-03T16:00:00Z","geo":{"geometry":{"coordinates":[33.04404900000001,34.67494500000001],"type":"Point"},"placekey":"@7yb-9f6-5cq","address":{"country_code":"CY","formatted_address":"Kitiou Kyprianou, 3036 Limassol, Cyprus","locality":"Limassol","postcode":"3036","region":"Limassol"}},"labels":["festival","outdoor"],"duration":900,"start_local":"2024-06-03T19:00:00","end":"2024-06-03T16:15:00Z","end_local":"2024-06-03T19:15:00","updated":"2024-05-25T13:27:47Z"},{"title":"KotlinConf Global 2024, Cyprus","description":"Sourced from predicthq.com - Join us on June 3rd for the annual KotlinConf Global meetup!","category":"conferences","start":"2024-06-03T15:30:00Z","geo":{"geometry":{"coordinates":[33.0463464,34.6877582],"type":"Point"},"placekey":"@7yb-9f2-qpv","address":{"country_code":"CY","formatted_address":"Arch. Makarios III Avenue, 3030 Limassol, Cyprus","locality":"Limassol","postcode":"3030","region":"Limassol"}},"labels":["conference","science","technology"],"duration":12600,"start_local":"2024-06-03T18:30:00","end":"2024-06-03T19:00:00Z","end_local":"2024-06-03T22:00:00","updated":"2024-06-04T07:52:18Z"},{"title":"Scaleup: Competitive Differentiation for Business Growth in Cyprus & beyond","description":"Sourced from predicthq.com - It's easy to dominate the market when you're the only one. This workshop will help you outmanoeuvre the competition to do exactly that.","category":"conferences","start":"2024-06-03T07:00:00Z","geo":{"geometry":{"coordinates":[33.0233715,34.6919454],"type":"Point"},"placekey":"@7yb-9dy-rc5","address":{"country_code":"CY","formatted_address":"Vasileos Konstantinou, 3077 Limassol, Cyprus","locality":"Limassol","postcode":"3077","region":"Limassol"}},"labels":["business","conference"],"duration":28800,"start_local":"2024-06-03T10:00:00","end":"2024-06-03T15:00:00Z","end_local":"2024-06-03T18:00:00","updated":"2024-06-04T03:22:43Z"},{"title":"International Conference on Advanced Information Systems Engineering","description":"Sourced from predicthq.com","category":"conferences","start":"2024-06-03T06:00:00Z","geo":{"geometry":{"coordinates":[33.167392,34.712884],"type":"Point"},"placekey":"@7yb-9dt-9xq","address":{"country_code":"CY","formatted_address":"Amathountos Avenue 502, Pyrgos 4520, Cyprus","postcode":"4520","locality":"Pyrgos","region":"Limassol"}},"labels":["conference"],"duration":378000,"start_local":"2024-06-03T09:00:00","end":"2024-06-07T15:00:00Z","end_local":"2024-06-07T18:00:00","updated":"2024-05-27T09:22:43Z"},{"title":"Oceanvs Orientalis","description":"Sourced from predicthq.com","category":"concerts","start":"2024-06-02T17:30:00Z","geo":{"geometry":{"coordinates":[33.1725,35.35085],"type":"Point"},"placekey":"@6cc-4qd-gtv","address":{"country_code":"CY","formatted_address":"Fevzi Çakmak Caddesi, Celebrity Hotel Yanı, Lapta/Girne, Lapithos, Cyprus, Kyrenia, Cyprus","locality":"Kyrenia"}},"labels":["concert","music"],"duration":0,"start_local":"2024-06-02T20:30:00","end":"2024-06-02T17:30:00Z","end_local":"2024-06-02T20:30:00","updated":"2024-06-16T17:31:18Z"},{"title":"Sunset Sessions Pool Party","description":"Sourced from predicthq.com - Sunset Sessions Pool Party @ Fedrania Gardens Hotel Ayia Napa's Newest Pool Party","category":"community","start":"2024-06-02T13:00:00Z","geo":{"geometry":{"coordinates":[34.0002782,34.9887366],"type":"Point"},"placekey":"@6cc-n4h-wtv","address":{"country_code":"CY","formatted_address":"5330 Ayia Napa, Cyprus","locality":"Ayia Napa","postcode":"5330","region":"Gazimağusa"}},"labels":["concert","music"],"duration":21600,"start_local":"2024-06-02T16:00:00","end":"2024-06-02T19:00:00Z","end_local":"2024-06-02T22:00:00","updated":"2024-05-30T05:23:50Z"},{"title":"Renegade In Action by Redpoint","description":"Sourced from predicthq.com - Get ready to unleash your inner renegade at Renegade In Action, where we'll be breaking the rules, pushing boundaries, and making some epic","category":"community","start":"2024-06-02T07:30:00Z","geo":{"geometry":{"coordinates":[33.3602586,35.169813],"type":"Point"},"placekey":"@6cb-yft-d5f","address":{"country_code":"CY","formatted_address":"Κωνσταντίνου Παλαιολόγου, 1010 Lefkoşa, Cyprus","locality":"Lefkoşa","postcode":"1010"}},"labels":["community","sport"],"duration":19800,"start_local":"2024-06-02T10:30:00","end":"2024-06-02T13:00:00Z","end_local":"2024-06-02T16:00:00","updated":"2024-06-04T01:12:18Z"},{"title":"Yoga  Workshop \"Resilient I Am\"","description":"Sourced from predicthq.com - Join us for a powerful workshop where we combine yoga and coaching to help you discover just how resilient you truly are!","category":"conferences","start":"2024-06-01T10:30:00Z","geo":{"geometry":{"coordinates":[33.0588976,34.6905813],"type":"Point"},"placekey":"@7yb-9f3-73q","address":{"country_code":"CY","formatted_address":"Xenofontos Farmakidi, 3100 Limassol, Cyprus","locality":"Limassol","postcode":"3100","region":"Limassol"}},"labels":["conference","health"],"duration":7200,"start_local":"2024-06-01T13:30:00","end":"2024-06-01T12:30:00Z","end_local":"2024-06-01T15:30:00","updated":"2024-05-25T13:13:49Z"},{"title":"Agenda White party in Aqua Club","description":"Sourced from predicthq.com - Agenda White Party at Aqua Club","category":"community","start":"2024-05-31T23:30:00Z","geo":{"geometry":{"coordinates":[33.9968677,34.9884531],"type":"Point"},"placekey":"@6cc-n4j-ch5","address":{"country_code":"CY","formatted_address":"Katalymaton 10, Ayia Napa, Cyprus","locality":"Ayia Napa","region":"Ammochostos"}},"labels":["concert","music"],"duration":18000,"start_local":"2024-06-01T02:30:00","end":"2024-06-01T04:30:00Z","end_local":"2024-06-01T07:30:00","updated":"2024-06-05T04:52:52Z"},{"title":"0-2000 Cycling Challenge","description":"Sourced from predicthq.com","category":"sports","start":"2024-05-31T21:00:00Z","geo":{"geometry":{"coordinates":[33.0226174,34.7071301],"type":"Point"},"placekey":"@7yb-9f6-yqf","address":{"country_code":"CY","formatted_address":"3116 Limassol, Cyprus","locality":"Limassol","postcode":"3116","region":"Limassol"}},"labels":["outdoor-sports","running","sport"],"duration":172799,"start_local":"2024-06-01T00:00:00","end":"2024-06-02T20:59:59Z","end_local":"2024-06-02T23:59:59","updated":"2024-06-04T22:49:21Z"},{"title":"Chris King - Elvis Tribute Artist, Radio Presenter and Restaurant owner","description":"Sourced from predicthq.com","category":"community","start":"2024-05-31T17:30:00Z","geo":{"geometry":{"coordinates":[32.4217796,34.7753944],"type":"Point"},"placekey":"@7yb-4p4-ygk","address":{"country_code":"CY","formatted_address":"8010 Paphos, Cyprus","locality":"Paphos","postcode":"8010","region":"Paphos"}},"labels":["concert","music"],"duration":0,"start_local":"2024-05-31T20:30:00","end":"2024-05-31T17:30:00Z","end_local":"2024-05-31T20:30:00","updated":"2024-06-05T07:49:16Z"},{"title":"House of Tech","description":"Sourced from predicthq.com - House of Tech is a brand new event for summer 2024 and it’s what it says in the name..the only Techno night in Ayia Napa is here","category":"conferences","start":"2024-05-30T23:30:00Z","geo":{"geometry":{"coordinates":[33.9968677,34.9884531],"type":"Point"},"placekey":"@6cc-n4j-ch5","address":{"country_code":"CY","formatted_address":"Katalymaton 10, Ayia Napa, Cyprus","locality":"Ayia Napa","region":"Ammochostos"}},"labels":["conference","science","technology"],"duration":12600,"start_local":"2024-05-31T02:30:00","end":"2024-05-31T03:00:00Z","end_local":"2024-05-31T06:00:00","updated":"2024-06-02T03:38:29Z"},{"title":"Rebūke and Duvas","description":"Sourced from predicthq.com","category":"concerts","start":"2024-05-30T19:00:00Z","geo":{"geometry":{"coordinates":[33.364792,35.333928],"type":"Point"},"placekey":"@6cb-z32-rtv","address":{"country_code":"CY","formatted_address":"Cratos 9999 Kyrenia, Kyrenia, Cyprus, Kyrenia, Cyprus","locality":"Kyrenia"}},"labels":["concert","music"],"duration":0,"start_local":"2024-05-30T22:00:00","end":"2024-05-30T19:00:00Z","end_local":"2024-05-30T22:00:00","updated":"2024-06-14T00:21:37Z"},{"title":"Basket League - Final - AEK Larnaca vs Keravnos","description":"Sourced from predicthq.com","category":"sports","start":"2024-05-30T16:00:00Z","geo":{"geometry":{"coordinates":[33.598927,34.92333],"type":"Point"},"placekey":"@6cb-ynx-rc5","address":{"country_code":"CY","formatted_address":"Κολυμβητήριο ΓΣΖ, Larnaca, Cyprus","locality":"Larnaca","region":"Larnaca"}},"labels":["basketball","sport"],"duration":0,"start_local":"2024-05-30T19:00:00","end":"2024-05-30T16:00:00Z","end_local":"2024-05-30T19:00:00","updated":"2024-06-12T05:09:59Z"},{"title":"Island Conference","description":"Sourced from predicthq.com - Come together with digital marketing experts from around the world for the premier affiliate conference of the year!","category":"conferences","start":"2024-05-30T09:00:00Z","geo":{"geometry":{"coordinates":[33.0017189,34.6525739],"type":"Point"},"placekey":"@7yb-5p4-vxq","address":{"country_code":"CY","formatted_address":"3046 Limassol, Cyprus","locality":"Limassol","postcode":"3046","region":"Limassol"}},"labels":["conference","outdoor"],"duration":104400,"start_local":"2024-05-30T12:00:00","end":"2024-05-31T14:00:00Z","end_local":"2024-05-31T17:00:00","updated":"2024-06-05T08:28:42Z"},{"title":"Chris King - Elvis Tribute Artist, Radio Presenter and Restaurant Owner","description":"Sourced from predicthq.com","category":"community","start":"2024-05-29T17:30:00Z","geo":{"geometry":{"coordinates":[32.4072266,34.7749519],"type":"Point"},"placekey":"@7yb-4p5-9cq","address":{"country_code":"CY","formatted_address":"Tombs of the Kings Avenue, 8015 Chloraka, Cyprus","locality":"Chloraka","postcode":"8015","region":"Paphos"}},"labels":["concert","music"],"duration":0,"start_local":"2024-05-29T20:30:00","end":"2024-05-29T17:30:00Z","end_local":"2024-05-29T20:30:00","updated":"2024-06-05T02:19:27Z"},{"title":"Matete Martini in conversation with Filep Motwary","description":"Sourced from predicthq.com - An intimate conversation about the current exhibition \"HUG EACH OTHER AGAIN\" and the themes explored through Matete Martini's practice.","category":"conferences","start":"2024-05-28T16:00:00Z","geo":{"geometry":{"coordinates":[33.3867185,35.17105280000001],"type":"Point"},"placekey":"@6cb-yzv-cyv","address":{"country_code":"CY","formatted_address":"1046 Nicosia, Cyprus","locality":"Nicosia","postcode":"1046","region":"Nicosia"}},"labels":["conference","performing-arts"],"duration":3600,"start_local":"2024-05-28T19:00:00","end":"2024-05-28T17:00:00Z","end_local":"2024-05-28T20:00:00","updated":"2024-06-12T01:45:31Z"},{"title":"Building Connections-Empowering Growth Networking Event","description":"Sourced from predicthq.com - Boost the Business through the expansion of your Network and open doors for new business opportunities","category":"conferences","start":"2024-05-28T15:00:00Z","geo":{"geometry":{"coordinates":[33.0259109,34.6744967],"type":"Point"},"placekey":"@7yb-9f6-bx5","address":{"country_code":"CY","formatted_address":"Μισιαούλη & Καβάζογλου, 3016 Limasol, Cyprus","locality":"Limasol","postcode":"3016","region":"Limasol"}},"labels":["business","conference"],"duration":9000,"start_local":"2024-05-28T18:00:00","end":"2024-05-28T17:30:00Z","end_local":"2024-05-28T20:30:00","updated":"2024-06-05T08:42:10Z"},{"title":"Chris King - Elvis Tribute Artist, Radio Presenter and Restaurant Owner","description":"Sourced from predicthq.com","category":"community","start":"2024-05-27T17:30:00Z","geo":{"geometry":{"coordinates":[32.4072266,34.7749519],"type":"Point"},"placekey":"@7yb-4p5-9cq","address":{"country_code":"CY","formatted_address":"Tombs of the Kings Avenue, 8015 Chloraka, Cyprus","locality":"Chloraka","postcode":"8015","region":"Paphos"}},"labels":["concert","music"],"duration":0,"start_local":"2024-05-27T20:30:00","end":"2024-05-27T17:30:00Z","end_local":"2024-05-27T20:30:00","updated":"2024-06-05T05:10:51Z"},{"title":"Basket League - Final - Keravnos vs AEK Larnaca","description":"Sourced from predicthq.com","category":"sports","start":"2024-05-27T16:00:00Z","geo":{"geometry":{"coordinates":[33.338938,35.152214],"type":"Point"},"placekey":"@6cb-yfr-yy9","address":{"country_code":"CY","formatted_address":"Nicosia, Cyprus","locality":"Nicosia"}},"labels":["basketball","sport"],"duration":0,"start_local":"2024-05-27T19:00:00","end":"2024-05-27T16:00:00Z","end_local":"2024-05-27T19:00:00","updated":"2024-06-12T01:44:26Z"},{"title":"ISTQB® Foundation Exam and Training Course - Larnaca, Cyprus","description":"Sourced from predicthq.com - ISTQB® FOUNDATION TRAINING COURSE\nThe aim of this course is to provide you with the knowledge and skills to pass an exam","category":"conferences","start":"2024-05-27T06:00:00Z","geo":{"geometry":{"coordinates":[33.6231723,34.9002535],"type":"Point"},"placekey":"@6cc-ngw-fpv","address":{"country_code":"CY","formatted_address":"6029 Larnaca, Cyprus","locality":"Larnaca","postcode":"6029","region":"Larnaca"}},"labels":["business","conference"],"duration":27000,"start_local":"2024-05-27T09:00:00","end":"2024-05-27T13:30:00Z","end_local":"2024-05-27T16:30:00","updated":"2024-06-12T03:44:12Z"},{"title":"Sunset Sessions Pool Party","description":"Sourced from predicthq.com - Sunset Sessions Pool Party @ Fedrania Gardens Hotel Ayia Napa's Newest Pool Party","category":"community","start":"2024-05-26T13:00:00Z","geo":{"geometry":{"coordinates":[34.0002782,34.9887366],"type":"Point"},"placekey":"@6cc-n4h-wtv","address":{"country_code":"CY","formatted_address":"5330 Ayia Napa, Cyprus","locality":"Ayia Napa","postcode":"5330","region":"Gazimağusa"}},"labels":["concert","music"],"duration":21600,"start_local":"2024-05-26T16:00:00","end":"2024-05-26T19:00:00Z","end_local":"2024-05-26T22:00:00","updated":"2024-06-05T21:49:57Z"},{"title":"25 – 29 May Boot Camp","description":"Sourced from predicthq.com","category":"community","start":"2024-05-25T05:00:00Z","geo":{"geometry":{"coordinates":[33.34826,35.32988],"type":"Point"},"placekey":"@6cb-z38-bx5","address":{"country_code":"CY","region":"KY"}},"labels":["community","workshop"],"duration":378000,"start_local":"2024-05-25T08:00:00","end":"2024-05-29T14:00:00Z","end_local":"2024-05-29T17:00:00","updated":"2024-06-05T15:36:36Z"},{"title":"Chris King - Elvis Tribute Artist, Radio Presenter and Restaurant owner","description":"Sourced from predicthq.com","category":"community","start":"2024-05-24T17:30:00Z","geo":{"geometry":{"coordinates":[32.4217796,34.7753944],"type":"Point"},"placekey":"@7yb-4p4-ygk","address":{"country_code":"CY","formatted_address":"8010 Paphos, Cyprus","locality":"Paphos","postcode":"8010","region":"Paphos"}},"labels":["concert","music"],"duration":0,"start_local":"2024-05-24T20:30:00","end":"2024-05-24T17:30:00Z","end_local":"2024-05-24T20:30:00","updated":"2024-06-05T00:37:12Z"},{"title":"Basket League - Final - AEK Larnaca vs Keravnos","description":"Sourced from predicthq.com","category":"sports","start":"2024-05-23T16:00:00Z","geo":{"geometry":{"coordinates":[33.598927,34.92333],"type":"Point"},"placekey":"@6cb-ynx-rc5","address":{"country_code":"CY","formatted_address":"Κολυμβητήριο ΓΣΖ, Larnaca, Cyprus","locality":"Larnaca","region":"Larnaca"}},"labels":["basketball","sport"],"duration":0,"start_local":"2024-05-23T19:00:00","end":"2024-05-23T16:00:00Z","end_local":"2024-05-23T19:00:00","updated":"2024-06-12T16:04:46Z"},{"title":"Limassol Boat Show","description":"Sourced from predicthq.com","category":"expos","start":"2024-05-23T06:00:00Z","geo":{"geometry":{"coordinates":[33.040784,34.666904],"type":"Point"},"placekey":"@7yb-9f5-jqf","address":{"country_code":"CY","formatted_address":"Limassol, Cyprus","locality":"Limassol","region":"Limassol"}},"labels":["expo"],"duration":291600,"start_local":"2024-05-23T09:00:00","end":"2024-05-26T15:00:00Z","end_local":"2024-05-26T18:00:00","updated":"2024-06-05T21:45:38Z"},{"title":"Peace Within - Healing Retreat","description":"Sourced from predicthq.com","category":"community","start":"2024-05-23T06:00:00Z","geo":{"geometry":{"coordinates":[33.41008,34.75549],"type":"Point"},"placekey":"@6cc-mk6-n3q","address":{"country_code":"CY","formatted_address":"7730 Agios Theodoros Larnakas, Cyprus","locality":"Agios Theodoros Larnakas","postcode":"7730","region":"Larnaca"}},"labels":["community","health"],"duration":374400,"start_local":"2024-05-23T09:00:00","end":"2024-05-27T14:00:00Z","end_local":"2024-05-27T17:00:00","updated":"2024-06-05T05:36:27Z"},{"title":"The ICPAC Mediterranean Finance Summit","description":"Sourced from predicthq.com","category":"conferences","start":"2024-05-22T21:00:00Z","geo":{"geometry":{"coordinates":[33.129232,34.70898],"type":"Point"},"placekey":"@7yb-9dw-ht9","address":{"country_code":"CY","formatted_address":"Amathountos Avenue 67/69, Agios Tychon 4532, Cyprus","postcode":"4532","locality":"Agios Tychon","region":"Limassol"}},"labels":["conference"],"duration":172799,"start_local":"2024-05-23T00:00:00","end":"2024-05-24T20:59:59Z","end_local":"2024-05-24T23:59:59","updated":"2024-06-05T15:21:41Z"},{"title":"Chris King - Elvis Tribute Artist, Radio Presenter and Restaurant Owner","description":"Sourced from predicthq.com","category":"community","start":"2024-05-22T17:30:00Z","geo":{"geometry":{"coordinates":[32.4072266,34.7749519],"type":"Point"},"placekey":"@7yb-4p5-9cq","address":{"country_code":"CY","formatted_address":"Tombs of the Kings Avenue, 8015 Chloraka, Cyprus","locality":"Chloraka","postcode":"8015","region":"Paphos"}},"labels":["concert","music"],"duration":0,"start_local":"2024-05-22T20:30:00","end":"2024-05-22T17:30:00Z","end_local":"2024-05-22T20:30:00","updated":"2024-06-05T21:38:32Z"},{"title":"Nicosia Run","description":"Sourced from predicthq.com","category":"sports","start":"2024-05-22T16:45:00Z","geo":{"geometry":{"coordinates":[33.3822764,35.1855659],"type":"Point"},"placekey":"@6cb-yzv-3h5","address":{"country_code":"CY","formatted_address":"1022 Nicosia, Cyprus","locality":"Nicosia","postcode":"1022","region":"Nicosia"}},"labels":["outdoor-sports","running","sport"],"duration":0,"start_local":"2024-05-22T19:45:00","end":"2024-05-22T16:45:00Z","end_local":"2024-05-22T19:45:00","updated":"2024-06-05T14:33:06Z"},{"title":"Israel's Independence Day (Yom Ha'atzmaut)","description":"Sourced from predicthq.com - Join us for an event, to mark Israel's 76th Independence Day","category":"festivals","start":"2024-05-22T16:00:00Z","geo":{"geometry":{"coordinates":[33.3201314,35.128059],"type":"Point"},"placekey":"@6cb-yx2-g8v","address":{"country_code":"CY","formatted_address":"Αβραάμ Αντωνίου, 2330 Lakatamia, Cyprus","locality":"Lakatamia","postcode":"2330","region":"Nicosia"}},"labels":["community","festival"],"duration":10800,"start_local":"2024-05-22T19:00:00","end":"2024-05-22T19:00:00Z","end_local":"2024-05-22T22:00:00","updated":"2024-06-05T12:11:43Z"},{"title":"FIA Cyprus Product Focus Day","description":"Sourced from predicthq.com - Meet market leading manufacturers, find out about the latest solutions to industry issues and network with industry professionals.","category":"expos","start":"2024-05-22T06:30:00Z","geo":{"geometry":{"coordinates":[33.35790190000001,35.1558298],"type":"Point"},"placekey":"@6cb-yfr-g8v","address":{"country_code":"CY","formatted_address":"Arsinois, 2000 Strovolos, Cyprus","locality":"Strovolos","postcode":"2000","region":"Nicosia"}},"labels":["business","expo"],"duration":12600,"start_local":"2024-05-22T09:30:00","end":"2024-05-22T10:00:00Z","end_local":"2024-05-22T13:00:00","updated":"2024-06-05T18:46:58Z"},{"title":"Law Rocks! Cyprus","description":"Sourced from predicthq.com - We are delighted to be coming to Cyprus for first time! Join us for this special event at Cyprus Arbitration Day and witness legal rock star","category":"concerts","start":"2024-05-21T18:00:00Z","geo":{"geometry":{"coordinates":[33.0359437,34.6909098],"type":"Point"},"placekey":"@7yb-9dz-2tv","address":{"country_code":"CY","formatted_address":"Agias Filaxeos, 3087 Limassol, Cyprus","locality":"Limassol","postcode":"3087","region":"Limassol"}},"labels":["concert","music"],"duration":0,"start_local":"2024-05-21T21:00:00","end":"2024-05-21T18:00:00Z","end_local":"2024-05-21T21:00:00","updated":"2024-06-12T10:29:33Z"},{"title":"Louna","description":"Sourced from predicthq.com","category":"concerts","start":"2024-05-21T17:00:00Z","geo":{"geometry":{"coordinates":[33.0408,34.67343],"type":"Point"},"placekey":"@7yb-9f6-9j9","address":{"country_code":"CY","formatted_address":"Eleftherias 5, Limassol 3042, Cyprus","postcode":"3042","locality":"Limassol","region":"Limassol"}},"labels":["concert","music"],"duration":0,"start_local":"2024-05-21T20:00:00","end":"2024-05-21T17:00:00Z","end_local":"2024-05-21T20:00:00","updated":"2024-06-12T12:48:41Z"},{"title":"Chris King - Elvis Tribute Artist, Radio Presenter and Restaurant Owner","description":"Sourced from predicthq.com","category":"community","start":"2024-05-20T17:30:00Z","geo":{"geometry":{"coordinates":[32.4072266,34.7749519],"type":"Point"},"placekey":"@7yb-4p5-9cq","address":{"country_code":"CY","formatted_address":"Tombs of the Kings Avenue, 8015 Chloraka, Cyprus","locality":"Chloraka","postcode":"8015","region":"Paphos"}},"labels":["concert","music"],"duration":0,"start_local":"2024-05-20T20:30:00","end":"2024-05-20T17:30:00Z","end_local":"2024-05-20T20:30:00","updated":"2024-06-05T16:02:52Z"},{"title":"Indicators of achievement: The (re)birth of metricised learning","description":"Sourced from predicthq.com - Dr James Stanger, will be sharing his incredible insights on how to capture, track, and learn from learning artifacts.","category":"conferences","start":"2024-05-20T11:00:00Z","geo":{"geometry":{"coordinates":[33.3651515,35.12234609999999],"type":"Point"},"placekey":"@6cb-yfv-6c5","address":{"country_code":"CY","formatted_address":"Megaron, 2032 Strovolos, Cyprus","locality":"Strovolos","postcode":"2032","region":"Nicosia"}},"labels":["business","conference"],"duration":7200,"start_local":"2024-05-20T14:00:00","end":"2024-05-20T13:00:00Z","end_local":"2024-05-20T16:00:00","updated":"2024-06-05T17:07:39Z"},{"title":"Laura van Dam","description":"Sourced from predicthq.com","category":"concerts","start":"2024-05-19T16:00:00Z","geo":{"geometry":{"coordinates":[33.1079977,34.7025872],"type":"Point"},"placekey":"@7yb-9d9-mff","address":{"country_code":"CY","formatted_address":"Amathountos, Mouttagiaka 4531, Cyprus","postcode":"4531","locality":"Mouttagiaka","region":"Limassol"}},"labels":["concert","music"],"duration":0,"start_local":"2024-05-19T19:00:00","end":"2024-05-19T16:00:00Z","end_local":"2024-05-19T19:00:00","updated":"2024-06-16T00:11:40Z"},{"title":"Grendel Babies, x.ypno, Echo Wants Her Voice Back, and Saint December","description":"Sourced from predicthq.com","category":"concerts","start":"2024-05-19T14:00:00Z","geo":{"geometry":{"coordinates":[33.3822746,35.1855659],"type":"Point"},"placekey":"@6cb-yzv-3h5","address":{"country_code":"CY","formatted_address":"1022 Nicosia, Cyprus","locality":"Nicosia","postcode":"1022","region":"Nicosia"}},"labels":["concert","music"],"duration":0,"start_local":"2024-05-19T17:00:00","end":"2024-05-19T14:00:00Z","end_local":"2024-05-19T17:00:00","updated":"2024-06-12T01:02:10Z"},{"title":"Basket League - Final - Keravnos vs AEK Larnaca","description":"Sourced from predicthq.com","category":"sports","start":"2024-05-19T12:30:00Z","geo":{"geometry":{"coordinates":[33.338938,35.152214],"type":"Point"},"placekey":"@6cb-yfr-yy9","address":{"country_code":"CY","formatted_address":"Nicosia, Cyprus","locality":"Nicosia"}},"labels":["basketball","sport"],"duration":0,"start_local":"2024-05-19T15:30:00","end":"2024-05-19T12:30:00Z","end_local":"2024-05-19T15:30:00","updated":"2024-06-12T17:01:06Z"},{"title":"Solea Valley Farmers Market *May 2024*","description":"Sourced from predicthq.com - Organic*local*handmade market among the olive trees. Deejays and soundsystem, food and drinks, and plenty of smiles!","category":"festivals","start":"2024-05-19T08:00:00Z","geo":{"geometry":{"coordinates":[32.884514,35.0917531],"type":"Point"},"placekey":"@7yb-9kk-mrk","address":{"country_code":"CY","formatted_address":"2840 Skouriotissa, Cyprus","locality":"Skouriotissa","postcode":"2840","region":"Nicosia"}},"labels":["festival","food"],"duration":25200,"start_local":"2024-05-19T11:00:00","end":"2024-05-19T15:00:00Z","end_local":"2024-05-19T18:00:00","updated":"2024-06-05T14:45:18Z"},{"title":"Larnaca Triathlon","description":"Sourced from predicthq.com","category":"sports","start":"2024-05-19T05:00:00Z","geo":{"geometry":{"coordinates":[33.63886,34.8930241],"type":"Point"},"placekey":"@6cc-ngz-bhq","address":{"country_code":"CY","formatted_address":"Piyale Paşa, 6028 Larnaka, Cyprus","locality":"Larnaka","postcode":"6028","region":"Larnaka"}},"labels":["bicycle","outdoor-sports","running","sport","triathlon"],"duration":0,"start_local":"2024-05-19T08:00:00","end":"2024-05-19T05:00:00Z","end_local":"2024-05-19T08:00:00","updated":"2024-06-05T05:41:02Z"},{"title":"Satori","description":"Sourced from predicthq.com","category":"concerts","start":"2024-05-18T16:00:00Z","geo":{"geometry":{"coordinates":[33.0058505,34.602259],"type":"Point"},"placekey":"@7yb-5pm-fxq","address":{"country_code":"CY","formatted_address":"Lady's Mile, Limassol 3080, Cyprus","postcode":"3080","locality":"Limassol","region":"Akrotiri and Dhekelia"}},"labels":["concert","music"],"duration":0,"start_local":"2024-05-18T19:00:00","end":"2024-05-18T16:00:00Z","end_local":"2024-05-18T19:00:00","updated":"2024-06-12T09:40:17Z"},{"title":"Лимасол сквозь века","description":"Sourced from predicthq.com - Здания-символы Лимасола в уютных улочках старого города","category":"festivals","start":"2024-05-18T08:00:00Z","geo":{"geometry":{"coordinates":[33.0366031,34.6797398],"type":"Point"},"placekey":"@7yb-9f5-yjv","address":{"country_code":"CY","formatted_address":"Archiepiskopou Leontiou A, 3022 Limassol, Cyprus","locality":"Limassol","postcode":"3022","region":"Limassol"}},"labels":["festival","outdoor"],"duration":4500,"start_local":"2024-05-18T11:00:00","end":"2024-05-18T09:15:00Z","end_local":"2024-05-18T12:15:00","updated":"2024-06-05T06:27:59Z"},{"title":"Chris King - Elvis Tribute Artist, Radio Presenter and Restaurant owner","description":"Sourced from predicthq.com","category":"community","start":"2024-05-17T17:30:00Z","geo":{"geometry":{"coordinates":[32.4217796,34.7753944],"type":"Point"},"placekey":"@7yb-4p4-ygk","address":{"country_code":"CY","formatted_address":"8010 Paphos, Cyprus","locality":"Paphos","postcode":"8010","region":"Paphos"}},"labels":["concert","music"],"duration":0,"start_local":"2024-05-17T20:30:00","end":"2024-05-17T17:30:00Z","end_local":"2024-05-17T20:30:00","updated":"2024-06-03T20:27:54Z"},{"title":"TDVG Launch: Uniting Through Innovation, Mission, and Values","description":"Sourced from predicthq.com - An event to celebrate the launch of TDVG, briefly share our mission and values, and get to know each other over a fusion of bites and bytes.","category":"conferences","start":"2024-05-16T09:00:00Z","geo":{"geometry":{"coordinates":[33.32985169999999,35.164273],"type":"Point"},"placekey":"@6cb-yw4-3wk","address":{"country_code":"CY","formatted_address":"Nicholas Street, 2408 Egkomi Lefkosias, Cyprus","locality":"Egkomi Lefkosias","postcode":"2408","region":"Nicosia"}},"labels":["conference","science","technology"],"duration":0,"start_local":"2024-05-16T12:00:00","end":"2024-05-16T09:00:00Z","end_local":"2024-05-16T12:00:00","updated":"2024-06-04T22:41:14Z"},{"title":"Chris King - Elvis Tribute Artist, Radio Presenter and Restaurant Owner","description":"Sourced from predicthq.com","category":"community","start":"2024-05-15T17:30:00Z","geo":{"geometry":{"coordinates":[32.4072266,34.7749519],"type":"Point"},"placekey":"@7yb-4p5-9cq","address":{"country_code":"CY","formatted_address":"Tombs of the Kings Avenue, 8015 Chloraka, Cyprus","locality":"Chloraka","postcode":"8015","region":"Paphos"}},"labels":["concert","music"],"duration":0,"start_local":"2024-05-15T20:30:00","end":"2024-05-15T17:30:00Z","end_local":"2024-05-15T20:30:00","updated":"2024-06-01T17:32:30Z"},{"title":"Basket League - Final - AEK Larnaca vs Keravnos","description":"Sourced from predicthq.com","category":"sports","start":"2024-05-15T16:00:00Z","geo":{"geometry":{"coordinates":[33.598927,34.92333],"type":"Point"},"placekey":"@6cb-ynx-rc5","address":{"country_code":"CY","formatted_address":"Κολυμβητήριο ΓΣΖ, Larnaca, Cyprus","locality":"Larnaca","region":"Larnaca"}},"labels":["basketball","sport"],"duration":0,"start_local":"2024-05-15T19:00:00","end":"2024-05-15T16:00:00Z","end_local":"2024-05-15T19:00:00","updated":"2024-06-12T16:05:55Z"},{"title":"Chris King - Elvis Tribute Artist, Radio Presenter and Restaurant Owner","description":"Sourced from predicthq.com","category":"community","start":"2024-05-13T17:30:00Z","geo":{"geometry":{"coordinates":[32.4072266,34.7749519],"type":"Point"},"placekey":"@7yb-4p5-9cq","address":{"country_code":"CY","formatted_address":"Tombs of the Kings Avenue, 8015 Chloraka, Cyprus","locality":"Chloraka","postcode":"8015","region":"Paphos"}},"labels":["concert","music"],"duration":0,"start_local":"2024-05-13T20:30:00","end":"2024-05-13T17:30:00Z","end_local":"2024-05-13T20:30:00","updated":"2024-05-31T22:49:13Z"},{"title":"1. Division - Relegation Round - Apollon vs Othellos","description":"Sourced from predicthq.com","category":"sports","start":"2024-05-12T16:00:00Z","geo":{"geometry":{"coordinates":[32.93918961,34.693474872],"type":"Point"},"placekey":"@7yb-998-t9z","address":{"country_code":"CY","formatted_address":"MWVQ+8H2, Kolossi, Cyprus","locality":"Kolossi","region":"Limassol"}},"labels":["soccer","sport"],"duration":6925,"start_local":"2024-05-12T19:00:00","end":"2024-05-12T17:55:25Z","end_local":"2024-05-12T20:55:25","updated":"2024-06-05T04:33:34Z"},{"title":"1. Division - Relegation Round - Nea Salamis vs AE Zakakiou","description":"Sourced from predicthq.com","category":"sports","start":"2024-05-12T14:00:00Z","geo":{"geometry":{"coordinates":[33.61313760280609,34.929892280706085],"type":"Point"},"placekey":"@6cb-yp4-kfz","address":{"country_code":"CY","formatted_address":"Alexandros Raggavis 4, Lárnaka (Larnaca), Cyprus","locality":"Lárnaka (Larnaca)"}},"labels":["soccer","sport"],"duration":7235,"start_local":"2024-05-12T17:00:00","end":"2024-05-12T16:00:35Z","end_local":"2024-05-12T19:00:35","updated":"2024-06-05T13:21:39Z"},{"title":"Odou","description":"Sourced from predicthq.com","category":"sports","start":"2024-05-12T07:00:00Z","geo":{"geometry":{"coordinates":[33.1507464,34.8855322],"type":"Point"},"placekey":"@7yb-97w-fmk","address":{"country_code":"CY","formatted_address":"7718 Οδού, Cyprus","locality":"Οδού","postcode":"7718","region":"Larnaka"}},"labels":["outdoor-sports","running","sport"],"duration":0,"start_local":"2024-05-12T10:00:00","end":"2024-05-12T07:00:00Z","end_local":"2024-05-12T10:00:00","updated":"2024-06-05T02:33:36Z"},{"title":"1. Division - Championship Round - Pafos vs Omonia Nicosia","description":"Sourced from predicthq.com","category":"sports","start":"2024-05-11T16:00:00Z","geo":{"geometry":{"coordinates":[32.44012713432312,34.76918940862008],"type":"Point"},"placekey":"@7yb-4p6-v2k","address":{"country_code":"CY","formatted_address":"Michael Savva Ave 1, Paphos 8028, Cyprus","postcode":"8028","locality":"Paphos","region":"Paphos"}},"labels":["soccer","sport"],"duration":7153,"start_local":"2024-05-11T19:00:00","end":"2024-05-11T17:59:13Z","end_local":"2024-05-11T20:59:13","updated":"2024-06-05T11:02:54Z"},{"title":"1. Division - Championship Round - Anorthosis vs Aris Limassol","description":"Sourced from predicthq.com","category":"sports","start":"2024-05-11T16:00:00Z","geo":{"geometry":{"coordinates":[33.6207244,34.9374187],"type":"Point"},"placekey":"@6cb-yp4-rx5","address":{"country_code":"CY","formatted_address":"WJPC+W8V, Larnaca 6053, Cyprus","postcode":"6053","locality":"Larnaca","region":"Larnaca"}},"labels":["soccer","sport"],"duration":6903,"start_local":"2024-05-11T19:00:00","end":"2024-05-11T17:55:03Z","end_local":"2024-05-11T20:55:03","updated":"2024-06-05T03:38:28Z"},{"title":"1. Division - Championship Round - APOEL vs AEK Larnaca","description":"Sourced from predicthq.com","category":"sports","start":"2024-05-11T16:00:00Z","geo":{"geometry":{"coordinates":[33.3628402,35.1144171],"type":"Point"},"placekey":"@6cb-yfv-hkf","address":{"country_code":"CY","formatted_address":"Λεωφόρος Παγκυπρίων, Στρόβολος, Cyprus","locality":"Στρόβολος","region":"Λευκωσία"}},"labels":["soccer","sport"],"duration":7283,"start_local":"2024-05-11T19:00:00","end":"2024-05-11T18:01:23Z","end_local":"2024-05-11T21:01:23","updated":"2024-05-27T23:57:23Z"},{"title":"MEN & MONEY","description":"Sourced from predicthq.com - 90% of Men Will Never Achieve Their Dreams... Will You Be One of Them?","category":"conferences","start":"2024-05-11T07:00:00Z","geo":{"geometry":{"coordinates":[32.418889,34.754573],"type":"Point"},"placekey":"@7yb-4nx-djv","address":{"country_code":"CY","formatted_address":"Poseidonos Ave, Paphos, Cyprus","locality":"Paphos","region":"Paphos"}},"labels":["business","conference"],"duration":122400,"start_local":"2024-05-11T10:00:00","end":"2024-05-12T17:00:00Z","end_local":"2024-05-12T20:00:00","updated":"2024-06-05T07:27:44Z"},{"title":"Chris King - Elvis Tribute Artist, Radio Presenter and Restaurant owner","description":"Sourced from predicthq.com","category":"community","start":"2024-05-10T17:30:00Z","geo":{"geometry":{"coordinates":[32.4217796,34.7753944],"type":"Point"},"placekey":"@7yb-4p4-ygk","address":{"country_code":"CY","formatted_address":"8010 Paphos, Cyprus","locality":"Paphos","postcode":"8010","region":"Paphos"}},"labels":["concert","music"],"duration":0,"start_local":"2024-05-10T20:30:00","end":"2024-05-10T17:30:00Z","end_local":"2024-05-10T20:30:00","updated":"2024-05-27T17:58:10Z"},{"title":"Hooverphonic","description":"Sourced from predicthq.com","category":"concerts","start":"2024-05-10T17:30:00Z","geo":{"geometry":{"coordinates":[33.1887376,34.718747],"type":"Point"},"placekey":"@6cc-mgt-y7q","address":{"country_code":"CY","formatted_address":"P59Q+FFX, Pyrgos 4534, Cyprus","postcode":"4534","locality":"Pyrgos","region":"Limassol"}},"labels":["concert","music"],"duration":0,"start_local":"2024-05-10T20:30:00","end":"2024-05-10T17:30:00Z","end_local":"2024-05-10T20:30:00","updated":"2024-06-12T01:26:31Z"},{"title":"1. Division - Relegation Round - AEL vs Karmiotissa","description":"Sourced from predicthq.com","category":"sports","start":"2024-05-10T16:00:00Z","geo":{"geometry":{"coordinates":[32.93918961,34.693474872],"type":"Point"},"placekey":"@7yb-998-t9z","address":{"country_code":"CY","formatted_address":"MWVQ+8H2, Kolossi, Cyprus","locality":"Kolossi","region":"Limassol"}},"labels":["soccer","sport"],"duration":7052,"start_local":"2024-05-10T19:00:00","end":"2024-05-10T17:57:32Z","end_local":"2024-05-10T20:57:32","updated":"2024-06-05T01:38:55Z"},{"title":"1. Division - Relegation Round - Doxa vs Ethnikos Achna","description":"Sourced from predicthq.com","category":"sports","start":"2024-05-10T14:00:00Z","geo":{"geometry":{"coordinates":[33.08383584022522,35.129394496346904],"type":"Point"},"placekey":"@6cc-4kc-jqf","address":{"country_code":"CY","formatted_address":"Stadiou 12, Peristerona, Cyprus","locality":"Peristerona"}},"labels":["soccer","sport"],"duration":7019,"start_local":"2024-05-10T17:00:00","end":"2024-05-10T15:56:59Z","end_local":"2024-05-10T18:56:59","updated":"2024-06-05T06:12:14Z"},{"title":"Basket League - Semi-finals - Anorthosis Famagusta vs Keravnos","description":"Sourced from predicthq.com","category":"sports","start":"2024-05-09T16:00:00Z","geo":{"geometry":{"coordinates":[33.03313304915444,34.67685854593149],"type":"Point"},"placekey":"@7yb-9f5-zvf","address":{"country_code":"CY","formatted_address":"M2GM+R73, Αγίου Ανδρόνικου, Limassol 3020, Cyprus","postcode":"3020","locality":"Limassol","region":"Limassol"}},"labels":["basketball","sport"],"duration":0,"start_local":"2024-05-09T19:00:00","end":"2024-05-09T16:00:00Z","end_local":"2024-05-09T19:00:00","updated":"2024-06-12T10:51:27Z"},{"title":"Odoo Roadshow Nicosia","description":"Sourced from predicthq.com - Discover Odoo with our experts and partners in Nicosia!","category":"conferences","start":"2024-05-09T15:00:00Z","geo":{"geometry":{"coordinates":[33.3706046,35.1580449],"type":"Point"},"placekey":"@6cb-yft-2rk","address":{"country_code":"CY","formatted_address":"Petraki Giallourou 10, Street 1077, Cyprus","postcode":"1077","locality":"Street","region":"Nicosia"}},"labels":["business","conference"],"duration":10800,"start_local":"2024-05-09T18:00:00","end":"2024-05-09T18:00:00Z","end_local":"2024-05-09T21:00:00","updated":"2024-06-02T00:54:22Z"},{"title":"Chris King - Elvis Tribute Artist, Radio Presenter and Restaurant Owner","description":"Sourced from predicthq.com","category":"community","start":"2024-05-08T17:30:00Z","geo":{"geometry":{"coordinates":[32.4072266,34.7749519],"type":"Point"},"placekey":"@7yb-4p5-9cq","address":{"country_code":"CY","formatted_address":"Tombs of the Kings Avenue, 8015 Chloraka, Cyprus","locality":"Chloraka","postcode":"8015","region":"Paphos"}},"labels":["concert","music"],"duration":0,"start_local":"2024-05-08T20:30:00","end":"2024-05-08T17:30:00Z","end_local":"2024-05-08T20:30:00","updated":"2024-05-25T17:34:20Z"},{"title":"Basket League - Semi-finals - AEK Larnaca vs APOEL","description":"Sourced from predicthq.com","category":"sports","start":"2024-05-08T16:00:00Z","geo":{"geometry":{"coordinates":[33.598927,34.92333],"type":"Point"},"placekey":"@6cb-ynx-rc5","address":{"country_code":"CY","formatted_address":"Κολυμβητήριο ΓΣΖ, Larnaca, Cyprus","locality":"Larnaca","region":"Larnaca"}},"labels":["basketball","sport"],"duration":0,"start_local":"2024-05-08T19:00:00","end":"2024-05-08T16:00:00Z","end_local":"2024-05-08T19:00:00","updated":"2024-06-12T01:00:16Z"},{"title":"1. Division - Relegation Round - AE Zakakiou vs Apollon","description":"Sourced from predicthq.com","category":"sports","start":"2024-05-08T15:00:00Z","geo":{"geometry":{"coordinates":[33.61313760280609,34.929892280706085],"type":"Point"},"placekey":"@6cb-yp4-kfz","address":{"country_code":"CY","formatted_address":"Alexandros Raggavis 4, Lárnaka (Larnaca), Cyprus","locality":"Lárnaka (Larnaca)"}},"labels":["soccer","sport"],"duration":6736,"start_local":"2024-05-08T18:00:00","end":"2024-05-08T16:52:16Z","end_local":"2024-05-08T19:52:16","updated":"2024-06-05T00:48:48Z"},{"title":"1. Division - Relegation Round - Ethnikos Achna vs AEL","description":"Sourced from predicthq.com","category":"sports","start":"2024-05-07T16:00:00Z","geo":{"geometry":{"coordinates":[33.7646924,35.034081],"type":"Point"},"placekey":"@6cc-nm9-ffz","address":{"country_code":"CY","formatted_address":"Dasaki Achnas, Akrotiri and Dhekelia, Cyprus","locality":"Dasaki Achnas","region":"Akrotiri and Dhekelia"}},"labels":["soccer","sport"],"duration":6661,"start_local":"2024-05-07T19:00:00","end":"2024-05-07T17:51:01Z","end_local":"2024-05-07T20:51:01","updated":"2024-05-27T12:48:22Z"},{"title":"1. Division - Relegation Round - Othellos vs Doxa","description":"Sourced from predicthq.com","category":"sports","start":"2024-05-07T16:00:00Z","geo":{"geometry":{"coordinates":[33.61313760280609,34.929892280706085],"type":"Point"},"placekey":"@6cb-yp4-kfz","address":{"country_code":"CY","formatted_address":"Alexandros Raggavis 4, Lárnaka (Larnaca), Cyprus","locality":"Lárnaka (Larnaca)"}},"labels":["soccer","sport"],"duration":6767,"start_local":"2024-05-07T19:00:00","end":"2024-05-07T17:52:47Z","end_local":"2024-05-07T20:52:47","updated":"2024-06-05T06:49:59Z"},{"title":"1. Division - Relegation Round - Karmiotissa vs Nea Salamis","description":"Sourced from predicthq.com","category":"sports","start":"2024-05-07T16:00:00Z","geo":{"geometry":{"coordinates":[32.44012713432312,34.76918940862008],"type":"Point"},"placekey":"@7yb-4p6-v2k","address":{"country_code":"CY","formatted_address":"Michael Savva Ave 1, Paphos 8028, Cyprus","postcode":"8028","locality":"Paphos","region":"Paphos"}},"labels":["soccer","sport"],"duration":6865,"start_local":"2024-05-07T19:00:00","end":"2024-05-07T17:54:25Z","end_local":"2024-05-07T20:54:25","updated":"2024-06-05T05:20:32Z"},{"title":"Chris King - Elvis Tribute Artist, Radio Presenter and Restaurant Owner","description":"Sourced from predicthq.com","category":"community","start":"2024-05-06T17:30:00Z","geo":{"geometry":{"coordinates":[32.4072266,34.7749519],"type":"Point"},"placekey":"@7yb-4p5-9cq","address":{"country_code":"CY","formatted_address":"Tombs of the Kings Avenue, 8015 Chloraka, Cyprus","locality":"Chloraka","postcode":"8015","region":"Paphos"}},"labels":["concert","music"],"duration":0,"start_local":"2024-05-06T20:30:00","end":"2024-05-06T17:30:00Z","end_local":"2024-05-06T20:30:00","updated":"2024-05-23T17:32:01Z"},{"title":"Anatolian Sessions","description":"Sourced from predicthq.com","category":"concerts","start":"2024-05-05T17:00:00Z","geo":{"geometry":{"coordinates":[33.1725,35.35085],"type":"Point"},"placekey":"@6cc-4qd-gtv","address":{"country_code":"CY","formatted_address":"Fevzi Çakmak Caddesi, Celebrity Hotel Yanı, Lapta/Girne, Lapithos, Cyprus, Kyrenia, Cyprus","locality":"Kyrenia"}},"labels":["concert","music"],"duration":0,"start_local":"2024-05-05T20:00:00","end":"2024-05-05T17:00:00Z","end_local":"2024-05-05T20:00:00","updated":"2024-06-12T00:17:57Z"},{"title":"Rugby Union Internationals - Friendlies 3 - Cyprus vs Malta","description":"Sourced from predicthq.com","category":"sports","start":"2024-05-04T11:00:00Z","geo":{"geometry":{"coordinates":[33.0228203,34.7009474],"type":"Point"},"placekey":"@7yb-9dz-h89","address":{"country_code":"CY","formatted_address":"Steliou Kiriakidi, Limassol 3080, Cyprus","postcode":"3080","locality":"Limassol","region":"Limassol"}},"labels":["rugby","sport"],"duration":0,"start_local":"2024-05-04T14:00:00","end":"2024-05-04T11:00:00Z","end_local":"2024-05-04T14:00:00","updated":"2024-06-12T06:42:20Z"},{"title":"Chris King - Elvis Tribute Artist, Radio Presenter and Restaurant owner","description":"Sourced from predicthq.com","category":"community","start":"2024-05-03T17:30:00Z","geo":{"geometry":{"coordinates":[32.4217796,34.7753944],"type":"Point"},"placekey":"@7yb-4p4-ygk","address":{"country_code":"CY","formatted_address":"8010 Paphos, Cyprus","locality":"Paphos","postcode":"8010","region":"Paphos"}},"labels":["concert","music"],"duration":0,"start_local":"2024-05-03T20:30:00","end":"2024-05-03T17:30:00Z","end_local":"2024-05-03T20:30:00","updated":"2024-06-05T01:58:22Z"},{"title":"Chris King - Elvis Tribute Artist, Radio Presenter and Restaurant Owner","description":"Sourced from predicthq.com","category":"community","start":"2024-05-01T17:30:00Z","geo":{"geometry":{"coordinates":[32.4072266,34.7749519],"type":"Point"},"placekey":"@7yb-4p5-9cq","address":{"country_code":"CY","formatted_address":"Tombs of the Kings Avenue, 8015 Chloraka, Cyprus","locality":"Chloraka","postcode":"8015","region":"Paphos"}},"labels":["concert","music"],"duration":0,"start_local":"2024-05-01T20:30:00","end":"2024-05-01T17:30:00Z","end_local":"2024-05-01T20:30:00","updated":"2024-06-05T04:08:46Z"},{"title":"Basket League - Semi-finals - Keravnos vs Anorthosis Famagusta","description":"Sourced from predicthq.com","category":"sports","start":"2024-05-01T16:00:00Z","geo":{"geometry":{"coordinates":[33.338938,35.152214],"type":"Point"},"placekey":"@6cb-yfr-yy9","address":{"country_code":"CY","formatted_address":"Nicosia, Cyprus","locality":"Nicosia"}},"labels":["basketball","sport"],"duration":0,"start_local":"2024-05-01T19:00:00","end":"2024-05-01T16:00:00Z","end_local":"2024-05-01T19:00:00","updated":"2024-06-12T00:30:19Z"},{"title":"Basket League - Semi-finals - APOEL vs AEK Larnaca","description":"Sourced from predicthq.com","category":"sports","start":"2024-04-30T16:00:00Z","geo":{"geometry":{"coordinates":[33.3155553,35.1476287],"type":"Point"},"placekey":"@6cb-yw2-mff","address":{"country_code":"CY","formatted_address":"Lefkotheou, Nicosia, Cyprus","locality":"Nicosia","region":"Nicosia"}},"labels":["basketball","sport"],"duration":0,"start_local":"2024-04-30T19:00:00","end":"2024-04-30T16:00:00Z","end_local":"2024-04-30T19:00:00","updated":"2024-06-12T10:20:57Z"},{"title":"Chris King - Elvis Tribute Artist, Radio Presenter and Restaurant Owner","description":"Sourced from predicthq.com","category":"community","start":"2024-04-29T17:30:00Z","geo":{"geometry":{"coordinates":[32.4072266,34.7749519],"type":"Point"},"placekey":"@7yb-4p5-9cq","address":{"country_code":"CY","formatted_address":"Tombs of the Kings Avenue, 8015 Chloraka, Cyprus","locality":"Chloraka","postcode":"8015","region":"Paphos"}},"labels":["concert","music"],"duration":0,"start_local":"2024-04-29T20:30:00","end":"2024-04-29T17:30:00Z","end_local":"2024-04-29T20:30:00","updated":"2024-06-05T03:58:43Z"},{"title":"1. Division - Relegation Round - Doxa vs AEL","description":"Sourced from predicthq.com","category":"sports","start":"2024-04-29T16:30:00Z","geo":{"geometry":{"coordinates":[33.08383584022522,35.129394496346904],"type":"Point"},"placekey":"@6cc-4kc-jqf","address":{"country_code":"CY","formatted_address":"Stadiou 12, Peristerona, Cyprus","locality":"Peristerona"}},"labels":["soccer","sport"],"duration":7269,"start_local":"2024-04-29T19:30:00","end":"2024-04-29T18:31:09Z","end_local":"2024-04-29T21:31:09","updated":"2024-06-05T07:43:30Z"},{"title":"1. Division - Relegation Round - Apollon vs Karmiotissa","description":"Sourced from predicthq.com","category":"sports","start":"2024-04-29T16:30:00Z","geo":{"geometry":{"coordinates":[32.93918961,34.693474872],"type":"Point"},"placekey":"@7yb-998-t9z","address":{"country_code":"CY","formatted_address":"MWVQ+8H2, Kolossi, Cyprus","locality":"Kolossi","region":"Limassol"}},"labels":["soccer","sport"],"duration":7293,"start_local":"2024-04-29T19:30:00","end":"2024-04-29T18:31:33Z","end_local":"2024-04-29T21:31:33","updated":"2024-06-05T07:44:13Z"},{"title":"1. Division - Relegation Round - Othellos vs AE Zakakiou","description":"Sourced from predicthq.com","category":"sports","start":"2024-04-29T14:00:00Z","geo":{"geometry":{"coordinates":[33.61313760280609,34.929892280706085],"type":"Point"},"placekey":"@6cb-yp4-kfz","address":{"country_code":"CY","formatted_address":"Alexandros Raggavis 4, Lárnaka (Larnaca), Cyprus","locality":"Lárnaka (Larnaca)"}},"labels":["soccer","sport"],"duration":6682,"start_local":"2024-04-29T17:00:00","end":"2024-04-29T15:51:22Z","end_local":"2024-04-29T18:51:22","updated":"2024-06-05T05:39:16Z"},{"title":"1. Division - Championship Round - Omonia Nicosia vs APOEL","description":"Sourced from predicthq.com","category":"sports","start":"2024-04-28T16:00:00Z","geo":{"geometry":{"coordinates":[33.3628402,35.1144171],"type":"Point"},"placekey":"@6cb-yfv-hkf","address":{"country_code":"CY","formatted_address":"Λεωφόρος Παγκυπρίων, Στρόβολος, Cyprus","locality":"Στρόβολος","region":"Λευκωσία"}},"labels":["soccer","sport"],"duration":6918,"start_local":"2024-04-28T19:00:00","end":"2024-04-28T17:55:18Z","end_local":"2024-04-28T20:55:18","updated":"2024-05-27T21:34:34Z"},{"title":"1. Division - Championship Round - AEK Larnaca vs Anorthosis","description":"Sourced from predicthq.com","category":"sports","start":"2024-04-28T16:00:00Z","geo":{"geometry":{"coordinates":[33.59774577207485,34.92621766105783],"type":"Point"},"placekey":"@6cb-ynx-zs5","address":{"country_code":"CY","formatted_address":"Lárnaka (Larnaca), Cyprus","locality":"Lárnaka (Larnaca) "}},"labels":["soccer","sport"],"duration":7202,"start_local":"2024-04-28T19:00:00","end":"2024-04-28T18:00:02Z","end_local":"2024-04-28T21:00:02","updated":"2024-06-05T19:05:45Z"},{"title":"1. Division - Championship Round - Aris Limassol vs Pafos","description":"Sourced from predicthq.com","category":"sports","start":"2024-04-28T16:00:00Z","geo":{"geometry":{"coordinates":[32.93918961,34.693474872],"type":"Point"},"placekey":"@7yb-998-t9z","address":{"country_code":"CY","formatted_address":"MWVQ+8H2, Kolossi, Cyprus","locality":"Kolossi","region":"Limassol"}},"labels":["soccer","sport"],"duration":6856,"start_local":"2024-04-28T19:00:00","end":"2024-04-28T17:54:16Z","end_local":"2024-04-28T20:54:16","updated":"2024-06-05T11:35:07Z"},{"title":"livadia","description":"Sourced from predicthq.com","category":"sports","start":"2024-04-28T07:00:00Z","geo":{"geometry":{"coordinates":[33.6280936,34.9547022],"type":"Point"},"placekey":"@6cc-ng5-4qf","address":{"country_code":"CY","formatted_address":"Agias Paraskevis, 7060 Livadia Larnakas, Cyprus","locality":"Livadia Larnakas","postcode":"7060","region":"Larnaca"}},"labels":["outdoor-sports","running","sport"],"duration":0,"start_local":"2024-04-28T10:00:00","end":"2024-04-28T07:00:00Z","end_local":"2024-04-28T10:00:00","updated":"2024-06-05T18:43:53Z"},{"title":"1. Division - Relegation Round - Nea Salamis vs Ethnikos Achna","description":"Sourced from predicthq.com","category":"sports","start":"2024-04-27T16:00:00Z","geo":{"geometry":{"coordinates":[33.61313760280609,34.929892280706085],"type":"Point"},"placekey":"@6cb-yp4-kfz","address":{"country_code":"CY","formatted_address":"Alexandros Raggavis 4, Lárnaka (Larnaca), Cyprus","locality":"Lárnaka (Larnaca)"}},"labels":["soccer","sport"],"duration":6739,"start_local":"2024-04-27T19:00:00","end":"2024-04-27T17:52:19Z","end_local":"2024-04-27T20:52:19","updated":"2024-06-05T07:50:12Z"},{"title":"Basket League - Semi-finals - Anorthosis Famagusta vs Keravnos","description":"Sourced from predicthq.com","category":"sports","start":"2024-04-27T15:00:00Z","geo":{"geometry":{"coordinates":[33.03313304915444,34.67685854593149],"type":"Point"},"placekey":"@7yb-9f5-zvf","address":{"country_code":"CY","formatted_address":"M2GM+R73, Αγίου Ανδρόνικου, Limassol 3020, Cyprus","postcode":"3020","locality":"Limassol","region":"Limassol"}},"labels":["basketball","sport"],"duration":0,"start_local":"2024-04-27T18:00:00","end":"2024-04-27T15:00:00Z","end_local":"2024-04-27T18:00:00","updated":"2024-06-11T23:40:37Z"},{"title":"Cyprus Music Video Festival","description":"Sourced from predicthq.com","category":"festivals","start":"2024-04-26T21:00:00Z","geo":{"geometry":{"coordinates":[33.0379258,34.6748699],"type":"Point"},"placekey":"@7yb-9f6-26k","address":{"country_code":"CY","formatted_address":"Eleftherias 132, Limassol 3042, Cyprus","postcode":"3042","locality":"Limassol","region":"Limassol"}},"labels":["festival","music"],"duration":86399,"start_local":"2024-04-27T00:00:00","end":"2024-04-27T20:59:59Z","end_local":"2024-04-27T23:59:59","updated":"2024-06-04T08:31:22Z"},{"title":"Basket League - Semi-finals - AEK Larnaca vs APOEL","description":"Sourced from predicthq.com","category":"sports","start":"2024-04-26T16:00:00Z","geo":{"geometry":{"coordinates":[33.598927,34.92333],"type":"Point"},"placekey":"@6cb-ynx-rc5","address":{"country_code":"CY","formatted_address":"Κολυμβητήριο ΓΣΖ, Larnaca, Cyprus","locality":"Larnaca","region":"Larnaca"}},"labels":["basketball","sport"],"duration":0,"start_local":"2024-04-26T19:00:00","end":"2024-04-26T16:00:00Z","end_local":"2024-04-26T19:00:00","updated":"2024-06-12T17:53:57Z"},{"title":"Giorgos Hatzinasios, Stefanos Korkolis, Sofia Manousaki, and 3 others","description":"Sourced from predicthq.com","category":"concerts","start":"2024-04-24T17:00:00Z","geo":{"geometry":{"coordinates":[32.4232559,34.7781255],"type":"Point"},"placekey":"@7yb-4p4-x5z","address":{"country_code":"CY","formatted_address":"Andrea Geroudi 18, Paphos 8010, Cyprus","postcode":"8010","locality":"Paphos","region":"Paphos"}},"labels":["concert","music"],"duration":0,"start_local":"2024-04-24T20:00:00","end":"2024-04-24T17:00:00Z","end_local":"2024-04-24T20:00:00","updated":"2024-06-12T04:33:47Z"},{"title":"1. Division - Relegation Round - AEL vs Nea Salamis","description":"Sourced from predicthq.com","category":"sports","start":"2024-04-24T16:00:00Z","geo":{"geometry":{"coordinates":[32.93918961,34.693474872],"type":"Point"},"placekey":"@7yb-998-t9z","address":{"country_code":"CY","formatted_address":"MWVQ+8H2, Kolossi, Cyprus","locality":"Kolossi","region":"Limassol"}},"labels":["soccer","sport"],"duration":7097,"start_local":"2024-04-24T19:00:00","end":"2024-04-24T17:58:17Z","end_local":"2024-04-24T20:58:17","updated":"2024-06-05T05:15:16Z"},{"title":"Elevating Employee Well-Being: Boosting Productivity and Happiness","description":"Sourced from predicthq.com - Women in tech connect and career networking events with top companies focusing on diversity and inclusion.","category":"conferences","start":"2024-04-24T15:30:00Z","geo":{"geometry":{"coordinates":[33.046503,34.6769187],"type":"Point"},"placekey":"@7yb-9f6-8n5","address":{"country_code":"CY","formatted_address":"Athinon, 3040 Limassol, Cyprus","locality":"Limassol","postcode":"3040","region":"Limassol"}},"labels":["conference","science","technology"],"duration":10800,"start_local":"2024-04-24T18:30:00","end":"2024-04-24T18:30:00Z","end_local":"2024-04-24T21:30:00","updated":"2024-06-05T20:13:29Z"},{"title":"1. Division - Relegation Round - Karmiotissa vs Othellos","description":"Sourced from predicthq.com","category":"sports","start":"2024-04-24T15:00:00Z","geo":{"geometry":{"coordinates":[32.44012713432312,34.76918940862008],"type":"Point"},"placekey":"@7yb-4p6-v2k","address":{"country_code":"CY","formatted_address":"Michael Savva Ave 1, Paphos 8028, Cyprus","postcode":"8028","locality":"Paphos","region":"Paphos"}},"labels":["soccer","sport"],"duration":7627,"start_local":"2024-04-24T18:00:00","end":"2024-04-24T17:07:07Z","end_local":"2024-04-24T20:07:07","updated":"2024-06-05T15:28:40Z"},{"title":"Giorgos Hatzinasios, Stefanos Korkolis, Sofia Manousaki, and 3 others","description":"Sourced from predicthq.com","category":"concerts","start":"2024-04-23T17:00:00Z","geo":{"geometry":{"coordinates":[32.4232559,34.7781255],"type":"Point"},"placekey":"@7yb-4p4-x5z","address":{"country_code":"CY","formatted_address":"Andrea Geroudi 18, Paphos 8010, Cyprus","postcode":"8010","locality":"Paphos","region":"Paphos"}},"labels":["concert","music"],"duration":0,"start_local":"2024-04-23T20:00:00","end":"2024-04-23T17:00:00Z","end_local":"2024-04-23T20:00:00","updated":"2024-06-11T23:48:30Z"},{"title":"1. Division - Relegation Round - AE Zakakiou vs Doxa","description":"Sourced from predicthq.com","category":"sports","start":"2024-04-23T16:00:00Z","geo":{"geometry":{"coordinates":[33.61313760280609,34.929892280706085],"type":"Point"},"placekey":"@6cb-yp4-kfz","address":{"country_code":"CY","formatted_address":"Alexandros Raggavis 4, Lárnaka (Larnaca), Cyprus","locality":"Lárnaka (Larnaca)"}},"labels":["soccer","sport"],"duration":6846,"start_local":"2024-04-23T19:00:00","end":"2024-04-23T17:54:06Z","end_local":"2024-04-23T20:54:06","updated":"2024-06-05T08:37:32Z"},{"title":"1. Division - Relegation Round - Ethnikos Achna vs Apollon","description":"Sourced from predicthq.com","category":"sports","start":"2024-04-23T14:00:00Z","geo":{"geometry":{"coordinates":[33.7646924,35.034081],"type":"Point"},"placekey":"@6cc-nm9-ffz","address":{"country_code":"CY","formatted_address":"Dasaki Achnas, Akrotiri and Dhekelia, Cyprus","locality":"Dasaki Achnas","region":"Akrotiri and Dhekelia"}},"labels":["soccer","sport"],"duration":6945,"start_local":"2024-04-23T17:00:00","end":"2024-04-23T15:55:45Z","end_local":"2024-04-23T18:55:45","updated":"2024-05-27T15:11:31Z"},{"title":"Marine Money Cyprus Forum","description":"Sourced from predicthq.com","category":"conferences","start":"2024-04-23T06:00:00Z","geo":{"geometry":{"coordinates":[33.129232,34.70898],"type":"Point"},"placekey":"@7yb-9dw-ht9","address":{"country_code":"CY","formatted_address":"Amathountos Avenue 67/69, Agios Tychon 4532, Cyprus","postcode":"4532","locality":"Agios Tychon","region":"Limassol"}},"labels":["conference"],"duration":32400,"start_local":"2024-04-23T09:00:00","end":"2024-04-23T15:00:00Z","end_local":"2024-04-23T18:00:00","updated":"2024-06-05T00:44:44Z"},{"title":"Basket League - Championship Round - AEL vs Keravnos","description":"Sourced from predicthq.com","category":"sports","start":"2024-04-22T16:00:00Z","geo":{"geometry":{"coordinates":[33.03313304915444,34.67685854593149],"type":"Point"},"placekey":"@7yb-9f5-zvf","address":{"country_code":"CY","formatted_address":"M2GM+R73, Αγίου Ανδρόνικου, Limassol 3020, Cyprus","postcode":"3020","locality":"Limassol","region":"Limassol"}},"labels":["basketball","sport"],"duration":0,"start_local":"2024-04-22T19:00:00","end":"2024-04-22T16:00:00Z","end_local":"2024-04-22T19:00:00","updated":"2024-06-12T09:47:09Z"},{"title":"ISTQB® Foundation Exam and Training Course - Larnaca, Cyprus","description":"Sourced from predicthq.com - ISTQB® FOUNDATION TRAINING COURSE\nThe aim of this course is to provide you with the knowledge and skills to pass an exam","category":"conferences","start":"2024-04-22T06:00:00Z","geo":{"geometry":{"coordinates":[33.6231723,34.9002535],"type":"Point"},"placekey":"@6cc-ngw-fpv","address":{"country_code":"CY","formatted_address":"6029 Larnaca, Cyprus","locality":"Larnaca","postcode":"6029","region":"Larnaca"}},"labels":["business","conference"],"duration":27000,"start_local":"2024-04-22T09:00:00","end":"2024-04-22T13:30:00Z","end_local":"2024-04-22T16:30:00","updated":"2024-06-12T03:39:45Z"},{"title":"1. Division - Championship Round - APOEL vs Aris Limassol","description":"Sourced from predicthq.com","category":"sports","start":"2024-04-21T16:30:00Z","geo":{"geometry":{"coordinates":[33.3628402,35.1144171],"type":"Point"},"placekey":"@6cb-yfv-hkf","address":{"country_code":"CY","formatted_address":"Λεωφόρος Παγκυπρίων, Στρόβολος, Cyprus","locality":"Στρόβολος","region":"Λευκωσία"}},"labels":["soccer","sport"],"duration":6661,"start_local":"2024-04-21T19:30:00","end":"2024-04-21T18:21:01Z","end_local":"2024-04-21T21:21:01","updated":"2024-05-27T18:40:09Z"},{"title":"1. Division - Championship Round - AEK Larnaca vs Omonia Nicosia","description":"Sourced from predicthq.com","category":"sports","start":"2024-04-21T16:00:00Z","geo":{"geometry":{"coordinates":[33.59774577207485,34.92621766105783],"type":"Point"},"placekey":"@6cb-ynx-zs5","address":{"country_code":"CY","formatted_address":"Lárnaka (Larnaca), Cyprus","locality":"Lárnaka (Larnaca) "}},"labels":["soccer","sport"],"duration":6793,"start_local":"2024-04-21T19:00:00","end":"2024-04-21T17:53:13Z","end_local":"2024-04-21T20:53:13","updated":"2024-06-05T08:04:10Z"},{"title":"1. Division - Championship Round - Pafos vs Anorthosis","description":"Sourced from predicthq.com","category":"sports","start":"2024-04-21T14:00:00Z","geo":{"geometry":{"coordinates":[32.44012713432312,34.76918940862008],"type":"Point"},"placekey":"@7yb-4p6-v2k","address":{"country_code":"CY","formatted_address":"Michael Savva Ave 1, Paphos 8028, Cyprus","postcode":"8028","locality":"Paphos","region":"Paphos"}},"labels":["soccer","sport"],"duration":7576,"start_local":"2024-04-21T17:00:00","end":"2024-04-21T16:06:16Z","end_local":"2024-04-21T19:06:16","updated":"2024-06-05T01:43:08Z"},{"title":"Basket League - Championship Round - AEK Larnaca vs Anorthosis Famagusta","description":"Sourced from predicthq.com","category":"sports","start":"2024-04-21T13:00:00Z","geo":{"geometry":{"coordinates":[33.598927,34.92333],"type":"Point"},"placekey":"@6cb-ynx-rc5","address":{"country_code":"CY","formatted_address":"Κολυμβητήριο ΓΣΖ, Larnaca, Cyprus","locality":"Larnaca","region":"Larnaca"}},"labels":["basketball","sport"],"duration":0,"start_local":"2024-04-21T16:00:00","end":"2024-04-21T13:00:00Z","end_local":"2024-04-21T16:00:00","updated":"2024-06-12T07:22:06Z"},{"title":"Paphos","description":"Sourced from predicthq.com","category":"sports","start":"2024-04-21T06:00:00Z","geo":{"geometry":{"coordinates":[32.4217786,34.7753949],"type":"Point"},"placekey":"@7yb-4p4-ygk","address":{"country_code":"CY","formatted_address":"8010 Paphos, Cyprus","locality":"Paphos","postcode":"8010","region":"Paphos"}},"labels":["outdoor-sports","running","sport"],"duration":0,"start_local":"2024-04-21T09:00:00","end":"2024-04-21T06:00:00Z","end_local":"2024-04-21T09:00:00","updated":"2024-06-04T23:10:17Z"},{"title":"1. Division - Relegation Round - Apollon vs AEL","description":"Sourced from predicthq.com","category":"sports","start":"2024-04-20T16:30:00Z","geo":{"geometry":{"coordinates":[32.93918961,34.693474872],"type":"Point"},"placekey":"@7yb-998-t9z","address":{"country_code":"CY","formatted_address":"MWVQ+8H2, Kolossi, Cyprus","locality":"Kolossi","region":"Limassol"}},"labels":["soccer","sport"],"duration":7012,"start_local":"2024-04-20T19:30:00","end":"2024-04-20T18:26:52Z","end_local":"2024-04-20T21:26:52","updated":"2024-06-05T18:43:09Z"},{"title":"1. Division - Relegation Round - AE Zakakiou vs Karmiotissa","description":"Sourced from predicthq.com","category":"sports","start":"2024-04-20T16:00:00Z","geo":{"geometry":{"coordinates":[33.61313760280609,34.929892280706085],"type":"Point"},"placekey":"@6cb-yp4-kfz","address":{"country_code":"CY","formatted_address":"Alexandros Raggavis 4, Lárnaka (Larnaca), Cyprus","locality":"Lárnaka (Larnaca)"}},"labels":["soccer","sport"],"duration":6980,"start_local":"2024-04-20T19:00:00","end":"2024-04-20T17:56:20Z","end_local":"2024-04-20T20:56:20","updated":"2024-06-05T14:43:11Z"},{"title":"Inner World by Kotnell – Art Exhibition in Limassol","description":"Sourced from predicthq.com - Explore Kotnell's Inner World through a captivating art exhibition that delves into the depths of creativity and emotion.","category":"expos","start":"2024-04-20T15:00:00Z","geo":{"geometry":{"coordinates":[33.0419459,34.67349720000001],"type":"Point"},"placekey":"@7yb-9f6-6zf","address":{"country_code":"CY","formatted_address":"Eleftherias, Limassol, Cyprus","locality":"Limassol","region":"Limassol"}},"labels":["expo","performing-arts"],"duration":14400,"start_local":"2024-04-20T18:00:00","end":"2024-04-20T19:00:00Z","end_local":"2024-04-20T22:00:00","updated":"2024-06-04T23:40:07Z"},{"title":"Percona University Limassol Open Source Databases Meetup 2024","description":"Sourced from predicthq.com - Percona University invites you to a free educational meetup about open-source database solutions.","category":"conferences","start":"2024-04-20T06:30:00Z","geo":{"geometry":{"coordinates":[33.0346035,34.6922191],"type":"Point"},"placekey":"@7yb-9dz-r6k","address":{"country_code":"CY","formatted_address":"Λυκάβου, 3086 Limassol, Cyprus","locality":"Limassol","postcode":"3086","region":"Limassol"}},"labels":["conference","science","technology"],"duration":19800,"start_local":"2024-04-20T09:30:00","end":"2024-04-20T12:00:00Z","end_local":"2024-04-20T15:00:00","updated":"2024-06-05T11:38:19Z"},{"title":"Pantheo Eye Center Annual Congress","description":"Sourced from predicthq.com","category":"conferences","start":"2024-04-20T06:00:00Z","geo":{"geometry":{"coordinates":[33.132359,34.708515],"type":"Point"},"placekey":"@7yb-9dw-sh5","address":{"country_code":"CY","formatted_address":"75 194 Amathus Avenue Amathounta Avenue, 4533 Agios Tychon, Cyprus","postcode":"4533","locality":"Agios Tychon","region":"Limassol"}},"labels":["conference"],"duration":118800,"start_local":"2024-04-20T09:00:00","end":"2024-04-21T15:00:00Z","end_local":"2024-04-21T18:00:00","updated":"2024-05-27T16:07:54Z"},{"title":"1. Division - Relegation Round - Doxa vs Nea Salamis","description":"Sourced from predicthq.com","category":"sports","start":"2024-04-19T16:00:00Z","geo":{"geometry":{"coordinates":[33.08383584022522,35.129394496346904],"type":"Point"},"placekey":"@6cc-4kc-jqf","address":{"country_code":"CY","formatted_address":"Stadiou 12, Peristerona, Cyprus","locality":"Peristerona"}},"labels":["soccer","sport"],"duration":6715,"start_local":"2024-04-19T19:00:00","end":"2024-04-19T17:51:55Z","end_local":"2024-04-19T20:51:55","updated":"2024-06-05T08:11:24Z"},{"title":"1. Division - Relegation Round - Othellos vs Ethnikos Achna","description":"Sourced from predicthq.com","category":"sports","start":"2024-04-19T16:00:00Z","geo":{"geometry":{"coordinates":[33.61313760280609,34.929892280706085],"type":"Point"},"placekey":"@6cb-yp4-kfz","address":{"country_code":"CY","formatted_address":"Alexandros Raggavis 4, Lárnaka (Larnaca), Cyprus","locality":"Lárnaka (Larnaca)"}},"labels":["soccer","sport"],"duration":6740,"start_local":"2024-04-19T19:00:00","end":"2024-04-19T17:52:20Z","end_local":"2024-04-19T20:52:20","updated":"2024-06-05T00:48:02Z"},{"title":"The Vision Forex Forum","description":"Sourced from predicthq.com","category":"conferences","start":"2024-04-18T21:00:00Z","geo":{"geometry":{"coordinates":[33.173807,34.711735],"type":"Point"},"placekey":"@7yb-9dt-bp9","address":{"country_code":"CY","formatted_address":"Old Limassol - Nicosia Road\nLimassol 4534\nCyprus","locality":"Limassol"}},"labels":["conference"],"duration":86399,"start_local":"2024-04-19T00:00:00","end":"2024-04-19T20:59:59Z","end_local":"2024-04-19T23:59:59","updated":"2024-06-02T04:30:46Z"},{"title":"Basket League - Championship Round - APOEL vs AEL","description":"Sourced from predicthq.com","category":"sports","start":"2024-04-18T16:00:00Z","geo":{"geometry":{"coordinates":[33.3155553,35.1476287],"type":"Point"},"placekey":"@6cb-yw2-mff","address":{"country_code":"CY","formatted_address":"Lefkotheou, Nicosia, Cyprus","locality":"Nicosia","region":"Nicosia"}},"labels":["basketball","sport"],"duration":0,"start_local":"2024-04-18T19:00:00","end":"2024-04-18T16:00:00Z","end_local":"2024-04-18T19:00:00","updated":"2024-06-12T17:47:53Z"},{"title":"АлоэВера","description":"Sourced from predicthq.com","category":"community","start":"2024-04-18T16:00:00Z","geo":{"geometry":{"coordinates":[33.04177,34.67403],"type":"Point"},"placekey":"@7yb-9f6-9cq","address":{"country_code":"CY","formatted_address":"Irinis 90, Limassol 3041, Cyprus","postcode":"3041","locality":"Limassol","region":"Limassol"}},"labels":["concert","music"],"duration":0,"start_local":"2024-04-18T19:00:00","end":"2024-04-18T16:00:00Z","end_local":"2024-04-18T19:00:00","updated":"2024-06-05T11:30:48Z"},{"title":"Ευρωεκλογές 2024: Αποφάσισε, ψήφισε, καθόρισε","description":"Sourced from predicthq.com - Συζήτηση και Πάνελ  με Υποψήφιους Ευρωβουλευτές | Debate and Panel Discussion with EU Parliament Candidates","category":"conferences","start":"2024-04-18T15:00:00Z","geo":{"geometry":{"coordinates":[33.3701279,35.1749407],"type":"Point"},"placekey":"@6cb-yft-m49","address":{"country_code":"CY","formatted_address":"Ammochostou, 1016 Nicosia, Cyprus","locality":"Nicosia","postcode":"1016"}},"labels":["conference"],"duration":7200,"start_local":"2024-04-18T18:00:00","end":"2024-04-18T17:00:00Z","end_local":"2024-04-18T20:00:00","updated":"2024-06-04T23:10:14Z"},{"title":"Rethinking how regulatory changes shape the Cyber landscape - Face to face","description":"Sourced from predicthq.com - The seminar will cover the main requirements and compliance with PSD2, DSA, NIS2 and DORA.","category":"conferences","start":"2024-04-18T06:00:00Z","geo":{"geometry":{"coordinates":[33.3620842,35.163764],"type":"Point"},"placekey":"@6cb-yft-skf","address":{"country_code":"CY","formatted_address":"24 Spyrou Kyprianou Avenue, Nicosia, Cyprus","locality":"Nicosia","region":"Lefkosia"}},"labels":["business","conference"],"duration":15300,"start_local":"2024-04-18T09:00:00","end":"2024-04-18T10:15:00Z","end_local":"2024-04-18T13:15:00","updated":"2024-06-05T02:07:15Z"},{"title":"Basket League - Championship Round - Keravnos vs AEK Larnaca","description":"Sourced from predicthq.com","category":"sports","start":"2024-04-17T16:30:00Z","geo":{"geometry":{"coordinates":[33.338938,35.152214],"type":"Point"},"placekey":"@6cb-yfr-yy9","address":{"country_code":"CY","formatted_address":"Nicosia, Cyprus","locality":"Nicosia"}},"labels":["basketball","sport"],"duration":0,"start_local":"2024-04-17T19:30:00","end":"2024-04-17T16:30:00Z","end_local":"2024-04-17T19:30:00","updated":"2024-06-12T13:03:39Z"},{"title":"Do I Want To Or Do I Have To?  How To Choose Yourself Over Stereotypes","description":"Sourced from predicthq.com - A TED-inspired talk for women with an international social psychologist, followed by interactive real-life case studies and a Q&A session","category":"conferences","start":"2024-04-17T16:00:00Z","geo":{"geometry":{"coordinates":[33.04407839999999,34.673454],"type":"Point"},"placekey":"@7yb-9f6-5mk","address":{"country_code":"CY","formatted_address":"3036 Limassol, Cyprus","locality":"Limassol","postcode":"3036","region":"Limassol"}},"labels":["conference"],"duration":0,"start_local":"2024-04-17T19:00:00","end":"2024-04-17T16:00:00Z","end_local":"2024-04-17T19:00:00","updated":"2024-06-05T07:48:13Z"},{"title":"Wine Tasting. FULLY BOOKED","description":"Sourced from predicthq.com","category":"community","start":"2024-04-17T15:30:00Z","geo":{"geometry":{"coordinates":[33.53671,35.34229],"type":"Point"},"placekey":"@6cb-wqp-6tv","address":{"country_code":"CY","region":"KY"}},"labels":["community","food"],"duration":0,"start_local":"2024-04-17T18:30:00","end":"2024-04-17T15:30:00Z","end_local":"2024-04-17T18:30:00","updated":"2024-06-05T10:35:42Z"},{"title":"Freedom Special 17 – 20 April Boot Camp","description":"Sourced from predicthq.com","category":"community","start":"2024-04-17T05:00:00Z","geo":{"geometry":{"coordinates":[33.34826,35.32988],"type":"Point"},"placekey":"@6cb-z38-bx5","address":{"country_code":"CY","region":"KY"}},"labels":["community","workshop"],"duration":291600,"start_local":"2024-04-17T08:00:00","end":"2024-04-20T14:00:00Z","end_local":"2024-04-20T17:00:00","updated":"2024-06-05T04:04:57Z"},{"title":"Basket League - Championship Round - Anorthosis Famagusta vs Apollon","description":"Sourced from predicthq.com","category":"sports","start":"2024-04-16T16:30:00Z","geo":{"geometry":{"coordinates":[33.03313304915444,34.67685854593149],"type":"Point"},"placekey":"@7yb-9f5-zvf","address":{"country_code":"CY","formatted_address":"M2GM+R73, Αγίου Ανδρόνικου, Limassol 3020, Cyprus","postcode":"3020","locality":"Limassol","region":"Limassol"}},"labels":["basketball","sport"],"duration":0,"start_local":"2024-04-16T19:30:00","end":"2024-04-16T16:30:00Z","end_local":"2024-04-16T19:30:00","updated":"2024-06-11T22:26:46Z"},{"title":"Finding Balance: Integrating Work, Life, and Play – Studio 72 by Yiota Zavou & MPMastermind","description":"Sourced from predicthq.com - Join us at Studio 72 for a workshop on finding balance in your life, work, and play with Yiota Zavou & MPMastermind!","category":"conferences","start":"2024-04-16T15:45:00Z","geo":{"geometry":{"coordinates":[33.0495027,34.6797681],"type":"Point"},"placekey":"@7yb-9f2-x89","address":{"country_code":"CY","formatted_address":"Agiou Andreou, 3035 Limassol, Cyprus","locality":"Limassol","postcode":"3035","region":"Limassol"}},"labels":["conference","health"],"duration":8100,"start_local":"2024-04-16T18:45:00","end":"2024-04-16T18:00:00Z","end_local":"2024-04-16T21:00:00","updated":"2024-06-05T02:00:58Z"},{"title":"The Power of Design Thinking: Transforming Ideas into Outcomes","description":"Sourced from predicthq.com - The face to face seminar is crafted to demystify the process of turning abstract ideas into tangible results.","category":"conferences","start":"2024-04-16T06:00:00Z","geo":{"geometry":{"coordinates":[33.3620842,35.163764],"type":"Point"},"placekey":"@6cb-yft-skf","address":{"country_code":"CY","formatted_address":"24 Spyrou Kyprianou Avenue, Nicosia, Cyprus","locality":"Nicosia","region":"Lefkosia"}},"labels":["business","conference"],"duration":30600,"start_local":"2024-04-16T09:00:00","end":"2024-04-16T14:30:00Z","end_local":"2024-04-16T17:30:00","updated":"2024-06-05T12:33:38Z"},{"title":"Society of Trust and Estate Practitioners Europe Conference","description":"Sourced from predicthq.com","category":"conferences","start":"2024-04-16T06:00:00Z","geo":{"geometry":{"coordinates":[33.129232,34.70898],"type":"Point"},"placekey":"@7yb-9dw-ht9","address":{"country_code":"CY","formatted_address":"Amathountos Avenue 67/69, Agios Tychon 4532, Cyprus","postcode":"4532","locality":"Agios Tychon","region":"Limassol"}},"labels":["conference"],"duration":32400,"start_local":"2024-04-16T09:00:00","end":"2024-04-16T15:00:00Z","end_local":"2024-04-16T18:00:00","updated":"2024-06-04T09:29:40Z"},{"title":"Balkan League - Final - Prishtina vs AEL","description":"Sourced from predicthq.com","category":"sports","start":"2024-04-14T17:30:00Z","geo":{"geometry":{"coordinates":[33.026307,34.669754],"type":"Point"},"placekey":"@7yb-9f6-dqf","address":{"country_code":"CY","formatted_address":"Μόρφου 9A, Limassol 3012, Cyprus","postcode":"3012","locality":"Limassol","region":"Limassol"}},"labels":["basketball","sport"],"duration":0,"start_local":"2024-04-14T20:30:00","end":"2024-04-14T17:30:00Z","end_local":"2024-04-14T20:30:00","updated":"2024-06-12T02:38:14Z"},{"title":"1. Division - Championship Round - Anorthosis vs Omonia Nicosia","description":"Sourced from predicthq.com","category":"sports","start":"2024-04-14T16:30:00Z","geo":{"geometry":{"coordinates":[33.6207244,34.9374187],"type":"Point"},"placekey":"@6cb-yp4-rx5","address":{"country_code":"CY","formatted_address":"WJPC+W8V, Larnaca 6053, Cyprus","postcode":"6053","locality":"Larnaca","region":"Larnaca"}},"labels":["soccer","sport"],"duration":7302,"start_local":"2024-04-14T19:30:00","end":"2024-04-14T18:31:42Z","end_local":"2024-04-14T21:31:42","updated":"2024-06-05T00:45:36Z"},{"title":"1. Division - Championship Round - Aris Limassol vs AEK Larnaca","description":"Sourced from predicthq.com","category":"sports","start":"2024-04-14T16:00:00Z","geo":{"geometry":{"coordinates":[32.93918961,34.693474872],"type":"Point"},"placekey":"@7yb-998-t9z","address":{"country_code":"CY","formatted_address":"MWVQ+8H2, Kolossi, Cyprus","locality":"Kolossi","region":"Limassol"}},"labels":["soccer","sport"],"duration":7441,"start_local":"2024-04-14T19:00:00","end":"2024-04-14T18:04:01Z","end_local":"2024-04-14T21:04:01","updated":"2024-06-05T06:57:52Z"},{"title":"Balkan League - 3rd Place Final - Peja vs Lovćen","description":"Sourced from predicthq.com","category":"sports","start":"2024-04-14T15:00:00Z","geo":{"geometry":{"coordinates":[33.026307,34.669754],"type":"Point"},"placekey":"@7yb-9f6-dqf","address":{"country_code":"CY","formatted_address":"Μόρφου 9A, Limassol 3012, Cyprus","postcode":"3012","locality":"Limassol","region":"Limassol"}},"labels":["basketball","sport"],"duration":0,"start_local":"2024-04-14T18:00:00","end":"2024-04-14T15:00:00Z","end_local":"2024-04-14T18:00:00","updated":"2024-06-12T02:10:42Z"},{"title":"1. Division - Championship Round - Pafos vs APOEL","description":"Sourced from predicthq.com","category":"sports","start":"2024-04-14T14:00:00Z","geo":{"geometry":{"coordinates":[32.44012713432312,34.76918940862008],"type":"Point"},"placekey":"@7yb-4p6-v2k","address":{"country_code":"CY","formatted_address":"Michael Savva Ave 1, Paphos 8028, Cyprus","postcode":"8028","locality":"Paphos","region":"Paphos"}},"labels":["soccer","sport"],"duration":7272,"start_local":"2024-04-14T17:00:00","end":"2024-04-14T16:01:12Z","end_local":"2024-04-14T19:01:12","updated":"2024-06-05T01:39:49Z"},{"title":"Solea Valley Farmers Market *April 2024*","description":"Sourced from predicthq.com - Choose organic*local*handmade products, come browse through the stalls in our beautiful olive grove, accompanied by sweet musical vibes!","category":"festivals","start":"2024-04-14T08:00:00Z","geo":{"geometry":{"coordinates":[32.885038,35.0916578],"type":"Point"},"placekey":"@7yb-9kk-mrk","address":{"country_code":"CY","formatted_address":"2840 Skouriotissa, Cyprus","locality":"Skouriotissa","postcode":"2840","region":"Nicosia"}},"labels":["festival"],"duration":21600,"start_local":"2024-04-14T11:00:00","end":"2024-04-14T14:00:00Z","end_local":"2024-04-14T17:00:00","updated":"2024-06-05T01:01:57Z"},{"title":"Bedrock Gravelfest Cyprus","description":"Sourced from predicthq.com","category":"sports","start":"2024-04-13T21:00:00Z","geo":{"geometry":{"coordinates":[33.3205544,34.7684659],"type":"Point"},"placekey":"@6cc-mh3-rzf","address":{"country_code":"CY","formatted_address":"7740 Tochni, Cyprus","locality":"Tochni","postcode":"7740","region":"Larnaca"}},"labels":["outdoor-sports","running","sport"],"duration":518399,"start_local":"2024-04-14T00:00:00","end":"2024-04-19T20:59:59Z","end_local":"2024-04-19T23:59:59","updated":"2024-06-05T17:08:35Z"},{"title":"1. Division - Relegation Round - Ethnikos Achna vs AE Zakakiou","description":"Sourced from predicthq.com","category":"sports","start":"2024-04-13T16:00:00Z","geo":{"geometry":{"coordinates":[33.7646924,35.034081],"type":"Point"},"placekey":"@6cc-nm9-ffz","address":{"country_code":"CY","formatted_address":"Dasaki Achnas, Akrotiri and Dhekelia, Cyprus","locality":"Dasaki Achnas","region":"Akrotiri and Dhekelia"}},"labels":["soccer","sport"],"duration":7767,"start_local":"2024-04-13T19:00:00","end":"2024-04-13T18:09:27Z","end_local":"2024-04-13T21:09:27","updated":"2024-05-27T10:33:40Z"},{"title":"1. Division - Relegation Round - Karmiotissa vs Doxa","description":"Sourced from predicthq.com","category":"sports","start":"2024-04-13T15:00:00Z","geo":{"geometry":{"coordinates":[32.44012713432312,34.76918940862008],"type":"Point"},"placekey":"@7yb-4p6-v2k","address":{"country_code":"CY","formatted_address":"Michael Savva Ave 1, Paphos 8028, Cyprus","postcode":"8028","locality":"Paphos","region":"Paphos"}},"labels":["soccer","sport"],"duration":7167,"start_local":"2024-04-13T18:00:00","end":"2024-04-13T16:59:27Z","end_local":"2024-04-13T19:59:27","updated":"2024-06-05T11:11:09Z"},{"title":"1. Division - Relegation Round - Nea Salamis vs Apollon","description":"Sourced from predicthq.com","category":"sports","start":"2024-04-13T14:00:00Z","geo":{"geometry":{"coordinates":[33.61313760280609,34.929892280706085],"type":"Point"},"placekey":"@6cb-yp4-kfz","address":{"country_code":"CY","formatted_address":"Alexandros Raggavis 4, Lárnaka (Larnaca), Cyprus","locality":"Lárnaka (Larnaca)"}},"labels":["soccer","sport"],"duration":6899,"start_local":"2024-04-13T17:00:00","end":"2024-04-13T15:54:59Z","end_local":"2024-04-13T18:54:59","updated":"2024-06-05T13:37:45Z"},{"title":"OPAP Limassol Marathon","description":"Sourced from predicthq.com","category":"sports","start":"2024-04-13T08:30:00Z","geo":{"geometry":{"coordinates":[33.0413055,34.6786322],"type":"Point"},"placekey":"@7yb-9f6-8gk","address":{"country_code":"CY","formatted_address":"3025 Limasol, Cyprus","locality":"Limasol","postcode":"3025","region":"Limasol"}},"labels":["marathon","outdoor-sports","running","sport"],"duration":0,"start_local":"2024-04-13T11:30:00","end":"2024-04-13T08:30:00Z","end_local":"2024-04-13T11:30:00","updated":"2024-06-12T09:35:39Z"},{"title":"13 – 17 April Boot Camp","description":"Sourced from predicthq.com","category":"community","start":"2024-04-13T05:00:00Z","geo":{"geometry":{"coordinates":[33.34826,35.32988],"type":"Point"},"placekey":"@6cb-z38-bx5","address":{"country_code":"CY","region":"KY"}},"labels":["community","workshop"],"duration":378000,"start_local":"2024-04-13T08:00:00","end":"2024-04-17T14:00:00Z","end_local":"2024-04-17T17:00:00","updated":"2024-06-04T23:06:05Z"},{"title":"Balkan League - Semi-finals - AEL vs Peja","description":"Sourced from predicthq.com","category":"sports","start":"2024-04-12T17:30:00Z","geo":{"geometry":{"coordinates":[33.026307,34.669754],"type":"Point"},"placekey":"@7yb-9f6-dqf","address":{"country_code":"CY","formatted_address":"Μόρφου 9A, Limassol 3012, Cyprus","postcode":"3012","locality":"Limassol","region":"Limassol"}},"labels":["basketball","sport"],"duration":0,"start_local":"2024-04-12T20:30:00","end":"2024-04-12T17:30:00Z","end_local":"2024-04-12T20:30:00","updated":"2024-06-12T13:03:35Z"},{"title":"1. Division - Relegation Round - AEL vs Othellos","description":"Sourced from predicthq.com","category":"sports","start":"2024-04-12T16:00:00Z","geo":{"geometry":{"coordinates":[32.93918961,34.693474872],"type":"Point"},"placekey":"@7yb-998-t9z","address":{"country_code":"CY","formatted_address":"MWVQ+8H2, Kolossi, Cyprus","locality":"Kolossi","region":"Limassol"}},"labels":["soccer","sport"],"duration":7004,"start_local":"2024-04-12T19:00:00","end":"2024-04-12T17:56:44Z","end_local":"2024-04-12T20:56:44","updated":"2024-06-05T06:00:18Z"},{"title":"Balkan League - Semi-finals - Prishtina vs Lovćen","description":"Sourced from predicthq.com","category":"sports","start":"2024-04-12T15:00:00Z","geo":{"geometry":{"coordinates":[33.026307,34.669754],"type":"Point"},"placekey":"@7yb-9f6-dqf","address":{"country_code":"CY","formatted_address":"Μόρφου 9A, Limassol 3012, Cyprus","postcode":"3012","locality":"Limassol","region":"Limassol"}},"labels":["basketball","sport"],"duration":0,"start_local":"2024-04-12T18:00:00","end":"2024-04-12T15:00:00Z","end_local":"2024-04-12T18:00:00","updated":"2024-06-12T09:58:39Z"},{"title":"Basket League - Championship Round - AEK Larnaca vs APOEL","description":"Sourced from predicthq.com","category":"sports","start":"2024-04-11T16:00:00Z","geo":{"geometry":{"coordinates":[33.598927,34.92333],"type":"Point"},"placekey":"@6cb-ynx-rc5","address":{"country_code":"CY","formatted_address":"Κολυμβητήριο ΓΣΖ, Larnaca, Cyprus","locality":"Larnaca","region":"Larnaca"}},"labels":["basketball","sport"],"duration":0,"start_local":"2024-04-11T19:00:00","end":"2024-04-11T16:00:00Z","end_local":"2024-04-11T19:00:00","updated":"2024-06-12T15:07:48Z"},{"title":"Ευτυχία, υγεία, μακροζωία: Προστασία από έμφραγμα, εγκεφαλικό, διαβήτη!","description":"Sourced from predicthq.com - Έμφραγμα, εγκεφαλικό και διαβήτης είναι τρομερή απειλή για την υγεία και ευτυχία μας. Ελάτε να μάθετε πώς θα προστατεύεστε!","category":"conferences","start":"2024-04-11T15:30:00Z","geo":{"geometry":{"coordinates":[33.3147426,35.1660114],"type":"Point"},"placekey":"@6cb-yvw-vxq","address":{"country_code":"CY","formatted_address":"Cine Studio Nicosia, 2414 Egkomi, Cyprus","postcode":"2414","region":"Egkomi"}},"labels":["conference","health"],"duration":7200,"start_local":"2024-04-11T18:30:00","end":"2024-04-11T17:30:00Z","end_local":"2024-04-11T20:30:00","updated":"2024-06-05T18:46:47Z"},{"title":"Gamesforum  Cyprus 2024","description":"Sourced from predicthq.com - Introducing Gamesforum Cyprus – Your Gateway to Mobile Gaming Prosperity! Dive into the lucrative world of ad monetization at our cutting-ed","category":"conferences","start":"2024-04-11T05:00:00Z","geo":{"geometry":{"coordinates":[33.1745756,34.71372059999999],"type":"Point"},"placekey":"@7yb-9dt-btv","address":{"country_code":"CY","formatted_address":"Giannou Kranidioti, 4534 Pyrgos, Cyprus","locality":"Pyrgos","postcode":"4534","region":"Limassol"}},"labels":["conference","entertainment"],"duration":41400,"start_local":"2024-04-11T08:00:00","end":"2024-04-11T16:30:00Z","end_local":"2024-04-11T19:30:00","updated":"2024-06-04T23:00:06Z"},{"title":"Ayna","description":"Sourced from predicthq.com","category":"concerts","start":"2024-04-10T19:00:00Z","geo":{"geometry":{"coordinates":[33.35957,35.18],"type":"Point"},"placekey":"@6cb-z23-bhq","address":{"country_code":"CY","formatted_address":"Mahmutpaşa Katlı Otopark Terası, Tanzimat Sok., Nicosia, Cyprus","locality":"Nicosia"}},"labels":["concert","music"],"duration":0,"start_local":"2024-04-10T22:00:00","end":"2024-04-10T19:00:00Z","end_local":"2024-04-10T22:00:00","updated":"2024-06-12T12:48:06Z"},{"title":"Basket League - Championship Round - Anorthosis Famagusta vs Keravnos","description":"Sourced from predicthq.com","category":"sports","start":"2024-04-10T16:00:00Z","geo":{"geometry":{"coordinates":[33.03313304915444,34.67685854593149],"type":"Point"},"placekey":"@7yb-9f5-zvf","address":{"country_code":"CY","formatted_address":"M2GM+R73, Αγίου Ανδρόνικου, Limassol 3020, Cyprus","postcode":"3020","locality":"Limassol","region":"Limassol"}},"labels":["basketball","sport"],"duration":0,"start_local":"2024-04-10T19:00:00","end":"2024-04-10T16:00:00Z","end_local":"2024-04-10T19:00:00","updated":"2024-06-12T04:57:17Z"},{"title":"Learning Leadership for Flourishing Through Responsibilization","description":"Sourced from predicthq.com - The symposium will take place 9-10 April 2024 and will be hosted at the University of Nicosia, School of Business","category":"conferences","start":"2024-04-09T06:00:00Z","geo":{"geometry":{"coordinates":[33.3146993,35.1657908],"type":"Point"},"placekey":"@6cb-yvw-vxq","address":{"country_code":"CY","formatted_address":"46 Μακεδονίτισσης, 2417 Nicosia, Cyprus","postcode":"2417"}},"labels":["business","conference"],"duration":118800,"start_local":"2024-04-09T09:00:00","end":"2024-04-10T15:00:00Z","end_local":"2024-04-10T18:00:00","updated":"2024-06-12T07:47:15Z"},{"title":"1. Division - Relegation Round - AE Zakakiou vs AEL","description":"Sourced from predicthq.com","category":"sports","start":"2024-04-08T16:00:00Z","geo":{"geometry":{"coordinates":[33.61313760280609,34.929892280706085],"type":"Point"},"placekey":"@6cb-yp4-kfz","address":{"country_code":"CY","formatted_address":"Alexandros Raggavis 4, Lárnaka (Larnaca), Cyprus","locality":"Lárnaka (Larnaca)"}},"labels":["soccer","sport"],"duration":7071,"start_local":"2024-04-08T19:00:00","end":"2024-04-08T17:57:51Z","end_local":"2024-04-08T20:57:51","updated":"2024-06-04T22:33:11Z"},{"title":"MAXI MERAKI","description":"Sourced from predicthq.com","category":"concerts","start":"2024-04-07T20:00:00Z","geo":{"geometry":{"coordinates":[33.10698,34.70232],"type":"Point"},"placekey":"@7yb-9d9-mff","address":{"country_code":"CY","formatted_address":"Amathountos 1, Mouttagiaka 4531, Cyprus, Limassol, Cyprus","locality":"Limassol"}},"labels":["concert","music"],"duration":0,"start_local":"2024-04-07T23:00:00","end":"2024-04-07T20:00:00Z","end_local":"2024-04-07T23:00:00","updated":"2024-06-12T02:55:45Z"},{"title":"1. Division - Relegation Round - Karmiotissa vs Ethnikos Achna","description":"Sourced from predicthq.com","category":"sports","start":"2024-04-07T16:30:00Z","geo":{"geometry":{"coordinates":[32.44012713432312,34.76918940862008],"type":"Point"},"placekey":"@7yb-4p6-v2k","address":{"country_code":"CY","formatted_address":"Michael Savva Ave 1, Paphos 8028, Cyprus","postcode":"8028","locality":"Paphos","region":"Paphos"}},"labels":["soccer","sport"],"duration":7049,"start_local":"2024-04-07T19:30:00","end":"2024-04-07T18:27:29Z","end_local":"2024-04-07T21:27:29","updated":"2024-06-04T22:47:33Z"},{"title":"1. Division - Relegation Round - Othellos vs Nea Salamis","description":"Sourced from predicthq.com","category":"sports","start":"2024-04-07T16:00:00Z","geo":{"geometry":{"coordinates":[33.61313760280609,34.929892280706085],"type":"Point"},"placekey":"@6cb-yp4-kfz","address":{"country_code":"CY","formatted_address":"Alexandros Raggavis 4, Lárnaka (Larnaca), Cyprus","locality":"Lárnaka (Larnaca)"}},"labels":["soccer","sport"],"duration":7280,"start_local":"2024-04-07T19:00:00","end":"2024-04-07T18:01:20Z","end_local":"2024-04-07T21:01:20","updated":"2024-06-05T11:10:37Z"},{"title":"1. Division - Championship Round - APOEL vs Anorthosis","description":"Sourced from predicthq.com","category":"sports","start":"2024-04-07T14:00:00Z","geo":{"geometry":{"coordinates":[33.3628402,35.1144171],"type":"Point"},"placekey":"@6cb-yfv-hkf","address":{"country_code":"CY","formatted_address":"Λεωφόρος Παγκυπρίων, Στρόβολος, Cyprus","locality":"Στρόβολος","region":"Λευκωσία"}},"labels":["soccer","sport"],"duration":7151,"start_local":"2024-04-07T17:00:00","end":"2024-04-07T15:59:11Z","end_local":"2024-04-07T18:59:11","updated":"2024-05-28T00:54:29Z"},{"title":"1. Division - Championship Round - AEK Larnaca vs Pafos","description":"Sourced from predicthq.com","category":"sports","start":"2024-04-06T16:30:00Z","geo":{"geometry":{"coordinates":[33.59774577207485,34.92621766105783],"type":"Point"},"placekey":"@6cb-ynx-zs5","address":{"country_code":"CY","formatted_address":"Lárnaka (Larnaca), Cyprus","locality":"Lárnaka (Larnaca) "}},"labels":["soccer","sport"],"duration":6965,"start_local":"2024-04-06T19:30:00","end":"2024-04-06T18:26:05Z","end_local":"2024-04-06T21:26:05","updated":"2024-06-05T03:04:11Z"},{"title":"Basket League - Championship Round - APOEL vs Anorthosis Famagusta","description":"Sourced from predicthq.com","category":"sports","start":"2024-04-06T16:30:00Z","geo":{"geometry":{"coordinates":[33.3155553,35.1476287],"type":"Point"},"placekey":"@6cb-yw2-mff","address":{"country_code":"CY","formatted_address":"Lefkotheou, Nicosia, Cyprus","locality":"Nicosia","region":"Nicosia"}},"labels":["basketball","sport"],"duration":0,"start_local":"2024-04-06T19:30:00","end":"2024-04-06T16:30:00Z","end_local":"2024-04-06T19:30:00","updated":"2024-06-12T05:51:35Z"},{"title":"1. Division - Relegation Round - Doxa vs Apollon","description":"Sourced from predicthq.com","category":"sports","start":"2024-04-06T15:00:00Z","geo":{"geometry":{"coordinates":[33.08383584022522,35.129394496346904],"type":"Point"},"placekey":"@6cc-4kc-jqf","address":{"country_code":"CY","formatted_address":"Stadiou 12, Peristerona, Cyprus","locality":"Peristerona"}},"labels":["soccer","sport"],"duration":7056,"start_local":"2024-04-06T18:00:00","end":"2024-04-06T16:57:36Z","end_local":"2024-04-06T19:57:36","updated":"2024-06-05T15:25:51Z"},{"title":"1. Division - Championship Round - Omonia Nicosia vs Aris Limassol","description":"Sourced from predicthq.com","category":"sports","start":"2024-04-06T14:00:00Z","geo":{"geometry":{"coordinates":[33.3628402,35.1144171],"type":"Point"},"placekey":"@6cb-yfv-hkf","address":{"country_code":"CY","formatted_address":"Λεωφόρος Παγκυπρίων, Στρόβολος, Cyprus","locality":"Στρόβολος","region":"Λευκωσία"}},"labels":["soccer","sport"],"duration":7185,"start_local":"2024-04-06T17:00:00","end":"2024-04-06T15:59:45Z","end_local":"2024-04-06T18:59:45","updated":"2024-05-27T18:29:08Z"},{"title":"RUN FOR LIFE IN UKRAINE","description":"Sourced from predicthq.com - A charity run in Limassol and Paphos helping women and children in Ukraine! Register at https://runforlifeinukraine.weblium.site","category":"community","start":"2024-04-06T05:30:00Z","geo":{"geometry":{"coordinates":[32.4069507,34.7536368],"type":"Point"},"placekey":"@7yb-4p8-4qf","address":{"country_code":"CY","formatted_address":"Coastal Broadwalk, 8040 Paphos, Cyprus","locality":"Paphos","postcode":"8040","region":"Paphos"}},"labels":["community","fundraiser","sport"],"duration":4500,"start_local":"2024-04-06T08:30:00","end":"2024-04-06T06:45:00Z","end_local":"2024-04-06T09:45:00","updated":"2024-06-05T07:19:34Z"}]