[{"title":"Breakfast Fete 2024","description":"Sourced from predicthq.com - The 8th Annual Summer Daybreak Breakfast Fete Weekend \n\nThe Most Excited Fete in The Commonwealth of Dominica","category":"concerts","start":"2024-08-11T03:00:00Z","geo":{"geometry":{"coordinates":[-61.31810489999999,15.2450638],"type":"Point"},"placekey":"@bs5-kzy-ct9","address":{"country_code":"DM","formatted_address":"Berekua, Saint Patrick Parish, Dominica","locality":"Berekua","region":"Saint Patrick Parish"}},"labels":["concert","music"],"duration":1800,"start_local":"2024-08-10T23:00:00","end":"2024-08-11T03:30:00Z","end_local":"2024-08-10T23:30:00","updated":"2024-06-27T04:12:33Z"},{"title":"Breakfast Fete Lighting Parade: Street Night Fete 2024","description":"Sourced from predicthq.com - Come join us at the Breakfast Fete Lighting Parade for a morning of fun, food, and festive lights!","category":"concerts","start":"2024-08-09T23:00:00Z","geo":{"geometry":{"coordinates":[-61.31810489999999,15.2450638],"type":"Point"},"placekey":"@bs5-kzy-ct9","address":{"country_code":"DM","formatted_address":"Berekua, Saint Patrick Parish, Dominica","locality":"Berekua","region":"Saint Patrick Parish"}},"labels":["concert","music"],"duration":16200,"start_local":"2024-08-09T19:00:00","end":"2024-08-10T03:30:00Z","end_local":"2024-08-09T23:30:00","updated":"2024-06-20T22:28:51Z"},{"title":"Dominica's Next Supermodel","description":"Sourced from predicthq.com - Our Own Modeling Show","category":"concerts","start":"2024-06-15T23:00:00Z","geo":{"geometry":{"coordinates":[-61.3844928,15.3017906],"type":"Point"},"placekey":"@bs5-kkd-575","address":{"country_code":"DM","formatted_address":"Roseau, Saint George Parish, Dominica","locality":"Roseau","region":"Saint George Parish"}},"labels":["concert","fashion","music"],"duration":14400,"start_local":"2024-06-15T19:00:00","end":"2024-06-16T03:00:00Z","end_local":"2024-06-15T23:00:00","updated":"2024-06-04T02:20:06Z"}]