[{"title":"Master Internacional de Bienes Raices: Edicion Punta Cana","description":"Sourced from predicthq.com - ¬°Ven y participa en el Master Internacional de Bienes Ra√≠ces: Edici√≥n Punta Cana para aprender y conectarte con expertos del sector inmobili","category":"conferences","start":"2024-09-25T14:00:00Z","geo":{"geometry":{"coordinates":[-68.372535,18.5600761],"type":"Point"},"placekey":"@96m-qsg-fmk","address":{"country_code":"DO","formatted_address":"Punta Cana, La Altagracia, 23000, Dominican Republic","locality":"Punta Cana","postcode":"23000","region":"La Altagracia"}},"labels":["business","conference"],"duration":108000,"start_local":"2024-09-25T10:00:00","end":"2024-09-26T20:00:00Z","end_local":"2024-09-26T16:00:00","updated":"2024-06-13T00:34:46Z"},{"title":"THINK LOGISTICS 2024","description":"Sourced from predicthq.com - Pr√≥xima edici√≥n del evento THINK LOGISTICS 2024, el pr√≥ximo 11 de Septiembre 2024, de 8:30 a 12:00 pm, en el JW Marriott Santo Domingo.","category":"conferences","start":"2024-09-11T12:30:00Z","geo":{"geometry":{"coordinates":[-69.941158,18.472208],"type":"Point"},"placekey":"@96r-p9z-z4v","address":{"country_code":"DO","formatted_address":"Santo Domingo, Distrito Nacional, Dominican Republic","locality":"Santo Domingo","region":"Distrito Nacional"}},"labels":["business","conference"],"duration":16200,"start_local":"2024-09-11T08:30:00","end":"2024-09-11T17:00:00Z","end_local":"2024-09-11T13:00:00","updated":"2024-06-04T03:41:53Z"},{"title":"Treehouse Adventure Retreat","description":"Sourced from predicthq.com","category":"community","start":"2024-09-03T12:00:00Z","geo":{"geometry":{"coordinates":[-68.34544,18.64252],"type":"Point"},"placekey":"@96m-rc9-bc5","address":{"country_code":"DO","formatted_address":"Punta Cana, La Altagracia Province, 23000, Dominican Republic","locality":"Punta Cana","postcode":"23000","region":"La Altagracia Province"}},"labels":["community","health"],"duration":442800,"start_local":"2024-09-03T08:00:00","end":"2024-09-08T15:00:00Z","end_local":"2024-09-08T11:00:00","updated":"2024-06-04T01:55:45Z"},{"title":"Esteman","description":"Sourced from predicthq.com","category":"concerts","start":"2024-09-01T00:00:00Z","geo":{"geometry":{"coordinates":[-69.9423,18.45352],"type":"Point"},"placekey":"@96r-p8f-7bk","address":{"country_code":"DO","formatted_address":"Blue Mall (piso 4), Avenida Winston Churchill 80, Santo Domingo 10127, Dominican Republic","postcode":"10127","locality":"Santo Domingo","region":"Distrito Nacional"}},"labels":["concert","music"],"duration":0,"start_local":"2024-08-31T20:00:00","end":"2024-09-01T00:00:00Z","end_local":"2024-08-31T20:00:00","updated":"2024-06-24T22:12:05Z"},{"title":"Future Leaders in Travel Retreat","description":"Sourced from predicthq.com","category":"conferences","start":"2024-08-25T13:00:00Z","geo":{"geometry":{"coordinates":[-68.843235,18.376653],"type":"Point"},"placekey":"@96s-48s-66k","address":{"country_code":"DO","formatted_address":"Bayah√≠be, La Altagracia, 23000, Dominican Republic","locality":"Bayah√≠be","postcode":"23000","region":"La Altagracia"}},"labels":["conference"],"duration":291600,"start_local":"2024-08-25T09:00:00","end":"2024-08-28T22:00:00Z","end_local":"2024-08-28T18:00:00","updated":"2024-06-14T16:30:32Z"},{"title":"CodeCampSDQ 2024","description":"Sourced from predicthq.com - Get ready for CodeCampSDQ 2024!","category":"conferences","start":"2024-08-17T13:00:00Z","geo":{"geometry":{"coordinates":[-69.962495,18.4880037],"type":"Point"},"placekey":"@96r-p82-fcq","address":{"country_code":"DO","formatted_address":"Av. de Los Pr√≥ceres 49, Santo Domingo 10602, Dominican Republic","postcode":"10602","locality":"Santo Domingo","region":"Distrito Nacional"}},"labels":["conference","science","technology"],"duration":32400,"start_local":"2024-08-17T09:00:00","end":"2024-08-17T22:00:00Z","end_local":"2024-08-17T18:00:00","updated":"2024-06-02T03:36:59Z"},{"title":"Prettie Curves EXPO 2024","description":"Sourced from predicthq.com - Primer evento en Rep√∫blica Dominicana para la mujer con curvas y de talla grande","category":"festivals","start":"2024-08-10T17:30:32Z","geo":{"geometry":{"coordinates":[-69.9414303,18.4723569],"type":"Point"},"placekey":"@96r-p9z-z4v","address":{"country_code":"DO","formatted_address":"Avenida Winston Churchill, Santo Domingo, DN, Dominican Republic","locality":"Santo Domingo","region":"Distrito Nacional"}},"labels":["fashion","festival"],"duration":19800,"start_local":"2024-08-10T13:30:32","end":"2024-08-10T23:00:32Z","end_local":"2024-08-10T19:00:32","updated":"2024-06-13T01:23:13Z"},{"title":"Maja and michimusica","description":"Sourced from predicthq.com","category":"concerts","start":"2024-08-04T00:30:00Z","geo":{"geometry":{"coordinates":[-70.6708635,19.4641228],"type":"Point"},"placekey":"@95z-wvq-3kf","address":{"country_code":"DO","formatted_address":"Av. 27 de Febrero 146, Santiago de los Caballeros 51053, Dominican Republic","postcode":"51053","locality":"Santiago de los Caballeros","region":"Santiago"}},"labels":["concert","music"],"duration":0,"start_local":"2024-08-03T20:30:00","end":"2024-08-04T00:30:00Z","end_local":"2024-08-03T20:30:00","updated":"2024-07-05T06:57:33Z"},{"title":"Las Megatendencias 2024 de la Gesti√≥n Humana","description":"Sourced from predicthq.com - Descubra las principales megatendencias de la Gesti√≥n Humana a las que enfrental las organizaciones.","category":"conferences","start":"2024-08-01T16:00:00Z","geo":{"geometry":{"coordinates":[-69.94971749999999,18.4502219],"type":"Point"},"placekey":"@96r-p8j-hh5","address":{"country_code":"DO","formatted_address":"Avenida Sarasota, Santo Domingo, DN, 10114, Dominican Republic","locality":"Santo Domingo","postcode":"10114","region":"Distrito Nacional"}},"labels":["business","conference"],"duration":9000,"start_local":"2024-08-01T12:00:00","end":"2024-08-01T18:30:00Z","end_local":"2024-08-01T14:30:00","updated":"2024-06-27T22:24:37Z"},{"title":"FASHION BENEFIT EVENTS:  WE ARE ALL.","description":"Sourced from predicthq.com - La moda es arte y arte somos todos.","category":"conferences","start":"2024-07-27T23:00:00Z","geo":{"geometry":{"coordinates":[-69.9391565,18.4696054],"type":"Point"},"placekey":"@96r-p9z-tvz","address":{"country_code":"DO","formatted_address":"Avenida Winston Churchill, Santo Domingo, DN, Dominican Republic","locality":"Santo Domingo","region":"Distrito Nacional"}},"labels":["conference","fashion"],"duration":7200,"start_local":"2024-07-27T19:00:00","end":"2024-07-28T01:00:00Z","end_local":"2024-07-27T21:00:00","updated":"2024-06-20T08:54:06Z"},{"title":"Conferencia: El Poder de los H√°bitos.","description":"Sourced from predicthq.com - Consciencia de tus h√°bitos, un cambio en tus resultados.","category":"conferences","start":"2024-07-25T23:00:00Z","geo":{"geometry":{"coordinates":[-69.9391565,18.4696054],"type":"Point"},"placekey":"@96r-p9z-tvz","address":{"country_code":"DO","formatted_address":"Avenida Winston Churchill, Santo Domingo, DN, Dominican Republic","locality":"Santo Domingo","region":"Distrito Nacional"}},"labels":["business","conference"],"duration":7200,"start_local":"2024-07-25T19:00:00","end":"2024-07-26T01:00:00Z","end_local":"2024-07-25T21:00:00","updated":"2024-06-20T05:56:16Z"},{"title":"Insurance Tech Summit Republica Dominicana","description":"Sourced from predicthq.com - Un evento presencial, que le permitir√° al asistente actualizarse y hacer negocios con los principales referentes del sector.","category":"conferences","start":"2024-07-25T12:00:00Z","geo":{"geometry":{"coordinates":[-69.9312117,18.4860575],"type":"Point"},"placekey":"@96r-pb7-hbk","address":{"country_code":"DO","formatted_address":"Calle A, Santo Domingo, DN, 15700, Dominican Republic","locality":"Santo Domingo","postcode":"15700","region":"Distrito Nacional"}},"labels":["conference","science","technology"],"duration":32400,"start_local":"2024-07-25T08:00:00","end":"2024-07-25T21:00:00Z","end_local":"2024-07-25T17:00:00","updated":"2024-07-04T00:33:21Z"},{"title":"Conferencia:  Potencia tu marca personal.","description":"Sourced from predicthq.com - Tu eres una marca, ¬°dis√©√±ala a tu gusto!","category":"conferences","start":"2024-07-24T23:00:00Z","geo":{"geometry":{"coordinates":[-69.9391565,18.4696054],"type":"Point"},"placekey":"@96r-p9z-tvz","address":{"country_code":"DO","formatted_address":"Avenida Winston Churchill, Santo Domingo, DN, Dominican Republic","locality":"Santo Domingo","region":"Distrito Nacional"}},"labels":["business","conference"],"duration":7200,"start_local":"2024-07-24T19:00:00","end":"2024-07-25T01:00:00Z","end_local":"2024-07-24T21:00:00","updated":"2024-06-20T03:37:29Z"},{"title":"Seminario Para Agentes Inmobiliarios - SANTO DOMINGO","description":"Sourced from predicthq.com - Evento Presencial GRATUITO- MIAMI POWER EVENT ¬°TRANSFORMA TUS REFERIDOS EN √âXITOS INMOBILIARIOS! ¬øListo para llevar tu negocio a otro nivel?","category":"conferences","start":"2024-07-24T14:00:00Z","geo":{"geometry":{"coordinates":[-69.927168,18.475867],"type":"Point"},"placekey":"@96r-pb2-7qz","address":{"country_code":"DO","formatted_address":"Silver Sun, Av. Tiradentes 32, Santo Domingo 10119, Dominican Republic","postcode":"10119","locality":"Santo Domingo","region":"Distrito Nacional"}},"labels":["business","conference"],"duration":7200,"start_local":"2024-07-24T10:00:00","end":"2024-07-24T16:00:00Z","end_local":"2024-07-24T12:00:00","updated":"2024-06-27T01:48:43Z"},{"title":"Conferencia: Abraza tu ni√±a interior y sana tu autoestima.","description":"Sourced from predicthq.com - Inscr√≠bete ahora y comienza tu viaje hacia la sanaci√≥n y el crecimiento personal.","category":"conferences","start":"2024-07-22T22:30:00Z","geo":{"geometry":{"coordinates":[-69.9391565,18.4696054],"type":"Point"},"placekey":"@96r-p9z-tvz","address":{"country_code":"DO","formatted_address":"Avenida Winston Churchill, Santo Domingo, DN, Dominican Republic","locality":"Santo Domingo","region":"Distrito Nacional"}},"labels":["conference","health"],"duration":5400,"start_local":"2024-07-22T18:30:00","end":"2024-07-23T00:00:00Z","end_local":"2024-07-22T20:00:00","updated":"2024-06-27T23:46:40Z"},{"title":"Seminario Para Agentes Inmobiliarios  - SANTIAGO DE LOS CABALLEROS","description":"Sourced from predicthq.com - Evento Presencial GRATUITO- MIAMI POWER EVENT ¬°TRANSFORMA TUS REFERIDOS EN √âXITOS INMOBILIARIOS! ¬øListo para llevar tu negocio a otro nivel?","category":"conferences","start":"2024-07-22T14:00:00Z","geo":{"geometry":{"coordinates":[-70.6869474,19.4653594],"type":"Point"},"placekey":"@95z-wx3-5mk","address":{"country_code":"DO","formatted_address":"Camino De Buena Vista, Santiago de los Caballeros, Santiago, 51000, Dominican Republic","locality":"Santiago de los Caballeros","postcode":"51000","region":"Santiago"}},"labels":["business","conference"],"duration":7200,"start_local":"2024-07-22T10:00:00","end":"2024-07-22T16:00:00Z","end_local":"2024-07-22T12:00:00","updated":"2024-06-27T02:27:30Z"},{"title":"Natura Market","description":"Sourced from predicthq.com - A vibrant event held on the beach in front of their hotel, occurring on selected Sundays each month with over 30 local vendors","category":"expos","start":"2024-07-21T15:00:00Z","geo":{"geometry":{"coordinates":[-70.4621124,19.7833499],"type":"Point"},"placekey":"@973-2vg-5cq","address":{"country_code":"DO","formatted_address":"Calle Paseo del Sol, Sos√∫a, Puerto Plata, 57000, Dominican Republic","locality":"Sos√∫a","postcode":"57000","region":"Puerto Plata"}},"labels":["expo","food"],"duration":18000,"start_local":"2024-07-21T11:00:00","end":"2024-07-21T20:00:00Z","end_local":"2024-07-21T16:00:00","updated":"2024-06-04T07:15:51Z"},{"title":"ZAFEM IN PUNTA CANA SAT-JULY-2O","description":"Sourced from predicthq.com - ZAFEM in Punta Cana  at the Hard Work Cafe Saturday July 20th from10pm to 4am.","category":"festivals","start":"2024-07-20T14:00:00Z","geo":{"geometry":{"coordinates":[-68.482748,18.7333671],"type":"Point"},"placekey":"@96m-xpt-kvf","address":{"country_code":"DO","formatted_address":"Boulevard Tur√≠stico del Este, Punta Cana, La Altagracia, 23000, Dominican Republic","locality":"Punta Cana","postcode":"23000","region":"La Altagracia"}},"labels":["festival","outdoor"],"duration":61200,"start_local":"2024-07-20T10:00:00","end":"2024-07-21T07:00:00Z","end_local":"2024-07-21T03:00:00","updated":"2024-06-20T01:58:15Z"},{"title":"JConf Dominicana","description":"Sourced from predicthq.com","category":"conferences","start":"2024-07-19T13:00:00Z","geo":{"geometry":{"coordinates":[-69.929808,18.463127],"type":"Point"},"placekey":"@96r-pb3-789","address":{"country_code":"DO","formatted_address":"Avenida Abraham Lincoln, Santo Domingo, DN, Dominican Republic","locality":"Santo Domingo","region":"Distrito Nacional"}},"labels":["conference"],"duration":118800,"start_local":"2024-07-19T09:00:00","end":"2024-07-20T22:00:00Z","end_local":"2024-07-20T18:00:00","updated":"2024-06-16T04:20:55Z"},{"title":"Taller Crisis en Digital","description":"Sourced from predicthq.com - ¬°Aprende a manejar crisis en plataformas sociales y ecosistema digital como un pro en nuestro taller presencial \"Taller Crisis en Digital\"!","category":"conferences","start":"2024-07-19T12:00:00Z","geo":{"geometry":{"coordinates":[-69.9281055,18.47843289999999],"type":"Point"},"placekey":"@96r-pb2-bff","address":{"country_code":"DO","formatted_address":"Santo Domingo, Distrito Nacional, Dominican Republic","locality":"Santo Domingo","region":"Distrito Nacional"}},"labels":["conference","science","technology"],"duration":18000,"start_local":"2024-07-19T08:00:00","end":"2024-07-19T17:00:00Z","end_local":"2024-07-19T13:00:00","updated":"2024-06-13T06:39:49Z"},{"title":"Conferencia: Liderar desde el ser.","description":"Sourced from predicthq.com - Descubre el poder del liderazgo aut√©ntico para el √©xito personal y organizacional.","category":"conferences","start":"2024-07-18T22:30:00Z","geo":{"geometry":{"coordinates":[-69.9391565,18.4696054],"type":"Point"},"placekey":"@96r-p9z-tvz","address":{"country_code":"DO","formatted_address":"Avenida Winston Churchill, Santo Domingo, DN, Dominican Republic","locality":"Santo Domingo","region":"Distrito Nacional"}},"labels":["business","conference"],"duration":7200,"start_local":"2024-07-18T18:30:00","end":"2024-07-19T00:30:00Z","end_local":"2024-07-18T20:30:00","updated":"2024-06-20T08:18:21Z"},{"title":"üå¥Punta Cana Take Over üå¥","description":"Sourced from predicthq.com","category":"sports","start":"2024-07-18T19:00:00Z","geo":{"geometry":{"coordinates":[-68.46664,18.73318],"type":"Point"},"placekey":"@96m-r7w-k2k","address":{"country_code":"DO","formatted_address":"Punta Cana, La Altagracia Province, 23000, Dominican Republic","locality":"Punta Cana","postcode":"23000","region":"La Altagracia Province"}},"labels":["sport"],"duration":0,"start_local":"2024-07-18T15:00:00","end":"2024-07-18T19:00:00Z","end_local":"2024-07-18T15:00:00","updated":"2024-06-04T06:29:21Z"},{"title":"Playita Sound @Juan Dolio Beach // S√°bado 13 de  Julio (MOON)","description":"Sourced from predicthq.com - Ven y se parte de esta nueva tempora 2024 de Playita Sound","category":"concerts","start":"2024-07-13T21:00:00Z","geo":{"geometry":{"coordinates":[-69.3900752,18.4274188],"type":"Point"},"placekey":"@96r-x74-fpv","address":{"country_code":"DO","formatted_address":"Carretera Nueva, Playa Juan Dolio, San Pedro de Macoris, 21000, Dominican Republic","locality":"Playa Juan Dolio","postcode":"21000","region":"San Pedro de Macoris"}},"labels":["concert","music"],"duration":0,"start_local":"2024-07-13T17:00:00","end":"2024-07-13T21:00:00Z","end_local":"2024-07-13T17:00:00","updated":"2024-07-05T03:25:11Z"},{"title":"Diego El Cigala","description":"Sourced from predicthq.com","category":"concerts","start":"2024-07-13T00:30:00Z","geo":{"geometry":{"coordinates":[-69.9109424,18.4708903],"type":"Point"},"placekey":"@96r-p9y-9xq","address":{"country_code":"DO","formatted_address":"Av. M√°ximo G√≥mez 35, Santo Domingo 10204, Dominican Republic","postcode":"10204","locality":"Santo Domingo","region":"Distrito Nacional"}},"labels":["concert","music"],"duration":0,"start_local":"2024-07-12T20:30:00","end":"2024-07-13T00:30:00Z","end_local":"2024-07-12T20:30:00","updated":"2024-06-11T00:57:44Z"},{"title":"Conferencia: La Herencia Inconsciente ‚Äú La Gran Verdad del Emprendedor‚Äú","description":"Sourced from predicthq.com - Aprende a ver las cosas desde otro punto de vista y buscar sentido al significado de tus acciones.","category":"conferences","start":"2024-07-10T23:30:00Z","geo":{"geometry":{"coordinates":[-69.9391565,18.4696054],"type":"Point"},"placekey":"@96r-p9z-tvz","address":{"country_code":"DO","formatted_address":"Avenida Winston Churchill, Santo Domingo, DN, Dominican Republic","locality":"Santo Domingo","region":"Distrito Nacional"}},"labels":["business","conference"],"duration":7200,"start_local":"2024-07-10T19:30:00","end":"2024-07-11T01:30:00Z","end_local":"2024-07-10T21:30:00","updated":"2024-06-20T15:05:58Z"},{"title":"W.O.W","description":"Sourced from predicthq.com - Every Wednesday  the best place to be in DR, we bring the vibe with different culture","category":"conferences","start":"2024-07-10T23:00:00Z","geo":{"geometry":{"coordinates":[-69.869815,18.4949421],"type":"Point"},"placekey":"@96r-p2k-bx5","address":{"country_code":"DO","formatted_address":"Calle Jose Cabrera, Santo Domingo Este, Santo Domingo, 11501, Dominican Republic","locality":"Santo Domingo Este","postcode":"11501","region":"Santo Domingo"}},"labels":["community","conference"],"duration":16200,"start_local":"2024-07-10T19:00:00","end":"2024-07-11T03:30:00Z","end_local":"2024-07-10T23:30:00","updated":"2024-07-04T00:58:59Z"},{"title":"Liga Mayor - Universidad O&M vs Atl√©tico Pantoja","description":"Sourced from predicthq.com","category":"sports","start":"2024-07-07T20:00:00Z","geo":{"geometry":{"coordinates":[-69.85438942909241,18.47910027408001],"type":"Point"},"placekey":"@96r-p28-ckf","address":{"country_code":"DO","formatted_address":"Avenida Estados Unidos, Santo Domingo, Dominican Republic","locality":"Santo Domingo"}},"labels":["soccer","sport"],"duration":0,"start_local":"2024-07-07T16:00:00","end":"2024-07-07T20:00:00Z","end_local":"2024-07-07T16:00:00","updated":"2024-07-03T22:24:31Z"},{"title":"Santo Domingo Corre 10K","description":"Sourced from predicthq.com","category":"sports","start":"2024-07-07T10:00:00Z","geo":{"geometry":{"coordinates":[-69.8939264,18.4645954],"type":"Point"},"placekey":"@96r-p9y-3bk","address":{"country_code":"DO","formatted_address":"Avenida George Washington, Santo Domingo, DN, Dominican Republic","locality":"Santo Domingo","region":"Distrito Nacional"}},"labels":["outdoor-sports","running","sport"],"duration":0,"start_local":"2024-07-07T06:00:00","end":"2024-07-07T10:00:00Z","end_local":"2024-07-07T06:00:00","updated":"2024-06-04T06:27:17Z"},{"title":"Dkano","description":"Sourced from predicthq.com","category":"concerts","start":"2024-07-07T01:00:00Z","geo":{"geometry":{"coordinates":[-69.93956,18.48364],"type":"Point"},"placekey":"@96r-pb2-h89","address":{"country_code":"DO","formatted_address":"√Ågora Mall, Santo Domingo 11201, Dominican Republic","postcode":"11201","locality":"Santo Domingo","region":"Distrito Nacional"}},"labels":["concert","music"],"duration":0,"start_local":"2024-07-06T21:00:00","end":"2024-07-07T01:00:00Z","end_local":"2024-07-06T21:00:00","updated":"2024-06-10T23:29:24Z"},{"title":"Liga Mayor - San Crist√≥bal vs Cibao","description":"Sourced from predicthq.com","category":"sports","start":"2024-07-06T22:00:00Z","geo":{"geometry":{"coordinates":[-70.11986911296844,18.414752667118822],"type":"Point"},"placekey":"@96q-p54-fcq","address":{"country_code":"DO","formatted_address":"CV7J+V2Q, San Crist√≥bal 91000, Dominican Republic","postcode":"91000","locality":"San Crist√≥bal","region":"San Crist√≥bal Province"}},"labels":["soccer","sport"],"duration":0,"start_local":"2024-07-06T18:00:00","end":"2024-07-06T22:00:00Z","end_local":"2024-07-06T18:00:00","updated":"2024-06-17T17:22:36Z"},{"title":"Liga Mayor - Atl√°ntico vs Vega Real","description":"Sourced from predicthq.com","category":"sports","start":"2024-07-06T20:00:00Z","geo":{"geometry":{"coordinates":[-70.6812028757492,19.792080513969744],"type":"Point"},"placekey":"@95z-wkh-qxq","address":{"country_code":"DO","formatted_address":"Av. Luis Ginebra, Puerto Plata 57000, Dominican Republic","postcode":"57000","locality":"Puerto Plata","region":"Puerto Plata"}},"labels":["soccer","sport"],"duration":0,"start_local":"2024-07-06T16:00:00","end":"2024-07-06T20:00:00Z","end_local":"2024-07-06T16:00:00","updated":"2024-07-03T19:43:03Z"},{"title":"Liga Mayor - Delfines Del Este vs Moca","description":"Sourced from predicthq.com","category":"sports","start":"2024-07-06T20:00:00Z","geo":{"geometry":{"coordinates":[-69.85438942909241,18.47910027408001],"type":"Point"},"placekey":"@96r-p28-ckf","address":{"country_code":"DO","formatted_address":"Avenida Estados Unidos, Santo Domingo, Dominican Republic","locality":"Santo Domingo"}},"labels":["soccer","sport"],"duration":0,"start_local":"2024-07-06T16:00:00","end":"2024-07-06T20:00:00Z","end_local":"2024-07-06T16:00:00","updated":"2024-07-03T22:28:14Z"},{"title":"Adore Night - Queremos ver Tu Gloria","description":"Sourced from predicthq.com - Adore Night la atracci√≥n de las atracciones en Punta Cana. Ven y vive una noche inolvidable junto a Jes√∫s sacramentado y nuestra invitada.","category":"concerts","start":"2024-07-04T23:00:00Z","geo":{"geometry":{"coordinates":[-68.3669444,18.5588889],"type":"Point"},"placekey":"@96m-qsg-2zf","address":{"country_code":"DO","formatted_address":"Punta Cana, La Altagracia, 23000, Dominican Republic","locality":"Punta Cana","postcode":"23000","region":"La Altagracia"}},"labels":["concert","music","religion"],"duration":7200,"start_local":"2024-07-04T19:00:00","end":"2024-07-05T01:00:00Z","end_local":"2024-07-04T21:00:00","updated":"2024-06-27T07:08:27Z"},{"title":"Paradise Garage presents The Illusions Show","description":"Sourced from predicthq.com - Join us for a night of Entertainment, As we present Illusions \"Where some of Punta Cana's most beautiful women are, MEN!\"","category":"performing-arts","start":"2024-07-04T00:00:00Z","geo":{"geometry":{"coordinates":[-68.4032874,18.6449192],"type":"Point"},"placekey":"@96m-qs3-k75","address":{"country_code":"DO","formatted_address":"Punta Cana, La Altagracia, 23000, Dominican Republic","locality":"Punta Cana","postcode":"23000","region":"La Altagracia"}},"labels":["concert","music","performing-arts"],"duration":10800,"start_local":"2024-07-03T20:00:00","end":"2024-07-04T03:00:00Z","end_local":"2024-07-03T23:00:00","updated":"2024-07-04T02:41:41Z"},{"title":"W.O.W","description":"Sourced from predicthq.com - Every Wednesday a different vibe with different people","category":"conferences","start":"2024-07-03T23:00:00Z","geo":{"geometry":{"coordinates":[-69.869815,18.4949421],"type":"Point"},"placekey":"@96r-p2k-bx5","address":{"country_code":"DO","formatted_address":"Calle Jose Cabrera, Santo Domingo Este, Santo Domingo, 11501, Dominican Republic","locality":"Santo Domingo Este","postcode":"11501","region":"Santo Domingo"}},"labels":["conference"],"duration":16200,"start_local":"2024-07-03T19:00:00","end":"2024-07-04T03:30:00Z","end_local":"2024-07-03T23:30:00","updated":"2024-07-04T23:00:36Z"},{"title":"Noches de Adoracion y Milagros en Higuey","description":"Sourced from predicthq.com - Julio ser√° un mes de Adoraci√≥n y milagros, estaremos los d√≠as 1 y 2  en lo que ser√°n dos noches donde experimentaremos la Gloria de Dios.","category":"concerts","start":"2024-07-01T23:00:00Z","geo":{"geometry":{"coordinates":[-68.71912429999999,18.61607769999999],"type":"Point"},"placekey":"@96m-t9q-yn5","address":{"country_code":"DO","formatted_address":"Sanchez, Hig√ºey, La Altagracia, 23000, Dominican Republic","locality":"Hig√ºey","postcode":"23000","region":"La Altagracia"}},"labels":["concert","music","religion"],"duration":93600,"start_local":"2024-07-01T19:00:00","end":"2024-07-03T01:00:00Z","end_local":"2024-07-02T21:00:00","updated":"2024-06-13T00:43:13Z"},{"title":"Liga Mayor - Cibao vs Atl√°ntico","description":"Sourced from predicthq.com","category":"sports","start":"2024-06-30T20:00:00Z","geo":{"geometry":{"coordinates":[-70.68090772153471,19.44122805402767],"type":"Point"},"placekey":"@95z-wwt-s3q","address":{"country_code":"DO","formatted_address":"Autopista Duarte Km 1 1/2, Santiago De Los Caballeros 51000, Dominican Republic","postcode":"51000","locality":"Santiago De Los Caballeros","region":"Santiago"}},"labels":["soccer","sport"],"duration":0,"start_local":"2024-06-30T16:00:00","end":"2024-06-30T20:00:00Z","end_local":"2024-06-30T16:00:00","updated":"2024-06-17T17:51:32Z"},{"title":"Liga Mayor - Moca vs San Crist√≥bal","description":"Sourced from predicthq.com","category":"sports","start":"2024-06-30T20:00:00Z","geo":{"geometry":{"coordinates":[-70.624736365,19.112518559],"type":"Point"},"placekey":"@95z-s66-5s5","address":{"country_code":"DO","formatted_address":"496G+Q24, Jarabacoa 41000, Dominican Republic","postcode":"41000","locality":"Jarabacoa","region":"La Vega Province"}},"labels":["soccer","sport"],"duration":0,"start_local":"2024-06-30T16:00:00","end":"2024-06-30T20:00:00Z","end_local":"2024-06-30T16:00:00","updated":"2024-06-17T17:51:32Z"},{"title":"Liga Mayor - Vega Real vs Universidad O&M","description":"Sourced from predicthq.com","category":"sports","start":"2024-06-29T20:00:00Z","geo":{"geometry":{"coordinates":[-70.624736365,19.112518559],"type":"Point"},"placekey":"@95z-s66-5s5","address":{"country_code":"DO","formatted_address":"496G+Q24, Jarabacoa 41000, Dominican Republic","postcode":"41000","locality":"Jarabacoa","region":"La Vega Province"}},"labels":["soccer","sport"],"duration":0,"start_local":"2024-06-29T16:00:00","end":"2024-06-29T20:00:00Z","end_local":"2024-06-29T16:00:00","updated":"2024-06-14T15:49:41Z"},{"title":"Data Meet Up - Junio 2024","description":"Sourced from predicthq.com - Expertos estar√°n abordando temas relacionados a las tecnolog√≠as de Big Data, Machine Learning, IA, IoT, entre otras.","category":"conferences","start":"2024-06-29T17:30:00Z","geo":{"geometry":{"coordinates":[-69.91101809999999,18.4660496],"type":"Point"},"placekey":"@96r-pb3-swk","address":{"country_code":"DO","formatted_address":"Avenida M√°ximo G√≥mez, Santo Domingo, DN, Dominican Republic","locality":"Santo Domingo","region":"Distrito Nacional"}},"labels":["conference","science","technology"],"duration":18000,"start_local":"2024-06-29T13:30:00","end":"2024-06-29T22:30:00Z","end_local":"2024-06-29T18:30:00","updated":"2024-06-04T04:33:23Z"},{"title":"Descubre Amare","description":"Sourced from predicthq.com - ¬°Descubre el poder de la conexi√≥n intestino-cerebro puede transformar tu vida!","category":"conferences","start":"2024-06-29T13:30:00Z","geo":{"geometry":{"coordinates":[-69.9387275,18.4575498],"type":"Point"},"placekey":"@96r-p8d-hh5","address":{"country_code":"DO","formatted_address":"Avenida R√≥mulo Betancourt, Santo Domingo, DN, Dominican Republic","locality":"Santo Domingo","region":"Distrito Nacional"}},"labels":["community","conference"],"duration":9000,"start_local":"2024-06-29T09:30:00","end":"2024-06-29T16:00:00Z","end_local":"2024-06-29T12:00:00","updated":"2024-06-28T13:31:28Z"},{"title":"B√®l Gouyad Night","description":"Sourced from predicthq.com - Pot ko janm gen gouyad. \n28 juin ki pral gen gouyad.\nRanje Sentiw","category":"performing-arts","start":"2024-06-29T01:00:27Z","geo":{"geometry":{"coordinates":[-70.6617907,19.4824066],"type":"Point"},"placekey":"@95z-wvj-7nq","address":{"country_code":"DO","formatted_address":"Avenida Gregorio Luper√≥n, Santiago de los Caballeros, Santiago, 51000, Dominican Republic","locality":"Santiago de los Caballeros","postcode":"51000","region":"Santiago"}},"labels":["concert","music","performing-arts"],"duration":64800,"start_local":"2024-06-28T21:00:27","end":"2024-06-29T19:00:27Z","end_local":"2024-06-29T15:00:27","updated":"2024-06-22T03:01:36Z"},{"title":"Conferencia: Mujeres que emprenden SDN","description":"Sourced from predicthq.com - √önete a una comunidad que transforma e Inspira a trav√©s de la sororidad.","category":"conferences","start":"2024-06-28T23:00:00Z","geo":{"geometry":{"coordinates":[-69.9391565,18.4696054],"type":"Point"},"placekey":"@96r-p9z-tvz","address":{"country_code":"DO","formatted_address":"Avenida Winston Churchill, Santo Domingo, DN, Dominican Republic","locality":"Santo Domingo","region":"Distrito Nacional"}},"labels":["business","conference"],"duration":3600,"start_local":"2024-06-28T19:00:00","end":"2024-06-29T00:00:00Z","end_local":"2024-06-28T20:00:00","updated":"2024-06-04T01:22:03Z"},{"title":"CONGRESO DE DANZA JUNIO 28 y 29 2024 EN SANTO DOMINGO, RD","description":"Sourced from predicthq.com - Te Esperamos. Dos d√≠as de impartici√≥n en la danza prof√©tica. Este evento te llevar√° a un nivel mayor de autoridad en lo espiritual. DTB","category":"concerts","start":"2024-06-28T23:00:00Z","geo":{"geometry":{"coordinates":[-69.8557388,18.4801396],"type":"Point"},"placekey":"@96r-p28-btv","address":{"country_code":"DO","formatted_address":"Avenida Boulevard del Faro, Santo Domingo Este, Santo Domingo, 11604, Dominican Republic","locality":"Santo Domingo Este","postcode":"11604","region":"Santo Domingo"}},"labels":["concert","music"],"duration":68400,"start_local":"2024-06-28T19:00:00","end":"2024-06-29T18:00:00Z","end_local":"2024-06-29T14:00:00","updated":"2024-06-21T21:47:16Z"},{"title":"Liga Mayor - Atl√©tico Pantoja vs Delfines Del Este","description":"Sourced from predicthq.com","category":"sports","start":"2024-06-28T22:00:00Z","geo":{"geometry":{"coordinates":[-70.11986911296844,18.414752667118822],"type":"Point"},"placekey":"@96q-p54-fcq","address":{"country_code":"DO","formatted_address":"CV7J+V2Q, San Crist√≥bal 91000, Dominican Republic","postcode":"91000","locality":"San Crist√≥bal","region":"San Crist√≥bal Province"}},"labels":["soccer","sport"],"duration":0,"start_local":"2024-06-28T18:00:00","end":"2024-06-28T22:00:00Z","end_local":"2024-06-28T18:00:00","updated":"2024-06-26T14:04:04Z"},{"title":"Sania","description":"Sourced from predicthq.com - Estamos emocionados de presentar Sania, la plataforma que conecta pacientes con m√©dicos al instante.","category":"conferences","start":"2024-06-28T22:00:00Z","geo":{"geometry":{"coordinates":[-71.1207168,18.2175375],"type":"Point"},"placekey":"@96s-9jx-9vf","address":{"country_code":"DO","formatted_address":"Barahona, Barahona Province, 81000, Dominican Republic","locality":"Barahona","postcode":"81000","region":"Barahona Province"}},"labels":["conference","health"],"duration":3600,"start_local":"2024-06-28T18:00:00","end":"2024-06-28T23:00:00Z","end_local":"2024-06-28T19:00:00","updated":"2024-06-13T01:41:12Z"},{"title":"Panel: Equilibrar la vida sin caer en el intento.","description":"Sourced from predicthq.com - Descubre el equilibrio perfecto: Un viaje hacia una mente sana y una vida plena.","category":"conferences","start":"2024-06-27T23:30:00Z","geo":{"geometry":{"coordinates":[-69.9391565,18.4696054],"type":"Point"},"placekey":"@96r-p9z-tvz","address":{"country_code":"DO","formatted_address":"Avenida Winston Churchill, Santo Domingo, DN, Dominican Republic","locality":"Santo Domingo","region":"Distrito Nacional"}},"labels":["business","conference"],"duration":5400,"start_local":"2024-06-27T19:30:00","end":"2024-06-28T01:00:00Z","end_local":"2024-06-27T21:00:00","updated":"2024-05-30T01:14:12Z"},{"title":"Paradise Garage presents The Illusions Show","description":"Sourced from predicthq.com - Join us for a night of Entertainment, As we present Illusions \"Where some of Punta Cana's most beautiful women are, MEN!\"","category":"performing-arts","start":"2024-06-27T00:00:00Z","geo":{"geometry":{"coordinates":[-68.4032874,18.6449192],"type":"Point"},"placekey":"@96m-qs3-k75","address":{"country_code":"DO","formatted_address":"Punta Cana, La Altagracia, 23000, Dominican Republic","locality":"Punta Cana","postcode":"23000","region":"La Altagracia"}},"labels":["concert","music","performing-arts"],"duration":10800,"start_local":"2024-06-26T20:00:00","end":"2024-06-27T03:00:00Z","end_local":"2024-06-26T23:00:00","updated":"2024-06-27T18:28:18Z"},{"title":"W.O.W","description":"Sourced from predicthq.com - Every Wednesday inside of Meet Bar in Santo Domingo, come enjoy with us a variety of music of all the culture.","category":"conferences","start":"2024-06-27T00:00:00Z","geo":{"geometry":{"coordinates":[-69.869815,18.4949421],"type":"Point"},"placekey":"@96r-p2k-bx5","address":{"country_code":"DO","formatted_address":"Calle Jose Cabrera, Santo Domingo Este, Santo Domingo, 11501, Dominican Republic","locality":"Santo Domingo Este","postcode":"11501","region":"Santo Domingo"}},"labels":["community","conference"],"duration":12600,"start_local":"2024-06-26T20:00:00","end":"2024-06-27T03:30:00Z","end_local":"2024-06-26T23:30:00","updated":"2024-06-27T22:06:43Z"},{"title":"Conferencia: Vuelve a elegirte.","description":"Sourced from predicthq.com - Elige un cambio positivo y vuelve a elegirte.","category":"conferences","start":"2024-06-26T23:30:00Z","geo":{"geometry":{"coordinates":[-69.9391565,18.4696054],"type":"Point"},"placekey":"@96r-p9z-tvz","address":{"country_code":"DO","formatted_address":"Avenida Winston Churchill, Santo Domingo, DN, Dominican Republic","locality":"Santo Domingo","region":"Distrito Nacional"}},"labels":["business","conference"],"duration":5400,"start_local":"2024-06-26T19:30:00","end":"2024-06-27T01:00:00Z","end_local":"2024-06-26T21:00:00","updated":"2024-05-30T06:27:28Z"},{"title":"Asamblea Bienal 2024 Movimiento Internacional","description":"Sourced from predicthq.com - Asamblea Bienal 2024 Movimiento Internacional en Republica Dominicana","category":"conferences","start":"2024-06-26T23:00:00Z","geo":{"geometry":{"coordinates":[-69.4165594,18.4279537],"type":"Point"},"placekey":"@96r-x77-9vf","address":{"country_code":"DO","formatted_address":"Av. Principal, Playa Juan Dolio, San Pedro de Macoris, 21000, Dominican Republic","locality":"Playa Juan Dolio","postcode":"21000","region":"San Pedro de Macoris"}},"labels":["conference","religion"],"duration":315000,"start_local":"2024-06-26T19:00:00","end":"2024-06-30T14:30:00Z","end_local":"2024-06-30T10:30:00","updated":"2024-06-04T10:03:41Z"},{"title":"Caribbean Urban Forum","description":"Sourced from predicthq.com","category":"conferences","start":"2024-06-26T13:00:00Z","geo":{"geometry":{"coordinates":[-69.929808,18.463127],"type":"Point"},"placekey":"@96r-pb3-789","address":{"country_code":"DO","formatted_address":"Avenida Abraham Lincoln, Santo Domingo, DN, Dominican Republic","locality":"Santo Domingo","region":"Distrito Nacional"}},"labels":["conference"],"duration":205200,"start_local":"2024-06-26T09:00:00","end":"2024-06-28T22:00:00Z","end_local":"2024-06-28T18:00:00","updated":"2024-06-04T09:56:14Z"},{"title":"Rueda de Prensa: Lanzamiento musical ‚ÄúDime qui√©n soy yo‚Äù","description":"Sourced from predicthq.com - M√∫sica cristiana.","category":"conferences","start":"2024-06-25T23:00:00Z","geo":{"geometry":{"coordinates":[-69.9391565,18.4696054],"type":"Point"},"placekey":"@96r-p9z-tvz","address":{"country_code":"DO","formatted_address":"Avenida Winston Churchill, Santo Domingo, DN, Dominican Republic","locality":"Santo Domingo","region":"Distrito Nacional"}},"labels":["business","conference"],"duration":7200,"start_local":"2024-06-25T19:00:00","end":"2024-06-26T01:00:00Z","end_local":"2024-06-25T21:00:00","updated":"2024-05-30T05:29:03Z"},{"title":"Conferencia:  Oportunidades de ventas al Estado en 2024.","description":"Sourced from predicthq.com - ¬°T√∫ puedes vender al Estado!","category":"conferences","start":"2024-06-24T23:00:00Z","geo":{"geometry":{"coordinates":[-69.9391565,18.4696054],"type":"Point"},"placekey":"@96r-p9z-tvz","address":{"country_code":"DO","formatted_address":"Avenida Winston Churchill, Santo Domingo, DN, Dominican Republic","locality":"Santo Domingo","region":"Distrito Nacional"}},"labels":["business","conference"],"duration":7200,"start_local":"2024-06-24T19:00:00","end":"2024-06-25T01:00:00Z","end_local":"2024-06-24T21:00:00","updated":"2024-06-06T05:34:46Z"},{"title":"Desfile: Fashion Show RD Models","description":"Sourced from predicthq.com - La moda va m√°s all√° de la ropa.","category":"conferences","start":"2024-06-23T22:30:00Z","geo":{"geometry":{"coordinates":[-69.9391565,18.4696054],"type":"Point"},"placekey":"@96r-p9z-tvz","address":{"country_code":"DO","formatted_address":"Avenida Winston Churchill, Santo Domingo, DN, Dominican Republic","locality":"Santo Domingo","region":"Distrito Nacional"}},"labels":["conference","fashion"],"duration":7200,"start_local":"2024-06-23T18:30:00","end":"2024-06-24T00:30:00Z","end_local":"2024-06-23T20:30:00","updated":"2024-06-04T04:10:22Z"},{"title":"@CasaDePanMars en Jima Abajo, La Vega RD JUNIO 2024","description":"Sourced from predicthq.com - Traer los ni√±os y sus padres de 3-13 a√±os de edad y j√≥venes.","category":"expos","start":"2024-06-23T21:00:00Z","geo":{"geometry":{"coordinates":[-70.3762423,19.1325064],"type":"Point"},"placekey":"@96r-trh-3yv","address":{"country_code":"DO","formatted_address":"Jima Abajo, La Vega Province, 41000, Dominican Republic","locality":"Jima Abajo","postcode":"41000","region":"La Vega Province"}},"labels":["expo","fashion"],"duration":7200,"start_local":"2024-06-23T17:00:00","end":"2024-06-23T23:00:00Z","end_local":"2024-06-23T19:00:00","updated":"2024-06-04T03:57:46Z"},{"title":"Liga Mayor - Cibao vs Vega Real","description":"Sourced from predicthq.com","category":"sports","start":"2024-06-23T20:00:00Z","geo":{"geometry":{"coordinates":[-70.68090772153471,19.44122805402767],"type":"Point"},"placekey":"@95z-wwt-s3q","address":{"country_code":"DO","formatted_address":"Autopista Duarte Km 1 1/2, Santiago De Los Caballeros 51000, Dominican Republic","postcode":"51000","locality":"Santiago De Los Caballeros","region":"Santiago"}},"labels":["soccer","sport"],"duration":0,"start_local":"2024-06-23T16:00:00","end":"2024-06-23T20:00:00Z","end_local":"2024-06-23T16:00:00","updated":"2024-06-11T04:24:35Z"},{"title":"Liga Mayor - Atl√°ntico vs Moca","description":"Sourced from predicthq.com","category":"sports","start":"2024-06-23T20:00:00Z","geo":{"geometry":{"coordinates":[-70.6812028757492,19.792080513969744],"type":"Point"},"placekey":"@95z-wkh-qxq","address":{"country_code":"DO","formatted_address":"Av. Luis Ginebra, Puerto Plata 57000, Dominican Republic","postcode":"57000","locality":"Puerto Plata","region":"Puerto Plata"}},"labels":["closed-doors","soccer","sport"],"duration":0,"start_local":"2024-06-23T16:00:00","end":"2024-06-23T20:00:00Z","end_local":"2024-06-23T16:00:00","updated":"2024-06-21T13:36:23Z"},{"title":"Natura Market","description":"Sourced from predicthq.com - A vibrant event held on the beach in front of their hotel, occurring on selected Sundays each month with over 30 local vendors","category":"expos","start":"2024-06-23T15:00:00Z","geo":{"geometry":{"coordinates":[-70.4621124,19.7833499],"type":"Point"},"placekey":"@973-2vg-5cq","address":{"country_code":"DO","formatted_address":"Calle Paseo del Sol, Sos√∫a, Puerto Plata, 57000, Dominican Republic","locality":"Sos√∫a","postcode":"57000","region":"Puerto Plata"}},"labels":["expo","food"],"duration":18000,"start_local":"2024-06-23T11:00:00","end":"2024-06-23T20:00:00Z","end_local":"2024-06-23T16:00:00","updated":"2024-06-04T00:54:51Z"},{"title":"Dkano","description":"Sourced from predicthq.com","category":"concerts","start":"2024-06-23T01:00:00Z","geo":{"geometry":{"coordinates":[-69.93956,18.48364],"type":"Point"},"placekey":"@96r-pb2-h89","address":{"country_code":"DO","formatted_address":"√Ågora Mall, Santo Domingo 11201, Dominican Republic","postcode":"11201","locality":"Santo Domingo","region":"Distrito Nacional"}},"labels":["concert","music"],"duration":0,"start_local":"2024-06-22T21:00:00","end":"2024-06-23T01:00:00Z","end_local":"2024-06-22T21:00:00","updated":"2024-06-11T02:15:44Z"},{"title":"Michel Camilo","description":"Sourced from predicthq.com","category":"concerts","start":"2024-06-22T23:00:00Z","geo":{"geometry":{"coordinates":[-69.9109424,18.4708903],"type":"Point"},"placekey":"@96r-p9y-9xq","address":{"country_code":"DO","formatted_address":"Av. M√°ximo G√≥mez 35, Santo Domingo 10204, Dominican Republic","postcode":"10204","locality":"Santo Domingo","region":"Distrito Nacional"}},"labels":["concert","music"],"duration":0,"start_local":"2024-06-22T19:00:00","end":"2024-06-22T23:00:00Z","end_local":"2024-06-22T19:00:00","updated":"2024-06-11T00:28:35Z"},{"title":"Liga Mayor - San Crist√≥bal vs Atl√©tico Pantoja","description":"Sourced from predicthq.com","category":"sports","start":"2024-06-22T22:00:00Z","geo":{"geometry":{"coordinates":[-70.11986911296844,18.414752667118822],"type":"Point"},"placekey":"@96q-p54-fcq","address":{"country_code":"DO","formatted_address":"CV7J+V2Q, San Crist√≥bal 91000, Dominican Republic","postcode":"91000","locality":"San Crist√≥bal","region":"San Crist√≥bal Province"}},"labels":["soccer","sport"],"duration":0,"start_local":"2024-06-22T18:00:00","end":"2024-06-22T22:00:00Z","end_local":"2024-06-22T18:00:00","updated":"2024-06-11T05:21:07Z"},{"title":"Liga Mayor - Delfines Del Este vs Universidad O&M","description":"Sourced from predicthq.com","category":"sports","start":"2024-06-22T20:00:00Z","geo":{"geometry":{"coordinates":[-69.85438942909241,18.47910027408001],"type":"Point"},"placekey":"@96r-p28-ckf","address":{"country_code":"DO","formatted_address":"Avenida Estados Unidos, Santo Domingo, Dominican Republic","locality":"Santo Domingo"}},"labels":["soccer","sport"],"duration":0,"start_local":"2024-06-22T16:00:00","end":"2024-06-22T20:00:00Z","end_local":"2024-06-22T16:00:00","updated":"2024-06-11T07:42:13Z"},{"title":"InmoTur Pro","description":"Sourced from predicthq.com - ¬°Descubre las √∫ltimas tendencias y oportunidades en el mundo de la inversi√≥n inmobiliaria en el evento InmoTur Pro!","category":"conferences","start":"2024-06-22T18:00:00Z","geo":{"geometry":{"coordinates":[-69.9564062,18.4821491],"type":"Point"},"placekey":"@96r-p82-mff","address":{"country_code":"DO","formatted_address":"Santo Domingo, Distrito Nacional, Dominican Republic","locality":"Santo Domingo","region":"Distrito Nacional"}},"labels":["business","conference"],"duration":10800,"start_local":"2024-06-22T14:00:00","end":"2024-06-22T21:00:00Z","end_local":"2024-06-22T17:00:00","updated":"2024-06-13T01:17:29Z"},{"title":"Missionary Bazaar","description":"Sourced from predicthq.com - Missionary Bazaar: Un evento lleno de diversi√≥n, comida deliciosa y oportunidades para apoyar misiones alrededor del mundo. ¬°No te lo pierda","category":"expos","start":"2024-06-22T16:00:00Z","geo":{"geometry":{"coordinates":[-69.94537319999999,18.4770947],"type":"Point"},"placekey":"@96r-p9z-syv","address":{"country_code":"DO","formatted_address":"Calle Elipse, Santo Domingo, DN, Dominican Republic","locality":"Santo Domingo","region":"Distrito Nacional"}},"labels":["expo","fundraiser"],"duration":25200,"start_local":"2024-06-22T12:00:00","end":"2024-06-22T23:00:00Z","end_local":"2024-06-22T19:00:00","updated":"2024-06-20T12:39:56Z"},{"title":"Puesta en escena: Como el cine nos da lecciones de vida","description":"Sourced from predicthq.com - Hablemos del cine que inspira y nos da prop√≥sito.","category":"conferences","start":"2024-06-20T23:00:00Z","geo":{"geometry":{"coordinates":[-69.9391565,18.4696054],"type":"Point"},"placekey":"@96r-p9z-tvz","address":{"country_code":"DO","formatted_address":"Avenida Winston Churchill, Santo Domingo, DN, Dominican Republic","locality":"Santo Domingo","region":"Distrito Nacional"}},"labels":["conference","entertainment"],"duration":7200,"start_local":"2024-06-20T19:00:00","end":"2024-06-21T01:00:00Z","end_local":"2024-06-20T21:00:00","updated":"2024-06-04T00:09:44Z"},{"title":"Liga Mayor - Moca vs Cibao","description":"Sourced from predicthq.com","category":"sports","start":"2024-06-20T20:00:00Z","geo":{"geometry":{"coordinates":[-70.624736365,19.112518559],"type":"Point"},"placekey":"@95z-s66-5s5","address":{"country_code":"DO","formatted_address":"496G+Q24, Jarabacoa 41000, Dominican Republic","postcode":"41000","locality":"Jarabacoa","region":"La Vega Province"}},"labels":["soccer","sport"],"duration":0,"start_local":"2024-06-20T16:00:00","end":"2024-06-20T20:00:00Z","end_local":"2024-06-20T16:00:00","updated":"2024-06-11T06:29:15Z"},{"title":"Conversatorio: ¬øC√≥mo aplicar a FONPROCINE?","description":"Sourced from predicthq.com - Impartido por la Direcci√≥n General de Cine (DGcine). Aula Octagonal 21, Postgrado.","category":"conferences","start":"2024-06-20T15:00:00Z","geo":{"geometry":{"coordinates":[-70.6846292,19.4474364],"type":"Point"},"placekey":"@95z-wx2-jvz","address":{"country_code":"DO","formatted_address":"Santiago de los Caballeros, Santiago Province, 51000, Dominican Republic","locality":"Santiago de los Caballeros","postcode":"51000","region":"Santiago Province"}},"labels":["conference","entertainment"],"duration":5400,"start_local":"2024-06-20T11:00:00","end":"2024-06-20T16:30:00Z","end_local":"2024-06-20T12:30:00","updated":"2024-06-20T01:03:36Z"},{"title":"Bond Dise√±otel","description":"Sourced from predicthq.com","category":"expos","start":"2024-06-20T13:00:00Z","geo":{"geometry":{"coordinates":[-68.419944,18.678128],"type":"Point"},"placekey":"@96m-r8d-7wk","address":{"country_code":"DO","formatted_address":"Avenida Alemania, Punta Cana, La Altagracia, 23000, Dominican Republic","locality":"Punta Cana","postcode":"23000","region":"La Altagracia"}},"labels":["expo"],"duration":291600,"start_local":"2024-06-20T09:00:00","end":"2024-06-23T22:00:00Z","end_local":"2024-06-23T18:00:00","updated":"2024-06-16T00:34:45Z"},{"title":"RESILIENCIA LATAM 2024","description":"Sourced from predicthq.com - En 2024,  durante 2 d√≠as, disfruta el 5to Congreso RESILIENCIA LATAM en Santo Domingo, Rep√∫blica Dominicana.","category":"conferences","start":"2024-06-20T12:00:00Z","geo":{"geometry":{"coordinates":[-69.90986,18.457885],"type":"Point"},"placekey":"@96r-pb3-3wk","address":{"country_code":"DO","formatted_address":"Av. George Washington 500, Santo Domingo, Dominican Republic","locality":"Santo Domingo","region":"Distrito Nacional"}},"labels":["business","conference"],"duration":127800,"start_local":"2024-06-20T08:00:00","end":"2024-06-21T23:30:00Z","end_local":"2024-06-21T19:30:00","updated":"2024-06-04T06:25:23Z"},{"title":"Paradise Garage presents The Illusions Show","description":"Sourced from predicthq.com - Join us for a night of Entertainment, As we present Illusions \"Where some of Punta Cana's most beautiful women are, MEN!\"","category":"performing-arts","start":"2024-06-20T00:00:00Z","geo":{"geometry":{"coordinates":[-68.4032874,18.6449192],"type":"Point"},"placekey":"@96m-qs3-k75","address":{"country_code":"DO","formatted_address":"Punta Cana, La Altagracia, 23000, Dominican Republic","locality":"Punta Cana","postcode":"23000","region":"La Altagracia"}},"labels":["concert","music","performing-arts"],"duration":10800,"start_local":"2024-06-19T20:00:00","end":"2024-06-20T03:00:00Z","end_local":"2024-06-19T23:00:00","updated":"2024-06-20T08:54:11Z"},{"title":"PANEL CONOCE MI TESIS","description":"Sourced from predicthq.com - PANEL CONOCE MI TESIS","category":"conferences","start":"2024-06-19T22:15:00Z","geo":{"geometry":{"coordinates":[-69.91560129999999,18.4687435],"type":"Point"},"placekey":"@96r-pb3-j5f","address":{"country_code":"DO","formatted_address":"Calle C√©sar Nicol√°s Penson, Santo Domingo, DN, 10106, Dominican Republic","locality":"Santo Domingo","postcode":"10106","region":"Distrito Nacional"}},"labels":["conference","science","technology"],"duration":4500,"start_local":"2024-06-19T18:15:00","end":"2024-06-19T23:30:00Z","end_local":"2024-06-19T19:30:00","updated":"2024-06-11T06:08:53Z"},{"title":"Liga Mayor - Atl√©tico Pantoja vs Atl√°ntico","description":"Sourced from predicthq.com","category":"sports","start":"2024-06-19T22:00:00Z","geo":{"geometry":{"coordinates":[-70.11986911296844,18.414752667118822],"type":"Point"},"placekey":"@96q-p54-fcq","address":{"country_code":"DO","formatted_address":"CV7J+V2Q, San Crist√≥bal 91000, Dominican Republic","postcode":"91000","locality":"San Crist√≥bal","region":"San Crist√≥bal Province"}},"labels":["soccer","sport"],"duration":0,"start_local":"2024-06-19T18:00:00","end":"2024-06-19T22:00:00Z","end_local":"2024-06-19T18:00:00","updated":"2024-06-11T00:51:58Z"},{"title":"Liga Mayor - Universidad O&M vs San Crist√≥bal","description":"Sourced from predicthq.com","category":"sports","start":"2024-06-19T20:00:00Z","geo":{"geometry":{"coordinates":[-69.85438942909241,18.47910027408001],"type":"Point"},"placekey":"@96r-p28-ckf","address":{"country_code":"DO","formatted_address":"Avenida Estados Unidos, Santo Domingo, Dominican Republic","locality":"Santo Domingo"}},"labels":["soccer","sport"],"duration":0,"start_local":"2024-06-19T16:00:00","end":"2024-06-19T20:00:00Z","end_local":"2024-06-19T16:00:00","updated":"2024-06-11T03:31:57Z"},{"title":"Liga Mayor - Vega Real vs Delfines Del Este","description":"Sourced from predicthq.com","category":"sports","start":"2024-06-19T20:00:00Z","geo":{"geometry":{"coordinates":[-70.624736365,19.112518559],"type":"Point"},"placekey":"@95z-s66-5s5","address":{"country_code":"DO","formatted_address":"496G+Q24, Jarabacoa 41000, Dominican Republic","postcode":"41000","locality":"Jarabacoa","region":"La Vega Province"}},"labels":["soccer","sport"],"duration":0,"start_local":"2024-06-19T16:00:00","end":"2024-06-19T20:00:00Z","end_local":"2024-06-19T16:00:00","updated":"2024-06-11T02:20:25Z"},{"title":"4ta edici√≥n:  Conversatorios M√∫sicapress TV.","description":"Sourced from predicthq.com - Rep√∫blica Dominicana es la meca musical del Caribe.","category":"conferences","start":"2024-06-19T19:30:00Z","geo":{"geometry":{"coordinates":[-69.9391565,18.4696054],"type":"Point"},"placekey":"@96r-p9z-tvz","address":{"country_code":"DO","formatted_address":"Avenida Winston Churchill, Santo Domingo, DN, Dominican Republic","locality":"Santo Domingo","region":"Distrito Nacional"}},"labels":["conference","music"],"duration":18000,"start_local":"2024-06-19T15:30:00","end":"2024-06-20T00:30:00Z","end_local":"2024-06-19T20:30:00","updated":"2024-05-30T03:59:39Z"},{"title":"Conferencia: Lo que duele tiene un origen.","description":"Sourced from predicthq.com - Descubre las posibles ra√≠ces de lo duele: Entendiendo su origen","category":"conferences","start":"2024-06-18T00:00:00Z","geo":{"geometry":{"coordinates":[-69.9391565,18.4696054],"type":"Point"},"placekey":"@96r-p9z-tvz","address":{"country_code":"DO","formatted_address":"Avenida Winston Churchill, Santo Domingo, DN, Dominican Republic","locality":"Santo Domingo","region":"Distrito Nacional"}},"labels":["business","conference"],"duration":3600,"start_local":"2024-06-17T20:00:00","end":"2024-06-18T01:00:00Z","end_local":"2024-06-17T21:00:00","updated":"2024-05-30T03:51:32Z"},{"title":"Liga Mayor - San Crist√≥bal vs Delfines Del Este","description":"Sourced from predicthq.com","category":"sports","start":"2024-06-16T22:00:00Z","geo":{"geometry":{"coordinates":[-70.11986911296844,18.414752667118822],"type":"Point"},"placekey":"@96q-p54-fcq","address":{"country_code":"DO","formatted_address":"CV7J+V2Q, San Crist√≥bal 91000, Dominican Republic","postcode":"91000","locality":"San Crist√≥bal","region":"San Crist√≥bal Province"}},"labels":["soccer","sport"],"duration":0,"start_local":"2024-06-16T18:00:00","end":"2024-06-16T22:00:00Z","end_local":"2024-06-16T18:00:00","updated":"2024-06-11T03:34:09Z"},{"title":"Liga Mayor - Cibao vs Atl√©tico Pantoja","description":"Sourced from predicthq.com","category":"sports","start":"2024-06-16T20:00:00Z","geo":{"geometry":{"coordinates":[-70.68090772153471,19.44122805402767],"type":"Point"},"placekey":"@95z-wwt-s3q","address":{"country_code":"DO","formatted_address":"Autopista Duarte Km 1 1/2, Santiago De Los Caballeros 51000, Dominican Republic","postcode":"51000","locality":"Santiago De Los Caballeros","region":"Santiago"}},"labels":["soccer","sport"],"duration":0,"start_local":"2024-06-16T16:00:00","end":"2024-06-16T20:00:00Z","end_local":"2024-06-16T16:00:00","updated":"2024-06-11T10:04:03Z"},{"title":"Eliacim","description":"Sourced from predicthq.com","category":"concerts","start":"2024-06-16T01:00:00Z","geo":{"geometry":{"coordinates":[-69.92897,18.48148],"type":"Point"},"placekey":"@96r-pb2-5fz","address":{"country_code":"DO","formatted_address":"Av. Tiradentes, Santo Domingo, Dominican Republic","locality":"Santo Domingo","region":"Distrito Nacional"}},"labels":["concert","music"],"duration":0,"start_local":"2024-06-15T21:00:00","end":"2024-06-16T01:00:00Z","end_local":"2024-06-15T21:00:00","updated":"2024-06-30T01:04:57Z"},{"title":"Christian Nodal","description":"Sourced from predicthq.com","category":"concerts","start":"2024-06-15T22:00:00Z","geo":{"geometry":{"coordinates":[-69.9267134,18.4883901],"type":"Point"},"placekey":"@96r-pb7-jvz","address":{"country_code":"DO","formatted_address":"Ens. La F√©, Av. Tiradentes, Santo Domingo, Dominican Republic","locality":"Santo Domingo","region":"Distrito Nacional"}},"labels":["concert","music"],"duration":0,"start_local":"2024-06-15T18:00:00","end":"2024-06-15T22:00:00Z","end_local":"2024-06-15T18:00:00","updated":"2024-06-29T22:04:42Z"},{"title":"Liga Mayor - Moca vs Vega Real","description":"Sourced from predicthq.com","category":"sports","start":"2024-06-15T20:00:00Z","geo":{"geometry":{"coordinates":[-70.624736365,19.112518559],"type":"Point"},"placekey":"@95z-s66-5s5","address":{"country_code":"DO","formatted_address":"496G+Q24, Jarabacoa 41000, Dominican Republic","postcode":"41000","locality":"Jarabacoa","region":"La Vega Province"}},"labels":["soccer","sport"],"duration":0,"start_local":"2024-06-15T16:00:00","end":"2024-06-15T20:00:00Z","end_local":"2024-06-15T16:00:00","updated":"2024-06-11T04:22:07Z"},{"title":"Google I/O Extended Santo Domingo 2024","description":"Sourced from predicthq.com - ¬°No te pierdas el Google I/O Extended Sto Dgo 2024!  Charlas, talleres, novedades Google I/O y networking. ¬°Reg√≠strate ya! Cupo limitado.","category":"conferences","start":"2024-06-15T17:30:00Z","geo":{"geometry":{"coordinates":[-69.9136638,18.4735048],"type":"Point"},"placekey":"@96r-p9w-j7q","address":{"country_code":"DO","formatted_address":"Av. M√°ximo G√≥mez 72, Santo Domingo 10100, Dominican Republic","postcode":"10100","locality":"Santo Domingo","region":"Distrito Nacional"}},"labels":["conference","science","technology"],"duration":12600,"start_local":"2024-06-15T13:30:00","end":"2024-06-15T21:00:00Z","end_local":"2024-06-15T17:00:00","updated":"2024-05-30T03:59:44Z"},{"title":"Strider Adventure Zone by Gcrossbikes","description":"Sourced from predicthq.com - ¬°Los ni√±os ser√°n los reyes de las ruedas! √önete a nuestra experiencia  donde la diversi√≥n y el ciclismo se fusionan desde temprana edad.","category":"conferences","start":"2024-06-15T14:00:00Z","geo":{"geometry":{"coordinates":[-69.9391565,18.4696054],"type":"Point"},"placekey":"@96r-p9z-tvz","address":{"country_code":"DO","formatted_address":"Avenida Winston Churchill, Santo Domingo, DN, Dominican Republic","locality":"Santo Domingo","region":"Distrito Nacional"}},"labels":["conference","music"],"duration":28800,"start_local":"2024-06-15T10:00:00","end":"2024-06-15T22:00:00Z","end_local":"2024-06-15T18:00:00","updated":"2024-05-30T01:11:18Z"},{"title":"Paramerican Congress","description":"Sourced from predicthq.com","category":"conferences","start":"2024-06-15T13:00:00Z","geo":{"geometry":{"coordinates":[-68.4829498,18.7330179],"type":"Point"},"placekey":"@96m-xpt-kvf","address":{"country_code":"DO","formatted_address":"Km 28, #74, Blvd. Tur√≠stico del Este, Punta Cana 23000, Dominican Republic","postcode":"23000","locality":"Punta Cana","region":"La Altagracia"}},"labels":["conference"],"duration":378000,"start_local":"2024-06-15T09:00:00","end":"2024-06-19T22:00:00Z","end_local":"2024-06-19T18:00:00","updated":"2024-06-04T02:20:38Z"},{"title":"Unlocking Opportunities in Dominican Republic's Thriving Real Estate Market","description":"Sourced from predicthq.com - Join us to learn how to unlock opportunities in the booming real estate market of the Dominican Republic!","category":"conferences","start":"2024-06-14T13:00:00Z","geo":{"geometry":{"coordinates":[-68.4655222,18.728607],"type":"Point"},"placekey":"@96m-r7v-rzf","address":{"country_code":"DO","formatted_address":"Carretera El Macao - Arena Gorda, Punta Cana, La Altagracia, 23000, Dominican Republic","locality":"Punta Cana","postcode":"23000","region":"La Altagracia"}},"labels":["business","conference"],"duration":18000,"start_local":"2024-06-14T09:00:00","end":"2024-06-14T18:00:00Z","end_local":"2024-06-14T14:00:00","updated":"2024-06-04T02:51:34Z"},{"title":"Conferencia: V√≠stete para el trabajo de tus sue√±os.","description":"Sourced from predicthq.com - Viste para el trabajo de tus sue√±os y proyecta tu mejor versi√≥n profesional.","category":"conferences","start":"2024-06-13T22:30:00Z","geo":{"geometry":{"coordinates":[-69.9391565,18.4696054],"type":"Point"},"placekey":"@96r-p9z-tvz","address":{"country_code":"DO","formatted_address":"Avenida Winston Churchill, Santo Domingo, DN, Dominican Republic","locality":"Santo Domingo","region":"Distrito Nacional"}},"labels":["conference","fashion"],"duration":7200,"start_local":"2024-06-13T18:30:00","end":"2024-06-14T00:30:00Z","end_local":"2024-06-13T20:30:00","updated":"2024-05-30T01:20:41Z"},{"title":"Paradise Garage presents The Illusions Show","description":"Sourced from predicthq.com - Join us for a night of Entertainment, As we present Illusions \"Where some of Punta Cana's most beautiful women are, MEN!\"","category":"performing-arts","start":"2024-06-13T00:00:00Z","geo":{"geometry":{"coordinates":[-68.4032874,18.6449192],"type":"Point"},"placekey":"@96m-qs3-k75","address":{"country_code":"DO","formatted_address":"Punta Cana, La Altagracia, 23000, Dominican Republic","locality":"Punta Cana","postcode":"23000","region":"La Altagracia"}},"labels":["concert","music","performing-arts"],"duration":10800,"start_local":"2024-06-12T20:00:00","end":"2024-06-13T03:00:00Z","end_local":"2024-06-12T23:00:00","updated":"2024-06-13T00:49:29Z"},{"title":"Gente de La Gente Podcast Live","description":"Sourced from predicthq.com - Aprende a pensar en positivo ante la vida y  tomar acci√≥n.","category":"conferences","start":"2024-06-11T23:00:00Z","geo":{"geometry":{"coordinates":[-69.9391565,18.4696054],"type":"Point"},"placekey":"@96r-p9z-tvz","address":{"country_code":"DO","formatted_address":"Avenida Winston Churchill, Santo Domingo, DN, Dominican Republic","locality":"Santo Domingo","region":"Distrito Nacional"}},"labels":["conference","entertainment"],"duration":7200,"start_local":"2024-06-11T19:00:00","end":"2024-06-12T01:00:00Z","end_local":"2024-06-11T21:00:00","updated":"2024-05-23T02:23:27Z"},{"title":"Transportation metro plaza Jun 10  hasta 16 de Jun PICK UP","description":"Sourced from predicthq.com - Transporte","category":"expos","start":"2024-06-10T12:00:00Z","geo":{"geometry":{"coordinates":[-69.94919949999999,18.4784807],"type":"Point"},"placekey":"@96r-p82-b6k","address":{"country_code":"DO","formatted_address":"Santo Domingo, Distrito Nacional, Dominican Republic","locality":"Santo Domingo","region":"Distrito Nacional"}},"labels":["expo","outdoor"],"duration":550800,"start_local":"2024-06-10T08:00:00","end":"2024-06-16T21:00:00Z","end_local":"2024-06-16T17:00:00","updated":"2024-06-13T00:36:32Z"},{"title":"PRELIMINAR MISS GARDENIAS RD 2024.","description":"Sourced from predicthq.com - Ven a disfrutar  el talento y la moda en un mismo lugar.","category":"conferences","start":"2024-06-09T21:30:00Z","geo":{"geometry":{"coordinates":[-69.9391565,18.4696054],"type":"Point"},"placekey":"@96r-p9z-tvz","address":{"country_code":"DO","formatted_address":"Avenida Winston Churchill, Santo Domingo, DN, Dominican Republic","locality":"Santo Domingo","region":"Distrito Nacional"}},"labels":["conference","fashion"],"duration":5400,"start_local":"2024-06-09T17:30:00","end":"2024-06-09T23:00:00Z","end_local":"2024-06-09T19:00:00","updated":"2024-06-04T06:21:06Z"},{"title":"ADOARH 5K Carrera-Caminata","description":"Sourced from predicthq.com","category":"sports","start":"2024-06-09T04:00:00Z","geo":{"geometry":{"coordinates":[-69.9381448,18.449874],"type":"Point"},"placekey":"@96r-p8f-3nq","address":{"country_code":"DO","formatted_address":"Avenida Mirador Sur, Santo Domingo, DN, Dominican Republic","locality":"Santo Domingo","region":"Distrito Nacional"}},"labels":["outdoor-sports","running","sport"],"duration":86399,"start_local":"2024-06-09T00:00:00","end":"2024-06-10T03:59:59Z","end_local":"2024-06-09T23:59:59","updated":"2024-06-04T05:51:36Z"},{"title":"Liga Mayor - San Crist√≥bal vs Moca","description":"Sourced from predicthq.com","category":"sports","start":"2024-06-08T20:00:00Z","geo":{"geometry":{"coordinates":[-69.85438942909241,18.47910027408001],"type":"Point"},"placekey":"@96r-p28-ckf","address":{"country_code":"DO","formatted_address":"Avenida Estados Unidos, Santo Domingo, Dominican Republic","locality":"Santo Domingo"}},"labels":["soccer","sport"],"duration":0,"start_local":"2024-06-08T16:00:00","end":"2024-06-08T20:00:00Z","end_local":"2024-06-08T16:00:00","updated":"2024-06-12T07:08:23Z"},{"title":"Aljadaqui and Los Novel Poppys","description":"Sourced from predicthq.com","category":"concerts","start":"2024-06-08T00:00:00Z","geo":{"geometry":{"coordinates":[-69.94108,18.4728],"type":"Point"},"placekey":"@96r-p9z-pd9","address":{"country_code":"DO","formatted_address":"Blue Mall (piso 4), Avenida Winston Churchill 80, Santo Domingo 10127, Dominican Republic","postcode":"10127","locality":"Santo Domingo","region":"Distrito Nacional"}},"labels":["concert","music"],"duration":0,"start_local":"2024-06-07T20:00:00","end":"2024-06-08T00:00:00Z","end_local":"2024-06-07T20:00:00","updated":"2024-06-25T15:40:23Z"},{"title":"Lanzamiento Oficial de Premios El Galard√≥n Internacional","description":"Sourced from predicthq.com - Ven y disfruta del  m√°s alto reconocimiento de la m√∫sica hispana.","category":"conferences","start":"2024-06-07T23:00:00Z","geo":{"geometry":{"coordinates":[-69.9391565,18.4696054],"type":"Point"},"placekey":"@96r-p9z-tvz","address":{"country_code":"DO","formatted_address":"Avenida Winston Churchill, Santo Domingo, DN, Dominican Republic","locality":"Santo Domingo","region":"Distrito Nacional"}},"labels":["conference","entertainment"],"duration":7200,"start_local":"2024-06-07T19:00:00","end":"2024-06-08T01:00:00Z","end_local":"2024-06-07T21:00:00","updated":"2024-05-23T04:52:50Z"},{"title":"Conferencia: Construye una mejor versi√≥n de ti","description":"Sourced from predicthq.com - Descubre tu potencial y transforma tu vida.","category":"conferences","start":"2024-06-06T23:00:00Z","geo":{"geometry":{"coordinates":[-69.9391565,18.4696054],"type":"Point"},"placekey":"@96r-p9z-tvz","address":{"country_code":"DO","formatted_address":"Avenida Winston Churchill, Santo Domingo, DN, Dominican Republic","locality":"Santo Domingo","region":"Distrito Nacional"}},"labels":["conference","household"],"duration":7200,"start_local":"2024-06-06T19:00:00","end":"2024-06-07T01:00:00Z","end_local":"2024-06-06T21:00:00","updated":"2024-06-04T10:22:14Z"},{"title":"Aprende, Emprende y Embellece","description":"Sourced from predicthq.com - Ven y aprende de expertos, emprende tu propio camino y embellece tu vida en nuestro evento lleno de inspiraci√≥n y oportunidades.","category":"conferences","start":"2024-06-06T22:00:00Z","geo":{"geometry":{"coordinates":[-69.9564062,18.4821491],"type":"Point"},"placekey":"@96r-p82-mff","address":{"country_code":"DO","formatted_address":"Santo Domingo, Distrito Nacional, Dominican Republic","locality":"Santo Domingo","region":"Distrito Nacional"}},"labels":["business","conference"],"duration":7200,"start_local":"2024-06-06T18:00:00","end":"2024-06-07T00:00:00Z","end_local":"2024-06-06T20:00:00","updated":"2024-06-06T01:25:25Z"},{"title":"Annual Illuminating Engineering Society Maritime Regional Conference","description":"Sourced from predicthq.com","category":"conferences","start":"2024-06-06T13:00:00Z","geo":{"geometry":{"coordinates":[-68.46158,18.728229],"type":"Point"},"placekey":"@96m-r7w-qzz","address":{"country_code":"DO","formatted_address":"Punta Cana, La Altagracia Province, 23000, Dominican Republic","locality":"Punta Cana","postcode":"23000","region":"La Altagracia Province"}},"labels":["conference"],"duration":291600,"start_local":"2024-06-06T09:00:00","end":"2024-06-09T22:00:00Z","end_local":"2024-06-09T18:00:00","updated":"2024-06-03T20:07:33Z"},{"title":"W.O.W","description":"Sourced from predicthq.com - Every Wednesday at Meet","category":"conferences","start":"2024-06-06T00:00:00Z","geo":{"geometry":{"coordinates":[-69.869815,18.4949421],"type":"Point"},"placekey":"@96r-p2k-bx5","address":{"country_code":"DO","formatted_address":"Calle Jose Cabrera, Santo Domingo Este, Santo Domingo, 11501, Dominican Republic","locality":"Santo Domingo Este","postcode":"11501","region":"Santo Domingo"}},"labels":["community","conference"],"duration":12600,"start_local":"2024-06-05T20:00:00","end":"2024-06-06T03:30:00Z","end_local":"2024-06-05T23:30:00","updated":"2024-06-06T01:24:49Z"},{"title":"Paradise Garage presents The Illusions Show","description":"Sourced from predicthq.com - Join us for a night of Entertainment, As we present Illusions \"Where some of Punta Cana's most beautiful women are, MEN!\"","category":"performing-arts","start":"2024-06-06T00:00:00Z","geo":{"geometry":{"coordinates":[-68.4032874,18.6449192],"type":"Point"},"placekey":"@96m-qs3-k75","address":{"country_code":"DO","formatted_address":"Punta Cana, La Altagracia, 23000, Dominican Republic","locality":"Punta Cana","postcode":"23000","region":"La Altagracia"}},"labels":["concert","music","performing-arts"],"duration":10800,"start_local":"2024-06-05T20:00:00","end":"2024-06-06T03:00:00Z","end_local":"2024-06-05T23:00:00","updated":"2024-05-30T06:27:42Z"},{"title":"simon grossmann and Lena Dardelet","description":"Sourced from predicthq.com","category":"community","start":"2024-06-05T23:00:00Z","geo":{"geometry":{"coordinates":[-69.93127,18.46749],"type":"Point"},"placekey":"@96r-p9z-jd9","address":{"country_code":"DO","formatted_address":"F389+XFX, Av. Abraham Lincoln, Santo Domingo, Dominican Republic","locality":"Santo Domingo","region":"Distrito Nacional"}},"labels":["concert","music"],"duration":0,"start_local":"2024-06-05T19:00:00","end":"2024-06-05T23:00:00Z","end_local":"2024-06-05T19:00:00","updated":"2024-06-05T10:46:09Z"},{"title":"Marketing Tech Summit Rep√∫blica Dominicana","description":"Sourced from predicthq.com - Permitir√° al asistente actualizarse y hacer negocios , as√≠ como conocer los temas a tener en cuenta para el desarrollo del marketing","category":"conferences","start":"2024-06-04T12:00:00Z","geo":{"geometry":{"coordinates":[-69.9312117,18.4860575],"type":"Point"},"placekey":"@96r-pb7-hbk","address":{"country_code":"DO","formatted_address":"Calle A, Santo Domingo, DN, 15700, Dominican Republic","locality":"Santo Domingo","postcode":"15700","region":"Distrito Nacional"}},"labels":["business","conference"],"duration":36000,"start_local":"2024-06-04T08:00:00","end":"2024-06-04T22:00:00Z","end_local":"2024-06-04T18:00:00","updated":"2024-06-12T03:19:57Z"},{"title":"Liga Mayor - Delfines Del Este vs Atl√°ntico","description":"Sourced from predicthq.com","category":"sports","start":"2024-06-03T20:00:00Z","geo":{"geometry":{"coordinates":[-69.85438942909241,18.47910027408001],"type":"Point"},"placekey":"@96r-p28-ckf","address":{"country_code":"DO","formatted_address":"Avenida Estados Unidos, Santo Domingo, Dominican Republic","locality":"Santo Domingo"}},"labels":["soccer","sport"],"duration":0,"start_local":"2024-06-03T16:00:00","end":"2024-06-03T20:00:00Z","end_local":"2024-06-03T16:00:00","updated":"2024-06-12T02:16:57Z"},{"title":"Transportation metro plaza Jun 3 hasta  9 de Jun PICK UP","description":"Sourced from predicthq.com - Transporte","category":"expos","start":"2024-06-03T12:00:00Z","geo":{"geometry":{"coordinates":[-69.94919949999999,18.4784807],"type":"Point"},"placekey":"@96r-p82-b6k","address":{"country_code":"DO","formatted_address":"Santo Domingo, Distrito Nacional, Dominican Republic","locality":"Santo Domingo","region":"Distrito Nacional"}},"labels":["expo","outdoor"],"duration":550800,"start_local":"2024-06-03T08:00:00","end":"2024-06-09T21:00:00Z","end_local":"2024-06-09T17:00:00","updated":"2024-06-06T05:34:46Z"},{"title":"Liga Mayor - Atl√©tico Pantoja vs Moca","description":"Sourced from predicthq.com","category":"sports","start":"2024-06-02T22:00:00Z","geo":{"geometry":{"coordinates":[-70.11986911296844,18.414752667118822],"type":"Point"},"placekey":"@96q-p54-fcq","address":{"country_code":"DO","formatted_address":"CV7J+V2Q, San Crist√≥bal 91000, Dominican Republic","postcode":"91000","locality":"San Crist√≥bal","region":"San Crist√≥bal Province"}},"labels":["soccer","sport"],"duration":0,"start_local":"2024-06-02T18:00:00","end":"2024-06-02T22:00:00Z","end_local":"2024-06-02T18:00:00","updated":"2024-06-12T07:45:37Z"},{"title":"Liga Mayor - Universidad O&M vs Cibao","description":"Sourced from predicthq.com","category":"sports","start":"2024-06-02T20:00:00Z","geo":{"geometry":{"coordinates":[-69.85438942909241,18.47910027408001],"type":"Point"},"placekey":"@96r-p28-ckf","address":{"country_code":"DO","formatted_address":"Avenida Estados Unidos, Santo Domingo, Dominican Republic","locality":"Santo Domingo"}},"labels":["soccer","sport"],"duration":0,"start_local":"2024-06-02T16:00:00","end":"2024-06-02T20:00:00Z","end_local":"2024-06-02T16:00:00","updated":"2024-06-11T21:45:58Z"},{"title":"Liga Mayor - Vega Real vs San Crist√≥bal","description":"Sourced from predicthq.com","category":"sports","start":"2024-06-02T20:00:00Z","geo":{"geometry":{"coordinates":[-70.624736365,19.112518559],"type":"Point"},"placekey":"@95z-s66-5s5","address":{"country_code":"DO","formatted_address":"496G+Q24, Jarabacoa 41000, Dominican Republic","postcode":"41000","locality":"Jarabacoa","region":"La Vega Province"}},"labels":["soccer","sport"],"duration":0,"start_local":"2024-06-02T16:00:00","end":"2024-06-02T20:00:00Z","end_local":"2024-06-02T16:00:00","updated":"2024-06-11T22:16:38Z"},{"title":"Presentaci√≥n Musical:  √ârase una vez","description":"Sourced from predicthq.com - Emb√°rcate en un viaje m√°gico a trav√©s del arte.","category":"conferences","start":"2024-06-02T20:00:00Z","geo":{"geometry":{"coordinates":[-69.9391565,18.4696054],"type":"Point"},"placekey":"@96r-p9z-tvz","address":{"country_code":"DO","formatted_address":"Avenida Winston Churchill, Santo Domingo, DN, Dominican Republic","locality":"Santo Domingo","region":"Distrito Nacional"}},"labels":["conference","fashion"],"duration":7200,"start_local":"2024-06-02T16:00:00","end":"2024-06-02T22:00:00Z","end_local":"2024-06-02T18:00:00","updated":"2024-06-04T10:39:06Z"},{"title":"Wason Brazob√†n","description":"Sourced from predicthq.com","category":"concerts","start":"2024-06-02T02:00:00Z","geo":{"geometry":{"coordinates":[-70.2753249,19.2857907],"type":"Point"},"placekey":"@96r-vdz-dn5","address":{"country_code":"DO","formatted_address":"Pte, Av. Pdte. Antonio Guzm√°n Fernandez, San Francisco de Macor√≠s 31000, Dominican Republic","postcode":"31000","locality":"San Francisco de Macor√≠s","region":"Duarte"}},"labels":["concert","music"],"duration":0,"start_local":"2024-06-01T22:00:00","end":"2024-06-02T02:00:00Z","end_local":"2024-06-01T22:00:00","updated":"2024-06-16T02:25:18Z"},{"title":"Playita Sound @Juan Dolio Beach // S√°bado 1.¬∫ de  Junio","description":"Sourced from predicthq.com - Ven y se parte de esta nueva tempora 2024 de Playita Sound","category":"concerts","start":"2024-06-01T21:00:00Z","geo":{"geometry":{"coordinates":[-69.3900752,18.4274188],"type":"Point"},"placekey":"@96r-x74-fpv","address":{"country_code":"DO","formatted_address":"Carretera Nueva, Playa Juan Dolio, San Pedro de Macoris, 21000, Dominican Republic","locality":"Playa Juan Dolio","postcode":"21000","region":"San Pedro de Macoris"}},"labels":["concert","music"],"duration":0,"start_local":"2024-06-01T17:00:00","end":"2024-06-01T21:00:00Z","end_local":"2024-06-01T17:00:00","updated":"2024-06-15T21:05:57Z"},{"title":"Conexi√≥n de Traders Globales  Rep√∫blica Dominicana","description":"Sourced from predicthq.com - es un encuentro transformador que pretende tender puentes entre inversores, empresarios y entusiastas de los negocios.","category":"conferences","start":"2024-06-01T21:00:00Z","geo":{"geometry":{"coordinates":[-68.72262599999999,18.6172527],"type":"Point"},"placekey":"@96m-t9q-pd9","address":{"country_code":"DO","formatted_address":"Higuey, La Altagracia Province, 23000, Dominican Republic","locality":"Higuey","postcode":"23000","region":"La Altagracia Province"}},"labels":["business","conference"],"duration":10800,"start_local":"2024-06-01T17:00:00","end":"2024-06-02T00:00:00Z","end_local":"2024-06-01T20:00:00","updated":"2024-05-25T04:47:15Z"},{"title":"Lanzamiento de verano CBDN  2024.","description":"Sourced from predicthq.com - Aprende a prevenir incendios y accidentes provocados por ni√±os por jugar con fuego y/o no cuidarse.","category":"conferences","start":"2024-06-01T18:00:00Z","geo":{"geometry":{"coordinates":[-69.9391565,18.4696054],"type":"Point"},"placekey":"@96r-p9z-tvz","address":{"country_code":"DO","formatted_address":"Avenida Winston Churchill, Santo Domingo, DN, Dominican Republic","locality":"Santo Domingo","region":"Distrito Nacional"}},"labels":["conference","household"],"duration":10800,"start_local":"2024-06-01T14:00:00","end":"2024-06-01T21:00:00Z","end_local":"2024-06-01T17:00:00","updated":"2024-06-03T23:45:34Z"},{"title":"Wet Affair Punta Cana Pool party 2024","description":"Sourced from predicthq.com - ¬°Ven a la fiesta de piscina m√°s salvaje de Punta Cana en el 2024, llena de diversi√≥n bajo el sol y mucha agua!","category":"community","start":"2024-06-01T13:00:00Z","geo":{"geometry":{"coordinates":[-68.44426899999999,18.5977123],"type":"Point"},"placekey":"@96m-qqg-s89","address":{"country_code":"DO","formatted_address":"Punta Cana, La Altagracia, 23000, Dominican Republic","locality":"Punta Cana","postcode":"23000","region":"La Altagracia"}},"labels":["concert","music","outdoor"],"duration":36000,"start_local":"2024-06-01T09:00:00","end":"2024-06-01T23:00:00Z","end_local":"2024-06-01T19:00:00","updated":"2024-06-04T12:07:48Z"},{"title":"Conferencia: C√≥mo cuidar tu piel en la era moderna.","description":"Sourced from predicthq.com - ¬°Tu piel merece ser tu prioridad!","category":"conferences","start":"2024-05-31T22:00:00Z","geo":{"geometry":{"coordinates":[-69.9391565,18.4696054],"type":"Point"},"placekey":"@96r-p9z-tvz","address":{"country_code":"DO","formatted_address":"Avenida Winston Churchill, Santo Domingo, DN, Dominican Republic","locality":"Santo Domingo","region":"Distrito Nacional"}},"labels":["conference","health"],"duration":7200,"start_local":"2024-05-31T18:00:00","end":"2024-06-01T00:00:00Z","end_local":"2024-05-31T20:00:00","updated":"2024-05-23T23:07:57Z"},{"title":"Liga Mayor - Moca vs Universidad O&M","description":"Sourced from predicthq.com","category":"sports","start":"2024-05-30T20:00:00Z","geo":{"geometry":{"coordinates":[-70.624736365,19.112518559],"type":"Point"},"placekey":"@95z-s66-5s5","address":{"country_code":"DO","formatted_address":"496G+Q24, Jarabacoa 41000, Dominican Republic","postcode":"41000","locality":"Jarabacoa","region":"La Vega Province"}},"labels":["soccer","sport"],"duration":0,"start_local":"2024-05-30T16:00:00","end":"2024-05-30T20:00:00Z","end_local":"2024-05-30T16:00:00","updated":"2024-06-12T11:40:17Z"},{"title":"Liga Mayor - Cibao vs Delfines Del Este","description":"Sourced from predicthq.com","category":"sports","start":"2024-05-30T20:00:00Z","geo":{"geometry":{"coordinates":[-70.68090772153471,19.44122805402767],"type":"Point"},"placekey":"@95z-wwt-s3q","address":{"country_code":"DO","formatted_address":"Autopista Duarte Km 1 1/2, Santiago De Los Caballeros 51000, Dominican Republic","postcode":"51000","locality":"Santiago De Los Caballeros","region":"Santiago"}},"labels":["soccer","sport"],"duration":0,"start_local":"2024-05-30T16:00:00","end":"2024-05-30T20:00:00Z","end_local":"2024-05-30T16:00:00","updated":"2024-06-12T09:05:42Z"},{"title":"Liga Mayor - Atl√°ntico vs San Crist√≥bal","description":"Sourced from predicthq.com","category":"sports","start":"2024-05-30T20:00:00Z","geo":{"geometry":{"coordinates":[-70.6812028757492,19.792080513969744],"type":"Point"},"placekey":"@95z-wkh-qxq","address":{"country_code":"DO","formatted_address":"Av. Luis Ginebra, Puerto Plata 57000, Dominican Republic","postcode":"57000","locality":"Puerto Plata","region":"Puerto Plata"}},"labels":["soccer","sport"],"duration":0,"start_local":"2024-05-30T16:00:00","end":"2024-05-30T20:00:00Z","end_local":"2024-05-30T16:00:00","updated":"2024-06-12T05:46:04Z"},{"title":"MBO La Nueva Forma","description":"Sourced from predicthq.com","category":"concerts","start":"2024-05-30T19:00:00Z","geo":{"geometry":{"coordinates":[-68.99199,18.43222],"type":"Point"},"placekey":"@96s-43v-5fz","address":{"country_code":"DO","formatted_address":"Av. 14 de Junio, La Romana 22000, Dominican Republic","postcode":"22000","locality":"La Romana","region":"La Romana"}},"labels":["concert","music"],"duration":0,"start_local":"2024-05-30T15:00:00","end":"2024-05-30T19:00:00Z","end_local":"2024-05-30T15:00:00","updated":"2024-06-13T21:46:15Z"},{"title":"LOCAL COLONIAL - Mi√©rcoles 29 de Mayo","description":"Sourced from predicthq.com - Nos vemos este pr√≥ximo mi√©rcoles 29 de mayo","category":"conferences","start":"2024-05-30T01:00:00Z","geo":{"geometry":{"coordinates":[-69.8859262,18.474922],"type":"Point"},"placekey":"@96r-p2b-tjv","address":{"country_code":"DO","formatted_address":"Calle Mercedes, Santo Domingo, DN, 10210, Dominican Republic","locality":"Santo Domingo","postcode":"10210","region":"Distrito Nacional"}},"labels":["community","conference"],"duration":0,"start_local":"2024-05-29T21:00:00","end":"2024-05-30T01:00:00Z","end_local":"2024-05-29T21:00:00","updated":"2024-05-23T02:44:37Z"},{"title":"Concierto Corpus Christi","description":"Sourced from predicthq.com - Orquesta Sinf√≥nica Binacional Dominico-Venezolana & Padre Karim Gerges. ‚õ™Ô∏è","category":"concerts","start":"2024-05-29T23:00:00Z","geo":{"geometry":{"coordinates":[-69.88863479999999,18.4716744],"type":"Point"},"placekey":"@96r-p2b-s89","address":{"country_code":"DO","formatted_address":"Calle S√°nchez, Santo Domingo, DN, 10210, Dominican Republic","locality":"Santo Domingo","postcode":"10210","region":"Distrito Nacional"}},"labels":["concert","music"],"duration":7200,"start_local":"2024-05-29T19:00:00","end":"2024-05-30T01:00:00Z","end_local":"2024-05-29T21:00:00","updated":"2024-06-05T04:42:54Z"},{"title":"Liga Mayor - Atl√©tico Pantoja vs Vega Real","description":"Sourced from predicthq.com","category":"sports","start":"2024-05-29T20:00:00Z","geo":{"geometry":{"coordinates":[-69.85438942909241,18.47910027408001],"type":"Point"},"placekey":"@96r-p28-ckf","address":{"country_code":"DO","formatted_address":"Avenida Estados Unidos, Santo Domingo, Dominican Republic","locality":"Santo Domingo"}},"labels":["soccer","sport"],"duration":0,"start_local":"2024-05-29T16:00:00","end":"2024-05-29T20:00:00Z","end_local":"2024-05-29T16:00:00","updated":"2024-06-12T17:45:16Z"},{"title":"Formaci√≥n para Microempresarias y Emprendedoras:  Creciendo Juntas","description":"Sourced from predicthq.com - Conoce  como acceder a los beneficios de ser socio de una cooperativa.","category":"conferences","start":"2024-05-29T12:00:00Z","geo":{"geometry":{"coordinates":[-69.9391565,18.4696054],"type":"Point"},"placekey":"@96r-p9z-tvz","address":{"country_code":"DO","formatted_address":"Avenida Winston Churchill, Santo Domingo, DN, Dominican Republic","locality":"Santo Domingo","region":"Distrito Nacional"}},"labels":["business","conference"],"duration":21600,"start_local":"2024-05-29T08:00:00","end":"2024-05-29T18:00:00Z","end_local":"2024-05-29T14:00:00","updated":"2024-06-05T18:47:35Z"},{"title":"Lanzamiento del libro: ¬°La Rosa de Bayahibe Vive!","description":"Sourced from predicthq.com - Conoce a Karibelis y sum√©rgete en un mundo de fantas√≠as.","category":"conferences","start":"2024-05-28T23:00:00Z","geo":{"geometry":{"coordinates":[-69.9391565,18.4696054],"type":"Point"},"placekey":"@96r-p9z-tvz","address":{"country_code":"DO","formatted_address":"Avenida Winston Churchill, Santo Domingo, DN, Dominican Republic","locality":"Santo Domingo","region":"Distrito Nacional"}},"labels":["business","conference"],"duration":3600,"start_local":"2024-05-28T19:00:00","end":"2024-05-29T00:00:00Z","end_local":"2024-05-28T20:00:00","updated":"2024-06-05T12:39:53Z"},{"title":"Conferencia: Madres Resilientes.","description":"Sourced from predicthq.com - Madres que logran crear balance.","category":"conferences","start":"2024-05-27T23:00:00Z","geo":{"geometry":{"coordinates":[-69.9391565,18.4696054],"type":"Point"},"placekey":"@96r-p9z-tvz","address":{"country_code":"DO","formatted_address":"Avenida Winston Churchill, Santo Domingo, DN, Dominican Republic","locality":"Santo Domingo","region":"Distrito Nacional"}},"labels":["business","conference"],"duration":7200,"start_local":"2024-05-27T19:00:00","end":"2024-05-28T01:00:00Z","end_local":"2024-05-27T21:00:00","updated":"2024-05-23T04:56:54Z"},{"title":"Transportation metro plaza May 27 hasta 2 de Jun PICK UP","description":"Sourced from predicthq.com - Transporte","category":"expos","start":"2024-05-27T12:00:00Z","geo":{"geometry":{"coordinates":[-69.94919949999999,18.4784807],"type":"Point"},"placekey":"@96r-p82-b6k","address":{"country_code":"DO","formatted_address":"Santo Domingo, Distrito Nacional, Dominican Republic","locality":"Santo Domingo","region":"Distrito Nacional"}},"labels":["expo","outdoor"],"duration":550800,"start_local":"2024-05-27T08:00:00","end":"2024-06-02T21:00:00Z","end_local":"2024-06-02T17:00:00","updated":"2024-05-30T06:27:28Z"},{"title":"Liga Mayor - Vega Real vs Atl√°ntico","description":"Sourced from predicthq.com","category":"sports","start":"2024-05-26T20:00:00Z","geo":{"geometry":{"coordinates":[-70.624736365,19.112518559],"type":"Point"},"placekey":"@95z-s66-5s5","address":{"country_code":"DO","formatted_address":"496G+Q24, Jarabacoa 41000, Dominican Republic","postcode":"41000","locality":"Jarabacoa","region":"La Vega Province"}},"labels":["soccer","sport"],"duration":0,"start_local":"2024-05-26T16:00:00","end":"2024-05-26T20:00:00Z","end_local":"2024-05-26T16:00:00","updated":"2024-06-12T07:34:17Z"},{"title":"An Gee Vibe","description":"Sourced from predicthq.com - First time live Murphy Lc","category":"concerts","start":"2024-05-26T00:00:00Z","geo":{"geometry":{"coordinates":[-69.83963039999999,18.4687038],"type":"Point"},"placekey":"@96r-p29-tqf","address":{"country_code":"DO","formatted_address":"Santo Domingo Este, Santo Domingo Province, Dominican Republic","locality":"Santo Domingo Este","region":"Santo Domingo Province"}},"labels":["concert","music"],"duration":14340,"start_local":"2024-05-25T20:00:00","end":"2024-05-26T03:59:00Z","end_local":"2024-05-25T23:59:00","updated":"2024-06-05T09:37:17Z"},{"title":"Liga Mayor - Atl√©tico Pantoja vs Universidad O&M","description":"Sourced from predicthq.com","category":"sports","start":"2024-05-25T20:00:00Z","geo":{"geometry":{"coordinates":[-69.85438942909241,18.47910027408001],"type":"Point"},"placekey":"@96r-p28-ckf","address":{"country_code":"DO","formatted_address":"Avenida Estados Unidos, Santo Domingo, Dominican Republic","locality":"Santo Domingo"}},"labels":["soccer","sport"],"duration":0,"start_local":"2024-05-25T16:00:00","end":"2024-05-25T20:00:00Z","end_local":"2024-05-25T16:00:00","updated":"2024-06-12T06:35:04Z"},{"title":"Liga Mayor - Cibao vs San Crist√≥bal","description":"Sourced from predicthq.com","category":"sports","start":"2024-05-25T20:00:00Z","geo":{"geometry":{"coordinates":[-70.68090772153471,19.44122805402767],"type":"Point"},"placekey":"@95z-wwt-s3q","address":{"country_code":"DO","formatted_address":"Autopista Duarte Km 1 1/2, Santiago De Los Caballeros 51000, Dominican Republic","postcode":"51000","locality":"Santiago De Los Caballeros","region":"Santiago"}},"labels":["soccer","sport"],"duration":0,"start_local":"2024-05-25T16:00:00","end":"2024-05-25T20:00:00Z","end_local":"2024-05-25T16:00:00","updated":"2024-06-12T03:27:31Z"},{"title":"Liga Mayor - Moca vs Delfines Del Este","description":"Sourced from predicthq.com","category":"sports","start":"2024-05-25T20:00:00Z","geo":{"geometry":{"coordinates":[-70.624736365,19.112518559],"type":"Point"},"placekey":"@95z-s66-5s5","address":{"country_code":"DO","formatted_address":"496G+Q24, Jarabacoa 41000, Dominican Republic","postcode":"41000","locality":"Jarabacoa","region":"La Vega Province"}},"labels":["soccer","sport"],"duration":0,"start_local":"2024-05-25T16:00:00","end":"2024-05-25T20:00:00Z","end_local":"2024-05-25T16:00:00","updated":"2024-06-11T22:28:11Z"},{"title":"Maternidad real, sin filtros x EntreMadre Nos Entendemos Podcast","description":"Sourced from predicthq.com - ¬°Ven y √∫nete a nosotros en Maternidad real, sin filtros x EntreMadre Nos Entendemos Podcast para hablar sin tapujos sobre la maternidad y se","category":"conferences","start":"2024-05-25T14:00:00Z","geo":{"geometry":{"coordinates":[-70.68128879999999,19.4590009],"type":"Point"},"placekey":"@95z-wwz-zs5","address":{"country_code":"DO","formatted_address":"Santiago de los Caballeros, Santiago, 51000, Dominican Republic","locality":"Santiago de los Caballeros","postcode":"51000","region":"Santiago"}},"labels":["conference","education","family"],"duration":7200,"start_local":"2024-05-25T10:00:00","end":"2024-05-25T16:00:00Z","end_local":"2024-05-25T12:00:00","updated":"2024-05-23T03:37:38Z"},{"title":"Bazar En Sororidad Festeja el Mes de las Madres","description":"Sourced from predicthq.com - ¬°Ven a celebrar el Mes de las Madres con nosotras en nuestro bazar lleno de sororidad, amor y regalos especiales para todas las mam√°s!","category":"festivals","start":"2024-05-25T14:00:00Z","geo":{"geometry":{"coordinates":[-69.8914523,18.466397],"type":"Point"},"placekey":"@96r-p9y-sh5","address":{"country_code":"DO","formatted_address":"Santo Domingo, DN, 10208, Dominican Republic","locality":"Santo Domingo","postcode":"10208","region":"Distrito Nacional"}},"labels":["community","festival"],"duration":32400,"start_local":"2024-05-25T10:00:00","end":"2024-05-25T23:00:00Z","end_local":"2024-05-25T19:00:00","updated":"2024-06-05T08:53:19Z"},{"title":"Mother's Day Celebration","description":"Sourced from predicthq.com - Come celebrate all the moms and mom figures that make our world go round! Featuring Oswald, Chalin Bato & Fatima Altieri plus more!!","category":"concerts","start":"2024-05-25T00:00:00Z","geo":{"geometry":{"coordinates":[-69.8323071,18.4694716],"type":"Point"},"placekey":"@96r-p29-wkz","address":{"country_code":"DO","formatted_address":"Calle 11, Santo Domingo Este, Santo Domingo, 11906, Dominican Republic","locality":"Santo Domingo Este","postcode":"11906","region":"Santo Domingo"}},"labels":["concert","music"],"duration":0,"start_local":"2024-05-24T20:00:00","end":"2024-05-25T00:00:00Z","end_local":"2024-05-24T20:00:00","updated":"2024-06-12T13:18:40Z"},{"title":"Detecci√≥n temprana, vida m√°s sana - Dra. Maily Pichardo","description":"Sourced from predicthq.com - Acomp√°√±anos a aprender sobre la importancia de la detecci√≥n temprana para llevar una vida m√°s saludable con la Dra. Maily Pichardo.","category":"conferences","start":"2024-05-24T22:00:00Z","geo":{"geometry":{"coordinates":[-70.68128879999999,19.4590009],"type":"Point"},"placekey":"@95z-wwz-zs5","address":{"country_code":"DO","formatted_address":"Santiago de los Caballeros, Santiago, 51000, Dominican Republic","locality":"Santiago de los Caballeros","postcode":"51000","region":"Santiago"}},"labels":["conference","health"],"duration":7200,"start_local":"2024-05-24T18:00:00","end":"2024-05-25T00:00:00Z","end_local":"2024-05-24T20:00:00","updated":"2024-05-23T03:37:32Z"},{"title":"Conversatorio: Una Dosis de Salud para las Madres.","description":"Sourced from predicthq.com - S√© parte de esta experiencia √∫nica.","category":"conferences","start":"2024-05-24T18:00:00Z","geo":{"geometry":{"coordinates":[-69.9391565,18.4696054],"type":"Point"},"placekey":"@96r-p9z-tvz","address":{"country_code":"DO","formatted_address":"Avenida Winston Churchill, Santo Domingo, DN, Dominican Republic","locality":"Santo Domingo","region":"Distrito Nacional"}},"labels":["conference","health"],"duration":14400,"start_local":"2024-05-24T14:00:00","end":"2024-05-24T22:00:00Z","end_local":"2024-05-24T18:00:00","updated":"2024-06-05T06:59:12Z"},{"title":"Paradise Garage presents The Illusions Show","description":"Sourced from predicthq.com - Join us for a night of Entertainment, As we present Illusions \"Where some of Punta Cana's most beautiful women are, MEN!\"","category":"performing-arts","start":"2024-05-24T00:00:00Z","geo":{"geometry":{"coordinates":[-68.4032874,18.6449192],"type":"Point"},"placekey":"@96m-qs3-k75","address":{"country_code":"DO","formatted_address":"Punta Cana, La Altagracia, 23000, Dominican Republic","locality":"Punta Cana","postcode":"23000","region":"La Altagracia"}},"labels":["concert","music","performing-arts"],"duration":10800,"start_local":"2024-05-23T20:00:00","end":"2024-05-24T03:00:00Z","end_local":"2024-05-23T23:00:00","updated":"2024-05-23T03:33:35Z"},{"title":"El Arte de decir No: Como los l√≠mites fortalecen la maternidad - Katherine Castellanos","description":"Sourced from predicthq.com - En este evento aprenderemos juntas c√≥mo decir no de manera efectiva y fortalecer nuestra maternidad a trav√©s de la pr√°ctica de establecer l√≠","category":"conferences","start":"2024-05-23T22:00:00Z","geo":{"geometry":{"coordinates":[-70.68128879999999,19.4590009],"type":"Point"},"placekey":"@95z-wwz-zs5","address":{"country_code":"DO","formatted_address":"Santiago de los Caballeros, Santiago, 51000, Dominican Republic","locality":"Santiago de los Caballeros","postcode":"51000","region":"Santiago"}},"labels":["conference","education","family"],"duration":7200,"start_local":"2024-05-23T18:00:00","end":"2024-05-24T00:00:00Z","end_local":"2024-05-23T20:00:00","updated":"2024-05-23T03:34:23Z"},{"title":"Festopia.com Dexta Daps | Fabolous  Dominican Republic Memorial Day Weekend","description":"Sourced from predicthq.com - The Ultimate Getaway Experience Featuring An All Inclusive 5 Star Resort With Mega Themed Events!  Any Questions contact 1- 212-651-9069","category":"festivals","start":"2024-05-23T19:00:00Z","geo":{"geometry":{"coordinates":[-68.40364860000001,18.6664028],"type":"Point"},"placekey":"@96m-r7c-vs5","address":{"country_code":"DO","formatted_address":"Punta Cana, La Altagracia, 23000, Dominican Republic","locality":"Punta Cana","postcode":"23000","region":"La Altagracia"}},"labels":["festival"],"duration":457200,"start_local":"2024-05-23T15:00:00","end":"2024-05-29T02:00:00Z","end_local":"2024-05-28T22:00:00","updated":"2024-06-05T06:07:34Z"},{"title":"2nd annual Jump Fest in Punta Cana!","description":"Sourced from predicthq.com","category":"community","start":"2024-05-23T14:00:00Z","geo":{"geometry":{"coordinates":[-68.44904,18.71417],"type":"Point"},"placekey":"@96m-r7x-66k","address":{"country_code":"DO","formatted_address":"Punta Cana, La Altagracia Province, 23000, Dominican Republic","locality":"Punta Cana","postcode":"23000","region":"La Altagracia Province"}},"labels":["community","workshop"],"duration":0,"start_local":"2024-05-23T10:00:00","end":"2024-05-23T14:00:00Z","end_local":"2024-05-23T10:00:00","updated":"2024-06-05T02:09:22Z"},{"title":"FesTopia Memorial Day Weekend Vacation 2023","description":"Sourced from predicthq.com - The Ultimate Getaway Experience Featuring An All Inclusive 5 Star Resort With Mega Themed Events!\nText 917-232-2177 For More Information","category":"festivals","start":"2024-05-23T13:00:00Z","geo":{"geometry":{"coordinates":[-68.4002446,18.6673789],"type":"Point"},"placekey":"@96m-r7c-z2k","address":{"country_code":"DO","formatted_address":"Punta Cana, La Altagracia Province, 23000, Dominican Republic","locality":"Punta Cana","postcode":"23000","region":"La Altagracia Province"}},"labels":["festival","music"],"duration":432000,"start_local":"2024-05-23T09:00:00","end":"2024-05-28T13:00:00Z","end_local":"2024-05-28T09:00:00","updated":"2024-06-02T00:46:35Z"},{"title":"Despu√©s del Birrete II & Foro Corporativo","description":"Sourced from predicthq.com - Sala Octagonal #11 de Postgrado","category":"conferences","start":"2024-05-22T22:00:00Z","geo":{"geometry":{"coordinates":[-70.6846292,19.4474364],"type":"Point"},"placekey":"@95z-wx2-jvz","address":{"country_code":"DO","formatted_address":"Santiago de los Caballeros, Santiago Province, 51000, Dominican Republic","locality":"Santiago de los Caballeros","postcode":"51000","region":"Santiago Province"}},"labels":["conference","education","family"],"duration":9000,"start_local":"2024-05-22T18:00:00","end":"2024-05-23T00:30:00Z","end_local":"2024-05-22T20:30:00","updated":"2024-06-05T14:25:04Z"},{"title":"CyberSec Summit Rep√∫blica Dominicana","description":"Sourced from predicthq.com - La ciberseguridad es uno de los pilares principales de las empresas y Cybersec Summit llega para abordar este pilar.","category":"conferences","start":"2024-05-22T11:30:00Z","geo":{"geometry":{"coordinates":[-69.9389967,18.4684956],"type":"Point"},"placekey":"@96r-p9z-v4v","address":{"country_code":"DO","formatted_address":"Av. Winston Churchill, Santo Domingo 10127, Dominican Republic","postcode":"10127","locality":"Santo Domingo","region":"Distrito Nacional"}},"labels":["conference","science","technology"],"duration":21600,"start_local":"2024-05-22T07:30:00","end":"2024-05-22T17:30:00Z","end_local":"2024-05-22T13:30:00","updated":"2024-06-05T04:39:35Z"},{"title":"Los Perex","description":"Sourced from predicthq.com","category":"concerts","start":"2024-05-22T00:00:00Z","geo":{"geometry":{"coordinates":[-69.93905,18.47231],"type":"Point"},"placekey":"@96r-p9z-xh5","address":{"country_code":"DO","formatted_address":"Calle Manuel de Jes√∫s Troncoso, Santo Domingo 10127, Dominican Republic","postcode":"10127","locality":"Santo Domingo","region":"Distrito Nacional"}},"labels":["concert","music"],"duration":0,"start_local":"2024-05-21T20:00:00","end":"2024-05-22T00:00:00Z","end_local":"2024-05-21T20:00:00","updated":"2024-06-12T07:45:47Z"},{"title":"Maestr√≠as en Canad√° - Santo Domingo","description":"Sourced from predicthq.com - Descubre todo sobre estudiar una maestr√≠a en Canad√° en nuestro evento presencial. ¬°No te lo pierdas!","category":"conferences","start":"2024-05-21T23:00:00Z","geo":{"geometry":{"coordinates":[-69.89803619999999,18.4631626],"type":"Point"},"placekey":"@96r-p9y-2ff","address":{"country_code":"DO","formatted_address":"Avenida George Washington, Santo Domingo, DN, Dominican Republic","locality":"Santo Domingo","region":"Distrito Nacional"}},"labels":["conference"],"duration":9000,"start_local":"2024-05-21T19:00:00","end":"2024-05-22T01:30:00Z","end_local":"2024-05-21T21:30:00","updated":"2024-06-04T23:12:35Z"},{"title":"Conferencia: Lo que debes saber antes de enamorarte.","description":"Sourced from predicthq.com - Consideraciones previas antes de entregarte al amor de nuevo.","category":"conferences","start":"2024-05-21T22:30:00Z","geo":{"geometry":{"coordinates":[-69.9391565,18.4696054],"type":"Point"},"placekey":"@96r-p9z-tvz","address":{"country_code":"DO","formatted_address":"Avenida Winston Churchill, Santo Domingo, DN, Dominican Republic","locality":"Santo Domingo","region":"Distrito Nacional"}},"labels":["conference","household"],"duration":7200,"start_local":"2024-05-21T18:30:00","end":"2024-05-22T00:30:00Z","end_local":"2024-05-21T20:30:00","updated":"2024-06-05T01:39:18Z"},{"title":"Liga Mayor - Universidad O&M vs Vega Real","description":"Sourced from predicthq.com","category":"sports","start":"2024-05-21T22:00:00Z","geo":{"geometry":{"coordinates":[-70.11986911296844,18.414752667118822],"type":"Point"},"placekey":"@96q-p54-fcq","address":{"country_code":"DO","formatted_address":"CV7J+V2Q, San Crist√≥bal 91000, Dominican Republic","postcode":"91000","locality":"San Crist√≥bal","region":"San Crist√≥bal Province"}},"labels":["soccer","sport"],"duration":0,"start_local":"2024-05-21T18:00:00","end":"2024-05-21T22:00:00Z","end_local":"2024-05-21T18:00:00","updated":"2024-06-12T05:16:04Z"},{"title":"Liga Mayor - Atl√°ntico vs Cibao","description":"Sourced from predicthq.com","category":"sports","start":"2024-05-21T20:00:00Z","geo":{"geometry":{"coordinates":[-70.6812028757492,19.792080513969744],"type":"Point"},"placekey":"@95z-wkh-qxq","address":{"country_code":"DO","formatted_address":"Av. Luis Ginebra, Puerto Plata 57000, Dominican Republic","postcode":"57000","locality":"Puerto Plata","region":"Puerto Plata"}},"labels":["soccer","sport"],"duration":0,"start_local":"2024-05-21T16:00:00","end":"2024-05-21T20:00:00Z","end_local":"2024-05-21T16:00:00","updated":"2024-06-12T19:54:44Z"},{"title":"Liga Mayor - Delfines Del Este vs Atl√©tico Pantoja","description":"Sourced from predicthq.com","category":"sports","start":"2024-05-21T20:00:00Z","geo":{"geometry":{"coordinates":[-69.85438942909241,18.47910027408001],"type":"Point"},"placekey":"@96r-p28-ckf","address":{"country_code":"DO","formatted_address":"Avenida Estados Unidos, Santo Domingo, Dominican Republic","locality":"Santo Domingo"}},"labels":["soccer","sport"],"duration":0,"start_local":"2024-05-21T16:00:00","end":"2024-05-21T20:00:00Z","end_local":"2024-05-21T16:00:00","updated":"2024-06-11T21:56:08Z"},{"title":"Metro Plaza May 20th - 26th","description":"Sourced from predicthq.com - Lunch menu","category":"expos","start":"2024-05-20T16:00:00Z","geo":{"geometry":{"coordinates":[-69.94919949999999,18.4784807],"type":"Point"},"placekey":"@96r-p82-b6k","address":{"country_code":"DO","formatted_address":"Santo Domingo, Distrito Nacional, Dominican Republic","locality":"Santo Domingo","region":"Distrito Nacional"}},"labels":["community","expo"],"duration":547200,"start_local":"2024-05-20T12:00:00","end":"2024-05-27T00:00:00Z","end_local":"2024-05-26T20:00:00","updated":"2024-05-23T02:59:17Z"},{"title":"Natura Market","description":"Sourced from predicthq.com - A vibrant event held on the beach in front of their hotel, occurring on selected Sundays each month with over 30 local vendors","category":"expos","start":"2024-05-19T15:00:00Z","geo":{"geometry":{"coordinates":[-70.4621124,19.7833499],"type":"Point"},"placekey":"@973-2vg-5cq","address":{"country_code":"DO","formatted_address":"Calle Paseo del Sol, Sos√∫a, Puerto Plata, 57000, Dominican Republic","locality":"Sos√∫a","postcode":"57000","region":"Puerto Plata"}},"labels":["expo","food"],"duration":18000,"start_local":"2024-05-19T11:00:00","end":"2024-05-19T20:00:00Z","end_local":"2024-05-19T16:00:00","updated":"2024-06-05T07:40:35Z"},{"title":"¬øEn las manos de qui√©n est√° tu futuro? - Rep√∫blica Dominicana","description":"Sourced from predicthq.com - Descubre la forma correcta de planificar tu futuro ¬°No te pierdas est√° cita con Dios!","category":"conferences","start":"2024-05-19T14:00:00Z","geo":{"geometry":{"coordinates":[-69.9397118,18.4828213],"type":"Point"},"placekey":"@96r-pb2-h89","address":{"country_code":"DO","formatted_address":"Avenida Abraham Lincoln, Santo Domingo, DN, Dominican Republic","locality":"Santo Domingo","region":"Distrito Nacional"}},"labels":["conference","religion"],"duration":0,"start_local":"2024-05-19T10:00:00","end":"2024-05-19T14:00:00Z","end_local":"2024-05-19T10:00:00","updated":"2024-06-05T02:52:02Z"},{"title":"Election for Dominican Presidency","description":"Sourced from predicthq.com - Luis  ABINADER\t57.44\nLeonel FERN√ÅNDEZ Reyna\t28.85\nAbel MART√çNEZ Dur√°n\t10.39\n\nAt Stake in this Election:¬†\n\n\n\n\nThe Presidency of the Dominican Republic¬†\n\n\n\n\nElections for the Senate and Chamber of Deputies will occur concurrently. \n\n\nGovernment Structure:¬†¬†\n\n\n\n\nChief of State: President Lu√≠s Rodolfo ABINADER Corona (since 16 August 2020)¬†\n\n\n\n\n\n\nHead of Government: President Lu√≠s Rodolfo ABINADER Corona (since 16 August 2020)¬†\n\n\n\n\n\n\nAssembly: bicameral National Congress (Congreso Nacional) with a 32-seat Senate (Senado) and a 190-seat Chamber of Deputies (C√°mara de Diputados) \n\n\n\n\nElectoral System:¬†¬†\n\n\n\n\nThe president is directly elected (on a slate with the Vice President) by absolute majority vote in up to two rounds. The President may serve up to two 4-year terms, which must be consecutive (i.e., if an incumbent runs for reelection and is defeated, they may not run again).¬†\n\n\n\n\n\n\nIn the Senate, 26 members are directly elected by plurality vote from single-seat constituencies. An additional 6 members are indirectly elected based on province-level party-list votes in the Chamber of Deputies election.¬†\n\n\n\n\n\n\nIn the Chamber of Deputies, 178 members are directly elected by closed-list proportional representation vote from multi-seat constituencies. An additional 5 members are elected from a nationwide constituency, and 7 members are elected from a diaspora constituency, all via plurality vote. All 190 members serve 4-year terms. \n\n\n\n\nLast Election:¬†\n\n\nIn the 2020 presidential election, Lu√≠s ABINADER Corona (PRM) won in the first round with 52.53% of the vote, defeating four other candidates. Voter turnout was 54.78%. \n\n\nInformation for Voters:¬†\n\n\nComo votar / How to vote (in Spanish) \n\n\n\n\nKey Deadlines:¬†\n\n\n\n\nCandidate filing deadline: 4 March 2024¬†\n\n\n\n\n\n\nVoter registration deadline: 20 January 2024¬†\n\n\n\n\n\n\n21 January 2024 for overseas voters \n\n\n\n\nMain Candidates in this Election:¬†\n\n\n\n\nLu√≠s ABINADER Corona¬†\n\n\n\n\n\n\nPartido Revolucionario Moderno (PRM)¬†\n\n\n\n\n\n\nAbel Atahualpa MART√çNEZ Dur√°n¬†\n\n\n\n\n\n\nPartido de la Liberaci√≥n Dominicana (PLD)¬†\n\n\n\n\n\n\nLeonel Antonio FERN√ÅNDEZ Reyna¬†¬†\n\n\n\n\n\n\nPartido Fuerza del Pueblo (PFP)¬†\n\n\n\n\n\n\nMiguel Octavio VARGAS Maldonado¬†\n\n\n\n\n\n\nPartido Revolucionario Dominicano (PRD)¬†\n\n\n\n\n\n\nMaria Teresa CABRERA Ulloa¬†\n\n\n\n\n\n\nFrente Amplo (FAMP)¬†\n\n\n\n\n\n\nFulgencio Marcelo SEVERINO Cruz¬†\n\n\n\n\n\n\nPartido Patria para Todos y Todas (PPT)¬†\n\n\n\n\n\n\nCarlos Manuel PE√ëA Batista¬†\n\n\n\n\n\n\nPartido Generaci√≥n de Servidores (PGS)¬†\n\n\n\n\n\n\n\n\nVirginia Antares RODR√çGUEZ Grull√≥n¬†\n\n\n\n\n\n\nPartido Opci√≥n Democr√°tica (POD)¬†\n\n\n\n\n\n\nRoque Alejandro ESPAILLAT Tavarez¬†\n\n\n\n\n\n\nPartido Esperanza Democr√°tica (PED) \n\n\n\n\nPopulation and Registered Voters:¬†\n\n\n\n\nPopulation: 11,228,820 (2022 est.)¬†\n\n\n\n\n\n\nRegistered Voters: 8,145,548 (2024) \n\n\n\n\nGender Data:¬†\n\n\n\n\nFemale Population: 5,594,560 (2022 est.)¬†\n\n\n\n\n\n\nCEDAW Status: Signed 17 July 1980, Ratified 2 September 1982¬†\n\n\n\n\n\n\nGender Quota:‚ÄØ Party lists for Chamber of Deputies elections must consist of 40-60% men and 40-60% women.¬†\n\n\n\n\n\n\nFemale Candidates in this election: Yes¬†\n\n\n\n\n\n\nNumber of Female Legislators (pre-election): 53 out of 190 (27.9%) in the Chamber of Deputies and 4 out of 32 (12.5%) in the Senate¬†\n\n\n\n\n\n\nHuman Development Index (HDI) Position: 0.766, High, Rank 82 (2022)¬†¬†\n\n\n\n\n\n\nSocial Institutions and Gender Index (SIGI)‚ÄØCategorization: 14.8 (2023) \n\n\n\n\nDisability Data:¬†\n\n\n\n\nCRPD Status: Signed 30 March 2007, Ratified 18 August 2009¬†\n\n\n\n\n\n\n\n\nProjected population with a disability: 1,796,611 (2022 est.) \n\n\n\n\nIFES Resources:¬†\n\n\n\n\nDoes IFES have a presence in the Dominican Republic: No¬†\n\n\n\n\n\n\nElection Access: Yes¬†\n\n\n\n\n\n\nElection Judgements:¬† Yes, 8 resources","category":"politics","start":"2024-05-19T00:00:00Z","geo":{"geometry":{"coordinates":[-70.162651,18.735693],"type":"Point"},"address":{"country_code":"DO","formatted_address":"Dominican Republic"}},"labels":["election","politics","president"],"duration":86399,"start_local":"2024-05-19T00:00:00","end":"2024-05-19T23:59:59Z","end_local":"2024-05-19T23:59:59","updated":"2024-06-18T03:40:11Z"},{"title":"Election for Camara de Diputados (Dominican Chamber of Deputies)","description":"Sourced from predicthq.com - At Stake in this Election:¬†\n\n\n\n\nAll 190 seats in the Dominican Chamber of Deputies¬†\n\n\n\n\nElections for the Senate and the Presidency will occur concurrently. \n\n\nGovernment Structure:¬†¬†\n\n\n\n\nChief of State: President Lu√≠s Rodolfo ABINADER Corona (since 16 August 2020)¬†\n\n\n\n\n\n\nHead of Government: President Lu√≠s Rodolfo ABINADER Corona (since 16 August 2020)¬†\n\n\n\n\n\n\nAssembly: bicameral National Congress (Congreso Nacional) with a 32-seat Senate (Senado) and a 190-seat Chamber of Deputies (C√°mara de Diputados) \n\n\n\n\nElectoral System:¬†¬†\n\n\n\n\nThe president is directly elected (on a slate with the Vice President) by absolute majority vote in up to two rounds. The President may serve up to two 4-year terms, which must be consecutive (i.e., if an incumbent runs for reelection and is defeated, they may not run again).¬†\n\n\n\n\n\n\nIn the Senate, 26 members are directly elected by plurality vote from single-seat constituencies. An additional 6 members are indirectly elected based on province-level party-list votes in the Chamber of Deputies election.¬†\n\n\n\n\n\n\nIn the Chamber of Deputies, 178 members are directly elected by closed-list proportional representation vote from multi-seat constituencies. An additional 5 members are elected from a nationwide constituency, and 7 members are elected from a diaspora constituency, all via plurality vote. All 190 members serve 4-year terms. \n\n\n\n\nLast Election:¬†\n\n\nIn the 2020 Chamber of Deputies election, the PRM won the largest share of seats (86), followed by the PLD (75). 13 additional parties also won seats. Voter turnout was 53.16%. \n\n\nInformation for Voters:¬†\n\n\nComo votar / How to vote (in Spanish) \n\n\n\n\nKey Deadlines:¬†\n\n\n\n\nCandidate filing deadline: 4 March 2024¬†\n\n\n\n\n\n\nVoter registration deadline: 20 January 2024¬†\n\n\n\n\n\n\n21 January 2024 for overseas voters \n\n\n\n\nMain Parties in this Election:¬†\n\n\n\n\nModern Revolutionary Party / Partido Revolucionario Moderno (PRM)¬†\n\n\n\n\n\n\nSeats won in last election: 86 out of 183¬†\n\n\n\n\n\n\nDominican Liberation Party / Partido de la Liberaci√≥n Dominicana (PLD)¬†\n\n\n\n\n\n\nSeats won in last election: 75 out of 183¬†\n\n\n\n\n\n\nDominican Revolutionary Party / Partido Revolucionario Dominicano (PRD)¬†\n\n\n\n\n\n\nSeats won in last election: 4 out of 183¬†\n\n\n\n\n\n\nBroad Front Party / Partido Frente Amplio (FAMP)¬†\n\n\n\n\n\n\nSeats won in last election: 3 out of 183¬†\n\n\n\n\n\n\nPeople‚Äôs Power Party / Partido Fuerza del Pueblo (PFP)¬†\n\n\n\n\n\n\nSeats won in last election: 3 out of 183¬†\n\n\n\n\n\n\nSocial Democrat Institutional Block / Bloque Institucional Social Dem√≥crata (BIS)¬†\n\n\n\n\n\n\nSeats won in last election: 2 out of 183¬†\n\n\n\n\n\n\nFatherland for All Party / Partido Patria para Todos y Todas (PPT)¬†\n\n\n\n\n\n\nSeats won in last election: 0 out of 183¬†\n\n\n\n\n\n\n\n\nGeneration of Servants Party / Partido Generaci√≥n de Servidores (GENS)¬†\n\n\n\n\n\n\nSeats won in last election: 0 out of 183¬†\n\n\n\n\n\n\nChristian Socialist Party / Partido Socialista Cristiano (PSC)¬†\n\n\n\n\n\n\nSeats won in last election: 0 out of 183 \n\n\n\n\nPopulation and Registered Voters:¬†\n\n\n\n\nPopulation: 11,228,820 (2022 est.)¬†\n\n\n\n\n\n\nRegistered Voters: 8,145,548 (2024) \n\n\n\n\nGender Data:¬†\n\n\n\n\nFemale Population: 5,594,560 (2022 est.)¬†\n\n\n\n\n\n\nCEDAW Status: Signed 17 July 1980, Ratified 2 September 1982¬†\n\n\n\n\n\n\nGender Quota:‚ÄØ Party lists for Chamber of Deputies elections must consist of 40-60% men and 40-60% women.¬†\n\n\n\n\n\n\nFemale Candidates in this election: Yes¬†\n\n\n\n\n\n\nNumber of Female Legislators (pre-election): 53 out of 190 (27.9%) in the Chamber of Deputies and 4 out of 32 (12.5%) in the Senate¬†\n\n\n\n\n\n\nHuman Development Index (HDI) Position: 0.766, High, Rank 82 (2022)¬†¬†\n\n\n\n\n\n\nSocial Institutions and Gender Index (SIGI)‚ÄØCategorization: 14.8 (2023) \n\n\n\n\nDisability Data:¬†\n\n\n\n\nCRPD Status: Signed 30 March 2007, Ratified 18 August 2009¬†\n\n\n\n\n\n\n\n\nProjected population with a disability: 1,796,611 (2022 est.) \n\n\n\n\nIFES Resources:¬†\n\n\n\n\nDoes IFES have a presence in the Dominican Republic: No¬†\n\n\n\n\n\n\nElection Access: Yes¬†\n\n\n\n\n\n\nElection Judgements:¬† Yes, 8 resources","category":"politics","start":"2024-05-19T00:00:00Z","geo":{"geometry":{"coordinates":[-70.162651,18.735693],"type":"Point"},"address":{"country_code":"DO","formatted_address":"Dominican Republic"}},"labels":["election","parliament","politics"],"duration":86399,"start_local":"2024-05-19T00:00:00","end":"2024-05-19T23:59:59Z","end_local":"2024-05-19T23:59:59","updated":"2024-06-12T18:25:37Z"},{"title":"Election for Senado (Dominican Senate)","description":"Sourced from predicthq.com","category":"politics","start":"2024-05-19T00:00:00Z","geo":{"geometry":{"coordinates":[-70.162651,18.735693],"type":"Point"},"address":{"country_code":"DO","formatted_address":"Dominican Republic"}},"labels":["election","parliament","politics"],"duration":86399,"start_local":"2024-05-19T00:00:00","end":"2024-05-19T23:59:59Z","end_local":"2024-05-19T23:59:59","updated":"2024-06-12T00:48:55Z"},{"title":"Desfile:  Et√©rea Spring Fashion Show","description":"Sourced from predicthq.com - Propuesta Primavera - Verano en tendencia de moda y 3ra graduaci√≥n Et√©rea Modelsrd.","category":"conferences","start":"2024-05-18T21:00:00Z","geo":{"geometry":{"coordinates":[-69.9391565,18.4696054],"type":"Point"},"placekey":"@96r-p9z-tvz","address":{"country_code":"DO","formatted_address":"Avenida Winston Churchill, Santo Domingo, DN, Dominican Republic","locality":"Santo Domingo","region":"Distrito Nacional"}},"labels":["conference","health"],"duration":7200,"start_local":"2024-05-18T17:00:00","end":"2024-05-18T23:00:00Z","end_local":"2024-05-18T19:00:00","updated":"2024-06-01T01:15:56Z"},{"title":"Taller : Pinta tu macetero.","description":"Sourced from predicthq.com - Ven y explota tu creatividad!","category":"conferences","start":"2024-05-17T21:00:00Z","geo":{"geometry":{"coordinates":[-69.9391565,18.4696054],"type":"Point"},"placekey":"@96r-p9z-tvz","address":{"country_code":"DO","formatted_address":"Avenida Winston Churchill, Santo Domingo, DN, Dominican Republic","locality":"Santo Domingo","region":"Distrito Nacional"}},"labels":["conference","fashion"],"duration":5400,"start_local":"2024-05-17T17:00:00","end":"2024-05-17T22:30:00Z","end_local":"2024-05-17T18:30:00","updated":"2024-06-01T01:14:30Z"},{"title":"Conversatorio:  Somos verde.","description":"Sourced from predicthq.com - Ven y descubre c√≥mo cultivamos un futuro m√°s verde.","category":"conferences","start":"2024-05-17T21:00:00Z","geo":{"geometry":{"coordinates":[-69.9391565,18.4696054],"type":"Point"},"placekey":"@96r-p9z-tvz","address":{"country_code":"DO","formatted_address":"Avenida Winston Churchill, Santo Domingo, DN, Dominican Republic","locality":"Santo Domingo","region":"Distrito Nacional"}},"labels":["conference","household"],"duration":7200,"start_local":"2024-05-17T17:00:00","end":"2024-05-17T23:00:00Z","end_local":"2024-05-17T19:00:00","updated":"2024-06-01T01:12:21Z"},{"title":"SSN Lifestyle Punta Cana Music Festival May 2024","description":"Sourced from predicthq.com - Live the experience of the SSN Lifestyle Punta Cana Music Festival in May 9th - 12th & May 16th - 19th 2024!","category":"festivals","start":"2024-05-16T23:00:00Z","geo":{"geometry":{"coordinates":[-68.3929002,18.63929329999999],"type":"Point"},"placekey":"@96m-qs4-f4v","address":{"country_code":"DO","formatted_address":"Punta Cana, La Altagracia Province, 23000, Dominican Republic","locality":"Punta Cana","postcode":"23000","region":"La Altagracia Province"}},"labels":["concert","music"],"duration":10800,"start_local":"2024-05-16T19:00:00","end":"2024-05-17T02:00:00Z","end_local":"2024-05-16T22:00:00","updated":"2024-05-31T22:27:57Z"},{"title":"Liga Mayor - Vega Real vs Cibao","description":"Sourced from predicthq.com","category":"sports","start":"2024-05-16T22:00:00Z","geo":{"geometry":{"coordinates":[-70.51351755753326,19.228218265533265],"type":"Point"},"placekey":"@96r-vgw-syv","address":{"country_code":"DO","formatted_address":"Concepci√≥n de La Vega, Dominican Republic","locality":"Concepci√≥n de La Vega"}},"labels":["soccer","sport"],"duration":0,"start_local":"2024-05-16T18:00:00","end":"2024-05-16T22:00:00Z","end_local":"2024-05-16T18:00:00","updated":"2024-06-12T02:46:25Z"},{"title":"Liga Mayor - Universidad O&M vs Delfines Del Este","description":"Sourced from predicthq.com","category":"sports","start":"2024-05-16T20:00:00Z","geo":{"geometry":{"coordinates":[-70.11986911296844,18.414752667118822],"type":"Point"},"placekey":"@96q-p54-fcq","address":{"country_code":"DO","formatted_address":"CV7J+V2Q, San Crist√≥bal 91000, Dominican Republic","postcode":"91000","locality":"San Crist√≥bal","region":"San Crist√≥bal Province"}},"labels":["soccer","sport"],"duration":0,"start_local":"2024-05-16T16:00:00","end":"2024-05-16T20:00:00Z","end_local":"2024-05-16T16:00:00","updated":"2024-06-12T12:09:40Z"},{"title":"Paradise Garage presents The Illusions Show","description":"Sourced from predicthq.com - Join us for a night of Entertainment, As we present Illusions \"Where some of Punta Cana's most beautiful women are, MEN!\"","category":"performing-arts","start":"2024-05-16T00:00:00Z","geo":{"geometry":{"coordinates":[-68.4032874,18.6449192],"type":"Point"},"placekey":"@96m-qs3-k75","address":{"country_code":"DO","formatted_address":"Punta Cana, La Altagracia, 23000, Dominican Republic","locality":"Punta Cana","postcode":"23000","region":"La Altagracia"}},"labels":["concert","music","performing-arts"],"duration":10800,"start_local":"2024-05-15T20:00:00","end":"2024-05-16T03:00:00Z","end_local":"2024-05-15T23:00:00","updated":"2024-05-30T00:11:10Z"},{"title":"Liga Mayor - Atl√©tico Pantoja vs San Crist√≥bal","description":"Sourced from predicthq.com","category":"sports","start":"2024-05-15T22:00:00Z","geo":{"geometry":{"coordinates":[-70.11986911296844,18.414752667118822],"type":"Point"},"placekey":"@96q-p54-fcq","address":{"country_code":"DO","formatted_address":"CV7J+V2Q, San Crist√≥bal 91000, Dominican Republic","postcode":"91000","locality":"San Crist√≥bal","region":"San Crist√≥bal Province"}},"labels":["soccer","sport"],"duration":0,"start_local":"2024-05-15T18:00:00","end":"2024-05-15T22:00:00Z","end_local":"2024-05-15T18:00:00","updated":"2024-06-11T21:55:24Z"},{"title":"Liga Mayor - Moca vs Atl√°ntico","description":"Sourced from predicthq.com","category":"sports","start":"2024-05-15T20:00:00Z","geo":{"geometry":{"coordinates":[-70.624736365,19.112518559],"type":"Point"},"placekey":"@95z-s66-5s5","address":{"country_code":"DO","formatted_address":"496G+Q24, Jarabacoa 41000, Dominican Republic","postcode":"41000","locality":"Jarabacoa","region":"La Vega Province"}},"labels":["soccer","sport"],"duration":0,"start_local":"2024-05-15T16:00:00","end":"2024-05-15T20:00:00Z","end_local":"2024-05-15T16:00:00","updated":"2024-06-12T16:17:52Z"},{"title":"Desfile:  La magia de caminar en tacones.","description":"Sourced from predicthq.com - Deslumbra en cada paso.","category":"conferences","start":"2024-05-12T22:00:00Z","geo":{"geometry":{"coordinates":[-69.9391565,18.4696054],"type":"Point"},"placekey":"@96r-p9z-tvz","address":{"country_code":"DO","formatted_address":"Avenida Winston Churchill, Santo Domingo, DN, Dominican Republic","locality":"Santo Domingo","region":"Distrito Nacional"}},"labels":["conference","performing-arts"],"duration":7200,"start_local":"2024-05-12T18:00:00","end":"2024-05-13T00:00:00Z","end_local":"2024-05-12T20:00:00","updated":"2024-06-05T10:19:19Z"},{"title":"Liga Mayor - San Crist√≥bal vs Universidad O&M","description":"Sourced from predicthq.com","category":"sports","start":"2024-05-12T22:00:00Z","geo":{"geometry":{"coordinates":[-70.11986911296844,18.414752667118822],"type":"Point"},"placekey":"@96q-p54-fcq","address":{"country_code":"DO","formatted_address":"CV7J+V2Q, San Crist√≥bal 91000, Dominican Republic","postcode":"91000","locality":"San Crist√≥bal","region":"San Crist√≥bal Province"}},"labels":["soccer","sport"],"duration":0,"start_local":"2024-05-12T18:00:00","end":"2024-05-12T22:00:00Z","end_local":"2024-05-12T18:00:00","updated":"2024-06-12T18:30:44Z"},{"title":"Liga Mayor - Delfines Del Este vs Vega Real","description":"Sourced from predicthq.com","category":"sports","start":"2024-05-12T20:00:00Z","geo":{"geometry":{"coordinates":[-69.85438942909241,18.47910027408001],"type":"Point"},"placekey":"@96r-p28-ckf","address":{"country_code":"DO","formatted_address":"Avenida Estados Unidos, Santo Domingo, Dominican Republic","locality":"Santo Domingo"}},"labels":["soccer","sport"],"duration":0,"start_local":"2024-05-12T16:00:00","end":"2024-05-12T20:00:00Z","end_local":"2024-05-12T16:00:00","updated":"2024-06-12T01:47:35Z"},{"title":"HIDDEN //  MOHIKAA + LUI FLORES + XTRILL (SANTO DOMINGO)","description":"Sourced from predicthq.com - Buena musica, Venue en el centro del Distrito, te invitamos a ser parte de este evento de Resist DR","category":"concerts","start":"2024-05-12T02:00:00Z","geo":{"geometry":{"coordinates":[-69.95270339999999,18.4610502],"type":"Point"},"placekey":"@96r-p8j-brk","address":{"country_code":"DO","formatted_address":"Calle Winston Arnaud, Santo Domingo, DN, Dominican Republic","locality":"Santo Domingo","region":"Distrito Nacional"}},"labels":["concert","music"],"duration":0,"start_local":"2024-05-11T22:00:00","end":"2024-05-12T02:00:00Z","end_local":"2024-05-11T22:00:00","updated":"2024-06-12T19:44:29Z"},{"title":"ISSADE en S√°bados de Rock, DonPincho","description":"Sourced from predicthq.com - ¬°Ven a disfrutar de los S√°bados de Rock de DonPincho con ISSADE! Esta vez en un show intimo con sorpresas.  NO COVER.","category":"concerts","start":"2024-05-12T01:00:00Z","geo":{"geometry":{"coordinates":[-69.9280004,18.466487],"type":"Point"},"placekey":"@96r-p9z-h5z","address":{"country_code":"DO","formatted_address":"Avenida 27 de Febrero, Santo Domingo, DN, 10108, Dominican Republic","locality":"Santo Domingo","postcode":"10108","region":"Distrito Nacional"}},"labels":["concert","food","music"],"duration":55800,"start_local":"2024-05-11T21:00:00","end":"2024-05-12T16:30:00Z","end_local":"2024-05-12T12:30:00","updated":"2024-05-26T01:06:42Z"},{"title":"Liga Mayor - Cibao vs Moca","description":"Sourced from predicthq.com","category":"sports","start":"2024-05-11T20:00:00Z","geo":{"geometry":{"coordinates":[-70.67970787,19.445403827],"type":"Point"},"placekey":"@95z-wwt-q75","address":{"country_code":"DO","formatted_address":"Juana Saltitopa 74, Santiago De Los Caballeros 51000, Dominican Republic","postcode":"51000","locality":"Santiago De Los Caballeros","region":"Santiago"}},"labels":["soccer","sport"],"duration":0,"start_local":"2024-05-11T16:00:00","end":"2024-05-11T20:00:00Z","end_local":"2024-05-11T16:00:00","updated":"2024-06-11T21:29:55Z"},{"title":"Liga Mayor - Atl√°ntico vs Atl√©tico Pantoja","description":"Sourced from predicthq.com","category":"sports","start":"2024-05-11T20:00:00Z","geo":{"geometry":{"coordinates":[-70.6812028757492,19.792080513969744],"type":"Point"},"placekey":"@95z-wkh-qxq","address":{"country_code":"DO","formatted_address":"Av. Luis Ginebra, Puerto Plata 57000, Dominican Republic","postcode":"57000","locality":"Puerto Plata","region":"Puerto Plata"}},"labels":["soccer","sport"],"duration":0,"start_local":"2024-05-11T16:00:00","end":"2024-05-11T20:00:00Z","end_local":"2024-05-11T16:00:00","updated":"2024-06-12T09:33:49Z"},{"title":"AULA ALTAGRACIANA  Una Familia Cristiana es una Familia Altagraciana","description":"Sourced from predicthq.com - Contribuci√≥n en puerta: a partir de RD$500 pesos","category":"conferences","start":"2024-05-11T12:00:00Z","geo":{"geometry":{"coordinates":[-69.9136638,18.4735048],"type":"Point"},"placekey":"@96r-p9w-j7q","address":{"country_code":"DO","formatted_address":"Av. M√°ximo G√≥mez 72, Santo Domingo 10100, Dominican Republic","postcode":"10100","locality":"Santo Domingo","region":"Distrito Nacional"}},"labels":["conference","religion"],"duration":25200,"start_local":"2024-05-11T08:00:00","end":"2024-05-11T19:00:00Z","end_local":"2024-05-11T15:00:00","updated":"2024-06-05T05:09:37Z"},{"title":"Mother‚Äôs Day Weekend DR Takeover ??","description":"Sourced from predicthq.com","category":"community","start":"2024-05-10T13:00:00Z","geo":{"geometry":{"coordinates":[-68.57058,18.80137],"type":"Point"},"placekey":"@96m-xqg-8n5","address":{"country_code":"DO","formatted_address":"Punta Cana, La Altagracia Province, 23000, Dominican Republic","locality":"Punta Cana","postcode":"23000","region":"La Altagracia Province"}},"labels":["community"],"duration":266400,"start_local":"2024-05-10T09:00:00","end":"2024-05-13T15:00:00Z","end_local":"2024-05-13T11:00:00","updated":"2024-06-10T20:02:01Z"},{"title":"Rueda de prensa: Lanzamiento Inspirando-T√© Podcast .","description":"Sourced from predicthq.com - ¬°Bienvenidos al emocionante viaje de Inspirando-T√©!","category":"conferences","start":"2024-05-09T23:00:00Z","geo":{"geometry":{"coordinates":[-69.9391565,18.4696054],"type":"Point"},"placekey":"@96r-p9z-tvz","address":{"country_code":"DO","formatted_address":"Avenida Winston Churchill, Santo Domingo, DN, Dominican Republic","locality":"Santo Domingo","region":"Distrito Nacional"}},"labels":["conference","entertainment"],"duration":5400,"start_local":"2024-05-09T19:00:00","end":"2024-05-10T00:30:00Z","end_local":"2024-05-09T20:30:00","updated":"2024-06-05T05:40:43Z"},{"title":"SSN Lifestyle Punta Cana Music Festival May 2024","description":"Sourced from predicthq.com - Live the experience of the SSN Lifestyle Punta Cana Music Festival in May 9th - 12th & May 16th - 19th 2024!","category":"festivals","start":"2024-05-09T18:00:00Z","geo":{"geometry":{"coordinates":[-68.3929002,18.63929329999999],"type":"Point"},"placekey":"@96m-qs4-f4v","address":{"country_code":"DO","formatted_address":"Punta Cana, La Altagracia Province, 23000, Dominican Republic","locality":"Punta Cana","postcode":"23000","region":"La Altagracia Province"}},"labels":["concert","music"],"duration":5400,"start_local":"2024-05-09T14:00:00","end":"2024-05-09T19:30:00Z","end_local":"2024-05-09T15:30:00","updated":"2024-05-23T19:50:07Z"},{"title":"Aljadaqui","description":"Sourced from predicthq.com","category":"concerts","start":"2024-05-09T00:00:00Z","geo":{"geometry":{"coordinates":[-70.408577,18.9332027],"type":"Point"},"placekey":"@96r-qj4-wff","address":{"country_code":"DO","formatted_address":"Avenida Aniana Vargas, Bonao, Monse√±or Nouel, 42000, Dominican Republic","locality":"Bonao","postcode":"42000","region":"Monse√±or Nouel"}},"labels":["concert","music"],"duration":0,"start_local":"2024-05-08T20:00:00","end":"2024-05-09T00:00:00Z","end_local":"2024-05-08T20:00:00","updated":"2024-06-12T11:33:33Z"},{"title":"Paradise Garage presents The Illusions Show","description":"Sourced from predicthq.com - Join us for a night of Entertainment, As we present Illusions \"Where some of Punta Cana's most beautiful women are, MEN!\"","category":"performing-arts","start":"2024-05-09T00:00:00Z","geo":{"geometry":{"coordinates":[-68.4032874,18.6449192],"type":"Point"},"placekey":"@96m-qs3-k75","address":{"country_code":"DO","formatted_address":"Punta Cana, La Altagracia, 23000, Dominican Republic","locality":"Punta Cana","postcode":"23000","region":"La Altagracia"}},"labels":["concert","music","performing-arts"],"duration":10800,"start_local":"2024-05-08T20:00:00","end":"2024-05-09T03:00:00Z","end_local":"2024-05-08T23:00:00","updated":"2024-05-23T00:09:33Z"},{"title":"Liga Mayor - Moca vs Universidad O&M","description":"Sourced from predicthq.com","category":"sports","start":"2024-05-08T23:00:00Z","geo":{"geometry":{"coordinates":[-70.53420442071537,19.38374839697816],"type":"Point"},"placekey":"@95z-wz4-x3q","address":{"country_code":"DO","formatted_address":"Moca 56000, Dominican Republic","postcode":"56000","locality":"Moca","region":"Espaillat Province"}},"labels":["soccer","sport"],"duration":0,"start_local":"2024-05-08T19:00:00","end":"2024-05-08T23:00:00Z","end_local":"2024-05-08T19:00:00","updated":"2024-06-12T16:57:19Z"},{"title":"Masterclass: Trucos de estilismo y makeup para las mam√°s de hoy.","description":"Sourced from predicthq.com - Aprende a transformar tu d√≠a a d√≠a con estilo","category":"conferences","start":"2024-05-08T22:30:00Z","geo":{"geometry":{"coordinates":[-69.9391565,18.4696054],"type":"Point"},"placekey":"@96r-p9z-tvz","address":{"country_code":"DO","formatted_address":"Avenida Winston Churchill, Santo Domingo, DN, Dominican Republic","locality":"Santo Domingo","region":"Distrito Nacional"}},"labels":["conference","fashion"],"duration":7200,"start_local":"2024-05-08T18:30:00","end":"2024-05-09T00:30:00Z","end_local":"2024-05-08T20:30:00","updated":"2024-06-05T06:23:11Z"},{"title":"Liga Mayor - Delfines Del Este vs Cibao","description":"Sourced from predicthq.com","category":"sports","start":"2024-05-08T20:00:00Z","geo":{"geometry":{"coordinates":[-69.85438942909241,18.47910027408001],"type":"Point"},"placekey":"@96r-p28-ckf","address":{"country_code":"DO","formatted_address":"Avenida Estados Unidos, Santo Domingo, Dominican Republic","locality":"Santo Domingo"}},"labels":["soccer","sport"],"duration":0,"start_local":"2024-05-08T16:00:00","end":"2024-05-08T20:00:00Z","end_local":"2024-05-08T16:00:00","updated":"2024-06-12T06:01:31Z"},{"title":"Liga Mayor - Vega Real vs Atl√©tico Pantoja","description":"Sourced from predicthq.com","category":"sports","start":"2024-05-08T20:00:00Z","geo":{"geometry":{"coordinates":[-70.51351755753326,19.228218265533265],"type":"Point"},"placekey":"@96r-vgw-syv","address":{"country_code":"DO","formatted_address":"Concepci√≥n de La Vega, Dominican Republic","locality":"Concepci√≥n de La Vega"}},"labels":["soccer","sport"],"duration":0,"start_local":"2024-05-08T16:00:00","end":"2024-05-08T20:00:00Z","end_local":"2024-05-08T16:00:00","updated":"2024-06-12T17:43:59Z"},{"title":"Spring Women's Self Love Retreat","description":"Sourced from predicthq.com","category":"community","start":"2024-05-07T19:00:00Z","geo":{"geometry":{"coordinates":[-68.41415,18.67989],"type":"Point"},"placekey":"@96m-r8c-xwk","address":{"country_code":"DO","formatted_address":"Punta Cana, La Altagracia Province, 23000, Dominican Republic","locality":"Punta Cana","postcode":"23000","region":"La Altagracia Province"}},"labels":["community","workshop"],"duration":594000,"start_local":"2024-05-07T15:00:00","end":"2024-05-14T16:00:00Z","end_local":"2024-05-14T12:00:00","updated":"2024-06-05T04:59:43Z"},{"title":"Liga Mayor - Vega Real vs Moca","description":"Sourced from predicthq.com","category":"sports","start":"2024-05-05T22:00:00Z","geo":{"geometry":{"coordinates":[-70.51351755753326,19.228218265533265],"type":"Point"},"placekey":"@96r-vgw-syv","address":{"country_code":"DO","formatted_address":"Concepci√≥n de La Vega, Dominican Republic","locality":"Concepci√≥n de La Vega"}},"labels":["soccer","sport"],"duration":0,"start_local":"2024-05-05T18:00:00","end":"2024-05-05T22:00:00Z","end_local":"2024-05-05T18:00:00","updated":"2024-06-12T07:42:27Z"},{"title":"Liga Mayor - Atl√©tico Pantoja vs Cibao","description":"Sourced from predicthq.com","category":"sports","start":"2024-05-05T20:00:00Z","geo":{"geometry":{"coordinates":[-70.11986911296844,18.414752667118822],"type":"Point"},"placekey":"@96q-p54-fcq","address":{"country_code":"DO","formatted_address":"CV7J+V2Q, San Crist√≥bal 91000, Dominican Republic","postcode":"91000","locality":"San Crist√≥bal","region":"San Crist√≥bal Province"}},"labels":["soccer","sport"],"duration":0,"start_local":"2024-05-05T16:00:00","end":"2024-05-05T20:00:00Z","end_local":"2024-05-05T16:00:00","updated":"2024-06-11T23:22:03Z"},{"title":"Venta UME prueba","description":"Sourced from predicthq.com - ¬°Ven y prueba la emoci√≥n de la Venta UME con nosotros en este evento especial!","category":"expos","start":"2024-05-05T00:00:00Z","geo":{"geometry":{"coordinates":[-70.2949869,18.23446],"type":"Point"},"placekey":"@96q-nw7-73q","address":{"country_code":"DO","formatted_address":"Paya, Peravia Province, 94000, Dominican Republic","locality":"Paya","postcode":"94000","region":"Peravia Province"}},"labels":["expo"],"duration":12600,"start_local":"2024-05-04T20:00:00","end":"2024-05-05T03:30:00Z","end_local":"2024-05-04T23:30:00","updated":"2024-06-05T04:25:19Z"},{"title":"Rosee Abreu and michimusica","description":"Sourced from predicthq.com","category":"concerts","start":"2024-05-04T23:00:00Z","geo":{"geometry":{"coordinates":[-70.68987,19.46242],"type":"Point"},"placekey":"@95z-wx3-49z","address":{"country_code":"DO","formatted_address":"Rep. del L√≠bano #23, Santiago de los Caballeros 51000, Dominican Republic","postcode":"51000","locality":"Santiago de los Caballeros","region":"Santiago"}},"labels":["concert","music"],"duration":0,"start_local":"2024-05-04T19:00:00","end":"2024-05-04T23:00:00Z","end_local":"2024-05-04T19:00:00","updated":"2024-06-12T00:45:09Z"},{"title":"Liga Mayor - Universidad O&M vs Atl√°ntico","description":"Sourced from predicthq.com","category":"sports","start":"2024-05-04T22:00:00Z","geo":{"geometry":{"coordinates":[-70.11986911296844,18.414752667118822],"type":"Point"},"placekey":"@96q-p54-fcq","address":{"country_code":"DO","formatted_address":"CV7J+V2Q, San Crist√≥bal 91000, Dominican Republic","postcode":"91000","locality":"San Crist√≥bal","region":"San Crist√≥bal Province"}},"labels":["soccer","sport"],"duration":0,"start_local":"2024-05-04T18:00:00","end":"2024-05-04T22:00:00Z","end_local":"2024-05-04T18:00:00","updated":"2024-06-12T12:09:49Z"},{"title":"Liga Mayor - Delfines Del Este vs San Crist√≥bal","description":"Sourced from predicthq.com","category":"sports","start":"2024-05-04T20:00:00Z","geo":{"geometry":{"coordinates":[-69.85438942909241,18.47910027408001],"type":"Point"},"placekey":"@96r-p28-ckf","address":{"country_code":"DO","formatted_address":"Avenida Estados Unidos, Santo Domingo, Dominican Republic","locality":"Santo Domingo"}},"labels":["soccer","sport"],"duration":0,"start_local":"2024-05-04T16:00:00","end":"2024-05-04T20:00:00Z","end_local":"2024-05-04T16:00:00","updated":"2024-06-11T23:53:13Z"},{"title":"MMM Marcha Mundial de la Marihuana RD","description":"Sourced from predicthq.com - La Marcha Mundial de la Marihuana viene celebr√°ndose desde 1973 en cientos de ciudades del mundo, y por primera vez en la Rep. Dominicana","category":"festivals","start":"2024-05-04T19:30:00Z","geo":{"geometry":{"coordinates":[-69.9252582,18.4475548],"type":"Point"},"placekey":"@96r-p8g-h5z","address":{"country_code":"DO","formatted_address":"Avenida Jim√©nez Moya, Santo Domingo, DN, Dominican Republic","locality":"Santo Domingo","region":"Distrito Nacional"}},"labels":["community","festival"],"duration":10800,"start_local":"2024-05-04T15:30:00","end":"2024-05-04T22:30:00Z","end_local":"2024-05-04T18:30:00","updated":"2024-06-05T10:26:31Z"},{"title":"809 Mercado","description":"Sourced from predicthq.com","category":"festivals","start":"2024-05-04T04:00:00Z","geo":{"geometry":{"coordinates":[-69.9478644,18.4970136],"type":"Point"},"placekey":"@96r-p9n-3yv","address":{"country_code":"DO","formatted_address":"F2VW+JJR National Botanical Garden Dr. Rafael Mar√≠a Moscoso, Av. Rep√∫blica de Colombia, Santo Domingo, Dominican Republic","locality":"Santo Domingo","region":"Distrito Nacional"}},"labels":["festival","music"],"duration":172799,"start_local":"2024-05-04T00:00:00","end":"2024-05-06T03:59:59Z","end_local":"2024-05-05T23:59:59","updated":"2024-06-05T02:23:32Z"},{"title":"CLOS3","description":"Sourced from predicthq.com - SESIONES DE AMIGOS CLOSE 3, LO MEJOR DE LA MUSICA ELECTRONICA","category":"performing-arts","start":"2024-05-04T04:00:00Z","geo":{"geometry":{"coordinates":[-70.092516,18.5686973],"type":"Point"},"placekey":"@96r-p4c-5vf","address":{"country_code":"DO","formatted_address":"Pedro Brand, Santo Domingo Province, Dominican Republic","locality":"Pedro Brand","region":"Santo Domingo Province"}},"labels":["concert","music","performing-arts"],"duration":28800,"start_local":"2024-05-04T00:00:00","end":"2024-05-04T12:00:00Z","end_local":"2024-05-04T08:00:00","updated":"2024-06-05T10:26:11Z"},{"title":"Lanzamiento del libro: Marketing para conseguir empleo.","description":"Sourced from predicthq.com - Aprender a destacar y diferenciarse en la b√∫squeda de empleo.","category":"conferences","start":"2024-05-02T23:00:00Z","geo":{"geometry":{"coordinates":[-69.9391565,18.4696054],"type":"Point"},"placekey":"@96r-p9z-tvz","address":{"country_code":"DO","formatted_address":"Avenida Winston Churchill, Santo Domingo, DN, Dominican Republic","locality":"Santo Domingo","region":"Distrito Nacional"}},"labels":["business","conference"],"duration":7200,"start_local":"2024-05-02T19:00:00","end":"2024-05-03T01:00:00Z","end_local":"2024-05-02T21:00:00","updated":"2024-06-05T08:20:42Z"},{"title":"Emprendimiento Sin Filtro Con Shaula Montas","description":"Sourced from predicthq.com - ¬°Aprende a emprender sin miedo con Shaula Montas en este evento presencial!","category":"conferences","start":"2024-05-02T09:30:00Z","geo":{"geometry":{"coordinates":[-69.948334,18.485813],"type":"Point"},"placekey":"@96r-p83-2ff","address":{"country_code":"DO","formatted_address":"Km 7, Av. John F. Kennedy 1/2, Santo Domingo, Dominican Republic","locality":"Santo Domingo","region":"Distrito Nacional"}},"labels":["business","conference"],"duration":3600,"start_local":"2024-05-02T05:30:00","end":"2024-05-02T10:30:00Z","end_local":"2024-05-02T06:30:00","updated":"2024-06-05T08:43:28Z"},{"title":"Paradise Garage presents The Illusions Show","description":"Sourced from predicthq.com - Join us for a night of Entertainment, As we present Illusions \"Where some of Punta Cana's most beautiful women are, MEN!\"","category":"performing-arts","start":"2024-05-02T00:00:00Z","geo":{"geometry":{"coordinates":[-68.4032874,18.6449192],"type":"Point"},"placekey":"@96m-qs3-k75","address":{"country_code":"DO","formatted_address":"Punta Cana, La Altagracia, 23000, Dominican Republic","locality":"Punta Cana","postcode":"23000","region":"La Altagracia"}},"labels":["concert","music","performing-arts"],"duration":10800,"start_local":"2024-05-01T20:00:00","end":"2024-05-02T03:00:00Z","end_local":"2024-05-01T23:00:00","updated":"2024-06-05T00:57:11Z"},{"title":"Liga Mayor - Cibao vs Universidad O&M","description":"Sourced from predicthq.com","category":"sports","start":"2024-05-01T23:00:00Z","geo":{"geometry":{"coordinates":[-70.51351755753326,19.228218265533265],"type":"Point"},"placekey":"@96r-vgw-syv","address":{"country_code":"DO","formatted_address":"Concepci√≥n de La Vega, Dominican Republic","locality":"Concepci√≥n de La Vega"}},"labels":["soccer","sport"],"duration":0,"start_local":"2024-05-01T19:00:00","end":"2024-05-01T23:00:00Z","end_local":"2024-05-01T19:00:00","updated":"2024-06-12T19:33:42Z"},{"title":"Liga Mayor - Moca vs Atl√©tico Pantoja","description":"Sourced from predicthq.com","category":"sports","start":"2024-05-01T23:00:00Z","geo":{"geometry":{"coordinates":[-70.53420442071537,19.38374839697816],"type":"Point"},"placekey":"@95z-wz4-x3q","address":{"country_code":"DO","formatted_address":"Moca 56000, Dominican Republic","postcode":"56000","locality":"Moca","region":"Espaillat Province"}},"labels":["soccer","sport"],"duration":0,"start_local":"2024-05-01T19:00:00","end":"2024-05-01T23:00:00Z","end_local":"2024-05-01T19:00:00","updated":"2024-06-11T23:04:23Z"},{"title":"Liga Mayor - Atl√°ntico vs Delfines Del Este","description":"Sourced from predicthq.com","category":"sports","start":"2024-05-01T20:00:00Z","geo":{"geometry":{"coordinates":[-70.6812028757492,19.792080513969744],"type":"Point"},"placekey":"@95z-wkh-qxq","address":{"country_code":"DO","formatted_address":"Av. Luis Ginebra, Puerto Plata 57000, Dominican Republic","postcode":"57000","locality":"Puerto Plata","region":"Puerto Plata"}},"labels":["soccer","sport"],"duration":0,"start_local":"2024-05-01T16:00:00","end":"2024-05-01T20:00:00Z","end_local":"2024-05-01T16:00:00","updated":"2024-06-11T23:05:57Z"},{"title":"WOMEN ENTREPRENEUR'S WELLNESS RETREAT","description":"Sourced from predicthq.com","category":"community","start":"2024-05-01T17:00:00Z","geo":{"geometry":{"coordinates":[-68.41419,18.68177],"type":"Point"},"placekey":"@96m-r8c-y5f","address":{"country_code":"DO","formatted_address":"Calle Los Corales, Punta Cana, La Altagracia, 23000, Dominican Republic","locality":"Punta Cana","postcode":"23000","region":"La Altagracia"}},"labels":["community","health"],"duration":356400,"start_local":"2024-05-01T13:00:00","end":"2024-05-05T20:00:00Z","end_local":"2024-05-05T16:00:00","updated":"2024-06-11T23:18:56Z"},{"title":"Niopa","description":"Sourced from predicthq.com","category":"concerts","start":"2024-05-01T00:00:00Z","geo":{"geometry":{"coordinates":[-69.93905,18.47231],"type":"Point"},"placekey":"@96r-p9z-xh5","address":{"country_code":"DO","formatted_address":"Calle Manuel de Jes√∫s Troncoso, Santo Domingo 10127, Dominican Republic","postcode":"10127","locality":"Santo Domingo","region":"Distrito Nacional"}},"labels":["concert","music"],"duration":0,"start_local":"2024-04-30T20:00:00","end":"2024-05-01T00:00:00Z","end_local":"2024-04-30T20:00:00","updated":"2024-06-11T23:34:47Z"},{"title":"Liga Mayor - San Crist√≥bal vs Vega Real","description":"Sourced from predicthq.com","category":"sports","start":"2024-04-30T22:00:00Z","geo":{"geometry":{"coordinates":[-70.11986911296844,18.414752667118822],"type":"Point"},"placekey":"@96q-p54-fcq","address":{"country_code":"DO","formatted_address":"CV7J+V2Q, San Crist√≥bal 91000, Dominican Republic","postcode":"91000","locality":"San Crist√≥bal","region":"San Crist√≥bal Province"}},"labels":["soccer","sport"],"duration":0,"start_local":"2024-04-30T18:00:00","end":"2024-04-30T22:00:00Z","end_local":"2024-04-30T18:00:00","updated":"2024-06-12T07:04:41Z"},{"title":"ICAO Global Implementation Support Symposium","description":"Sourced from predicthq.com","category":"conferences","start":"2024-04-30T13:00:00Z","geo":{"geometry":{"coordinates":[-68.400824,18.666781],"type":"Point"},"placekey":"@96m-r7c-z2k","address":{"country_code":"DO","formatted_address":"Punta Cana, La Altagracia Province, Dominican Republic","locality":"Punta Cana","region":"La Altagracia Province"}},"labels":["conference"],"duration":205200,"start_local":"2024-04-30T09:00:00","end":"2024-05-02T22:00:00Z","end_local":"2024-05-02T18:00:00","updated":"2024-05-27T20:33:36Z"},{"title":"Transportation metro plaza 29 de April hasta 5 de mayo PICK UP","description":"Sourced from predicthq.com - Transporte","category":"expos","start":"2024-04-29T12:00:00Z","geo":{"geometry":{"coordinates":[-69.94919949999999,18.4784807],"type":"Point"},"placekey":"@96r-p82-b6k","address":{"country_code":"DO","formatted_address":"Santo Domingo, Distrito Nacional, Dominican Republic","locality":"Santo Domingo","region":"Distrito Nacional"}},"labels":["expo","outdoor"],"duration":550800,"start_local":"2024-04-29T08:00:00","end":"2024-05-05T21:00:00Z","end_local":"2024-05-05T17:00:00","updated":"2024-06-05T05:09:42Z"},{"title":"10K Carrefour","description":"Sourced from predicthq.com","category":"sports","start":"2024-04-28T11:00:00Z","geo":{"geometry":{"coordinates":[-69.9572136,18.4423286],"type":"Point"},"placekey":"@96r-p8b-dvz","address":{"country_code":"DO","formatted_address":"Avenida Anacaona, Santo Domingo, DN, Dominican Republic","locality":"Santo Domingo","region":"Distrito Nacional"}},"labels":["outdoor-sports","running","sport"],"duration":0,"start_local":"2024-04-28T07:00:00","end":"2024-04-28T11:00:00Z","end_local":"2024-04-28T07:00:00","updated":"2024-06-05T00:44:31Z"},{"title":"Liga Mayor - San Crist√≥bal vs Atl√°ntico","description":"Sourced from predicthq.com","category":"sports","start":"2024-04-27T22:00:00Z","geo":{"geometry":{"coordinates":[-70.11986911296844,18.414752667118822],"type":"Point"},"placekey":"@96q-p54-fcq","address":{"country_code":"DO","formatted_address":"CV7J+V2Q, San Crist√≥bal 91000, Dominican Republic","postcode":"91000","locality":"San Crist√≥bal","region":"San Crist√≥bal Province"}},"labels":["soccer","sport"],"duration":0,"start_local":"2024-04-27T18:00:00","end":"2024-04-27T22:00:00Z","end_local":"2024-04-27T18:00:00","updated":"2024-06-12T02:55:47Z"},{"title":"Desfile:  Fashion Revolution 2024","description":"Sourced from predicthq.com - Moda con prop√≥sito, estilo con impacto.","category":"conferences","start":"2024-04-27T21:00:00Z","geo":{"geometry":{"coordinates":[-69.9391565,18.4696054],"type":"Point"},"placekey":"@96r-p9z-tvz","address":{"country_code":"DO","formatted_address":"Avenida Winston Churchill, Santo Domingo, DN, Dominican Republic","locality":"Santo Domingo","region":"Distrito Nacional"}},"labels":["conference","health"],"duration":7200,"start_local":"2024-04-27T17:00:00","end":"2024-04-27T23:00:00Z","end_local":"2024-04-27T19:00:00","updated":"2024-06-05T10:26:36Z"},{"title":"Lanzamiento Podcast :  Luz y Verdad.","description":"Sourced from predicthq.com - ¬°Moda o pasi√≥n, elige tu estilo!","category":"conferences","start":"2024-04-26T23:00:00Z","geo":{"geometry":{"coordinates":[-69.9391565,18.4696054],"type":"Point"},"placekey":"@96r-p9z-tvz","address":{"country_code":"DO","formatted_address":"Avenida Winston Churchill, Santo Domingo, DN, Dominican Republic","locality":"Santo Domingo","region":"Distrito Nacional"}},"labels":["conference","health"],"duration":7200,"start_local":"2024-04-26T19:00:00","end":"2024-04-27T01:00:00Z","end_local":"2024-04-26T21:00:00","updated":"2024-06-05T11:27:56Z"},{"title":"Pamper in Punta Cana: A Wellness Getaway at the Melia Punta Cana Beach","description":"Sourced from predicthq.com","category":"community","start":"2024-04-24T19:30:00Z","geo":{"geometry":{"coordinates":[-68.40723,18.67353],"type":"Point"},"placekey":"@96m-r8d-5zz","address":{"country_code":"DO","formatted_address":"Playa Bavaro, Punta Cana, La Altagracia, 23000, Dominican Republic","locality":"Punta Cana","postcode":"23000","region":"La Altagracia"}},"labels":["community","health"],"duration":419400,"start_local":"2024-04-24T15:30:00","end":"2024-04-29T16:00:00Z","end_local":"2024-04-29T12:00:00","updated":"2024-06-05T00:37:40Z"},{"title":"Liga Mayor - Universidad O&M vs Atl√©tico Pantoja","description":"Sourced from predicthq.com","category":"sports","start":"2024-04-21T22:00:00Z","geo":{"geometry":{"coordinates":[-70.11986911296844,18.414752667118822],"type":"Point"},"placekey":"@96q-p54-fcq","address":{"country_code":"DO","formatted_address":"CV7J+V2Q, San Crist√≥bal 91000, Dominican Republic","postcode":"91000","locality":"San Crist√≥bal","region":"San Crist√≥bal Province"}},"labels":["soccer","sport"],"duration":0,"start_local":"2024-04-21T18:00:00","end":"2024-04-21T22:00:00Z","end_local":"2024-04-21T18:00:00","updated":"2024-06-11T21:55:29Z"},{"title":"Conferencia: El duelo a flor de piel","description":"Sourced from predicthq.com - Descubre el poder de sanar desde adentro hacia afuera.","category":"conferences","start":"2024-04-21T20:00:00Z","geo":{"geometry":{"coordinates":[-69.9391565,18.4696054],"type":"Point"},"placekey":"@96r-p9z-tvz","address":{"country_code":"DO","formatted_address":"Avenida Winston Churchill, Santo Domingo, DN, Dominican Republic","locality":"Santo Domingo","region":"Distrito Nacional"}},"labels":["conference","health"],"duration":7200,"start_local":"2024-04-21T16:00:00","end":"2024-04-21T22:00:00Z","end_local":"2024-04-21T18:00:00","updated":"2024-06-05T08:03:51Z"},{"title":"Natura Market","description":"Sourced from predicthq.com - A vibrant event held on the beach in front of their hotel, occurring on selected Sundays each month with over 30 local vendors","category":"expos","start":"2024-04-21T15:00:00Z","geo":{"geometry":{"coordinates":[-70.4621124,19.7833499],"type":"Point"},"placekey":"@973-2vg-5cq","address":{"country_code":"DO","formatted_address":"Calle Paseo del Sol, Sos√∫a, Puerto Plata, 57000, Dominican Republic","locality":"Sos√∫a","postcode":"57000","region":"Puerto Plata"}},"labels":["expo","food"],"duration":18000,"start_local":"2024-04-21T11:00:00","end":"2024-04-21T20:00:00Z","end_local":"2024-04-21T16:00:00","updated":"2024-06-04T22:49:22Z"},{"title":"Liga Mayor - Atl√°ntico vs Vega Real","description":"Sourced from predicthq.com","category":"sports","start":"2024-04-21T14:00:00Z","geo":{"geometry":{"coordinates":[-70.6812028757492,19.792080513969744],"type":"Point"},"placekey":"@95z-wkh-qxq","address":{"country_code":"DO","formatted_address":"Av. Luis Ginebra, Puerto Plata 57000, Dominican Republic","postcode":"57000","locality":"Puerto Plata","region":"Puerto Plata"}},"labels":["soccer","sport"],"duration":0,"start_local":"2024-04-21T10:00:00","end":"2024-04-21T14:00:00Z","end_local":"2024-04-21T10:00:00","updated":"2024-06-11T23:06:30Z"},{"title":"5K Night Run","description":"Sourced from predicthq.com","category":"sports","start":"2024-04-20T23:00:00Z","geo":{"geometry":{"coordinates":[-69.9261259,18.4487459],"type":"Point"},"placekey":"@96r-p8h-6kz","address":{"country_code":"DO","formatted_address":"Santo Domingo, Distrito Nacional, Dominican Republic","locality":"Santo Domingo","region":"Distrito Nacional"}},"labels":["outdoor-sports","running","sport"],"duration":0,"start_local":"2024-04-20T19:00:00","end":"2024-04-20T23:00:00Z","end_local":"2024-04-20T19:00:00","updated":"2024-06-05T02:30:38Z"},{"title":"Liga Mayor - San Crist√≥bal vs Cibao","description":"Sourced from predicthq.com","category":"sports","start":"2024-04-20T22:00:00Z","geo":{"geometry":{"coordinates":[-70.11986911296844,18.414752667118822],"type":"Point"},"placekey":"@96q-p54-fcq","address":{"country_code":"DO","formatted_address":"CV7J+V2Q, San Crist√≥bal 91000, Dominican Republic","postcode":"91000","locality":"San Crist√≥bal","region":"San Crist√≥bal Province"}},"labels":["soccer","sport"],"duration":0,"start_local":"2024-04-20T18:00:00","end":"2024-04-20T22:00:00Z","end_local":"2024-04-20T18:00:00","updated":"2024-06-12T14:58:28Z"},{"title":"Conferencia : Comunica con √âxito","description":"Sourced from predicthq.com - Descubre las herramientas pr√°cticas para dominar el arte de hablar en p√∫blico.","category":"conferences","start":"2024-04-20T20:00:00Z","geo":{"geometry":{"coordinates":[-69.9391565,18.4696054],"type":"Point"},"placekey":"@96r-p9z-tvz","address":{"country_code":"DO","formatted_address":"Avenida Winston Churchill, Santo Domingo, DN, Dominican Republic","locality":"Santo Domingo","region":"Distrito Nacional"}},"labels":["business","conference"],"duration":0,"start_local":"2024-04-20T16:00:00","end":"2024-04-20T20:00:00Z","end_local":"2024-04-20T16:00:00","updated":"2024-06-05T00:46:14Z"},{"title":"Liga Mayor - Delfines Del Este vs Moca","description":"Sourced from predicthq.com","category":"sports","start":"2024-04-20T20:00:00Z","geo":{"geometry":{"coordinates":[-69.85438942909241,18.47910027408001],"type":"Point"},"placekey":"@96r-p28-ckf","address":{"country_code":"DO","formatted_address":"Avenida Estados Unidos, Santo Domingo, Dominican Republic","locality":"Santo Domingo"}},"labels":["soccer","sport"],"duration":0,"start_local":"2024-04-20T16:00:00","end":"2024-04-20T20:00:00Z","end_local":"2024-04-20T16:00:00","updated":"2024-06-12T04:14:15Z"},{"title":"Conferencia: Empower encourage woman.","description":"Sourced from predicthq.com - Evolving woman.","category":"conferences","start":"2024-04-18T23:00:00Z","geo":{"geometry":{"coordinates":[-69.9391565,18.4696054],"type":"Point"},"placekey":"@96r-p9z-tvz","address":{"country_code":"DO","formatted_address":"Avenida Winston Churchill, Santo Domingo, DN, Dominican Republic","locality":"Santo Domingo","region":"Distrito Nacional"}},"labels":["conference","health"],"duration":7200,"start_local":"2024-04-18T19:00:00","end":"2024-04-19T01:00:00Z","end_local":"2024-04-18T21:00:00","updated":"2024-06-05T03:18:40Z"},{"title":"Boombox Fiat","description":"Sourced from predicthq.com - Una clase de aer√≥bicos dirigida a mujeres, para que las mismas pasen un rato agradable al ritmo de la m√∫sica. Patrocinado por Fiat.","category":"concerts","start":"2024-04-18T23:00:00Z","geo":{"geometry":{"coordinates":[-69.93609239999999,18.4626178],"type":"Point"},"placekey":"@96r-p8f-9xq","address":{"country_code":"DO","formatted_address":"Santo Domingo, Distrito Nacional, Dominican Republic","locality":"Santo Domingo","region":"Distrito Nacional"}},"labels":["concert","music","outdoor"],"duration":12600,"start_local":"2024-04-18T19:00:00","end":"2024-04-19T02:30:00Z","end_local":"2024-04-18T22:30:00","updated":"2024-06-05T07:27:45Z"},{"title":"VII FORO SOBRE LA COMPRENSI√ìN LECTORA","description":"Sourced from predicthq.com - Literatura infanto-juvenil, valores e identidad de g√©nero","category":"conferences","start":"2024-04-18T13:00:00Z","geo":{"geometry":{"coordinates":[-69.8847092,18.4750335],"type":"Point"},"placekey":"@96r-p2b-td9","address":{"country_code":"DO","formatted_address":"Calle Arzobispo Meri√±o, Santo Domingo, DN, 10210, Dominican Republic","locality":"Santo Domingo","postcode":"10210","region":"Distrito Nacional"}},"labels":["conference","education","family"],"duration":14400,"start_local":"2024-04-18T09:00:00","end":"2024-04-18T17:00:00Z","end_local":"2024-04-18T13:00:00","updated":"2024-06-12T08:31:17Z"},{"title":"Corales Puntacana Championship","description":"Sourced from predicthq.com - The Corales Puntacana Resort and Club Championship is a golf tournament in the Dominican Republic. It started as a Web.com Tour event when it was first played in 2016, but eventually became part of the PGA Tour event in 2018.","category":"sports","start":"2024-04-18T04:00:00Z","geo":{"geometry":{"coordinates":[-68.3648706,18.5543505],"type":"Point"},"placekey":"@96m-qqv-y7q","address":{"country_code":"DO","formatted_address":"HJ3P+P3R, Punta Cana 23000, Dominican Republic","postcode":"23000","locality":"Punta Cana","region":"La Altagracia Province"}},"labels":["golf","sport"],"duration":345599,"start_local":"2024-04-18T00:00:00","end":"2024-04-22T03:59:59Z","end_local":"2024-04-21T23:59:59","updated":"2024-06-12T05:42:25Z"},{"title":"Paradise Garage presents The Illusions Show","description":"Sourced from predicthq.com - Join us for a night of Entertainment, As we present Illusions \"Where some of Punta Cana's most beautiful women are, MEN!\"","category":"performing-arts","start":"2024-04-18T00:00:00Z","geo":{"geometry":{"coordinates":[-68.4032874,18.6449192],"type":"Point"},"placekey":"@96m-qs3-k75","address":{"country_code":"DO","formatted_address":"Punta Cana, La Altagracia, 23000, Dominican Republic","locality":"Punta Cana","postcode":"23000","region":"La Altagracia"}},"labels":["concert","music","performing-arts"],"duration":10800,"start_local":"2024-04-17T20:00:00","end":"2024-04-18T03:00:00Z","end_local":"2024-04-17T23:00:00","updated":"2024-06-05T09:31:00Z"},{"title":"RESURREXIT","description":"Sourced from predicthq.com - Queremos celebrar, con el mismo silencio que precedi√≥ al nacimiento y la Resurreci√≥n. Coro Nacional de Ni√±os y J√≥venes Dominicanos.","category":"concerts","start":"2024-04-17T23:00:00Z","geo":{"geometry":{"coordinates":[-69.8882513,18.4704389],"type":"Point"},"placekey":"@96r-p9y-v4v","address":{"country_code":"DO","formatted_address":"Calle Padre Billini, Santo Domingo, DN, 10210, Dominican Republic","locality":"Santo Domingo","postcode":"10210","region":"Distrito Nacional"}},"labels":["concert","music"],"duration":3600,"start_local":"2024-04-17T19:00:00","end":"2024-04-18T00:00:00Z","end_local":"2024-04-17T20:00:00","updated":"2024-06-05T04:03:42Z"},{"title":"Liga Mayor - Atl√©tico Pantoja vs Delfines Del Este","description":"Sourced from predicthq.com","category":"sports","start":"2024-04-17T22:00:00Z","geo":{"geometry":{"coordinates":[-70.11986911296844,18.414752667118822],"type":"Point"},"placekey":"@96q-p54-fcq","address":{"country_code":"DO","formatted_address":"CV7J+V2Q, San Crist√≥bal 91000, Dominican Republic","postcode":"91000","locality":"San Crist√≥bal","region":"San Crist√≥bal Province"}},"labels":["soccer","sport"],"duration":0,"start_local":"2024-04-17T18:00:00","end":"2024-04-17T22:00:00Z","end_local":"2024-04-17T18:00:00","updated":"2024-06-11T22:09:36Z"},{"title":"Liga Mayor - Moca vs San Crist√≥bal","description":"Sourced from predicthq.com","category":"sports","start":"2024-04-17T22:00:00Z","geo":{"geometry":{"coordinates":[-70.53420442071537,19.38374839697816],"type":"Point"},"placekey":"@95z-wz4-x3q","address":{"country_code":"DO","formatted_address":"Moca 56000, Dominican Republic","postcode":"56000","locality":"Moca","region":"Espaillat Province"}},"labels":["soccer","sport"],"duration":0,"start_local":"2024-04-17T18:00:00","end":"2024-04-17T22:00:00Z","end_local":"2024-04-17T18:00:00","updated":"2024-06-12T11:53:12Z"},{"title":"Liga Mayor - Vega Real vs Universidad O&M","description":"Sourced from predicthq.com","category":"sports","start":"2024-04-17T22:00:00Z","geo":{"geometry":{"coordinates":[-70.51351755753326,19.228218265533265],"type":"Point"},"placekey":"@96r-vgw-syv","address":{"country_code":"DO","formatted_address":"Concepci√≥n de La Vega, Dominican Republic","locality":"Concepci√≥n de La Vega"}},"labels":["soccer","sport"],"duration":0,"start_local":"2024-04-17T18:00:00","end":"2024-04-17T22:00:00Z","end_local":"2024-04-17T18:00:00","updated":"2024-06-12T19:46:09Z"},{"title":"Dominican Republic Logistics Summit","description":"Sourced from predicthq.com","category":"conferences","start":"2024-04-17T13:00:00Z","geo":{"geometry":{"coordinates":[-69.93349,18.454881],"type":"Point"},"placekey":"@96r-p8d-snq","address":{"country_code":"DO","formatted_address":"Av Sarasota 65, Santo Domingo, Dominican Republic","locality":"Santo Domingo","region":"Distrito Nacional"}},"labels":["conference"],"duration":118800,"start_local":"2024-04-17T09:00:00","end":"2024-04-18T22:00:00Z","end_local":"2024-04-18T18:00:00","updated":"2024-05-31T22:52:37Z"},{"title":"Liga Mayor - Cibao vs Atl√°ntico","description":"Sourced from predicthq.com","category":"sports","start":"2024-04-16T23:00:00Z","geo":{"geometry":{"coordinates":[-70.67970787,19.445403827],"type":"Point"},"placekey":"@95z-wwt-q75","address":{"country_code":"DO","formatted_address":"Juana Saltitopa 74, Santiago De Los Caballeros 51000, Dominican Republic","postcode":"51000","locality":"Santiago De Los Caballeros","region":"Santiago"}},"labels":["soccer","sport"],"duration":0,"start_local":"2024-04-16T19:00:00","end":"2024-04-16T23:00:00Z","end_local":"2024-04-16T19:00:00","updated":"2024-06-11T21:17:53Z"},{"title":"Liga Mayor - Delfines Del Este vs Universidad O&M","description":"Sourced from predicthq.com","category":"sports","start":"2024-04-14T20:00:00Z","geo":{"geometry":{"coordinates":[-69.85438942909241,18.47910027408001],"type":"Point"},"placekey":"@96r-p28-ckf","address":{"country_code":"DO","formatted_address":"Avenida Estados Unidos, Santo Domingo, Dominican Republic","locality":"Santo Domingo"}},"labels":["soccer","sport"],"duration":0,"start_local":"2024-04-14T16:00:00","end":"2024-04-14T20:00:00Z","end_local":"2024-04-14T16:00:00","updated":"2024-06-12T05:45:32Z"},{"title":"Cuentacuentos: Shia: La gotita de lluvia","description":"Sourced from predicthq.com - Ven a contagiarte del amor por la lectura.","category":"conferences","start":"2024-04-14T20:00:00Z","geo":{"geometry":{"coordinates":[-69.9391565,18.4696054],"type":"Point"},"placekey":"@96r-p9z-tvz","address":{"country_code":"DO","formatted_address":"Avenida Winston Churchill, Santo Domingo, DN, Dominican Republic","locality":"Santo Domingo","region":"Distrito Nacional"}},"labels":["conference","health"],"duration":7200,"start_local":"2024-04-14T16:00:00","end":"2024-04-14T22:00:00Z","end_local":"2024-04-14T18:00:00","updated":"2024-06-05T00:52:28Z"},{"title":"Liga Mayor - San Crist√≥bal vs Atl√©tico Pantoja","description":"Sourced from predicthq.com","category":"sports","start":"2024-04-13T22:00:00Z","geo":{"geometry":{"coordinates":[-70.11986911296844,18.414752667118822],"type":"Point"},"placekey":"@96q-p54-fcq","address":{"country_code":"DO","formatted_address":"CV7J+V2Q, San Crist√≥bal 91000, Dominican Republic","postcode":"91000","locality":"San Crist√≥bal","region":"San Crist√≥bal Province"}},"labels":["soccer","sport"],"duration":0,"start_local":"2024-04-13T18:00:00","end":"2024-04-13T22:00:00Z","end_local":"2024-04-13T18:00:00","updated":"2024-06-12T12:33:50Z"},{"title":"Liga Mayor - Atl√°ntico vs Moca","description":"Sourced from predicthq.com","category":"sports","start":"2024-04-13T20:00:00Z","geo":{"geometry":{"coordinates":[-70.6812028757492,19.792080513969744],"type":"Point"},"placekey":"@95z-wkh-qxq","address":{"country_code":"DO","formatted_address":"Av. Luis Ginebra, Puerto Plata 57000, Dominican Republic","postcode":"57000","locality":"Puerto Plata","region":"Puerto Plata"}},"labels":["soccer","sport"],"duration":0,"start_local":"2024-04-13T16:00:00","end":"2024-04-13T20:00:00Z","end_local":"2024-04-13T16:00:00","updated":"2024-06-12T03:17:58Z"},{"title":"Chispa Creativa","description":"Sourced from predicthq.com - ¬°Inspiraci√≥n sin l√≠mites te espera!","category":"conferences","start":"2024-04-13T19:00:00Z","geo":{"geometry":{"coordinates":[-69.9391565,18.4696054],"type":"Point"},"placekey":"@96r-p9z-tvz","address":{"country_code":"DO","formatted_address":"Avenida Winston Churchill, Santo Domingo, DN, Dominican Republic","locality":"Santo Domingo","region":"Distrito Nacional"}},"labels":["conference","entertainment"],"duration":10800,"start_local":"2024-04-13T15:00:00","end":"2024-04-13T22:00:00Z","end_local":"2024-04-13T18:00:00","updated":"2024-06-04T22:36:18Z"},{"title":"Enlazadas en Mente, Cuerpo y Alma","description":"Sourced from predicthq.com - ¬°√önete a nosotras para una experiencia √∫nica donde conectaremos mente, cuerpo y alma a trav√©s de actividades enriquecedoras y transformadora","category":"conferences","start":"2024-04-13T18:00:00Z","geo":{"geometry":{"coordinates":[-69.9281055,18.47843289999999],"type":"Point"},"placekey":"@96r-pb2-bff","address":{"country_code":"DO","formatted_address":"Santo Domingo, Distrito Nacional, Dominican Republic","locality":"Santo Domingo","region":"Distrito Nacional"}},"labels":["conference","health"],"duration":14400,"start_local":"2024-04-13T14:00:00","end":"2024-04-13T22:00:00Z","end_local":"2024-04-13T18:00:00","updated":"2024-06-04T22:12:34Z"},{"title":"Liga Mayor - Cibao vs Vega Real","description":"Sourced from predicthq.com","category":"sports","start":"2024-04-12T23:00:00Z","geo":{"geometry":{"coordinates":[-70.67970787,19.445403827],"type":"Point"},"placekey":"@95z-wwt-q75","address":{"country_code":"DO","formatted_address":"Juana Saltitopa 74, Santiago De Los Caballeros 51000, Dominican Republic","postcode":"51000","locality":"Santiago De Los Caballeros","region":"Santiago"}},"labels":["soccer","sport"],"duration":0,"start_local":"2024-04-12T19:00:00","end":"2024-04-12T23:00:00Z","end_local":"2024-04-12T19:00:00","updated":"2024-06-12T04:15:46Z"},{"title":"HOW TO UNDERSTAND AND BREAK GENERATIONAL CURSES","description":"Sourced from predicthq.com - THROUGH KNOWLEDGE THE JUST SHALL BE DELIVERED.  PSALM 11:9","category":"conferences","start":"2024-04-12T21:30:00Z","geo":{"geometry":{"coordinates":[-68.45931829999999,18.7271816],"type":"Point"},"placekey":"@96m-r7w-mff","address":{"country_code":"DO","formatted_address":"Avenida Espa√±a, Punta Cana, La Altagracia, 23000, Dominican Republic","locality":"Punta Cana","postcode":"23000","region":"La Altagracia"}},"labels":["conference","religion"],"duration":88200,"start_local":"2024-04-12T17:30:00","end":"2024-04-13T22:00:00Z","end_local":"2024-04-13T18:00:00","updated":"2024-06-05T06:20:33Z"},{"title":"Ausflug Isla Saona","description":"Sourced from predicthq.com","category":"community","start":"2024-04-11T10:30:00Z","geo":{"geometry":{"coordinates":[-68.44212,18.68934],"type":"Point"},"placekey":"@96m-r8b-s89","address":{"country_code":"DO","formatted_address":"Avenida Espa√±a, Punta Cana, La Altagracia, 23000, Dominican Republic","locality":"Punta Cana","postcode":"23000","region":"La Altagracia"}},"labels":["community","social"],"duration":44100,"start_local":"2024-04-11T06:30:00","end":"2024-04-11T22:45:00Z","end_local":"2024-04-11T18:45:00","updated":"2024-06-05T01:25:13Z"},{"title":"Paradise Garage presents The Illusions Show","description":"Sourced from predicthq.com - Join us for a night of Entertainment, As we present Illusions \"Where some of Punta Cana's most beautiful women are, MEN!\"","category":"performing-arts","start":"2024-04-11T00:00:00Z","geo":{"geometry":{"coordinates":[-68.4032874,18.6449192],"type":"Point"},"placekey":"@96m-qs3-k75","address":{"country_code":"DO","formatted_address":"Punta Cana, La Altagracia, 23000, Dominican Republic","locality":"Punta Cana","postcode":"23000","region":"La Altagracia"}},"labels":["concert","music","performing-arts"],"duration":10800,"start_local":"2024-04-10T20:00:00","end":"2024-04-11T03:00:00Z","end_local":"2024-04-10T23:00:00","updated":"2024-06-05T06:21:34Z"},{"title":"EmTech Caribbean 2024","description":"Sourced from predicthq.com - La conferencia de tecnolog√≠as emergentes m√°s importante del mundo","category":"conferences","start":"2024-04-10T12:00:00Z","geo":{"geometry":{"coordinates":[-69.9412977,18.4730458],"type":"Point"},"placekey":"@96r-p9z-pjv","address":{"country_code":"DO","formatted_address":"Santo Domingo, DN, 10501, Dominican Republic","postcode":"10501","locality":"Santo Domingo","region":"Distrito Nacional"}},"labels":["conference","science","technology"],"duration":118800,"start_local":"2024-04-10T08:00:00","end":"2024-04-11T21:00:00Z","end_local":"2024-04-11T17:00:00","updated":"2024-06-05T08:44:35Z"},{"title":"Bautizo del Libro: Manual definitivo de Oratoria Vol.I","description":"Sourced from predicthq.com - Quiero que me acompa√±es a este importante logro en mi carrera y en mi vida.","category":"conferences","start":"2024-04-09T23:00:00Z","geo":{"geometry":{"coordinates":[-69.9391565,18.4696054],"type":"Point"},"placekey":"@96r-p9z-tvz","address":{"country_code":"DO","formatted_address":"Avenida Winston Churchill, Santo Domingo, DN, Dominican Republic","locality":"Santo Domingo","region":"Distrito Nacional"}},"labels":["conference","health"],"duration":7200,"start_local":"2024-04-09T19:00:00","end":"2024-04-10T01:00:00Z","end_local":"2024-04-09T21:00:00","updated":"2024-06-04T21:48:10Z"},{"title":"Congreso Latinoam√©ricano de Agricultura de Precisi√≥n (CLAP)","description":"Sourced from predicthq.com - Te invitamos a presenciar los principales avances cient√≠ficos para la gesti√≥n en la agricultura sustentable.","category":"conferences","start":"2024-04-09T12:00:00Z","geo":{"geometry":{"coordinates":[-69.9118208885,18.4824582057],"type":"Point"},"placekey":"@96r-p9x-cwk","address":{"country_code":"DO","formatted_address":"Av. John F. Kennedy, Santo Domingo 10413, Dominican Republic","postcode":"10413","locality":"Santo Domingo","region":"Distrito Nacional"}},"labels":["conference","science","technology"],"duration":205200,"start_local":"2024-04-09T08:00:00","end":"2024-04-11T21:00:00Z","end_local":"2024-04-11T17:00:00","updated":"2024-06-05T00:19:44Z"},{"title":"Liga Mayor - Moca vs Cibao","description":"Sourced from predicthq.com","category":"sports","start":"2024-04-07T21:00:00Z","geo":{"geometry":{"coordinates":[-70.53420442071537,19.38374839697816],"type":"Point"},"placekey":"@95z-wz4-x3q","address":{"country_code":"DO","formatted_address":"Moca 56000, Dominican Republic","postcode":"56000","locality":"Moca","region":"Espaillat Province"}},"labels":["soccer","sport"],"duration":0,"start_local":"2024-04-07T17:00:00","end":"2024-04-07T21:00:00Z","end_local":"2024-04-07T17:00:00","updated":"2024-06-12T06:11:12Z"},{"title":"Liga Mayor - Universidad O&M vs San Crist√≥bal","description":"Sourced from predicthq.com","category":"sports","start":"2024-04-07T20:00:00Z","geo":{"geometry":{"coordinates":[-69.85438942909241,18.47910027408001],"type":"Point"},"placekey":"@96r-p28-ckf","address":{"country_code":"DO","formatted_address":"Avenida Estados Unidos, Santo Domingo, Dominican Republic","locality":"Santo Domingo"}},"labels":["soccer","sport"],"duration":0,"start_local":"2024-04-07T16:00:00","end":"2024-04-07T20:00:00Z","end_local":"2024-04-07T16:00:00","updated":"2024-06-12T17:09:47Z"},{"title":"Sdrun 5 K","description":"Sourced from predicthq.com","category":"sports","start":"2024-04-07T11:00:00Z","geo":{"geometry":{"coordinates":[-69.9618965,18.4451005],"type":"Point"},"placekey":"@96r-p8j-3wk","address":{"country_code":"DO","formatted_address":"Avenida Enriquillo, Santo Domingo, DN, Dominican Republic","locality":"Santo Domingo","region":"Distrito Nacional"}},"labels":["outdoor-sports","running","sport"],"duration":0,"start_local":"2024-04-07T07:00:00","end":"2024-04-07T11:00:00Z","end_local":"2024-04-07T07:00:00","updated":"2024-06-05T11:03:16Z"},{"title":"Liga Mayor - Vega Real vs Delfines Del Este","description":"Sourced from predicthq.com","category":"sports","start":"2024-04-06T22:00:00Z","geo":{"geometry":{"coordinates":[-70.51351755753326,19.228218265533265],"type":"Point"},"placekey":"@96r-vgw-syv","address":{"country_code":"DO","formatted_address":"Concepci√≥n de La Vega, Dominican Republic","locality":"Concepci√≥n de La Vega"}},"labels":["soccer","sport"],"duration":0,"start_local":"2024-04-06T18:00:00","end":"2024-04-06T22:00:00Z","end_local":"2024-04-06T18:00:00","updated":"2024-06-12T08:57:57Z"},{"title":"Liga Mayor - Atl√©tico Pantoja vs Atl√°ntico","description":"Sourced from predicthq.com","category":"sports","start":"2024-04-06T22:00:00Z","geo":{"geometry":{"coordinates":[-70.11986911296844,18.414752667118822],"type":"Point"},"placekey":"@96q-p54-fcq","address":{"country_code":"DO","formatted_address":"CV7J+V2Q, San Crist√≥bal 91000, Dominican Republic","postcode":"91000","locality":"San Crist√≥bal","region":"San Crist√≥bal Province"}},"labels":["soccer","sport"],"duration":0,"start_local":"2024-04-06T18:00:00","end":"2024-04-06T22:00:00Z","end_local":"2024-04-06T18:00:00","updated":"2024-06-11T21:59:49Z"},{"title":"LA GRAN TEMPORADA: La salud llega a tu mesa.","description":"Sourced from predicthq.com - Descubre tu ruta hacia una vida saludable en el 1er Mercado de la Salud.","category":"conferences","start":"2024-04-06T14:00:00Z","geo":{"geometry":{"coordinates":[-69.9391565,18.4696054],"type":"Point"},"placekey":"@96r-p9z-tvz","address":{"country_code":"DO","formatted_address":"Avenida Winston Churchill, Santo Domingo, DN, Dominican Republic","locality":"Santo Domingo","region":"Distrito Nacional"}},"labels":["business","conference"],"duration":0,"start_local":"2024-04-06T10:00:00","end":"2024-04-06T14:00:00Z","end_local":"2024-04-06T10:00:00","updated":"2024-06-05T10:47:58Z"},{"title":"EO Dallas 5th Annual All Chapter Retreat","description":"Sourced from predicthq.com","category":"community","start":"2024-04-04T16:00:00Z","geo":{"geometry":{"coordinates":[-68.41519,18.67939],"type":"Point"},"placekey":"@96m-r8c-z2k","address":{"country_code":"DO","formatted_address":"Punta Cana, La Altagracia, 23000, Dominican Republic","locality":"Punta Cana","postcode":"23000","region":"La Altagracia"}},"labels":["community","entertainment","music"],"duration":255600,"start_local":"2024-04-04T12:00:00","end":"2024-04-07T15:00:00Z","end_local":"2024-04-07T11:00:00","updated":"2024-06-05T02:48:38Z"}]