[{"title":"HORECA Expo Algeria","description":"Sourced from predicthq.com","category":"expos","start":"2024-10-01T08:00:00Z","geo":{"geometry":{"coordinates":[3.153484,36.734534],"type":"Point"},"placekey":"@7f5-z5j-wff","address":{"country_code":"DZ","formatted_address":"Mohammadia, Algiers Province, Algeria","locality":"Mohammadia","region":"Algiers Province"}},"labels":["expo"],"duration":291600,"start_local":"2024-10-01T09:00:00","end":"2024-10-04T17:00:00Z","end_local":"2024-10-04T18:00:00","updated":"2024-05-27T09:11:54Z"},{"title":"HORECA Expo Algeria 2024 - International Exhibition of Equipment and Services for Hotels, Restaurants and Communities","description":"Sourced from predicthq.com","category":"expos","start":"2024-09-29T23:00:00Z","geo":{"geometry":{"coordinates":[3.1524013,36.7343248],"type":"Point"},"placekey":"@7f5-z5j-wkz","address":{"country_code":"DZ","formatted_address":"Mohammadia, Algiers Province, Algeria","locality":"Mohammadia","region":"Algiers Province"}},"labels":["business","construction","design","expo","industrial","product","tourism","travel"],"duration":345599,"start_local":"2024-09-30T00:00:00","end":"2024-10-03T22:59:59Z","end_local":"2024-10-03T23:59:59","updated":"2024-06-04T09:48:22Z"},{"title":"AlgeriaChem","description":"Sourced from predicthq.com","category":"expos","start":"2024-09-24T08:00:00Z","geo":{"geometry":{"coordinates":[-0.5894637,35.72755340000001],"type":"Point"},"placekey":"@7b3-bxr-xwk","address":{"country_code":"DZ","formatted_address":"CW75, Oran, Algeria","locality":"Oran","region":"Wilaya d'Oran"}},"labels":["expo"],"duration":291600,"start_local":"2024-09-24T09:00:00","end":"2024-09-27T17:00:00Z","end_local":"2024-09-27T18:00:00","updated":"2024-06-30T11:48:41Z"},{"title":"Coating Algeria Expo","description":"Sourced from predicthq.com","category":"expos","start":"2024-09-23T23:00:00Z","geo":{"geometry":{"coordinates":[-0.5894637,35.72755340000001],"type":"Point"},"placekey":"@7b3-bxr-xwk","address":{"country_code":"DZ","formatted_address":"CW75, Oran, Algeria","locality":"Oran","region":"Wilaya d'Oran"}},"labels":["expo"],"duration":345599,"start_local":"2024-09-24T00:00:00","end":"2024-09-27T22:59:59Z","end_local":"2024-09-27T23:59:59","updated":"2024-06-30T11:51:26Z"},{"title":"SIFFP","description":"Sourced from predicthq.com - International exhibition of facades, windows and doors","category":"expos","start":"2024-09-21T23:00:00Z","geo":{"geometry":{"coordinates":[3.1524013,36.7343248],"type":"Point"},"placekey":"@7f5-z5j-wkz","address":{"country_code":"DZ","formatted_address":"Mohammadia, Algiers Province, Algeria","locality":"Mohammadia","region":"Algiers Province"}},"labels":["construction","expo","technology"],"duration":345599,"start_local":"2024-09-22T00:00:00","end":"2024-09-25T22:59:59Z","end_local":"2024-09-25T23:59:59","updated":"2024-06-30T10:34:47Z"},{"title":"Election for Algerian Presidency","description":"Sourced from predicthq.com - Algeria is expected to hold a presidential election on 7 September 2024.","category":"politics","start":"2024-09-07T00:00:00Z","geo":{"geometry":{"coordinates":[1.659626,28.033886],"type":"Point"},"address":{"country_code":"DZ","formatted_address":"Algeria"}},"labels":["election","politics","president"],"duration":86399,"start_local":"2024-09-07T00:00:00","end":"2024-09-07T23:59:59Z","end_local":"2024-09-07T23:59:59","updated":"2024-06-11T00:25:39Z"},{"title":"tourisme","description":"Sourced from predicthq.com - Venez découvrir les dernières innovations en matière d'énergies renouvelables lors de notre événement sur le matériel énergétique renouvelab","category":"conferences","start":"2024-07-30T09:00:00Z","geo":{"geometry":{"coordinates":[7.430601599999999,36.4585617],"type":"Point"},"placekey":"@7bp-vyf-z9f","address":{"country_code":"DZ","formatted_address":"Guelma, Guelma Province, Algeria","locality":"Guelma","region":"Guelma Province"}},"labels":["conference","science","technology"],"duration":28800,"start_local":"2024-07-30T10:00:00","end":"2024-07-30T17:00:00Z","end_local":"2024-07-30T18:00:00","updated":"2024-06-13T19:46:06Z"},{"title":"Coupe Nationale - Final - MC Alger vs Belouizdad","description":"Sourced from predicthq.com","category":"sports","start":"2024-07-05T16:00:00Z","geo":{"geometry":{"coordinates":[2.9954651000000467,36.75992529999999],"type":"Point"},"placekey":"@7f5-z3m-8d9","address":{"country_code":"DZ","formatted_address":"Ben Aknoun, Algiers Province, Algeria","locality":"Ben Aknoun","region":"Algiers Province"}},"labels":["soccer","sport"],"duration":0,"start_local":"2024-07-05T17:00:00","end":"2024-07-05T16:00:00Z","end_local":"2024-07-05T17:00:00","updated":"2024-06-28T17:37:52Z"},{"title":"El9ante Comedy Club","description":"Sourced from predicthq.com - الحكاية بدات في القنت","category":"performing-arts","start":"2024-07-04T18:00:00Z","geo":{"geometry":{"coordinates":[-0.5931406000000001,35.7244875],"type":"Point"},"placekey":"@7b3-bxr-x3q","address":{"country_code":"DZ","formatted_address":"Rue Dubaï, Bir El Djir, Algeria","locality":"Bir El Djir","region":"Oran Province"}},"labels":["concert","music","performing-arts"],"duration":10800,"start_local":"2024-07-04T19:00:00","end":"2024-07-04T21:00:00Z","end_local":"2024-07-04T22:00:00","updated":"2024-07-04T08:10:36Z"},{"title":"El9ante Comedy Club","description":"Sourced from predicthq.com - الحكاية بدات في القنت","category":"performing-arts","start":"2024-06-27T18:00:00Z","geo":{"geometry":{"coordinates":[-0.5931406000000001,35.7244875],"type":"Point"},"placekey":"@7b3-bxr-x3q","address":{"country_code":"DZ","formatted_address":"Rue Dubaï, Bir El Djir, Algeria","locality":"Bir El Djir","region":"Oran Province"}},"labels":["concert","music","performing-arts"],"duration":5400,"start_local":"2024-06-27T19:00:00","end":"2024-06-27T19:30:00Z","end_local":"2024-06-27T20:30:00","updated":"2024-06-27T03:10:47Z"},{"title":"International E-Engineering Education Services Conference","description":"Sourced from predicthq.com","category":"conferences","start":"2024-06-25T08:00:00Z","geo":{"geometry":{"coordinates":[0.087819,35.932538],"type":"Point"},"placekey":"@7b6-k8j-249","address":{"country_code":"DZ","formatted_address":"Avenue Hamadou Hossine, Mostaganem, Algeria","locality":"Mostaganem","region":"Wilaya de Mostaganem"}},"labels":["conference"],"duration":118800,"start_local":"2024-06-25T09:00:00","end":"2024-06-26T17:00:00Z","end_local":"2024-06-26T18:00:00","updated":"2024-05-28T02:33:57Z"},{"title":"Coating Algeria Expo","description":"Sourced from predicthq.com","category":"expos","start":"2024-06-24T23:00:00Z","geo":{"geometry":{"coordinates":[-0.5894637,35.72755340000001],"type":"Point"},"placekey":"@7b3-bxr-xwk","address":{"country_code":"DZ","formatted_address":"CW75, Oran, Algeria","locality":"Oran","region":"Wilaya d'Oran"}},"labels":["expo"],"duration":345599,"start_local":"2024-06-25T00:00:00","end":"2024-06-28T22:59:59Z","end_local":"2024-06-28T23:59:59","updated":"2024-06-04T11:56:08Z"},{"title":"FIA - Foire Internationale d'Alger","description":"Sourced from predicthq.com - International Fair of Algiers","category":"expos","start":"2024-06-23T23:00:00Z","geo":{"geometry":{"coordinates":[3.1565669,36.7337537],"type":"Point"},"placekey":"@7f5-z5k-7bk","address":{"country_code":"DZ","formatted_address":"Les pins martitimes, المحمدية, Algeria","locality":"المحمدية","region":"ولاية الجزائر"}},"labels":["expo","product"],"duration":518399,"start_local":"2024-06-24T00:00:00","end":"2024-06-29T22:59:59Z","end_local":"2024-06-29T23:59:59","updated":"2024-06-04T11:23:49Z"},{"title":"El9ante Comedy Club","description":"Sourced from predicthq.com - الحكاية بدات في القنت","category":"performing-arts","start":"2024-06-20T18:00:00Z","geo":{"geometry":{"coordinates":[-0.5931406000000001,35.7244875],"type":"Point"},"placekey":"@7b3-bxr-x3q","address":{"country_code":"DZ","formatted_address":"Rue Dubaï, Bir El Djir, Algeria","locality":"Bir El Djir","region":"Oran Province"}},"labels":["concert","music","performing-arts"],"duration":5400,"start_local":"2024-06-20T19:00:00","end":"2024-06-20T19:30:00Z","end_local":"2024-06-20T20:30:00","updated":"2024-06-20T09:44:18Z"},{"title":"Ligue 1 - MC Alger vs MC Oran","description":"Sourced from predicthq.com","category":"sports","start":"2024-06-14T17:00:00Z","geo":{"geometry":{"coordinates":[3.121854754,36.693750238],"type":"Point"},"placekey":"@7b5-5mw-tsq","address":{"country_code":"DZ","formatted_address":"M4RC+R9, Baraki, Algeria","locality":"Baraki","region":"Algiers Province"}},"labels":["soccer","sport"],"duration":7888,"start_local":"2024-06-14T18:00:00","end":"2024-06-14T19:11:28Z","end_local":"2024-06-14T20:11:28","updated":"2024-06-15T00:23:00Z"},{"title":"Ligue 1 - ASO Chlef vs US Biskra","description":"Sourced from predicthq.com","category":"sports","start":"2024-06-14T15:45:00Z","geo":{"geometry":{"coordinates":[1.3089706,36.1616715],"type":"Point"},"placekey":"@7b4-wfs-gtv","address":{"country_code":"DZ","formatted_address":"5865+JGF, Chlef, Algeria","locality":"Chlef","region":"Chlef Province"}},"labels":["soccer","sport"],"duration":7200,"start_local":"2024-06-14T16:45:00","end":"2024-06-14T17:45:00Z","end_local":"2024-06-14T18:45:00","updated":"2024-06-15T00:19:52Z"},{"title":"Ligue 1 - NC Magra vs USM Alger","description":"Sourced from predicthq.com","category":"sports","start":"2024-06-14T15:45:00Z","geo":{"geometry":{"coordinates":[5.100595,35.617223],"type":"Point"},"placekey":"@7bt-rjy-3qz","address":{"country_code":"DZ","formatted_address":"J482+W82, Magra, Algeria","locality":"Magra","region":"M'Sila Province"}},"labels":["soccer","sport"],"duration":7331,"start_local":"2024-06-14T16:45:00","end":"2024-06-14T17:47:11Z","end_local":"2024-06-14T18:47:11","updated":"2024-06-15T00:19:41Z"},{"title":"Ligue 1 - Paradou AC vs Khenchela","description":"Sourced from predicthq.com","category":"sports","start":"2024-06-14T15:45:00Z","geo":{"geometry":{"coordinates":[3.21014495351184,36.72085995894815],"type":"Point"},"placekey":"@7f5-z5z-9pv","address":{"country_code":"DZ","formatted_address":"Guemgani Road, al-Jazā’ir (Algiers), Algeria","locality":"al-Jazā’ir (Algiers) "}},"labels":["soccer","sport"],"duration":7489,"start_local":"2024-06-14T16:45:00","end":"2024-06-14T17:49:49Z","end_local":"2024-06-14T18:49:49","updated":"2024-06-14T17:54:00Z"},{"title":"Ligue 1 - US Souf vs Kabylie","description":"Sourced from predicthq.com","category":"sports","start":"2024-06-14T15:45:00Z","geo":{"geometry":{"coordinates":[6.878230529,33.400328708],"type":"Point"},"placekey":"@7bk-bxg-rkz","address":{"country_code":"DZ","formatted_address":"CV2H+47Q, El Oued, Algeria","locality":"El Oued","region":"El Oued Province"}},"labels":["soccer","sport"],"duration":7237,"start_local":"2024-06-14T16:45:00","end":"2024-06-14T17:45:37Z","end_local":"2024-06-14T18:45:37","updated":"2024-06-14T17:53:19Z"},{"title":"Ligue 1 - El Bayadh vs Ben Aknoun","description":"Sourced from predicthq.com","category":"sports","start":"2024-06-14T15:45:00Z","geo":{"geometry":{"coordinates":[1.0211699780486505,33.677997275364824],"type":"Point"},"placekey":"@79q-vkb-yd9","address":{"country_code":"DZ","formatted_address":"M2HC+6FH, El Bayadh, Algeria","locality":"El Bayadh","region":"El Bayadh Province"}},"labels":["soccer","sport"],"duration":7212,"start_local":"2024-06-14T16:45:00","end":"2024-06-14T17:45:12Z","end_local":"2024-06-14T18:45:12","updated":"2024-06-15T00:23:18Z"},{"title":"Ligue 1 - CS Constantine vs ES Sétif","description":"Sourced from predicthq.com","category":"sports","start":"2024-06-14T15:45:00Z","geo":{"geometry":{"coordinates":[7.1465059,35.4284269],"type":"Point"},"placekey":"@7bd-kh2-kmk","address":{"country_code":"DZ","formatted_address":"C4HW+9JC, Khenchela, Algeria","locality":"Khenchela","region":"Khenchela Province"}},"labels":["soccer","sport"],"duration":7871,"start_local":"2024-06-14T16:45:00","end":"2024-06-14T17:56:11Z","end_local":"2024-06-14T18:56:11","updated":"2024-06-14T18:12:34Z"},{"title":"Ligue 1 - Saoura vs Belouizdad","description":"Sourced from predicthq.com","category":"sports","start":"2024-06-14T15:45:00Z","geo":{"geometry":{"coordinates":[-2.2314047813415527,31.575953300010806],"type":"Point"},"placekey":"@79w-6ht-m8v","address":{"country_code":"DZ","formatted_address":"JQ4J+7MW, Béchar, Algeria","locality":"Béchar","region":"Béchar Province"}},"labels":["soccer","sport"],"duration":7861,"start_local":"2024-06-14T16:45:00","end":"2024-06-14T17:56:01Z","end_local":"2024-06-14T18:56:01","updated":"2024-06-15T00:23:18Z"},{"title":"Ligue 1 - USM Alger vs US Souf","description":"Sourced from predicthq.com","category":"sports","start":"2024-06-11T15:45:00Z","geo":{"geometry":{"coordinates":[2.8468751907348633,36.490429518915164],"type":"Point"},"placekey":"@7b5-4k9-fj9","address":{"country_code":"DZ","formatted_address":"Boulevard Colonel Lotfi, El Bouleïda (Blida), Algeria","locality":"El Bouleïda (Blida)"}},"labels":["closed-doors","soccer","sport"],"duration":7107,"start_local":"2024-06-11T16:45:00","end":"2024-06-11T17:43:27Z","end_local":"2024-06-11T18:43:27","updated":"2024-06-11T18:40:22Z"},{"title":"Ligue 1 - Kabylie vs Saoura","description":"Sourced from predicthq.com","category":"sports","start":"2024-06-11T15:45:00Z","geo":{"geometry":{"coordinates":[4.056068658828735,36.706928177446656],"type":"Point"},"placekey":"@7bv-z2g-26k","address":{"country_code":"DZ","formatted_address":"P344+HC5, Rue Lamali Ahmed, Tizi Ouzou 15000, Algeria","postcode":"15000","locality":"Tizi Ouzou","region":"Wilaya de Tizi Ouzou"}},"labels":["closed-doors","soccer","sport"],"duration":8083,"start_local":"2024-06-11T16:45:00","end":"2024-06-11T17:59:43Z","end_local":"2024-06-11T18:59:43","updated":"2024-06-11T18:19:08Z"},{"title":"Ligue 1 - Khenchela vs NC Magra","description":"Sourced from predicthq.com","category":"sports","start":"2024-06-11T15:45:00Z","geo":{"geometry":{"coordinates":[7.1465059,35.4284269],"type":"Point"},"placekey":"@7bd-kh2-kmk","address":{"country_code":"DZ","formatted_address":"C4HW+9JC, Khenchela, Algeria","locality":"Khenchela","region":"Khenchela Province"}},"labels":["closed-doors","soccer","sport"],"duration":7806,"start_local":"2024-06-11T16:45:00","end":"2024-06-11T17:55:06Z","end_local":"2024-06-11T18:55:06","updated":"2024-06-11T18:17:28Z"},{"title":"Ligue 1 - ES Sétif vs Paradou AC","description":"Sourced from predicthq.com","category":"sports","start":"2024-06-11T15:45:00Z","geo":{"geometry":{"coordinates":[5.3932786,36.1868318],"type":"Point"},"placekey":"@7bw-6zg-5j9","address":{"country_code":"DZ","formatted_address":"59PV+Q87, Av. Mokhtar Laaribi, Sétif, Algeria","locality":"Sétif","region":"Wilaya de Sétif"}},"labels":["closed-doors","soccer","sport"],"duration":7598,"start_local":"2024-06-11T16:45:00","end":"2024-06-11T17:51:38Z","end_local":"2024-06-11T18:51:38","updated":"2024-06-11T18:42:49Z"},{"title":"Ligue 1 - MC Oran vs El Bayadh","description":"Sourced from predicthq.com","category":"sports","start":"2024-06-11T15:45:00Z","geo":{"geometry":{"coordinates":[-0.6362669000000096,35.6833218],"type":"Point"},"placekey":"@7b3-gkk-c3q","address":{"country_code":"DZ","formatted_address":"Oran, Oran Province, Algeria","locality":"Oran","region":"Oran Province"}},"labels":["closed-doors","soccer","sport"],"duration":7218,"start_local":"2024-06-11T16:45:00","end":"2024-06-11T17:45:18Z","end_local":"2024-06-11T18:45:18","updated":"2024-06-11T18:18:22Z"},{"title":"Ligue 1 - Ben Aknoun vs CS Constantine","description":"Sourced from predicthq.com","category":"sports","start":"2024-06-11T15:45:00Z","geo":{"geometry":{"coordinates":[3.0784396,36.7454756],"type":"Point"},"placekey":"@7f5-yzq-dsq","address":{"country_code":"DZ","formatted_address":"Rue Rabah Takdjourt, Algiers, Algeria","locality":"Algiers","region":"Algiers Province"}},"labels":["closed-doors","soccer","sport"],"duration":7840,"start_local":"2024-06-11T16:45:00","end":"2024-06-11T17:55:40Z","end_local":"2024-06-11T18:55:40","updated":"2024-06-11T18:11:47Z"},{"title":"Ligue 1 - Belouizdad vs ASO Chlef","description":"Sourced from predicthq.com","category":"sports","start":"2024-06-11T15:45:00Z","geo":{"geometry":{"coordinates":[3.121854754,36.693750238],"type":"Point"},"placekey":"@7b5-5mw-tsq","address":{"country_code":"DZ","formatted_address":"M4RC+R9, Baraki, Algeria","locality":"Baraki","region":"Algiers Province"}},"labels":["closed-doors","soccer","sport"],"duration":7627,"start_local":"2024-06-11T16:45:00","end":"2024-06-11T17:52:07Z","end_local":"2024-06-11T18:52:07","updated":"2024-06-11T18:17:02Z"},{"title":"Ligue 1 - US Biskra vs MC Alger","description":"Sourced from predicthq.com","category":"sports","start":"2024-06-11T15:45:00Z","geo":{"geometry":{"coordinates":[5.7541963,34.8430085],"type":"Point"},"placekey":"@7bv-qmc-bx5","address":{"country_code":"DZ","formatted_address":"RQV3+6M4, Biskra, Algeria","locality":"Biskra","region":"Biskra Province"}},"labels":["closed-doors","soccer","sport"],"duration":7259,"start_local":"2024-06-11T16:45:00","end":"2024-06-11T17:45:59Z","end_local":"2024-06-11T18:45:59","updated":"2024-06-11T18:53:48Z"},{"title":"SIEE Pollutec 2024 - International Exhibition of Water Equipment, Technologies and Services","description":"Sourced from predicthq.com","category":"expos","start":"2024-06-09T23:00:00Z","geo":{"geometry":{"coordinates":[3.1524013,36.7343248],"type":"Point"},"placekey":"@7f5-z5j-wkz","address":{"country_code":"DZ","formatted_address":"Mohammadia, Algiers Province, Algeria","locality":"Mohammadia","region":"Algiers Province"}},"labels":["construction","environment","expo","industrial","technology"],"duration":345599,"start_local":"2024-06-10T00:00:00","end":"2024-06-13T22:59:59Z","end_local":"2024-06-13T23:59:59","updated":"2024-06-04T00:21:51Z"},{"title":"TEXSTYLE-EXPO","description":"Sourced from predicthq.com - International trade fair for textiles, leather, clothing and equipment","category":"expos","start":"2024-06-09T23:00:00Z","geo":{"geometry":{"coordinates":[3.15437,36.7373],"type":"Point"},"placekey":"@7f5-z5k-vcq","address":{"country_code":"DZ","formatted_address":"16000 Mohammadia, Algeria","locality":"Mohammadia","postcode":"16000","region":"Algiers Province"}},"labels":["expo","fashion","jewelry","sales"],"duration":259199,"start_local":"2024-06-10T00:00:00","end":"2024-06-12T22:59:59Z","end_local":"2024-06-12T23:59:59","updated":"2024-06-26T15:27:40Z"},{"title":"Ligue 1 - Ben Aknoun vs ES Sétif","description":"Sourced from predicthq.com","category":"sports","start":"2024-06-07T15:45:00Z","geo":{"geometry":{"coordinates":[3.0784396,36.7454756],"type":"Point"},"placekey":"@7f5-yzq-dsq","address":{"country_code":"DZ","formatted_address":"Rue Rabah Takdjourt, Algiers, Algeria","locality":"Algiers","region":"Algiers Province"}},"labels":["closed-doors","soccer","sport"],"duration":8055,"start_local":"2024-06-07T16:45:00","end":"2024-06-07T17:59:15Z","end_local":"2024-06-07T18:59:15","updated":"2024-06-12T14:46:23Z"},{"title":"Ligue 1 - CS Constantine vs MC Oran","description":"Sourced from predicthq.com","category":"sports","start":"2024-06-07T15:45:00Z","geo":{"geometry":{"coordinates":[7.1465059,35.4284269],"type":"Point"},"placekey":"@7bd-kh2-kmk","address":{"country_code":"DZ","formatted_address":"C4HW+9JC, Khenchela, Algeria","locality":"Khenchela","region":"Khenchela Province"}},"labels":["closed-doors","soccer","sport"],"duration":7393,"start_local":"2024-06-07T16:45:00","end":"2024-06-07T17:48:13Z","end_local":"2024-06-07T18:48:13","updated":"2024-06-07T23:48:24Z"},{"title":"Ligue 1 - Saoura vs USM Alger","description":"Sourced from predicthq.com","category":"sports","start":"2024-06-07T15:45:00Z","geo":{"geometry":{"coordinates":[-2.2314047813415527,31.575953300010806],"type":"Point"},"placekey":"@79w-6ht-m8v","address":{"country_code":"DZ","formatted_address":"JQ4J+7MW, Béchar, Algeria","locality":"Béchar","region":"Béchar Province"}},"labels":["closed-doors","soccer","sport"],"duration":7309,"start_local":"2024-06-07T16:45:00","end":"2024-06-07T17:46:49Z","end_local":"2024-06-07T18:46:49","updated":"2024-06-12T10:50:20Z"},{"title":"Ligue 1 - El Bayadh vs US Biskra","description":"Sourced from predicthq.com","category":"sports","start":"2024-06-07T15:45:00Z","geo":{"geometry":{"coordinates":[1.0211699780486505,33.677997275364824],"type":"Point"},"placekey":"@79q-vkb-yd9","address":{"country_code":"DZ","formatted_address":"M2HC+6FH, El Bayadh, Algeria","locality":"El Bayadh","region":"El Bayadh Province"}},"labels":["closed-doors","soccer","sport"],"duration":7385,"start_local":"2024-06-07T16:45:00","end":"2024-06-07T17:48:05Z","end_local":"2024-06-07T18:48:05","updated":"2024-06-07T23:47:10Z"},{"title":"Ligue 1 - NC Magra vs Paradou AC","description":"Sourced from predicthq.com","category":"sports","start":"2024-06-07T15:45:00Z","geo":{"geometry":{"coordinates":[5.100595,35.617223],"type":"Point"},"placekey":"@7bt-rjy-3qz","address":{"country_code":"DZ","formatted_address":"J482+W82, Magra, Algeria","locality":"Magra","region":"M'Sila Province"}},"labels":["closed-doors","soccer","sport"],"duration":8284,"start_local":"2024-06-07T16:45:00","end":"2024-06-07T18:03:04Z","end_local":"2024-06-07T19:03:04","updated":"2024-06-12T01:30:33Z"},{"title":"Ligue 1 - MC Alger vs Belouizdad","description":"Sourced from predicthq.com","category":"sports","start":"2024-06-07T15:45:00Z","geo":{"geometry":{"coordinates":[3.121854754,36.693750238],"type":"Point"},"placekey":"@7b5-5mw-tsq","address":{"country_code":"DZ","formatted_address":"M4RC+R9, Baraki, Algeria","locality":"Baraki","region":"Algiers Province"}},"labels":["closed-doors","soccer","sport"],"duration":7363,"start_local":"2024-06-07T16:45:00","end":"2024-06-07T17:47:43Z","end_local":"2024-06-07T18:47:43","updated":"2024-06-12T12:44:43Z"},{"title":"Ligue 1 - US Souf vs Khenchela","description":"Sourced from predicthq.com","category":"sports","start":"2024-06-07T15:45:00Z","geo":{"geometry":{"coordinates":[6.878230529,33.400328708],"type":"Point"},"placekey":"@7bk-bxg-rkz","address":{"country_code":"DZ","formatted_address":"CV2H+47Q, El Oued, Algeria","locality":"El Oued","region":"El Oued Province"}},"labels":["closed-doors","soccer","sport"],"duration":7463,"start_local":"2024-06-07T16:45:00","end":"2024-06-07T17:49:23Z","end_local":"2024-06-07T18:49:23","updated":"2024-06-12T08:52:00Z"},{"title":"Ligue 1 - ASO Chlef vs Kabylie","description":"Sourced from predicthq.com","category":"sports","start":"2024-06-07T15:45:00Z","geo":{"geometry":{"coordinates":[1.3089706,36.1616715],"type":"Point"},"placekey":"@7b4-wfs-gtv","address":{"country_code":"DZ","formatted_address":"5865+JGF, Chlef, Algeria","locality":"Chlef","region":"Chlef Province"}},"labels":["closed-doors","soccer","sport"],"duration":7588,"start_local":"2024-06-07T16:45:00","end":"2024-06-07T17:51:28Z","end_local":"2024-06-07T18:51:28","updated":"2024-06-12T08:57:05Z"},{"title":"El9ante Comedy Club","description":"Sourced from predicthq.com - الحكاية بدات في القنت","category":"performing-arts","start":"2024-06-06T18:00:00Z","geo":{"geometry":{"coordinates":[-0.5931406000000001,35.7244875],"type":"Point"},"placekey":"@7b3-bxr-x3q","address":{"country_code":"DZ","formatted_address":"Rue Dubaï, Bir El Djir, Algeria","locality":"Bir El Djir","region":"Oran Province"}},"labels":["concert","music","performing-arts"],"duration":5400,"start_local":"2024-06-06T19:00:00","end":"2024-06-06T19:30:00Z","end_local":"2024-06-06T20:30:00","updated":"2024-06-06T00:34:18Z"},{"title":"Ligue 1 - CS Constantine vs USM Alger","description":"Sourced from predicthq.com","category":"sports","start":"2024-06-03T17:00:00Z","geo":{"geometry":{"coordinates":[6.625172600000042,36.3487364],"type":"Point"},"placekey":"@7bp-wpg-28v","address":{"country_code":"DZ","formatted_address":"Constantine, Constantine Province, Algeria","locality":"Constantine","region":"Constantine Province"}},"labels":["soccer","sport"],"duration":7974,"start_local":"2024-06-03T18:00:00","end":"2024-06-03T19:12:54Z","end_local":"2024-06-03T20:12:54","updated":"2024-06-12T17:02:32Z"},{"title":"International Conference in Aquaculture: Issues and Perspectives","description":"Sourced from predicthq.com","category":"conferences","start":"2024-06-03T08:00:00Z","geo":{"geometry":{"coordinates":[5.306899,31.941586],"type":"Point"},"placekey":"@7bj-j5t-fvf","address":{"country_code":"DZ","formatted_address":"30000 Ouargla, Algeria","locality":"Ouargla","postcode":"30000","region":"Ouargla Province"}},"labels":["conference"],"duration":205200,"start_local":"2024-06-03T09:00:00","end":"2024-06-05T17:00:00Z","end_local":"2024-06-05T18:00:00","updated":"2024-06-04T06:29:14Z"},{"title":"CHIMICO PLAST Expo","description":"Sourced from predicthq.com - Rejoignez CHIMICO PLAST Expo pour explorer innovations et tendances en chimie et plastique. Développez votre réseau dans un cadre dynamique!","category":"expos","start":"2024-06-02T09:00:00Z","geo":{"geometry":{"coordinates":[3.1524013,36.7343248],"type":"Point"},"placekey":"@7f5-z5j-wkz","address":{"country_code":"DZ","formatted_address":"Mohammadia, Algiers Province, Algeria","locality":"Mohammadia","region":"Algiers Province"}},"labels":["business","expo"],"duration":201600,"start_local":"2024-06-02T10:00:00","end":"2024-06-04T17:00:00Z","end_local":"2024-06-04T18:00:00","updated":"2024-06-04T04:39:19Z"},{"title":"4 eme Salon International de l'import Export de et vers l'Afrique AFRIMPEX","description":"Sourced from predicthq.com - Venez découvrir les opportunités d'import-export avec l'Afrique au 4ème Salon AFRIMPEX - ne manquez pas cette occasion unique!","category":"expos","start":"2024-06-02T09:00:00Z","geo":{"geometry":{"coordinates":[3.1524013,36.7343248],"type":"Point"},"placekey":"@7f5-z5j-wkz","address":{"country_code":"DZ","formatted_address":"Mohammadia, Algiers Province, Algeria","locality":"Mohammadia","region":"Algiers Province"}},"labels":["business","expo"],"duration":201600,"start_local":"2024-06-02T10:00:00","end":"2024-06-04T17:00:00Z","end_local":"2024-06-04T18:00:00","updated":"2024-06-04T08:01:01Z"},{"title":"SIEE Pollutec Algerie","description":"Sourced from predicthq.com - International Exhibition of Equipment & Services for Water","category":"expos","start":"2024-06-01T23:00:00Z","geo":{"geometry":{"coordinates":[3.15437,36.7373],"type":"Point"},"placekey":"@7f5-z5k-vcq","address":{"country_code":"DZ","formatted_address":"16000 Mohammadia, Algeria","locality":"Mohammadia","postcode":"16000","region":"Algiers Province"}},"labels":["environment","expo","science","technology"],"duration":345599,"start_local":"2024-06-02T00:00:00","end":"2024-06-05T22:59:59Z","end_local":"2024-06-05T23:59:59","updated":"2024-06-12T05:16:28Z"},{"title":"Ligue 2 - East - El Eulma vs USM El Harrach","description":"Sourced from predicthq.com","category":"sports","start":"2024-06-01T15:00:00Z","geo":{"geometry":{"coordinates":[5.698476433753967,36.15191879474478],"type":"Point"},"placekey":"@7bw-7x3-kcq","address":{"country_code":"DZ","formatted_address":"El Eulma 19600, Algeria","postcode":"19600","locality":"El Eulma","region":"Sétif Province"}},"labels":["soccer","sport"],"duration":0,"start_local":"2024-06-01T16:00:00","end":"2024-06-01T15:00:00Z","end_local":"2024-06-01T16:00:00","updated":"2024-06-11T21:26:15Z"},{"title":"Ligue 2 - West - Oued Sly vs Olympique Médéa","description":"Sourced from predicthq.com","category":"sports","start":"2024-06-01T15:00:00Z","geo":{"geometry":{"coordinates":[1.328049138,36.17487335],"type":"Point"},"placekey":"@7b4-wfv-q2k","address":{"country_code":"DZ","formatted_address":"W3, Chlef, Algeria","locality":"Chlef","region":"Chlef Province"}},"labels":["soccer","sport"],"duration":0,"start_local":"2024-06-01T16:00:00","end":"2024-06-01T15:00:00Z","end_local":"2024-06-01T16:00:00","updated":"2024-06-12T17:42:32Z"},{"title":"Ligue 2 - East - Teleghma vs MSP Batna","description":"Sourced from predicthq.com","category":"sports","start":"2024-06-01T15:00:00Z","geo":{"geometry":{"coordinates":[6.368476590291451,36.12363858771284],"type":"Point"},"placekey":"@7bv-68t-b6k","address":{"country_code":"DZ","formatted_address":"49F9+FC6, Teleghma, Algeria","locality":"Teleghma","region":"Mila Province"}},"labels":["soccer","sport"],"duration":0,"start_local":"2024-06-01T16:00:00","end":"2024-06-01T15:00:00Z","end_local":"2024-06-01T16:00:00","updated":"2024-06-12T04:09:44Z"},{"title":"Ligue 2 - West - Témouchent vs Koléa","description":"Sourced from predicthq.com","category":"sports","start":"2024-06-01T15:00:00Z","geo":{"geometry":{"coordinates":[-1.1469447612762451,35.31186842509688],"type":"Point"},"placekey":"@7b3-cfk-zs5","address":{"country_code":"DZ","formatted_address":"Ain Temouchent, Algeria","locality":"Ain Temouchent","region":"Aïn Témouchent Province"}},"labels":["soccer","sport"],"duration":0,"start_local":"2024-06-01T16:00:00","end":"2024-06-01T15:00:00Z","end_local":"2024-06-01T16:00:00","updated":"2024-06-11T22:10:43Z"},{"title":"Ligue 2 - West - Guir Abadla vs NA Hussein Dey","description":"Sourced from predicthq.com","category":"sports","start":"2024-06-01T15:00:00Z","geo":{"geometry":{"coordinates":[-2.2314047813415527,31.575953300010806],"type":"Point"},"placekey":"@79w-6ht-m8v","address":{"country_code":"DZ","formatted_address":"JQ4J+7MW, Béchar, Algeria","locality":"Béchar","region":"Béchar Province"}},"labels":["soccer","sport"],"duration":0,"start_local":"2024-06-01T16:00:00","end":"2024-06-01T15:00:00Z","end_local":"2024-06-01T16:00:00","updated":"2024-06-12T12:48:26Z"},{"title":"Ligue 2 - East - MO Constantine vs Aïn M'lila","description":"Sourced from predicthq.com","category":"sports","start":"2024-06-01T15:00:00Z","geo":{"geometry":{"coordinates":[6.604714393615723,36.35663600066584],"type":"Point"},"placekey":"@7bp-wpg-zfz","address":{"country_code":"DZ","formatted_address":"9J43+JVP, Constantine, Algeria","locality":"Constantine","region":"Constantine Province"}},"labels":["soccer","sport"],"duration":0,"start_local":"2024-06-01T16:00:00","end":"2024-06-01T15:00:00Z","end_local":"2024-06-01T16:00:00","updated":"2024-06-12T01:06:26Z"},{"title":"Ligue 2 - West - SC Méchria vs SKAF Khémis Mélina","description":"Sourced from predicthq.com","category":"sports","start":"2024-06-01T15:00:00Z","geo":{"geometry":{"coordinates":[-0.274964,33.551172],"type":"Point"},"placekey":"@79q-m6y-py9","address":{"country_code":"DZ","formatted_address":"HP2G+F2F, Mecheria, Algeria","locality":"Mecheria","region":"Naâma Province"}},"labels":["soccer","sport"],"duration":0,"start_local":"2024-06-01T16:00:00","end":"2024-06-01T15:00:00Z","end_local":"2024-06-01T16:00:00","updated":"2024-06-12T02:38:28Z"},{"title":"Ligue 2 - East - USM Annaba vs E Sour El-Ghozlane","description":"Sourced from predicthq.com","category":"sports","start":"2024-06-01T15:00:00Z","geo":{"geometry":{"coordinates":[7.7574580907821655,36.90780719312758],"type":"Point"},"placekey":"@7bq-bgj-zfz","address":{"country_code":"DZ","formatted_address":"Annaba, Algeria","locality":"Annaba","region":"Annaba Province"}},"labels":["soccer","sport"],"duration":0,"start_local":"2024-06-01T16:00:00","end":"2024-06-01T15:00:00Z","end_local":"2024-06-01T16:00:00","updated":"2024-06-12T04:35:17Z"},{"title":"Ligue 2 - East - JS Bordj Ménaïel vs RB Ouargla","description":"Sourced from predicthq.com","category":"sports","start":"2024-06-01T15:00:00Z","geo":{"geometry":{"coordinates":[3.468841318263234,36.76426825842868],"type":"Point"},"placekey":"@7f6-2h9-5s5","address":{"country_code":"DZ","formatted_address":"Boumerdes, Algeria","locality":"Boumerdes","region":"Boumerdès Province"}},"labels":["soccer","sport"],"duration":0,"start_local":"2024-06-01T16:00:00","end":"2024-06-01T15:00:00Z","end_local":"2024-06-01T16:00:00","updated":"2024-06-12T13:55:03Z"},{"title":"Ligue 2 - West - RC Kouba vs RC Arbaâ","description":"Sourced from predicthq.com","category":"sports","start":"2024-06-01T15:00:00Z","geo":{"geometry":{"coordinates":[3.0904197692871094,36.729546382595046],"type":"Point"},"placekey":"@7f5-yzj-kpv","address":{"country_code":"DZ","formatted_address":"P3HR+V45, Av. des Frères Abdeslami, Kouba, Algeria","locality":"Kouba","region":"Wilaya d'Alger"}},"labels":["soccer","sport"],"duration":0,"start_local":"2024-06-01T16:00:00","end":"2024-06-01T15:00:00Z","end_local":"2024-06-01T16:00:00","updated":"2024-06-11T21:25:34Z"},{"title":"Ligue 2 - West - WA Mostaganem vs Tiaret","description":"Sourced from predicthq.com","category":"sports","start":"2024-06-01T15:00:00Z","geo":{"geometry":{"coordinates":[0.10521233081817627,35.92411889981462],"type":"Point"},"placekey":"@7b6-k86-389","address":{"country_code":"DZ","formatted_address":"10 Rue Ben Salem Amar, Mostaganem, Algeria","locality":"Mostaganem","region":"Wilaya de Mostaganem"}},"labels":["soccer","sport"],"duration":0,"start_local":"2024-06-01T16:00:00","end":"2024-06-01T15:00:00Z","end_local":"2024-06-01T16:00:00","updated":"2024-06-12T02:43:18Z"},{"title":"Ligue 2 - West - GC Mascara vs ES Mostaganem","description":"Sourced from predicthq.com","category":"sports","start":"2024-06-01T15:00:00Z","geo":{"geometry":{"coordinates":[0.1342177391052246,35.39311264175385],"type":"Point"},"placekey":"@7b6-fkd-j5f","address":{"country_code":"DZ","formatted_address":"94VM+6MQ, Av. Boulefred Mohamed, Mascara, Algeria","locality":"Mascara","region":"Wilaya de Mascara"}},"labels":["soccer","sport"],"duration":0,"start_local":"2024-06-01T16:00:00","end":"2024-06-01T15:00:00Z","end_local":"2024-06-01T16:00:00","updated":"2024-06-12T14:06:07Z"},{"title":"Ligue 2 - East - Olympique Magrane vs AS Khroub","description":"Sourced from predicthq.com","category":"sports","start":"2024-06-01T15:00:00Z","geo":{"geometry":{"coordinates":[6.878230529,33.400328708],"type":"Point"},"placekey":"@7bk-bxg-rkz","address":{"country_code":"DZ","formatted_address":"CV2H+47Q, El Oued, Algeria","locality":"El Oued","region":"El Oued Province"}},"labels":["soccer","sport"],"duration":0,"start_local":"2024-06-01T16:00:00","end":"2024-06-01T15:00:00Z","end_local":"2024-06-01T16:00:00","updated":"2024-06-12T18:19:22Z"},{"title":"Ligue 2 - East - CA Batna vs HB Chelghoum Laïd","description":"Sourced from predicthq.com","category":"sports","start":"2024-06-01T15:00:00Z","geo":{"geometry":{"coordinates":[6.188033223152161,35.55724538917183],"type":"Point"},"placekey":"@7bv-2h7-9mk","address":{"country_code":"DZ","formatted_address":"H54Q+V5W, Rue de l'Abattoir, Batna, Algeria","locality":"Batna","region":"Batna Province"}},"labels":["soccer","sport"],"duration":0,"start_local":"2024-06-01T16:00:00","end":"2024-06-01T15:00:00Z","end_local":"2024-06-01T16:00:00","updated":"2024-06-12T01:32:40Z"},{"title":"Ligue 2 - West - ASM Oran vs WA Boufarik","description":"Sourced from predicthq.com","category":"sports","start":"2024-06-01T15:00:00Z","geo":{"geometry":{"coordinates":[-0.6169295310974121,35.68977929448362],"type":"Point"},"placekey":"@7b3-gkm-p5f","address":{"country_code":"DZ","formatted_address":"Route de Misserghin ou RN2, Wahrān (Oran), Algeria","locality":"Wahrān (Oran)"}},"labels":["soccer","sport"],"duration":0,"start_local":"2024-06-01T16:00:00","end":"2024-06-01T15:00:00Z","end_local":"2024-06-01T16:00:00","updated":"2024-06-12T01:08:41Z"},{"title":"Salon de l'emploi Emploitic Connect -Oran-","description":"Sourced from predicthq.com - Participe au salon de l'emploi Emploitic connect,  rencontre +20 entreprises présentes","category":"festivals","start":"2024-06-01T08:00:00Z","geo":{"geometry":{"coordinates":[-0.6381854,35.6638981],"type":"Point"},"placekey":"@7b3-byq-dvz","address":{"country_code":"DZ","formatted_address":"Oran, Wilaya d'Oran, Algeria","locality":"Oran","region":"Wilaya d'Oran"}},"labels":["business","festival"],"duration":111600,"start_local":"2024-06-01T09:00:00","end":"2024-06-02T15:00:00Z","end_local":"2024-06-02T16:00:00","updated":"2024-05-23T03:58:18Z"},{"title":"Ligue 2 - East - Olympique Akbou vs IB Khémis El Khechna","description":"Sourced from predicthq.com","category":"sports","start":"2024-05-31T15:00:00Z","geo":{"geometry":{"coordinates":[4.541279396,36.451758481],"type":"Point"},"placekey":"@7bv-wny-mzf","address":{"country_code":"DZ","formatted_address":"FG3R+463, Akbou, Algeria","locality":"Akbou","region":"Béjaïa Province"}},"labels":["soccer","sport"],"duration":0,"start_local":"2024-05-31T16:00:00","end":"2024-05-31T15:00:00Z","end_local":"2024-05-31T16:00:00","updated":"2024-06-11T21:56:13Z"},{"title":"El9ante Comedy Club","description":"Sourced from predicthq.com - الحكاية بدات في القنت","category":"performing-arts","start":"2024-05-30T18:00:00Z","geo":{"geometry":{"coordinates":[-0.5931406000000001,35.7244875],"type":"Point"},"placekey":"@7b3-bxr-x3q","address":{"country_code":"DZ","formatted_address":"Rue Dubaï, Bir El Djir, Algeria","locality":"Bir El Djir","region":"Oran Province"}},"labels":["concert","music","performing-arts"],"duration":5400,"start_local":"2024-05-30T19:00:00","end":"2024-05-30T19:30:00Z","end_local":"2024-05-30T20:30:00","updated":"2024-05-30T02:59:39Z"},{"title":"Ligue 1 - USM Alger vs Ben Aknoun","description":"Sourced from predicthq.com","category":"sports","start":"2024-05-30T16:00:00Z","geo":{"geometry":{"coordinates":[3.0784396,36.7454756],"type":"Point"},"placekey":"@7f5-yzq-dsq","address":{"country_code":"DZ","formatted_address":"Rue Rabah Takdjourt, Algiers, Algeria","locality":"Algiers","region":"Algiers Province"}},"labels":["soccer","sport"],"duration":7105,"start_local":"2024-05-30T17:00:00","end":"2024-05-30T17:58:25Z","end_local":"2024-05-30T18:58:25","updated":"2024-06-12T05:04:29Z"},{"title":"Grand Inauguration of AHZ Algeria Branch!","description":"Sourced from predicthq.com - AHZ is a trusted UK university representative, boasting partnerships with over 140 prominent UK universities.","category":"conferences","start":"2024-05-30T08:00:00Z","geo":{"geometry":{"coordinates":[3.0365568,36.7421411],"type":"Point"},"placekey":"@7f5-yz4-fxq","address":{"country_code":"DZ","formatted_address":"Hamdani Lahcen, Hydra, Algeria","locality":"Hydra","region":"Wilaya d'Alger"}},"labels":["business","conference"],"duration":28800,"start_local":"2024-05-30T09:00:00","end":"2024-05-30T16:00:00Z","end_local":"2024-05-30T17:00:00","updated":"2024-05-23T04:54:54Z"},{"title":"ALGERIA JOB SUMMIT","description":"Sourced from predicthq.com - Un événement pour connecter les chercheurs d'emploi en Algérie avec des opportunités de carrière passionnantes — A ne pas manquez !","category":"expos","start":"2024-05-29T08:00:00Z","geo":{"geometry":{"coordinates":[3.082041,36.737475],"type":"Point"},"placekey":"@7f5-yzq-ygk","address":{"country_code":"DZ","formatted_address":"Palais de la culture, El Madania, Algeria","locality":"El Madania","region":"Algiers Province"}},"labels":["career","education","expo"],"duration":28800,"start_local":"2024-05-29T09:00:00","end":"2024-05-29T16:00:00Z","end_local":"2024-05-29T17:00:00","updated":"2024-06-05T15:21:28Z"},{"title":"National Conference on Mechanical and Production Engineering","description":"Sourced from predicthq.com","category":"conferences","start":"2024-05-29T08:00:00Z","geo":{"geometry":{"coordinates":[3.258864,36.776256],"type":"Point"},"placekey":"@7f5-z56-6c5","address":{"country_code":"DZ","formatted_address":"Bordj El Kiffan, Wilaya d'Alger, Algeria","locality":"Bordj El Kiffan","region":"Wilaya d'Alger"}},"labels":["conference"],"duration":118800,"start_local":"2024-05-29T09:00:00","end":"2024-05-30T17:00:00Z","end_local":"2024-05-30T18:00:00","updated":"2024-07-02T18:35:59Z"},{"title":"Ligue 2 - West - Tiaret vs Oued Sly","description":"Sourced from predicthq.com","category":"sports","start":"2024-05-28T15:00:00Z","geo":{"geometry":{"coordinates":[1.3309557,35.3622993],"type":"Point"},"placekey":"@7b5-fdg-nwk","address":{"country_code":"DZ","formatted_address":"986J+V9J, Tiaret, Algeria","locality":"Tiaret","region":"Tiaret Province"}},"labels":["soccer","sport"],"duration":0,"start_local":"2024-05-28T16:00:00","end":"2024-05-28T15:00:00Z","end_local":"2024-05-28T16:00:00","updated":"2024-06-12T12:28:53Z"},{"title":"Ligue 2 - East - AS Khroub vs USM Annaba","description":"Sourced from predicthq.com","category":"sports","start":"2024-05-28T15:00:00Z","geo":{"geometry":{"coordinates":[6.6873706,36.2606902],"type":"Point"},"placekey":"@7bp-x2s-2hq","address":{"country_code":"DZ","formatted_address":"7M6Q+85F, El Khroub, Algeria","locality":"El Khroub","region":"Constantine Province"}},"labels":["soccer","sport"],"duration":0,"start_local":"2024-05-28T16:00:00","end":"2024-05-28T15:00:00Z","end_local":"2024-05-28T16:00:00","updated":"2024-06-12T03:30:56Z"},{"title":"Ligue 2 - West - RC Arbaâ vs SC Méchria","description":"Sourced from predicthq.com","category":"sports","start":"2024-05-28T15:00:00Z","geo":{"geometry":{"coordinates":[3.1490448,36.5668591],"type":"Point"},"placekey":"@7b5-5ms-dd9","address":{"country_code":"DZ","formatted_address":"Larbaa, Blida Province, Algeria","locality":"Larbaa","region":"Blida Province"}},"labels":["soccer","sport"],"duration":0,"start_local":"2024-05-28T16:00:00","end":"2024-05-28T15:00:00Z","end_local":"2024-05-28T16:00:00","updated":"2024-06-12T03:24:32Z"},{"title":"Ligue 2 - West - WA Boufarik vs RC Kouba","description":"Sourced from predicthq.com","category":"sports","start":"2024-05-28T15:00:00Z","geo":{"geometry":{"coordinates":[2.9072982637542344,36.574511806996355],"type":"Point"},"placekey":"@7b5-48q-54v","address":{"country_code":"DZ","formatted_address":"HWF4+RW9, Boufarik, Algeria","locality":"Boufarik","region":"Blida Province"}},"labels":["soccer","sport"],"duration":0,"start_local":"2024-05-28T16:00:00","end":"2024-05-28T15:00:00Z","end_local":"2024-05-28T16:00:00","updated":"2024-06-11T21:36:12Z"},{"title":"Ligue 2 - West - Olympique Médéa vs Témouchent","description":"Sourced from predicthq.com","category":"sports","start":"2024-05-28T15:00:00Z","geo":{"geometry":{"coordinates":[2.7696209,36.2617367],"type":"Point"},"placekey":"@7b4-yqj-ht9","address":{"country_code":"DZ","formatted_address":"7Q69+MVW, N18, Médéa, Algeria","locality":"Médéa","region":"Wilaya de Médéa"}},"labels":["soccer","sport"],"duration":0,"start_local":"2024-05-28T16:00:00","end":"2024-05-28T15:00:00Z","end_local":"2024-05-28T16:00:00","updated":"2024-06-11T23:00:22Z"},{"title":"Ligue 2 - West - NA Hussein Dey vs WA Mostaganem","description":"Sourced from predicthq.com","category":"sports","start":"2024-05-28T15:00:00Z","geo":{"geometry":{"coordinates":[3.0784396,36.7454756],"type":"Point"},"placekey":"@7f5-yzq-dsq","address":{"country_code":"DZ","formatted_address":"Rue Rabah Takdjourt, Algiers, Algeria","locality":"Algiers","region":"Algiers Province"}},"labels":["soccer","sport"],"duration":0,"start_local":"2024-05-28T16:00:00","end":"2024-05-28T15:00:00Z","end_local":"2024-05-28T16:00:00","updated":"2024-06-12T05:22:52Z"},{"title":"Ligue 2 - East - E Sour El-Ghozlane vs CA Batna","description":"Sourced from predicthq.com","category":"sports","start":"2024-05-28T15:00:00Z","geo":{"geometry":{"coordinates":[3.682796359062195,36.14808962906045],"type":"Point"},"placekey":"@7b4-zbg-66k","address":{"country_code":"DZ","formatted_address":"4MXJ+Q7F, Sour El-Ghozlane, Algeria","locality":"Sour El-Ghozlane","region":"Bouïra Province"}},"labels":["soccer","sport"],"duration":0,"start_local":"2024-05-28T16:00:00","end":"2024-05-28T15:00:00Z","end_local":"2024-05-28T16:00:00","updated":"2024-06-12T06:33:30Z"},{"title":"Ligue 2 - East - Aïn M'lila vs JS Bordj Ménaïel","description":"Sourced from predicthq.com","category":"sports","start":"2024-05-28T15:00:00Z","geo":{"geometry":{"coordinates":[6.557810801541905,36.04493809559481],"type":"Point"},"placekey":"@7bv-74f-94v","address":{"country_code":"DZ","formatted_address":"Unnamed Road, 2HW4+4V8, Aïn M'lila, Algeria","locality":"Aïn M'lila","region":"Wilaya d'Oum El Bouaghi"}},"labels":["soccer","sport"],"duration":0,"start_local":"2024-05-28T16:00:00","end":"2024-05-28T15:00:00Z","end_local":"2024-05-28T16:00:00","updated":"2024-06-11T21:57:21Z"},{"title":"Ligue 2 - East - MSP Batna vs El Eulma","description":"Sourced from predicthq.com","category":"sports","start":"2024-05-28T15:00:00Z","geo":{"geometry":{"coordinates":[6.188033223152161,35.55724538917183],"type":"Point"},"placekey":"@7bv-2h7-9mk","address":{"country_code":"DZ","formatted_address":"H54Q+V5W, Rue de l'Abattoir, Batna, Algeria","locality":"Batna","region":"Batna Province"}},"labels":["soccer","sport"],"duration":0,"start_local":"2024-05-28T16:00:00","end":"2024-05-28T15:00:00Z","end_local":"2024-05-28T16:00:00","updated":"2024-06-11T23:42:34Z"},{"title":"Ligue 2 - East - USM El Harrach vs MO Constantine","description":"Sourced from predicthq.com","category":"sports","start":"2024-05-28T15:00:00Z","geo":{"geometry":{"coordinates":[3.1314947,36.7346014],"type":"Point"},"placekey":"@7f5-yzk-x5z","address":{"country_code":"DZ","formatted_address":"P4MJ+RHX, Mohammadia, Algeria","locality":"Mohammadia","region":"Algiers Province"}},"labels":["soccer","sport"],"duration":0,"start_local":"2024-05-28T16:00:00","end":"2024-05-28T15:00:00Z","end_local":"2024-05-28T16:00:00","updated":"2024-06-12T19:04:18Z"},{"title":"Ligue 2 - East - IB Khémis El Khechna vs Olympique Magrane","description":"Sourced from predicthq.com","category":"sports","start":"2024-05-28T15:00:00Z","geo":{"geometry":{"coordinates":[3.328778581,36.651511809],"type":"Point"},"placekey":"@7b5-5pq-9s5","address":{"country_code":"DZ","formatted_address":"M82H+JG2, Khemis El-Khechna, Algeria","locality":"Khemis El-Khechna","region":"Boumerdès Province"}},"labels":["soccer","sport"],"duration":0,"start_local":"2024-05-28T16:00:00","end":"2024-05-28T15:00:00Z","end_local":"2024-05-28T16:00:00","updated":"2024-06-12T12:22:23Z"},{"title":"Ligue 2 - East - RB Ouargla vs Teleghma","description":"Sourced from predicthq.com","category":"sports","start":"2024-05-28T15:00:00Z","geo":{"geometry":{"coordinates":[5.342013691,31.941230589],"type":"Point"},"placekey":"@7bj-j5v-v9f","address":{"country_code":"DZ","formatted_address":"X85Q+4VW, Ouargla, Algeria","locality":"Ouargla","region":"Ouargla Province"}},"labels":["soccer","sport"],"duration":0,"start_local":"2024-05-28T16:00:00","end":"2024-05-28T15:00:00Z","end_local":"2024-05-28T16:00:00","updated":"2024-06-12T18:16:06Z"},{"title":"Ligue 2 - East - HB Chelghoum Laïd vs Olympique Akbou","description":"Sourced from predicthq.com","category":"sports","start":"2024-05-28T15:00:00Z","geo":{"geometry":{"coordinates":[6.172215783319879,36.156356419626746],"type":"Point"},"placekey":"@7bv-64q-fpv","address":{"country_code":"DZ","formatted_address":"554C+GVV, Chelghoum Laïd, Algeria","locality":"Chelghoum Laïd","region":"Mila Province"}},"labels":["soccer","sport"],"duration":0,"start_local":"2024-05-28T16:00:00","end":"2024-05-28T15:00:00Z","end_local":"2024-05-28T16:00:00","updated":"2024-06-11T22:30:44Z"},{"title":"Ligue 2 - West - ES Mostaganem vs ASM Oran","description":"Sourced from predicthq.com","category":"sports","start":"2024-05-28T15:00:00Z","geo":{"geometry":{"coordinates":[0.10521233081817627,35.92411889981462],"type":"Point"},"placekey":"@7b6-k86-389","address":{"country_code":"DZ","formatted_address":"10 Rue Ben Salem Amar, Mostaganem, Algeria","locality":"Mostaganem","region":"Wilaya de Mostaganem"}},"labels":["soccer","sport"],"duration":0,"start_local":"2024-05-28T16:00:00","end":"2024-05-28T15:00:00Z","end_local":"2024-05-28T16:00:00","updated":"2024-06-11T23:53:02Z"},{"title":"Ligue 2 - West - SKAF Khémis Mélina vs GC Mascara","description":"Sourced from predicthq.com","category":"sports","start":"2024-05-28T15:00:00Z","geo":{"geometry":{"coordinates":[2.2172207184489783,36.256668405143266],"type":"Point"},"placekey":"@7b5-6v4-hnq","address":{"country_code":"DZ","formatted_address":"7649+X63, Khemis Miliana, Algeria","locality":"Khemis Miliana","region":"Aïn Defla Province"}},"labels":["soccer","sport"],"duration":0,"start_local":"2024-05-28T16:00:00","end":"2024-05-28T15:00:00Z","end_local":"2024-05-28T16:00:00","updated":"2024-06-12T04:04:53Z"},{"title":"Ligue 2 - West - Koléa vs Guir Abadla","description":"Sourced from predicthq.com","category":"sports","start":"2024-05-28T15:00:00Z","geo":{"geometry":{"coordinates":[2.765948119,36.634882617],"type":"Point"},"placekey":"@7b5-45x-jn5","address":{"country_code":"DZ","formatted_address":"JQP8+322, Rue Mostefa Ben Boulaïd, Koléa, Algeria","locality":"Koléa","region":"Wilaya de Tipaza"}},"labels":["soccer","sport"],"duration":0,"start_local":"2024-05-28T16:00:00","end":"2024-05-28T15:00:00Z","end_local":"2024-05-28T16:00:00","updated":"2024-06-12T09:54:07Z"},{"title":"International Renewable Energy Days","description":"Sourced from predicthq.com","category":"conferences","start":"2024-05-28T08:00:00Z","geo":{"geometry":{"coordinates":[3.194152,36.712633],"type":"Point"},"placekey":"@7f5-z5f-435","address":{"country_code":"DZ","formatted_address":"16311 Bab Ezzouar, Algeria","locality":"Bab Ezzouar","postcode":"16311","region":"Algiers Province"}},"labels":["conference"],"duration":205200,"start_local":"2024-05-28T09:00:00","end":"2024-05-30T17:00:00Z","end_local":"2024-05-30T18:00:00","updated":"2024-05-27T09:51:12Z"},{"title":"Machi La Faute Ta3i","description":"Sourced from predicthq.com - Plongez dans un océan de rires avec notre spectacle de stand-up comedy, \"Machi la faute taعi\"","category":"concerts","start":"2024-05-27T18:30:00Z","geo":{"geometry":{"coordinates":[-0.5931406000000001,35.7244875],"type":"Point"},"placekey":"@7b3-bxr-x3q","address":{"country_code":"DZ","formatted_address":"Rue Dubaï, Bir El Djir, Algeria","locality":"Bir El Djir","region":"Oran Province"}},"labels":["community","concert","music"],"duration":5400,"start_local":"2024-05-27T19:30:00","end":"2024-05-27T20:00:00Z","end_local":"2024-05-27T21:00:00","updated":"2024-05-23T02:56:45Z"},{"title":"Ligue 1 - US Biskra vs CS Constantine","description":"Sourced from predicthq.com","category":"sports","start":"2024-05-26T15:45:00Z","geo":{"geometry":{"coordinates":[5.7541963,34.8430085],"type":"Point"},"placekey":"@7bv-qmc-bx5","address":{"country_code":"DZ","formatted_address":"RQV3+6M4, Biskra, Algeria","locality":"Biskra","region":"Biskra Province"}},"labels":["soccer","sport"],"duration":7206,"start_local":"2024-05-26T16:45:00","end":"2024-05-26T17:45:06Z","end_local":"2024-05-26T18:45:06","updated":"2024-06-12T15:10:14Z"},{"title":"Ligue 1 - Belouizdad vs El Bayadh","description":"Sourced from predicthq.com","category":"sports","start":"2024-05-26T15:45:00Z","geo":{"geometry":{"coordinates":[3.0784396,36.7454756],"type":"Point"},"placekey":"@7f5-yzq-dsq","address":{"country_code":"DZ","formatted_address":"Rue Rabah Takdjourt, Algiers, Algeria","locality":"Algiers","region":"Algiers Province"}},"labels":["soccer","sport"],"duration":7516,"start_local":"2024-05-26T16:45:00","end":"2024-05-26T17:50:16Z","end_local":"2024-05-26T18:50:16","updated":"2024-06-12T08:55:21Z"},{"title":"Ligue 1 - ES Sétif vs NC Magra","description":"Sourced from predicthq.com","category":"sports","start":"2024-05-26T15:45:00Z","geo":{"geometry":{"coordinates":[5.3932786,36.1868318],"type":"Point"},"placekey":"@7bw-6zg-5j9","address":{"country_code":"DZ","formatted_address":"59PV+Q87, Av. Mokhtar Laaribi, Sétif, Algeria","locality":"Sétif","region":"Wilaya de Sétif"}},"labels":["soccer","sport"],"duration":7250,"start_local":"2024-05-26T16:45:00","end":"2024-05-26T17:45:50Z","end_local":"2024-05-26T18:45:50","updated":"2024-06-12T15:40:49Z"},{"title":"Ligue 1 - Paradou AC vs US Souf","description":"Sourced from predicthq.com","category":"sports","start":"2024-05-26T15:45:00Z","geo":{"geometry":{"coordinates":[3.21014495351184,36.72085995894815],"type":"Point"},"placekey":"@7f5-z5z-9pv","address":{"country_code":"DZ","formatted_address":"Guemgani Road, al-Jazā’ir (Algiers), Algeria","locality":"al-Jazā’ir (Algiers) "}},"labels":["soccer","sport"],"duration":6676,"start_local":"2024-05-26T16:45:00","end":"2024-05-26T17:36:16Z","end_local":"2024-05-26T18:36:16","updated":"2024-06-12T07:55:47Z"},{"title":"Ligue 1 - Kabylie vs MC Alger","description":"Sourced from predicthq.com","category":"sports","start":"2024-05-26T15:45:00Z","geo":{"geometry":{"coordinates":[4.056068658828735,36.706928177446656],"type":"Point"},"placekey":"@7bv-z2g-26k","address":{"country_code":"DZ","formatted_address":"P344+HC5, Rue Lamali Ahmed, Tizi Ouzou 15000, Algeria","postcode":"15000","locality":"Tizi Ouzou","region":"Wilaya de Tizi Ouzou"}},"labels":["soccer","sport"],"duration":8078,"start_local":"2024-05-26T16:45:00","end":"2024-05-26T17:59:38Z","end_local":"2024-05-26T18:59:38","updated":"2024-06-12T05:28:23Z"},{"title":"Ligue 1 - Khenchela vs Saoura","description":"Sourced from predicthq.com","category":"sports","start":"2024-05-26T15:45:00Z","geo":{"geometry":{"coordinates":[7.1465059,35.4284269],"type":"Point"},"placekey":"@7bd-kh2-kmk","address":{"country_code":"DZ","formatted_address":"C4HW+9JC, Khenchela, Algeria","locality":"Khenchela","region":"Khenchela Province"}},"labels":["soccer","sport"],"duration":7143,"start_local":"2024-05-26T16:45:00","end":"2024-05-26T17:44:03Z","end_local":"2024-05-26T18:44:03","updated":"2024-06-12T02:11:19Z"},{"title":"Ligue 1 - MC Oran vs Ben Aknoun","description":"Sourced from predicthq.com","category":"sports","start":"2024-05-26T15:45:00Z","geo":{"geometry":{"coordinates":[-0.6362669000000096,35.6833218],"type":"Point"},"placekey":"@7b3-gkk-c3q","address":{"country_code":"DZ","formatted_address":"Oran, Oran Province, Algeria","locality":"Oran","region":"Oran Province"}},"labels":["soccer","sport"],"duration":7510,"start_local":"2024-05-26T16:45:00","end":"2024-05-26T17:50:10Z","end_local":"2024-05-26T18:50:10","updated":"2024-06-12T02:29:56Z"},{"title":"Ligue 1 - USM Alger vs ASO Chlef","description":"Sourced from predicthq.com","category":"sports","start":"2024-05-25T16:00:00Z","geo":{"geometry":{"coordinates":[3.0784396,36.7454756],"type":"Point"},"placekey":"@7f5-yzq-dsq","address":{"country_code":"DZ","formatted_address":"Rue Rabah Takdjourt, Algiers, Algeria","locality":"Algiers","region":"Algiers Province"}},"labels":["soccer","sport"],"duration":7736,"start_local":"2024-05-25T17:00:00","end":"2024-05-25T18:08:56Z","end_local":"2024-05-25T19:08:56","updated":"2024-06-12T00:50:49Z"},{"title":"International Home Furniture and Appliances Exhibition Algeria","description":"Sourced from predicthq.com","category":"expos","start":"2024-05-24T23:00:00Z","geo":{"geometry":{"coordinates":[3.156633,36.733507],"type":"Point"},"placekey":"@7f5-z5k-7bk","address":{"country_code":"DZ","formatted_address":"P5M2+PXC, Mohammadia, Algeria","locality":"Mohammadia","region":"Algiers Province"}},"labels":["expo"],"duration":259199,"start_local":"2024-05-25T00:00:00","end":"2024-05-27T22:59:59Z","end_local":"2024-05-27T23:59:59","updated":"2024-06-05T09:07:57Z"},{"title":"Ligue 2 - East - JS Bordj Ménaïel vs USM El Harrach","description":"Sourced from predicthq.com","category":"sports","start":"2024-05-24T15:00:00Z","geo":{"geometry":{"coordinates":[3.468841318263234,36.76426825842868],"type":"Point"},"placekey":"@7f6-2h9-5s5","address":{"country_code":"DZ","formatted_address":"Boumerdes, Algeria","locality":"Boumerdes","region":"Boumerdès Province"}},"labels":["soccer","sport"],"duration":0,"start_local":"2024-05-24T16:00:00","end":"2024-05-24T15:00:00Z","end_local":"2024-05-24T16:00:00","updated":"2024-06-12T02:47:07Z"},{"title":"Ligue 2 - East - CA Batna vs Teleghma","description":"Sourced from predicthq.com","category":"sports","start":"2024-05-24T15:00:00Z","geo":{"geometry":{"coordinates":[6.188033223152161,35.55724538917183],"type":"Point"},"placekey":"@7bv-2h7-9mk","address":{"country_code":"DZ","formatted_address":"H54Q+V5W, Rue de l'Abattoir, Batna, Algeria","locality":"Batna","region":"Batna Province"}},"labels":["soccer","sport"],"duration":0,"start_local":"2024-05-24T16:00:00","end":"2024-05-24T15:00:00Z","end_local":"2024-05-24T16:00:00","updated":"2024-06-12T02:58:29Z"},{"title":"Ligue 2 - East - El Eulma vs RB Ouargla","description":"Sourced from predicthq.com","category":"sports","start":"2024-05-24T15:00:00Z","geo":{"geometry":{"coordinates":[5.698476433753967,36.15191879474478],"type":"Point"},"placekey":"@7bw-7x3-kcq","address":{"country_code":"DZ","formatted_address":"El Eulma 19600, Algeria","postcode":"19600","locality":"El Eulma","region":"Sétif Province"}},"labels":["soccer","sport"],"duration":0,"start_local":"2024-05-24T16:00:00","end":"2024-05-24T15:00:00Z","end_local":"2024-05-24T16:00:00","updated":"2024-06-12T17:06:54Z"},{"title":"Ligue 2 - West - GC Mascara vs Tiaret","description":"Sourced from predicthq.com","category":"sports","start":"2024-05-24T15:00:00Z","geo":{"geometry":{"coordinates":[0.1342177391052246,35.39311264175385],"type":"Point"},"placekey":"@7b6-fkd-j5f","address":{"country_code":"DZ","formatted_address":"94VM+6MQ, Av. Boulefred Mohamed, Mascara, Algeria","locality":"Mascara","region":"Wilaya de Mascara"}},"labels":["soccer","sport"],"duration":0,"start_local":"2024-05-24T16:00:00","end":"2024-05-24T15:00:00Z","end_local":"2024-05-24T16:00:00","updated":"2024-06-12T07:37:48Z"},{"title":"Ligue 2 - West - Guir Abadla vs Olympique Médéa","description":"Sourced from predicthq.com","category":"sports","start":"2024-05-24T15:00:00Z","geo":{"geometry":{"coordinates":[-2.2314047813415527,31.575953300010806],"type":"Point"},"placekey":"@79w-6ht-m8v","address":{"country_code":"DZ","formatted_address":"JQ4J+7MW, Béchar, Algeria","locality":"Béchar","region":"Béchar Province"}},"labels":["soccer","sport"],"duration":0,"start_local":"2024-05-24T16:00:00","end":"2024-05-24T15:00:00Z","end_local":"2024-05-24T16:00:00","updated":"2024-06-12T00:46:28Z"},{"title":"Ligue 2 - West - Oued Sly vs NA Hussein Dey","description":"Sourced from predicthq.com","category":"sports","start":"2024-05-24T15:00:00Z","geo":{"geometry":{"coordinates":[1.328049138,36.17487335],"type":"Point"},"placekey":"@7b4-wfv-q2k","address":{"country_code":"DZ","formatted_address":"W3, Chlef, Algeria","locality":"Chlef","region":"Chlef Province"}},"labels":["soccer","sport"],"duration":0,"start_local":"2024-05-24T16:00:00","end":"2024-05-24T15:00:00Z","end_local":"2024-05-24T16:00:00","updated":"2024-06-12T07:34:07Z"},{"title":"Ligue 2 - East - Olympique Akbou vs E Sour El-Ghozlane","description":"Sourced from predicthq.com","category":"sports","start":"2024-05-24T15:00:00Z","geo":{"geometry":{"coordinates":[4.541279396,36.451758481],"type":"Point"},"placekey":"@7bv-wny-mzf","address":{"country_code":"DZ","formatted_address":"FG3R+463, Akbou, Algeria","locality":"Akbou","region":"Béjaïa Province"}},"labels":["soccer","sport"],"duration":0,"start_local":"2024-05-24T16:00:00","end":"2024-05-24T15:00:00Z","end_local":"2024-05-24T16:00:00","updated":"2024-06-12T19:50:02Z"},{"title":"Ligue 2 - West - ASM Oran vs SKAF Khémis Mélina","description":"Sourced from predicthq.com","category":"sports","start":"2024-05-24T15:00:00Z","geo":{"geometry":{"coordinates":[-0.6169295310974121,35.68977929448362],"type":"Point"},"placekey":"@7b3-gkm-p5f","address":{"country_code":"DZ","formatted_address":"Route de Misserghin ou RN2, Wahrān (Oran), Algeria","locality":"Wahrān (Oran)"}},"labels":["soccer","sport"],"duration":0,"start_local":"2024-05-24T16:00:00","end":"2024-05-24T15:00:00Z","end_local":"2024-05-24T16:00:00","updated":"2024-06-12T00:19:46Z"},{"title":"Ligue 2 - East - USM Annaba vs IB Khémis El Khechna","description":"Sourced from predicthq.com","category":"sports","start":"2024-05-24T15:00:00Z","geo":{"geometry":{"coordinates":[7.7574580907821655,36.90780719312758],"type":"Point"},"placekey":"@7bq-bgj-zfz","address":{"country_code":"DZ","formatted_address":"Annaba, Algeria","locality":"Annaba","region":"Annaba Province"}},"labels":["soccer","sport"],"duration":0,"start_local":"2024-05-24T16:00:00","end":"2024-05-24T15:00:00Z","end_local":"2024-05-24T16:00:00","updated":"2024-06-12T04:07:02Z"},{"title":"Ligue 2 - West - WA Mostaganem vs Koléa","description":"Sourced from predicthq.com","category":"sports","start":"2024-05-24T15:00:00Z","geo":{"geometry":{"coordinates":[0.10521233081817627,35.92411889981462],"type":"Point"},"placekey":"@7b6-k86-389","address":{"country_code":"DZ","formatted_address":"10 Rue Ben Salem Amar, Mostaganem, Algeria","locality":"Mostaganem","region":"Wilaya de Mostaganem"}},"labels":["soccer","sport"],"duration":0,"start_local":"2024-05-24T16:00:00","end":"2024-05-24T15:00:00Z","end_local":"2024-05-24T16:00:00","updated":"2024-06-12T13:54:30Z"},{"title":"Ligue 2 - West - SC Méchria vs WA Boufarik","description":"Sourced from predicthq.com","category":"sports","start":"2024-05-24T15:00:00Z","geo":{"geometry":{"coordinates":[-0.274964,33.551172],"type":"Point"},"placekey":"@79q-m6y-py9","address":{"country_code":"DZ","formatted_address":"HP2G+F2F, Mecheria, Algeria","locality":"Mecheria","region":"Naâma Province"}},"labels":["soccer","sport"],"duration":0,"start_local":"2024-05-24T16:00:00","end":"2024-05-24T15:00:00Z","end_local":"2024-05-24T16:00:00","updated":"2024-06-12T04:47:49Z"},{"title":"Ligue 2 - West - RC Arbaâ vs ES Mostaganem","description":"Sourced from predicthq.com","category":"sports","start":"2024-05-24T15:00:00Z","geo":{"geometry":{"coordinates":[3.1490448,36.5668591],"type":"Point"},"placekey":"@7b5-5ms-dd9","address":{"country_code":"DZ","formatted_address":"Larbaa, Blida Province, Algeria","locality":"Larbaa","region":"Blida Province"}},"labels":["soccer","sport"],"duration":0,"start_local":"2024-05-24T16:00:00","end":"2024-05-24T15:00:00Z","end_local":"2024-05-24T16:00:00","updated":"2024-06-12T05:05:43Z"},{"title":"Ligue 2 - East - HB Chelghoum Laïd vs AS Khroub","description":"Sourced from predicthq.com","category":"sports","start":"2024-05-24T15:00:00Z","geo":{"geometry":{"coordinates":[6.172215783319879,36.156356419626746],"type":"Point"},"placekey":"@7bv-64q-fpv","address":{"country_code":"DZ","formatted_address":"554C+GVV, Chelghoum Laïd, Algeria","locality":"Chelghoum Laïd","region":"Mila Province"}},"labels":["soccer","sport"],"duration":0,"start_local":"2024-05-24T16:00:00","end":"2024-05-24T15:00:00Z","end_local":"2024-05-24T16:00:00","updated":"2024-06-12T15:03:28Z"},{"title":"Ligue 2 - East - MO Constantine vs MSP Batna","description":"Sourced from predicthq.com","category":"sports","start":"2024-05-24T15:00:00Z","geo":{"geometry":{"coordinates":[6.604714393615723,36.35663600066584],"type":"Point"},"placekey":"@7bp-wpg-zfz","address":{"country_code":"DZ","formatted_address":"9J43+JVP, Constantine, Algeria","locality":"Constantine","region":"Constantine Province"}},"labels":["soccer","sport"],"duration":0,"start_local":"2024-05-24T16:00:00","end":"2024-05-24T15:00:00Z","end_local":"2024-05-24T16:00:00","updated":"2024-06-12T08:06:40Z"},{"title":"Ligue 2 - West - RC Kouba vs Témouchent","description":"Sourced from predicthq.com","category":"sports","start":"2024-05-24T15:00:00Z","geo":{"geometry":{"coordinates":[3.0904197692871094,36.729546382595046],"type":"Point"},"placekey":"@7f5-yzj-kpv","address":{"country_code":"DZ","formatted_address":"P3HR+V45, Av. des Frères Abdeslami, Kouba, Algeria","locality":"Kouba","region":"Wilaya d'Alger"}},"labels":["soccer","sport"],"duration":0,"start_local":"2024-05-24T16:00:00","end":"2024-05-24T15:00:00Z","end_local":"2024-05-24T16:00:00","updated":"2024-06-12T15:27:05Z"},{"title":"Ligue 2 - East - Olympique Magrane vs Aïn M'lila","description":"Sourced from predicthq.com","category":"sports","start":"2024-05-24T15:00:00Z","geo":{"geometry":{"coordinates":[6.878230529,33.400328708],"type":"Point"},"placekey":"@7bk-bxg-rkz","address":{"country_code":"DZ","formatted_address":"CV2H+47Q, El Oued, Algeria","locality":"El Oued","region":"El Oued Province"}},"labels":["soccer","sport"],"duration":0,"start_local":"2024-05-24T16:00:00","end":"2024-05-24T15:00:00Z","end_local":"2024-05-24T16:00:00","updated":"2024-06-12T14:02:29Z"},{"title":"El9ante Comedy Club","description":"Sourced from predicthq.com - الحكاية بدات في القنت","category":"performing-arts","start":"2024-05-23T18:00:00Z","geo":{"geometry":{"coordinates":[-0.5931406000000001,35.7244875],"type":"Point"},"placekey":"@7b3-bxr-x3q","address":{"country_code":"DZ","formatted_address":"Rue Dubaï, Bir El Djir, Algeria","locality":"Bir El Djir","region":"Oran Province"}},"labels":["concert","music","performing-arts"],"duration":5400,"start_local":"2024-05-23T19:00:00","end":"2024-05-23T19:30:00Z","end_local":"2024-05-23T20:30:00","updated":"2024-05-23T02:45:33Z"},{"title":"Digital African Summit","description":"Sourced from predicthq.com","category":"conferences","start":"2024-05-23T08:00:00Z","geo":{"geometry":{"coordinates":[2.893857,36.769181],"type":"Point"},"placekey":"@7b5-4sf-kzz","address":{"country_code":"DZ","formatted_address":"Chéraga, Algiers Province, Algeria","locality":"Chéraga","region":"Algiers Province"}},"labels":["conference"],"duration":205200,"start_local":"2024-05-23T09:00:00","end":"2024-05-25T17:00:00Z","end_local":"2024-05-25T18:00:00","updated":"2024-06-04T22:58:17Z"},{"title":"DENTEX Algeria 2024","description":"Sourced from predicthq.com","category":"expos","start":"2024-05-21T23:00:00Z","geo":{"geometry":{"coordinates":[3.1524013,36.7343248],"type":"Point"},"placekey":"@7f5-z5j-wkz","address":{"country_code":"DZ","formatted_address":"Mohammadia, Algiers Province, Algeria","locality":"Mohammadia","region":"Algiers Province"}},"labels":["expo","health","medical"],"duration":345599,"start_local":"2024-05-22T00:00:00","end":"2024-05-25T22:59:59Z","end_local":"2024-05-25T23:59:59","updated":"2024-06-12T17:21:38Z"},{"title":"Ligue 1 - MC Oran vs USM Alger","description":"Sourced from predicthq.com","category":"sports","start":"2024-05-21T18:00:00Z","geo":{"geometry":{"coordinates":[-0.6362669000000096,35.6833218],"type":"Point"},"placekey":"@7b3-gkk-c3q","address":{"country_code":"DZ","formatted_address":"Oran, Oran Province, Algeria","locality":"Oran","region":"Oran Province"}},"labels":["soccer","sport"],"duration":7234,"start_local":"2024-05-21T19:00:00","end":"2024-05-21T20:00:34Z","end_local":"2024-05-21T21:00:34","updated":"2024-06-12T16:05:10Z"},{"title":"The Second International Conference on Big Data, IoT, Web Intelligence and Applications","description":"Sourced from predicthq.com","category":"conferences","start":"2024-05-21T08:00:00Z","geo":{"geometry":{"coordinates":[5.04075,36.750267],"type":"Point"},"placekey":"@7bw-c8p-5j9","address":{"country_code":"DZ","formatted_address":"Béjaïa, Wilaya de Béjaïa, Algeria","locality":"Béjaïa","region":"Wilaya de Béjaïa"}},"labels":["conference"],"duration":118800,"start_local":"2024-05-21T09:00:00","end":"2024-05-22T17:00:00Z","end_local":"2024-05-22T18:00:00","updated":"2024-07-02T04:16:51Z"},{"title":"Sipsa-Filaha & Agrofood","description":"Sourced from predicthq.com - Sipsa-Filaha & Agrofood is a prominent expo event that brings together the agriculture, livestock, and agrofood industries, serving as a platform for networking, showcasing innovations, and enhancing business opportunities. This comprehensive event gathers industry professionals, manufacturers, and buyers to explore cutting-edge technologies, agricultural products, and modern practices that contribute to the development and growth of the sector.","category":"expos","start":"2024-05-20T08:00:00Z","geo":{"geometry":{"coordinates":[3.156633,36.733507],"type":"Point"},"placekey":"@7f5-z5k-7bk","address":{"country_code":"DZ","formatted_address":"P5M2+PXC, Mohammadia, Algeria","locality":"Mohammadia","region":"Algiers Province"}},"labels":["expo"],"duration":291600,"start_local":"2024-05-20T09:00:00","end":"2024-05-23T17:00:00Z","end_local":"2024-05-23T18:00:00","updated":"2024-06-05T03:46:25Z"},{"title":"Livestock And Agri-Business Show","description":"Sourced from predicthq.com","category":"expos","start":"2024-05-20T08:00:00Z","geo":{"geometry":{"coordinates":[3.1566328,36.7335073],"type":"Point"},"placekey":"@7f5-z5k-7bk","address":{"country_code":"DZ","formatted_address":"Les pins martitimes, المحمدية, Algeria","locality":"المحمدية","region":"ولاية الجزائر"}},"labels":["expo"],"duration":291600,"start_local":"2024-05-20T09:00:00","end":"2024-05-23T17:00:00Z","end_local":"2024-05-23T18:00:00","updated":"2024-06-04T11:49:33Z"},{"title":"CTO Forum Algeria 2024","description":"Sourced from predicthq.com","category":"expos","start":"2024-05-19T23:00:00Z","geo":{"geometry":{"coordinates":[3.082041,36.737475],"type":"Point"},"placekey":"@7f5-yzq-ygk","address":{"country_code":"DZ","formatted_address":"El Madania, Algiers Province, Algeria","locality":"El Madania","region":"Algiers Province"}},"labels":["business","expo","industrial","product","science","technology"],"duration":259199,"start_local":"2024-05-20T00:00:00","end":"2024-05-22T22:59:59Z","end_local":"2024-05-22T23:59:59","updated":"2024-06-05T05:51:30Z"},{"title":"Ligue 2 - West - NA Hussein Dey vs GC Mascara","description":"Sourced from predicthq.com","category":"sports","start":"2024-05-18T14:00:00Z","geo":{"geometry":{"coordinates":[3.0784396,36.7454756],"type":"Point"},"placekey":"@7f5-yzq-dsq","address":{"country_code":"DZ","formatted_address":"Rue Rabah Takdjourt, Algiers, Algeria","locality":"Algiers","region":"Algiers Province"}},"labels":["soccer","sport"],"duration":0,"start_local":"2024-05-18T15:00:00","end":"2024-05-18T14:00:00Z","end_local":"2024-05-18T15:00:00","updated":"2024-06-12T00:15:24Z"},{"title":"Ligue 2 - West - ES Mostaganem vs SC Méchria","description":"Sourced from predicthq.com","category":"sports","start":"2024-05-18T14:00:00Z","geo":{"geometry":{"coordinates":[0.10521233081817627,35.92411889981462],"type":"Point"},"placekey":"@7b6-k86-389","address":{"country_code":"DZ","formatted_address":"10 Rue Ben Salem Amar, Mostaganem, Algeria","locality":"Mostaganem","region":"Wilaya de Mostaganem"}},"labels":["soccer","sport"],"duration":0,"start_local":"2024-05-18T15:00:00","end":"2024-05-18T14:00:00Z","end_local":"2024-05-18T15:00:00","updated":"2024-06-12T13:53:23Z"},{"title":"Ligue 2 - West - WA Boufarik vs RC Arbaâ","description":"Sourced from predicthq.com","category":"sports","start":"2024-05-18T14:00:00Z","geo":{"geometry":{"coordinates":[2.9072982637542344,36.574511806996355],"type":"Point"},"placekey":"@7b5-48q-54v","address":{"country_code":"DZ","formatted_address":"HWF4+RW9, Boufarik, Algeria","locality":"Boufarik","region":"Blida Province"}},"labels":["soccer","sport"],"duration":0,"start_local":"2024-05-18T15:00:00","end":"2024-05-18T14:00:00Z","end_local":"2024-05-18T15:00:00","updated":"2024-06-11T23:57:41Z"},{"title":"Ligue 2 - East - AS Khroub vs Olympique Akbou","description":"Sourced from predicthq.com","category":"sports","start":"2024-05-18T14:00:00Z","geo":{"geometry":{"coordinates":[6.6873706,36.2606902],"type":"Point"},"placekey":"@7bp-x2s-2hq","address":{"country_code":"DZ","formatted_address":"7M6Q+85F, El Khroub, Algeria","locality":"El Khroub","region":"Constantine Province"}},"labels":["soccer","sport"],"duration":0,"start_local":"2024-05-18T15:00:00","end":"2024-05-18T14:00:00Z","end_local":"2024-05-18T15:00:00","updated":"2024-06-12T03:15:35Z"},{"title":"Ligue 2 - East - MSP Batna vs JS Bordj Ménaïel","description":"Sourced from predicthq.com","category":"sports","start":"2024-05-18T14:00:00Z","geo":{"geometry":{"coordinates":[6.188033223152161,35.55724538917183],"type":"Point"},"placekey":"@7bv-2h7-9mk","address":{"country_code":"DZ","formatted_address":"H54Q+V5W, Rue de l'Abattoir, Batna, Algeria","locality":"Batna","region":"Batna Province"}},"labels":["soccer","sport"],"duration":0,"start_local":"2024-05-18T15:00:00","end":"2024-05-18T14:00:00Z","end_local":"2024-05-18T15:00:00","updated":"2024-06-12T04:43:46Z"},{"title":"Ligue 2 - West - Olympique Médéa vs WA Mostaganem","description":"Sourced from predicthq.com","category":"sports","start":"2024-05-18T14:00:00Z","geo":{"geometry":{"coordinates":[2.7696209,36.2617367],"type":"Point"},"placekey":"@7b4-yqj-ht9","address":{"country_code":"DZ","formatted_address":"7Q69+MVW, N18, Médéa, Algeria","locality":"Médéa","region":"Wilaya de Médéa"}},"labels":["soccer","sport"],"duration":0,"start_local":"2024-05-18T15:00:00","end":"2024-05-18T14:00:00Z","end_local":"2024-05-18T15:00:00","updated":"2024-06-12T06:02:38Z"},{"title":"Ligue 2 - East - Teleghma vs El Eulma","description":"Sourced from predicthq.com","category":"sports","start":"2024-05-18T14:00:00Z","geo":{"geometry":{"coordinates":[6.368476590291451,36.12363858771284],"type":"Point"},"placekey":"@7bv-68t-b6k","address":{"country_code":"DZ","formatted_address":"49F9+FC6, Teleghma, Algeria","locality":"Teleghma","region":"Mila Province"}},"labels":["soccer","sport"],"duration":0,"start_local":"2024-05-18T15:00:00","end":"2024-05-18T14:00:00Z","end_local":"2024-05-18T15:00:00","updated":"2024-06-11T22:20:33Z"},{"title":"Ligue 2 - West - Koléa vs Oued Sly","description":"Sourced from predicthq.com","category":"sports","start":"2024-05-18T14:00:00Z","geo":{"geometry":{"coordinates":[2.765948119,36.634882617],"type":"Point"},"placekey":"@7b5-45x-jn5","address":{"country_code":"DZ","formatted_address":"JQP8+322, Rue Mostefa Ben Boulaïd, Koléa, Algeria","locality":"Koléa","region":"Wilaya de Tipaza"}},"labels":["soccer","sport"],"duration":0,"start_local":"2024-05-18T15:00:00","end":"2024-05-18T14:00:00Z","end_local":"2024-05-18T15:00:00","updated":"2024-06-12T19:04:15Z"},{"title":"Ligue 2 - West - Tiaret vs ASM Oran","description":"Sourced from predicthq.com","category":"sports","start":"2024-05-18T14:00:00Z","geo":{"geometry":{"coordinates":[1.3309557,35.3622993],"type":"Point"},"placekey":"@7b5-fdg-nwk","address":{"country_code":"DZ","formatted_address":"986J+V9J, Tiaret, Algeria","locality":"Tiaret","region":"Tiaret Province"}},"labels":["soccer","sport"],"duration":0,"start_local":"2024-05-18T15:00:00","end":"2024-05-18T14:00:00Z","end_local":"2024-05-18T15:00:00","updated":"2024-06-12T11:19:56Z"},{"title":"Ligue 2 - East - IB Khémis El Khechna vs CA Batna","description":"Sourced from predicthq.com","category":"sports","start":"2024-05-18T14:00:00Z","geo":{"geometry":{"coordinates":[3.328778581,36.651511809],"type":"Point"},"placekey":"@7b5-5pq-9s5","address":{"country_code":"DZ","formatted_address":"M82H+JG2, Khemis El-Khechna, Algeria","locality":"Khemis El-Khechna","region":"Boumerdès Province"}},"labels":["soccer","sport"],"duration":0,"start_local":"2024-05-18T15:00:00","end":"2024-05-18T14:00:00Z","end_local":"2024-05-18T15:00:00","updated":"2024-06-12T00:17:51Z"},{"title":"Ligue 2 - East - USM El Harrach vs Olympique Magrane","description":"Sourced from predicthq.com","category":"sports","start":"2024-05-18T14:00:00Z","geo":{"geometry":{"coordinates":[3.1314947,36.7346014],"type":"Point"},"placekey":"@7f5-yzk-x5z","address":{"country_code":"DZ","formatted_address":"P4MJ+RHX, Mohammadia, Algeria","locality":"Mohammadia","region":"Algiers Province"}},"labels":["soccer","sport"],"duration":0,"start_local":"2024-05-18T15:00:00","end":"2024-05-18T14:00:00Z","end_local":"2024-05-18T15:00:00","updated":"2024-06-12T09:54:36Z"},{"title":"Ligue 2 - East - RB Ouargla vs MO Constantine","description":"Sourced from predicthq.com","category":"sports","start":"2024-05-18T14:00:00Z","geo":{"geometry":{"coordinates":[5.342013691,31.941230589],"type":"Point"},"placekey":"@7bj-j5v-v9f","address":{"country_code":"DZ","formatted_address":"X85Q+4VW, Ouargla, Algeria","locality":"Ouargla","region":"Ouargla Province"}},"labels":["soccer","sport"],"duration":0,"start_local":"2024-05-18T15:00:00","end":"2024-05-18T14:00:00Z","end_local":"2024-05-18T15:00:00","updated":"2024-06-12T09:48:19Z"},{"title":"Ligue 2 - East - Aïn M'lila vs USM Annaba","description":"Sourced from predicthq.com","category":"sports","start":"2024-05-18T14:00:00Z","geo":{"geometry":{"coordinates":[6.557810801541905,36.04493809559481],"type":"Point"},"placekey":"@7bv-74f-94v","address":{"country_code":"DZ","formatted_address":"Unnamed Road, 2HW4+4V8, Aïn M'lila, Algeria","locality":"Aïn M'lila","region":"Wilaya d'Oum El Bouaghi"}},"labels":["soccer","sport"],"duration":0,"start_local":"2024-05-18T15:00:00","end":"2024-05-18T14:00:00Z","end_local":"2024-05-18T15:00:00","updated":"2024-06-11T22:49:56Z"},{"title":"Ligue 2 - West - SKAF Khémis Mélina vs RC Kouba","description":"Sourced from predicthq.com","category":"sports","start":"2024-05-18T14:00:00Z","geo":{"geometry":{"coordinates":[2.2172207184489783,36.256668405143266],"type":"Point"},"placekey":"@7b5-6v4-hnq","address":{"country_code":"DZ","formatted_address":"7649+X63, Khemis Miliana, Algeria","locality":"Khemis Miliana","region":"Aïn Defla Province"}},"labels":["soccer","sport"],"duration":0,"start_local":"2024-05-18T15:00:00","end":"2024-05-18T14:00:00Z","end_local":"2024-05-18T15:00:00","updated":"2024-06-11T20:48:25Z"},{"title":"Ligue 2 - West - Témouchent vs Guir Abadla","description":"Sourced from predicthq.com","category":"sports","start":"2024-05-18T14:00:00Z","geo":{"geometry":{"coordinates":[-1.1469447612762451,35.31186842509688],"type":"Point"},"placekey":"@7b3-cfk-zs5","address":{"country_code":"DZ","formatted_address":"Ain Temouchent, Algeria","locality":"Ain Temouchent","region":"Aïn Témouchent Province"}},"labels":["soccer","sport"],"duration":0,"start_local":"2024-05-18T15:00:00","end":"2024-05-18T14:00:00Z","end_local":"2024-05-18T15:00:00","updated":"2024-06-12T02:26:11Z"},{"title":"Ligue 2 - East - E Sour El-Ghozlane vs HB Chelghoum Laïd","description":"Sourced from predicthq.com","category":"sports","start":"2024-05-18T14:00:00Z","geo":{"geometry":{"coordinates":[3.682796359062195,36.14808962906045],"type":"Point"},"placekey":"@7b4-zbg-66k","address":{"country_code":"DZ","formatted_address":"4MXJ+Q7F, Sour El-Ghozlane, Algeria","locality":"Sour El-Ghozlane","region":"Bouïra Province"}},"labels":["soccer","sport"],"duration":0,"start_local":"2024-05-18T15:00:00","end":"2024-05-18T14:00:00Z","end_local":"2024-05-18T15:00:00","updated":"2024-06-12T04:58:51Z"},{"title":"Ligue 1 - MC Alger vs USM Alger","description":"Sourced from predicthq.com","category":"sports","start":"2024-05-17T17:00:00Z","geo":{"geometry":{"coordinates":[2.9954651000000467,36.75992529999999],"type":"Point"},"placekey":"@7f5-z3m-8d9","address":{"country_code":"DZ","formatted_address":"Ben Aknoun, Algiers Province, Algeria","locality":"Ben Aknoun","region":"Algiers Province"}},"labels":["soccer","sport"],"duration":7623,"start_local":"2024-05-17T18:00:00","end":"2024-05-17T19:07:03Z","end_local":"2024-05-17T20:07:03","updated":"2024-06-11T23:58:31Z"},{"title":"Ligue 1 - US Souf vs NC Magra","description":"Sourced from predicthq.com","category":"sports","start":"2024-05-17T16:00:00Z","geo":{"geometry":{"coordinates":[6.878230529,33.400328708],"type":"Point"},"placekey":"@7bk-bxg-rkz","address":{"country_code":"DZ","formatted_address":"CV2H+47Q, El Oued, Algeria","locality":"El Oued","region":"El Oued Province"}},"labels":["soccer","sport"],"duration":6844,"start_local":"2024-05-17T17:00:00","end":"2024-05-17T17:54:04Z","end_local":"2024-05-17T18:54:04","updated":"2024-06-12T05:25:11Z"},{"title":"Ligue 1 - Ben Aknoun vs US Biskra","description":"Sourced from predicthq.com","category":"sports","start":"2024-05-17T16:00:00Z","geo":{"geometry":{"coordinates":[3.0784396,36.7454756],"type":"Point"},"placekey":"@7f5-yzq-dsq","address":{"country_code":"DZ","formatted_address":"Rue Rabah Takdjourt, Algiers, Algeria","locality":"Algiers","region":"Algiers Province"}},"labels":["soccer","sport"],"duration":7360,"start_local":"2024-05-17T17:00:00","end":"2024-05-17T18:02:40Z","end_local":"2024-05-17T19:02:40","updated":"2024-06-12T07:57:10Z"},{"title":"Ligue 1 - CS Constantine vs Belouizdad","description":"Sourced from predicthq.com","category":"sports","start":"2024-05-17T16:00:00Z","geo":{"geometry":{"coordinates":[6.625172600000042,36.3487364],"type":"Point"},"placekey":"@7bp-wpg-28v","address":{"country_code":"DZ","formatted_address":"Constantine, Constantine Province, Algeria","locality":"Constantine","region":"Constantine Province"}},"labels":["soccer","sport"],"duration":7655,"start_local":"2024-05-17T17:00:00","end":"2024-05-17T18:07:35Z","end_local":"2024-05-17T19:07:35","updated":"2024-06-12T11:27:10Z"},{"title":"Ligue 1 - El Bayadh vs Kabylie","description":"Sourced from predicthq.com","category":"sports","start":"2024-05-17T16:00:00Z","geo":{"geometry":{"coordinates":[1.0211699780486505,33.677997275364824],"type":"Point"},"placekey":"@79q-vkb-yd9","address":{"country_code":"DZ","formatted_address":"M2HC+6FH, El Bayadh, Algeria","locality":"El Bayadh","region":"El Bayadh Province"}},"labels":["soccer","sport"],"duration":7650,"start_local":"2024-05-17T17:00:00","end":"2024-05-17T18:07:30Z","end_local":"2024-05-17T19:07:30","updated":"2024-06-11T20:47:45Z"},{"title":"Ligue 1 - Saoura vs Paradou AC","description":"Sourced from predicthq.com","category":"sports","start":"2024-05-17T16:00:00Z","geo":{"geometry":{"coordinates":[-2.2314047813415527,31.575953300010806],"type":"Point"},"placekey":"@79w-6ht-m8v","address":{"country_code":"DZ","formatted_address":"JQ4J+7MW, Béchar, Algeria","locality":"Béchar","region":"Béchar Province"}},"labels":["soccer","sport"],"duration":7376,"start_local":"2024-05-17T17:00:00","end":"2024-05-17T18:02:56Z","end_local":"2024-05-17T19:02:56","updated":"2024-06-12T13:01:28Z"},{"title":"Ligue 1 - MC Oran vs ES Sétif","description":"Sourced from predicthq.com","category":"sports","start":"2024-05-17T16:00:00Z","geo":{"geometry":{"coordinates":[-0.6362669000000096,35.6833218],"type":"Point"},"placekey":"@7b3-gkk-c3q","address":{"country_code":"DZ","formatted_address":"Oran, Oran Province, Algeria","locality":"Oran","region":"Oran Province"}},"labels":["soccer","sport"],"duration":7387,"start_local":"2024-05-17T17:00:00","end":"2024-05-17T18:03:07Z","end_local":"2024-05-17T19:03:07","updated":"2024-06-12T07:10:15Z"},{"title":"Ligue 1 - ASO Chlef vs Khenchela","description":"Sourced from predicthq.com","category":"sports","start":"2024-05-17T16:00:00Z","geo":{"geometry":{"coordinates":[1.3089706,36.1616715],"type":"Point"},"placekey":"@7b4-wfs-gtv","address":{"country_code":"DZ","formatted_address":"5865+JGF, Chlef, Algeria","locality":"Chlef","region":"Chlef Province"}},"labels":["soccer","sport"],"duration":7245,"start_local":"2024-05-17T17:00:00","end":"2024-05-17T18:00:45Z","end_local":"2024-05-17T19:00:45","updated":"2024-06-12T02:22:32Z"},{"title":"El9ante Comedy Club","description":"Sourced from predicthq.com - الحكاية بدات في القنت","category":"performing-arts","start":"2024-05-16T18:00:00Z","geo":{"geometry":{"coordinates":[-0.5931406000000001,35.7244875],"type":"Point"},"placekey":"@7b3-bxr-x3q","address":{"country_code":"DZ","formatted_address":"Rue Dubaï, Bir El Djir, Algeria","locality":"Bir El Djir","region":"Oran Province"}},"labels":["concert","music","performing-arts"],"duration":5400,"start_local":"2024-05-16T19:00:00","end":"2024-05-16T19:30:00Z","end_local":"2024-05-16T20:30:00","updated":"2024-05-30T18:07:52Z"},{"title":"International Conference on Electrical Engineering and Automatic Control","description":"Sourced from predicthq.com","category":"conferences","start":"2024-05-12T08:00:00Z","geo":{"geometry":{"coordinates":[5.359716,36.196138],"type":"Point"},"placekey":"@7bw-6zs-6c5","address":{"country_code":"DZ","formatted_address":"Sétif, Wilaya de Sétif, Algeria","locality":"Sétif","region":"Wilaya de Sétif"}},"labels":["conference"],"duration":205200,"start_local":"2024-05-12T09:00:00","end":"2024-05-14T17:00:00Z","end_local":"2024-05-14T18:00:00","updated":"2024-05-28T08:51:26Z"},{"title":"Ligue 1 - Khenchela vs MC Alger","description":"Sourced from predicthq.com","category":"sports","start":"2024-05-11T16:00:00Z","geo":{"geometry":{"coordinates":[7.1465059,35.4284269],"type":"Point"},"placekey":"@7bd-kh2-kmk","address":{"country_code":"DZ","formatted_address":"C4HW+9JC, Khenchela, Algeria","locality":"Khenchela","region":"Khenchela Province"}},"labels":["soccer","sport"],"duration":8108,"start_local":"2024-05-11T17:00:00","end":"2024-05-11T18:15:08Z","end_local":"2024-05-11T19:15:08","updated":"2024-06-12T07:25:15Z"},{"title":"Ligue 1 - US Biskra vs MC Oran","description":"Sourced from predicthq.com","category":"sports","start":"2024-05-11T16:00:00Z","geo":{"geometry":{"coordinates":[5.7541963,34.8430085],"type":"Point"},"placekey":"@7bv-qmc-bx5","address":{"country_code":"DZ","formatted_address":"RQV3+6M4, Biskra, Algeria","locality":"Biskra","region":"Biskra Province"}},"labels":["soccer","sport"],"duration":7094,"start_local":"2024-05-11T17:00:00","end":"2024-05-11T17:58:14Z","end_local":"2024-05-11T18:58:14","updated":"2024-06-12T03:04:53Z"},{"title":"Ligue 1 - Belouizdad vs Ben Aknoun","description":"Sourced from predicthq.com","category":"sports","start":"2024-05-11T16:00:00Z","geo":{"geometry":{"coordinates":[2.9954651000000467,36.75992529999999],"type":"Point"},"placekey":"@7f5-z3m-8d9","address":{"country_code":"DZ","formatted_address":"Ben Aknoun, Algiers Province, Algeria","locality":"Ben Aknoun","region":"Algiers Province"}},"labels":["soccer","sport"],"duration":7426,"start_local":"2024-05-11T17:00:00","end":"2024-05-11T18:03:46Z","end_local":"2024-05-11T19:03:46","updated":"2024-06-12T08:07:54Z"},{"title":"Ligue 1 - NC Magra vs Saoura","description":"Sourced from predicthq.com","category":"sports","start":"2024-05-11T16:00:00Z","geo":{"geometry":{"coordinates":[5.100595,35.617223],"type":"Point"},"placekey":"@7bt-rjy-3qz","address":{"country_code":"DZ","formatted_address":"J482+W82, Magra, Algeria","locality":"Magra","region":"M'Sila Province"}},"labels":["soccer","sport"],"duration":7435,"start_local":"2024-05-11T17:00:00","end":"2024-05-11T18:03:55Z","end_local":"2024-05-11T19:03:55","updated":"2024-06-11T23:32:06Z"},{"title":"Ligue 1 - Kabylie vs CS Constantine","description":"Sourced from predicthq.com","category":"sports","start":"2024-05-11T16:00:00Z","geo":{"geometry":{"coordinates":[4.056068658828735,36.706928177446656],"type":"Point"},"placekey":"@7bv-z2g-26k","address":{"country_code":"DZ","formatted_address":"P344+HC5, Rue Lamali Ahmed, Tizi Ouzou 15000, Algeria","postcode":"15000","locality":"Tizi Ouzou","region":"Wilaya de Tizi Ouzou"}},"labels":["soccer","sport"],"duration":7610,"start_local":"2024-05-11T17:00:00","end":"2024-05-11T18:06:50Z","end_local":"2024-05-11T19:06:50","updated":"2024-06-12T07:37:22Z"},{"title":"Ligue 1 - Paradou AC vs ASO Chlef","description":"Sourced from predicthq.com","category":"sports","start":"2024-05-11T16:00:00Z","geo":{"geometry":{"coordinates":[3.21014495351184,36.72085995894815],"type":"Point"},"placekey":"@7f5-z5z-9pv","address":{"country_code":"DZ","formatted_address":"Guemgani Road, al-Jazā’ir (Algiers), Algeria","locality":"al-Jazā’ir (Algiers) "}},"labels":["soccer","sport"],"duration":7058,"start_local":"2024-05-11T17:00:00","end":"2024-05-11T17:57:38Z","end_local":"2024-05-11T18:57:38","updated":"2024-06-12T11:27:16Z"},{"title":"Ligue 2 - East - HB Chelghoum Laïd vs Aïn M'lila","description":"Sourced from predicthq.com","category":"sports","start":"2024-05-11T14:00:00Z","geo":{"geometry":{"coordinates":[6.172215783319879,36.156356419626746],"type":"Point"},"placekey":"@7bv-64q-fpv","address":{"country_code":"DZ","formatted_address":"554C+GVV, Chelghoum Laïd, Algeria","locality":"Chelghoum Laïd","region":"Mila Province"}},"labels":["soccer","sport"],"duration":0,"start_local":"2024-05-11T15:00:00","end":"2024-05-11T14:00:00Z","end_local":"2024-05-11T15:00:00","updated":"2024-06-12T07:36:37Z"},{"title":"Ligue 2 - West - WA Mostaganem vs Guir Abadla","description":"Sourced from predicthq.com","category":"sports","start":"2024-05-11T14:00:00Z","geo":{"geometry":{"coordinates":[0.10521233081817627,35.92411889981462],"type":"Point"},"placekey":"@7b6-k86-389","address":{"country_code":"DZ","formatted_address":"10 Rue Ben Salem Amar, Mostaganem, Algeria","locality":"Mostaganem","region":"Wilaya de Mostaganem"}},"labels":["soccer","sport"],"duration":0,"start_local":"2024-05-11T15:00:00","end":"2024-05-11T14:00:00Z","end_local":"2024-05-11T15:00:00","updated":"2024-06-11T22:08:07Z"},{"title":"Ligue 2 - West - WA Boufarik vs NA Hussein Dey","description":"Sourced from predicthq.com","category":"sports","start":"2024-05-11T14:00:00Z","geo":{"geometry":{"coordinates":[2.9072982637542344,36.574511806996355],"type":"Point"},"placekey":"@7b5-48q-54v","address":{"country_code":"DZ","formatted_address":"HWF4+RW9, Boufarik, Algeria","locality":"Boufarik","region":"Blida Province"}},"labels":["soccer","sport"],"duration":0,"start_local":"2024-05-11T15:00:00","end":"2024-05-11T14:00:00Z","end_local":"2024-05-11T15:00:00","updated":"2024-06-12T04:51:29Z"},{"title":"Ligue 2 - East - E Sour El-Ghozlane vs USM El Harrach","description":"Sourced from predicthq.com","category":"sports","start":"2024-05-11T14:00:00Z","geo":{"geometry":{"coordinates":[3.5968105591442736,36.560100229477634],"type":"Point"},"placekey":"@7bw-3jd-7qz","address":{"country_code":"DZ","formatted_address":"Rue Bouchnak, Lakhdaria, Algeria","locality":"Lakhdaria"}},"labels":["soccer","sport"],"duration":0,"start_local":"2024-05-11T15:00:00","end":"2024-05-11T14:00:00Z","end_local":"2024-05-11T15:00:00","updated":"2024-06-12T03:44:19Z"},{"title":"Ligue 2 - East - CA Batna vs AS Khroub","description":"Sourced from predicthq.com","category":"sports","start":"2024-05-11T14:00:00Z","geo":{"geometry":{"coordinates":[6.188033223152161,35.55724538917183],"type":"Point"},"placekey":"@7bv-2h7-9mk","address":{"country_code":"DZ","formatted_address":"H54Q+V5W, Rue de l'Abattoir, Batna, Algeria","locality":"Batna","region":"Batna Province"}},"labels":["soccer","sport"],"duration":0,"start_local":"2024-05-11T15:00:00","end":"2024-05-11T14:00:00Z","end_local":"2024-05-11T15:00:00","updated":"2024-06-11T21:30:42Z"},{"title":"Ligue 2 - West - Oued Sly vs SKAF Khémis Mélina","description":"Sourced from predicthq.com","category":"sports","start":"2024-05-11T14:00:00Z","geo":{"geometry":{"coordinates":[1.328049138,36.17487335],"type":"Point"},"placekey":"@7b4-wfv-q2k","address":{"country_code":"DZ","formatted_address":"W3, Chlef, Algeria","locality":"Chlef","region":"Chlef Province"}},"labels":["soccer","sport"],"duration":0,"start_local":"2024-05-11T15:00:00","end":"2024-05-11T14:00:00Z","end_local":"2024-05-11T15:00:00","updated":"2024-06-12T13:43:50Z"},{"title":"Ligue 2 - West - RC Kouba vs ES Mostaganem","description":"Sourced from predicthq.com","category":"sports","start":"2024-05-11T14:00:00Z","geo":{"geometry":{"coordinates":[3.0904197692871094,36.729546382595046],"type":"Point"},"placekey":"@7f5-yzj-kpv","address":{"country_code":"DZ","formatted_address":"P3HR+V45, Av. des Frères Abdeslami, Kouba, Algeria","locality":"Kouba","region":"Wilaya d'Alger"}},"labels":["soccer","sport"],"duration":0,"start_local":"2024-05-11T15:00:00","end":"2024-05-11T14:00:00Z","end_local":"2024-05-11T15:00:00","updated":"2024-06-11T22:19:40Z"},{"title":"Ligue 2 - East - Olympique Akbou vs Teleghma","description":"Sourced from predicthq.com","category":"sports","start":"2024-05-11T14:00:00Z","geo":{"geometry":{"coordinates":[4.541279396,36.451758481],"type":"Point"},"placekey":"@7bv-wny-mzf","address":{"country_code":"DZ","formatted_address":"FG3R+463, Akbou, Algeria","locality":"Akbou","region":"Béjaïa Province"}},"labels":["soccer","sport"],"duration":0,"start_local":"2024-05-11T15:00:00","end":"2024-05-11T14:00:00Z","end_local":"2024-05-11T15:00:00","updated":"2024-06-12T15:05:33Z"},{"title":"Ligue 2 - West - ASM Oran vs Olympique Médéa","description":"Sourced from predicthq.com","category":"sports","start":"2024-05-11T14:00:00Z","geo":{"geometry":{"coordinates":[-0.6169295310974121,35.68977929448362],"type":"Point"},"placekey":"@7b3-gkm-p5f","address":{"country_code":"DZ","formatted_address":"Route de Misserghin ou RN2, Wahrān (Oran), Algeria","locality":"Wahrān (Oran)"}},"labels":["soccer","sport"],"duration":0,"start_local":"2024-05-11T15:00:00","end":"2024-05-11T14:00:00Z","end_local":"2024-05-11T15:00:00","updated":"2024-06-11T22:27:29Z"},{"title":"Ligue 2 - East - Olympique Magrane vs MSP Batna","description":"Sourced from predicthq.com","category":"sports","start":"2024-05-11T14:00:00Z","geo":{"geometry":{"coordinates":[6.878230529,33.400328708],"type":"Point"},"placekey":"@7bk-bxg-rkz","address":{"country_code":"DZ","formatted_address":"CV2H+47Q, El Oued, Algeria","locality":"El Oued","region":"El Oued Province"}},"labels":["soccer","sport"],"duration":0,"start_local":"2024-05-11T15:00:00","end":"2024-05-11T14:00:00Z","end_local":"2024-05-11T15:00:00","updated":"2024-06-12T12:59:33Z"},{"title":"Ligue 2 - West - SC Méchria vs Témouchent","description":"Sourced from predicthq.com","category":"sports","start":"2024-05-11T14:00:00Z","geo":{"geometry":{"coordinates":[-0.274964,33.551172],"type":"Point"},"placekey":"@79q-m6y-py9","address":{"country_code":"DZ","formatted_address":"HP2G+F2F, Mecheria, Algeria","locality":"Mecheria","region":"Naâma Province"}},"labels":["soccer","sport"],"duration":0,"start_local":"2024-05-11T15:00:00","end":"2024-05-11T14:00:00Z","end_local":"2024-05-11T15:00:00","updated":"2024-06-12T07:41:01Z"},{"title":"Ligue 2 - West - GC Mascara vs Koléa","description":"Sourced from predicthq.com","category":"sports","start":"2024-05-11T14:00:00Z","geo":{"geometry":{"coordinates":[0.1342177391052246,35.39311264175385],"type":"Point"},"placekey":"@7b6-fkd-j5f","address":{"country_code":"DZ","formatted_address":"94VM+6MQ, Av. Boulefred Mohamed, Mascara, Algeria","locality":"Mascara","region":"Wilaya de Mascara"}},"labels":["soccer","sport"],"duration":0,"start_local":"2024-05-11T15:00:00","end":"2024-05-11T14:00:00Z","end_local":"2024-05-11T15:00:00","updated":"2024-06-12T03:39:27Z"},{"title":"Ligue 2 - West - RC Arbaâ vs Tiaret","description":"Sourced from predicthq.com","category":"sports","start":"2024-05-11T14:00:00Z","geo":{"geometry":{"coordinates":[3.1490448,36.5668591],"type":"Point"},"placekey":"@7b5-5ms-dd9","address":{"country_code":"DZ","formatted_address":"Larbaa, Blida Province, Algeria","locality":"Larbaa","region":"Blida Province"}},"labels":["soccer","sport"],"duration":0,"start_local":"2024-05-11T15:00:00","end":"2024-05-11T14:00:00Z","end_local":"2024-05-11T15:00:00","updated":"2024-06-12T08:26:56Z"},{"title":"Ligue 2 - East - USM Annaba vs RB Ouargla","description":"Sourced from predicthq.com","category":"sports","start":"2024-05-11T14:00:00Z","geo":{"geometry":{"coordinates":[7.7574580907821655,36.90780719312758],"type":"Point"},"placekey":"@7bq-bgj-zfz","address":{"country_code":"DZ","formatted_address":"Annaba, Algeria","locality":"Annaba","region":"Annaba Province"}},"labels":["soccer","sport"],"duration":0,"start_local":"2024-05-11T15:00:00","end":"2024-05-11T14:00:00Z","end_local":"2024-05-11T15:00:00","updated":"2024-06-11T23:33:27Z"},{"title":"Ligue 2 - East - JS Bordj Ménaïel vs IB Khémis El Khechna","description":"Sourced from predicthq.com","category":"sports","start":"2024-05-11T14:00:00Z","geo":{"geometry":{"coordinates":[3.468841318263234,36.76426825842868],"type":"Point"},"placekey":"@7f6-2h9-5s5","address":{"country_code":"DZ","formatted_address":"Boumerdes, Algeria","locality":"Boumerdes","region":"Boumerdès Province"}},"labels":["soccer","sport"],"duration":0,"start_local":"2024-05-11T15:00:00","end":"2024-05-11T14:00:00Z","end_local":"2024-05-11T15:00:00","updated":"2024-06-11T22:29:00Z"},{"title":"Ligue 2 - East - MO Constantine vs El Eulma","description":"Sourced from predicthq.com","category":"sports","start":"2024-05-11T14:00:00Z","geo":{"geometry":{"coordinates":[6.604714393615723,36.35663600066584],"type":"Point"},"placekey":"@7bp-wpg-zfz","address":{"country_code":"DZ","formatted_address":"9J43+JVP, Constantine, Algeria","locality":"Constantine","region":"Constantine Province"}},"labels":["soccer","sport"],"duration":0,"start_local":"2024-05-11T15:00:00","end":"2024-05-11T14:00:00Z","end_local":"2024-05-11T15:00:00","updated":"2024-06-12T09:30:36Z"},{"title":"Ligue 1 - ES Sétif vs US Souf","description":"Sourced from predicthq.com","category":"sports","start":"2024-05-10T17:00:00Z","geo":{"geometry":{"coordinates":[5.3932786,36.1868318],"type":"Point"},"placekey":"@7bw-6zg-5j9","address":{"country_code":"DZ","formatted_address":"59PV+Q87, Av. Mokhtar Laaribi, Sétif, Algeria","locality":"Sétif","region":"Wilaya de Sétif"}},"labels":["soccer","sport"],"duration":6992,"start_local":"2024-05-10T18:00:00","end":"2024-05-10T18:56:32Z","end_local":"2024-05-10T19:56:32","updated":"2024-06-12T11:18:09Z"},{"title":"Ligue 1 - USM Alger vs El Bayadh","description":"Sourced from predicthq.com","category":"sports","start":"2024-05-10T16:00:00Z","geo":{"geometry":{"coordinates":[2.9954651000000467,36.75992529999999],"type":"Point"},"placekey":"@7f5-z3m-8d9","address":{"country_code":"DZ","formatted_address":"Ben Aknoun, Algiers Province, Algeria","locality":"Ben Aknoun","region":"Algiers Province"}},"labels":["soccer","sport"],"duration":7828,"start_local":"2024-05-10T17:00:00","end":"2024-05-10T18:10:28Z","end_local":"2024-05-10T19:10:28","updated":"2024-06-12T17:49:30Z"},{"title":"El9ante Comedy Club","description":"Sourced from predicthq.com - الحكاية بدات في القنت","category":"performing-arts","start":"2024-05-09T18:00:00Z","geo":{"geometry":{"coordinates":[-0.5931406000000001,35.7244875],"type":"Point"},"placekey":"@7b3-bxr-x3q","address":{"country_code":"DZ","formatted_address":"Rue Dubaï, Bir El Djir, Algeria","locality":"Bir El Djir","region":"Oran Province"}},"labels":["concert","music","performing-arts"],"duration":5400,"start_local":"2024-05-09T19:00:00","end":"2024-05-09T19:30:00Z","end_local":"2024-05-09T20:30:00","updated":"2024-05-23T18:29:45Z"},{"title":"The International Conference on Energy, Materials and Environment","description":"Sourced from predicthq.com","category":"conferences","start":"2024-05-07T08:00:00Z","geo":{"geometry":{"coordinates":[2.236608,36.254028],"type":"Point"},"placekey":"@7b5-6sj-47q","address":{"country_code":"DZ","formatted_address":"N14, Khemis Miliana, Algeria","locality":"Khemis Miliana","region":"Wilaya de Aïn Defla"}},"labels":["conference"],"duration":118800,"start_local":"2024-05-07T09:00:00","end":"2024-05-08T17:00:00Z","end_local":"2024-05-08T18:00:00","updated":"2024-05-31T23:04:17Z"},{"title":"Global Waste Forum","description":"Sourced from predicthq.com","category":"conferences","start":"2024-05-07T08:00:00Z","geo":{"geometry":{"coordinates":[2.8938568,36.769181],"type":"Point"},"placekey":"@7b5-4sf-kzz","address":{"country_code":"DZ","formatted_address":"Route de Chéraga, عين بنيان, Algeria","locality":"عين بنيان","region":"ولاية الجزائر"}},"labels":["conference"],"duration":205200,"start_local":"2024-05-07T09:00:00","end":"2024-05-09T17:00:00Z","end_local":"2024-05-09T18:00:00","updated":"2024-06-05T07:48:00Z"},{"title":"Ligue 1 - USM Alger vs Kabylie","description":"Sourced from predicthq.com","category":"sports","start":"2024-05-06T18:00:00Z","geo":{"geometry":{"coordinates":[3.121854754,36.693750238],"type":"Point"},"placekey":"@7b5-5mw-tsq","address":{"country_code":"DZ","formatted_address":"M4RC+R9, Baraki, Algeria","locality":"Baraki","region":"Algiers Province"}},"labels":["soccer","sport"],"duration":7364,"start_local":"2024-05-06T19:00:00","end":"2024-05-06T20:02:44Z","end_local":"2024-05-06T21:02:44","updated":"2024-06-05T19:48:05Z"},{"title":"BATIMATEC Expo","description":"Sourced from predicthq.com - International Exhibition for Construction Materials and Building Technologies","category":"expos","start":"2024-05-04T23:00:00Z","geo":{"geometry":{"coordinates":[3.15437,36.7373],"type":"Point"},"placekey":"@7f5-z5k-vcq","address":{"country_code":"DZ","formatted_address":"16000 Mohammadia, Algeria","locality":"Mohammadia","postcode":"16000","region":"Algiers Province"}},"labels":["construction","expo","technology"],"duration":431999,"start_local":"2024-05-05T00:00:00","end":"2024-05-09T22:59:59Z","end_local":"2024-05-09T23:59:59","updated":"2024-06-12T07:43:51Z"},{"title":"Ligue 1 - Khenchela vs Belouizdad","description":"Sourced from predicthq.com","category":"sports","start":"2024-05-04T15:00:00Z","geo":{"geometry":{"coordinates":[7.1465059,35.4284269],"type":"Point"},"placekey":"@7bd-kh2-kmk","address":{"country_code":"DZ","formatted_address":"C4HW+9JC, Khenchela, Algeria","locality":"Khenchela","region":"Khenchela Province"}},"labels":["soccer","sport"],"duration":7501,"start_local":"2024-05-04T16:00:00","end":"2024-05-04T17:05:01Z","end_local":"2024-05-04T18:05:01","updated":"2024-06-11T23:31:39Z"},{"title":"Ligue 2 - East - MSP Batna vs USM Annaba","description":"Sourced from predicthq.com","category":"sports","start":"2024-05-04T14:00:00Z","geo":{"geometry":{"coordinates":[6.188033223152161,35.55724538917183],"type":"Point"},"placekey":"@7bv-2h7-9mk","address":{"country_code":"DZ","formatted_address":"H54Q+V5W, Rue de l'Abattoir, Batna, Algeria","locality":"Batna","region":"Batna Province"}},"labels":["soccer","sport"],"duration":0,"start_local":"2024-05-04T15:00:00","end":"2024-05-04T14:00:00Z","end_local":"2024-05-04T15:00:00","updated":"2024-06-12T18:53:23Z"},{"title":"Ligue 2 - West - Koléa vs ASM Oran","description":"Sourced from predicthq.com","category":"sports","start":"2024-05-04T14:00:00Z","geo":{"geometry":{"coordinates":[2.765948119,36.634882617],"type":"Point"},"placekey":"@7b5-45x-jn5","address":{"country_code":"DZ","formatted_address":"JQP8+322, Rue Mostefa Ben Boulaïd, Koléa, Algeria","locality":"Koléa","region":"Wilaya de Tipaza"}},"labels":["soccer","sport"],"duration":0,"start_local":"2024-05-04T15:00:00","end":"2024-05-04T14:00:00Z","end_local":"2024-05-04T15:00:00","updated":"2024-06-11T23:21:24Z"},{"title":"Ligue 2 - East - El Eulma vs JS Bordj Ménaïel","description":"Sourced from predicthq.com","category":"sports","start":"2024-05-04T14:00:00Z","geo":{"geometry":{"coordinates":[5.698476433753967,36.15191879474478],"type":"Point"},"placekey":"@7bw-7x3-kcq","address":{"country_code":"DZ","formatted_address":"El Eulma 19600, Algeria","postcode":"19600","locality":"El Eulma","region":"Sétif Province"}},"labels":["soccer","sport"],"duration":0,"start_local":"2024-05-04T15:00:00","end":"2024-05-04T14:00:00Z","end_local":"2024-05-04T15:00:00","updated":"2024-06-12T09:41:31Z"},{"title":"Ligue 2 - East - Aïn M'lila vs Olympique Akbou","description":"Sourced from predicthq.com","category":"sports","start":"2024-05-04T14:00:00Z","geo":{"geometry":{"coordinates":[6.557810801541905,36.04493809559481],"type":"Point"},"placekey":"@7bv-74f-94v","address":{"country_code":"DZ","formatted_address":"Unnamed Road, 2HW4+4V8, Aïn M'lila, Algeria","locality":"Aïn M'lila","region":"Wilaya d'Oum El Bouaghi"}},"labels":["soccer","sport"],"duration":0,"start_local":"2024-05-04T15:00:00","end":"2024-05-04T14:00:00Z","end_local":"2024-05-04T15:00:00","updated":"2024-06-11T21:43:35Z"},{"title":"Ligue 2 - West - Guir Abadla vs Oued Sly","description":"Sourced from predicthq.com","category":"sports","start":"2024-05-04T14:00:00Z","geo":{"geometry":{"coordinates":[-2.2314047813415527,31.575953300010806],"type":"Point"},"placekey":"@79w-6ht-m8v","address":{"country_code":"DZ","formatted_address":"JQ4J+7MW, Béchar, Algeria","locality":"Béchar","region":"Béchar Province"}},"labels":["soccer","sport"],"duration":0,"start_local":"2024-05-04T15:00:00","end":"2024-05-04T14:00:00Z","end_local":"2024-05-04T15:00:00","updated":"2024-06-12T01:38:25Z"},{"title":"Ligue 2 - West - SKAF Khémis Mélina vs RC Arbaâ","description":"Sourced from predicthq.com","category":"sports","start":"2024-05-04T14:00:00Z","geo":{"geometry":{"coordinates":[2.2172207184489783,36.256668405143266],"type":"Point"},"placekey":"@7b5-6v4-hnq","address":{"country_code":"DZ","formatted_address":"7649+X63, Khemis Miliana, Algeria","locality":"Khemis Miliana","region":"Aïn Defla Province"}},"labels":["soccer","sport"],"duration":0,"start_local":"2024-05-04T15:00:00","end":"2024-05-04T14:00:00Z","end_local":"2024-05-04T15:00:00","updated":"2024-06-12T10:39:12Z"},{"title":"Ligue 2 - West - Tiaret vs SC Méchria","description":"Sourced from predicthq.com","category":"sports","start":"2024-05-04T14:00:00Z","geo":{"geometry":{"coordinates":[1.3309557,35.3622993],"type":"Point"},"placekey":"@7b5-fdg-nwk","address":{"country_code":"DZ","formatted_address":"986J+V9J, Tiaret, Algeria","locality":"Tiaret","region":"Tiaret Province"}},"labels":["soccer","sport"],"duration":0,"start_local":"2024-05-04T15:00:00","end":"2024-05-04T14:00:00Z","end_local":"2024-05-04T15:00:00","updated":"2024-06-12T09:36:13Z"},{"title":"Ligue 2 - West - Témouchent vs WA Mostaganem","description":"Sourced from predicthq.com","category":"sports","start":"2024-05-04T14:00:00Z","geo":{"geometry":{"coordinates":[-1.1469447612762451,35.31186842509688],"type":"Point"},"placekey":"@7b3-cfk-zs5","address":{"country_code":"DZ","formatted_address":"Ain Temouchent, Algeria","locality":"Ain Temouchent","region":"Aïn Témouchent Province"}},"labels":["soccer","sport"],"duration":0,"start_local":"2024-05-04T15:00:00","end":"2024-05-04T14:00:00Z","end_local":"2024-05-04T15:00:00","updated":"2024-06-12T06:14:19Z"},{"title":"Ligue 2 - West - NA Hussein Dey vs RC Kouba","description":"Sourced from predicthq.com","category":"sports","start":"2024-05-04T14:00:00Z","geo":{"geometry":{"coordinates":[3.0784396,36.7454756],"type":"Point"},"placekey":"@7f5-yzq-dsq","address":{"country_code":"DZ","formatted_address":"Rue Rabah Takdjourt, Algiers, Algeria","locality":"Algiers","region":"Algiers Province"}},"labels":["soccer","sport"],"duration":0,"start_local":"2024-05-04T15:00:00","end":"2024-05-04T14:00:00Z","end_local":"2024-05-04T15:00:00","updated":"2024-06-12T02:58:22Z"},{"title":"Ligue 2 - East - Teleghma vs MO Constantine","description":"Sourced from predicthq.com","category":"sports","start":"2024-05-04T14:00:00Z","geo":{"geometry":{"coordinates":[6.368476590291451,36.12363858771284],"type":"Point"},"placekey":"@7bv-68t-b6k","address":{"country_code":"DZ","formatted_address":"49F9+FC6, Teleghma, Algeria","locality":"Teleghma","region":"Mila Province"}},"labels":["soccer","sport"],"duration":0,"start_local":"2024-05-04T15:00:00","end":"2024-05-04T14:00:00Z","end_local":"2024-05-04T15:00:00","updated":"2024-06-12T03:20:47Z"},{"title":"Ligue 2 - East - AS Khroub vs E Sour El-Ghozlane","description":"Sourced from predicthq.com","category":"sports","start":"2024-05-04T14:00:00Z","geo":{"geometry":{"coordinates":[6.6873706,36.2606902],"type":"Point"},"placekey":"@7bp-x2s-2hq","address":{"country_code":"DZ","formatted_address":"7M6Q+85F, El Khroub, Algeria","locality":"El Khroub","region":"Constantine Province"}},"labels":["soccer","sport"],"duration":0,"start_local":"2024-05-04T15:00:00","end":"2024-05-04T14:00:00Z","end_local":"2024-05-04T15:00:00","updated":"2024-06-11T21:36:49Z"},{"title":"Ligue 2 - East - IB Khémis El Khechna vs HB Chelghoum Laïd","description":"Sourced from predicthq.com","category":"sports","start":"2024-05-04T14:00:00Z","geo":{"geometry":{"coordinates":[3.328778581,36.651511809],"type":"Point"},"placekey":"@7b5-5pq-9s5","address":{"country_code":"DZ","formatted_address":"M82H+JG2, Khemis El-Khechna, Algeria","locality":"Khemis El-Khechna","region":"Boumerdès Province"}},"labels":["soccer","sport"],"duration":0,"start_local":"2024-05-04T15:00:00","end":"2024-05-04T14:00:00Z","end_local":"2024-05-04T15:00:00","updated":"2024-06-12T12:32:05Z"},{"title":"Ligue 2 - East - RB Ouargla vs Olympique Magrane","description":"Sourced from predicthq.com","category":"sports","start":"2024-05-04T14:00:00Z","geo":{"geometry":{"coordinates":[5.342013691,31.941230589],"type":"Point"},"placekey":"@7bj-j5v-v9f","address":{"country_code":"DZ","formatted_address":"X85Q+4VW, Ouargla, Algeria","locality":"Ouargla","region":"Ouargla Province"}},"labels":["soccer","sport"],"duration":0,"start_local":"2024-05-04T15:00:00","end":"2024-05-04T14:00:00Z","end_local":"2024-05-04T15:00:00","updated":"2024-06-12T13:58:54Z"},{"title":"Ligue 2 - East - USM El Harrach vs CA Batna","description":"Sourced from predicthq.com","category":"sports","start":"2024-05-04T14:00:00Z","geo":{"geometry":{"coordinates":[3.1314947,36.7346014],"type":"Point"},"placekey":"@7f5-yzk-x5z","address":{"country_code":"DZ","formatted_address":"P4MJ+RHX, Mohammadia, Algeria","locality":"Mohammadia","region":"Algiers Province"}},"labels":["soccer","sport"],"duration":0,"start_local":"2024-05-04T15:00:00","end":"2024-05-04T14:00:00Z","end_local":"2024-05-04T15:00:00","updated":"2024-06-11T22:37:30Z"},{"title":"Ligue 2 - West - ES Mostaganem vs WA Boufarik","description":"Sourced from predicthq.com","category":"sports","start":"2024-05-04T14:00:00Z","geo":{"geometry":{"coordinates":[0.10521233081817627,35.92411889981462],"type":"Point"},"placekey":"@7b6-k86-389","address":{"country_code":"DZ","formatted_address":"10 Rue Ben Salem Amar, Mostaganem, Algeria","locality":"Mostaganem","region":"Wilaya de Mostaganem"}},"labels":["soccer","sport"],"duration":0,"start_local":"2024-05-04T15:00:00","end":"2024-05-04T14:00:00Z","end_local":"2024-05-04T15:00:00","updated":"2024-06-11T20:56:29Z"},{"title":"Ligue 2 - West - Olympique Médéa vs GC Mascara","description":"Sourced from predicthq.com","category":"sports","start":"2024-05-02T14:00:00Z","geo":{"geometry":{"coordinates":[2.7696209,36.2617367],"type":"Point"},"placekey":"@7b4-yqj-ht9","address":{"country_code":"DZ","formatted_address":"7Q69+MVW, N18, Médéa, Algeria","locality":"Médéa","region":"Wilaya de Médéa"}},"labels":["soccer","sport"],"duration":0,"start_local":"2024-05-02T15:00:00","end":"2024-05-02T14:00:00Z","end_local":"2024-05-02T15:00:00","updated":"2024-06-12T04:13:49Z"},{"title":"Ligue 1 - MC Oran vs Belouizdad","description":"Sourced from predicthq.com","category":"sports","start":"2024-04-28T18:00:00Z","geo":{"geometry":{"coordinates":[-0.6362669000000096,35.6833218],"type":"Point"},"placekey":"@7b3-gkk-c3q","address":{"country_code":"DZ","formatted_address":"Oran, Oran Province, Algeria","locality":"Oran","region":"Oran Province"}},"labels":["soccer","sport"],"duration":7764,"start_local":"2024-04-28T19:00:00","end":"2024-04-28T20:09:24Z","end_local":"2024-04-28T21:09:24","updated":"2024-05-27T15:19:46Z"},{"title":"Ligue 1 - MC Alger vs Paradou AC","description":"Sourced from predicthq.com","category":"sports","start":"2024-04-27T19:00:00Z","geo":{"geometry":{"coordinates":[2.9954651000000467,36.75992529999999],"type":"Point"},"placekey":"@7f5-z3m-8d9","address":{"country_code":"DZ","formatted_address":"Ben Aknoun, Algiers Province, Algeria","locality":"Ben Aknoun","region":"Algiers Province"}},"labels":["soccer","sport"],"duration":7685,"start_local":"2024-04-27T20:00:00","end":"2024-04-27T21:08:05Z","end_local":"2024-04-27T22:08:05","updated":"2024-06-12T17:02:21Z"},{"title":"Ligue 1 - ASO Chlef vs NC Magra","description":"Sourced from predicthq.com","category":"sports","start":"2024-04-27T15:00:00Z","geo":{"geometry":{"coordinates":[1.3089706,36.1616715],"type":"Point"},"placekey":"@7b4-wfs-gtv","address":{"country_code":"DZ","formatted_address":"5865+JGF, Chlef, Algeria","locality":"Chlef","region":"Chlef Province"}},"labels":["soccer","sport"],"duration":7345,"start_local":"2024-04-27T16:00:00","end":"2024-04-27T17:02:25Z","end_local":"2024-04-27T18:02:25","updated":"2024-06-12T16:34:32Z"},{"title":"Ligue 1 - Ben Aknoun vs Kabylie","description":"Sourced from predicthq.com","category":"sports","start":"2024-04-27T15:00:00Z","geo":{"geometry":{"coordinates":[3.0784396,36.7454756],"type":"Point"},"placekey":"@7f5-yzq-dsq","address":{"country_code":"DZ","formatted_address":"Rue Rabah Takdjourt, Algiers, Algeria","locality":"Algiers","region":"Algiers Province"}},"labels":["soccer","sport"],"duration":7457,"start_local":"2024-04-27T16:00:00","end":"2024-04-27T17:04:17Z","end_local":"2024-04-27T18:04:17","updated":"2024-06-12T10:15:48Z"},{"title":"Ligue 2 - West - RC Arbaâ vs Koléa","description":"Sourced from predicthq.com","category":"sports","start":"2024-04-27T14:00:00Z","geo":{"geometry":{"coordinates":[3.1490448,36.5668591],"type":"Point"},"placekey":"@7b5-5ms-dd9","address":{"country_code":"DZ","formatted_address":"Larbaa, Blida Province, Algeria","locality":"Larbaa","region":"Blida Province"}},"labels":["soccer","sport"],"duration":0,"start_local":"2024-04-27T15:00:00","end":"2024-04-27T14:00:00Z","end_local":"2024-04-27T15:00:00","updated":"2024-06-12T11:49:51Z"},{"title":"Ligue 2 - West - ASM Oran vs Témouchent","description":"Sourced from predicthq.com","category":"sports","start":"2024-04-27T14:00:00Z","geo":{"geometry":{"coordinates":[-0.6169295310974121,35.68977929448362],"type":"Point"},"placekey":"@7b3-gkm-p5f","address":{"country_code":"DZ","formatted_address":"Route de Misserghin ou RN2, Wahrān (Oran), Algeria","locality":"Wahrān (Oran)"}},"labels":["soccer","sport"],"duration":0,"start_local":"2024-04-27T15:00:00","end":"2024-04-27T14:00:00Z","end_local":"2024-04-27T15:00:00","updated":"2024-06-12T10:34:09Z"},{"title":"Ligue 2 - West - Oued Sly vs WA Mostaganem","description":"Sourced from predicthq.com","category":"sports","start":"2024-04-27T14:00:00Z","geo":{"geometry":{"coordinates":[1.328049138,36.17487335],"type":"Point"},"placekey":"@7b4-wfv-q2k","address":{"country_code":"DZ","formatted_address":"W3, Chlef, Algeria","locality":"Chlef","region":"Chlef Province"}},"labels":["soccer","sport"],"duration":0,"start_local":"2024-04-27T15:00:00","end":"2024-04-27T14:00:00Z","end_local":"2024-04-27T15:00:00","updated":"2024-06-11T23:32:05Z"},{"title":"Ligue 2 - East - JS Bordj Ménaïel vs MO Constantine","description":"Sourced from predicthq.com","category":"sports","start":"2024-04-27T14:00:00Z","geo":{"geometry":{"coordinates":[3.468841318263234,36.76426825842868],"type":"Point"},"placekey":"@7f6-2h9-5s5","address":{"country_code":"DZ","formatted_address":"Boumerdes, Algeria","locality":"Boumerdes","region":"Boumerdès Province"}},"labels":["soccer","sport"],"duration":0,"start_local":"2024-04-27T15:00:00","end":"2024-04-27T14:00:00Z","end_local":"2024-04-27T15:00:00","updated":"2024-06-12T11:58:01Z"},{"title":"Ligue 2 - East - HB Chelghoum Laïd vs MSP Batna","description":"Sourced from predicthq.com","category":"sports","start":"2024-04-27T14:00:00Z","geo":{"geometry":{"coordinates":[6.172215783319879,36.156356419626746],"type":"Point"},"placekey":"@7bv-64q-fpv","address":{"country_code":"DZ","formatted_address":"554C+GVV, Chelghoum Laïd, Algeria","locality":"Chelghoum Laïd","region":"Mila Province"}},"labels":["soccer","sport"],"duration":0,"start_local":"2024-04-27T15:00:00","end":"2024-04-27T14:00:00Z","end_local":"2024-04-27T15:00:00","updated":"2024-06-12T06:15:07Z"},{"title":"Ligue 2 - West - RC Kouba vs Tiaret","description":"Sourced from predicthq.com","category":"sports","start":"2024-04-27T14:00:00Z","geo":{"geometry":{"coordinates":[3.0904197692871094,36.729546382595046],"type":"Point"},"placekey":"@7f5-yzj-kpv","address":{"country_code":"DZ","formatted_address":"P3HR+V45, Av. des Frères Abdeslami, Kouba, Algeria","locality":"Kouba","region":"Wilaya d'Alger"}},"labels":["soccer","sport"],"duration":0,"start_local":"2024-04-27T15:00:00","end":"2024-04-27T14:00:00Z","end_local":"2024-04-27T15:00:00","updated":"2024-06-12T10:10:26Z"},{"title":"Ligue 2 - West - GC Mascara vs Guir Abadla","description":"Sourced from predicthq.com","category":"sports","start":"2024-04-27T14:00:00Z","geo":{"geometry":{"coordinates":[0.1342177391052246,35.39311264175385],"type":"Point"},"placekey":"@7b6-fkd-j5f","address":{"country_code":"DZ","formatted_address":"94VM+6MQ, Av. Boulefred Mohamed, Mascara, Algeria","locality":"Mascara","region":"Wilaya de Mascara"}},"labels":["soccer","sport"],"duration":0,"start_local":"2024-04-27T15:00:00","end":"2024-04-27T14:00:00Z","end_local":"2024-04-27T15:00:00","updated":"2024-06-12T07:13:30Z"},{"title":"Ligue 2 - East - USM Annaba vs Teleghma","description":"Sourced from predicthq.com","category":"sports","start":"2024-04-27T14:00:00Z","geo":{"geometry":{"coordinates":[7.7574580907821655,36.90780719312758],"type":"Point"},"placekey":"@7bq-bgj-zfz","address":{"country_code":"DZ","formatted_address":"Annaba, Algeria","locality":"Annaba","region":"Annaba Province"}},"labels":["soccer","sport"],"duration":0,"start_local":"2024-04-27T15:00:00","end":"2024-04-27T14:00:00Z","end_local":"2024-04-27T15:00:00","updated":"2024-06-11T21:25:46Z"},{"title":"Ligue 2 - West - SC Méchria vs NA Hussein Dey","description":"Sourced from predicthq.com","category":"sports","start":"2024-04-27T14:00:00Z","geo":{"geometry":{"coordinates":[-0.274964,33.551172],"type":"Point"},"placekey":"@79q-m6y-py9","address":{"country_code":"DZ","formatted_address":"HP2G+F2F, Mecheria, Algeria","locality":"Mecheria","region":"Naâma Province"}},"labels":["soccer","sport"],"duration":0,"start_local":"2024-04-27T15:00:00","end":"2024-04-27T14:00:00Z","end_local":"2024-04-27T15:00:00","updated":"2024-06-12T00:32:27Z"},{"title":"Ligue 2 - West - WA Boufarik vs SKAF Khémis Mélina","description":"Sourced from predicthq.com","category":"sports","start":"2024-04-27T14:00:00Z","geo":{"geometry":{"coordinates":[2.9072982637542344,36.574511806996355],"type":"Point"},"placekey":"@7b5-48q-54v","address":{"country_code":"DZ","formatted_address":"HWF4+RW9, Boufarik, Algeria","locality":"Boufarik","region":"Blida Province"}},"labels":["soccer","sport"],"duration":0,"start_local":"2024-04-27T15:00:00","end":"2024-04-27T14:00:00Z","end_local":"2024-04-27T15:00:00","updated":"2024-06-12T02:35:09Z"},{"title":"Ligue 2 - East - AS Khroub vs RB Ouargla","description":"Sourced from predicthq.com","category":"sports","start":"2024-04-27T14:00:00Z","geo":{"geometry":{"coordinates":[6.6873706,36.2606902],"type":"Point"},"placekey":"@7bp-x2s-2hq","address":{"country_code":"DZ","formatted_address":"7M6Q+85F, El Khroub, Algeria","locality":"El Khroub","region":"Constantine Province"}},"labels":["soccer","sport"],"duration":0,"start_local":"2024-04-27T15:00:00","end":"2024-04-27T14:00:00Z","end_local":"2024-04-27T15:00:00","updated":"2024-06-12T13:59:20Z"},{"title":"Ligue 2 - East - CA Batna vs Aïn M'lila","description":"Sourced from predicthq.com","category":"sports","start":"2024-04-27T14:00:00Z","geo":{"geometry":{"coordinates":[6.188033223152161,35.55724538917183],"type":"Point"},"placekey":"@7bv-2h7-9mk","address":{"country_code":"DZ","formatted_address":"H54Q+V5W, Rue de l'Abattoir, Batna, Algeria","locality":"Batna","region":"Batna Province"}},"labels":["soccer","sport"],"duration":0,"start_local":"2024-04-27T15:00:00","end":"2024-04-27T14:00:00Z","end_local":"2024-04-27T15:00:00","updated":"2024-06-12T00:39:57Z"},{"title":"Ligue 2 - East - Olympique Magrane vs El Eulma","description":"Sourced from predicthq.com","category":"sports","start":"2024-04-27T14:00:00Z","geo":{"geometry":{"coordinates":[6.878230529,33.400328708],"type":"Point"},"placekey":"@7bk-bxg-rkz","address":{"country_code":"DZ","formatted_address":"CV2H+47Q, El Oued, Algeria","locality":"El Oued","region":"El Oued Province"}},"labels":["soccer","sport"],"duration":0,"start_local":"2024-04-27T15:00:00","end":"2024-04-27T14:00:00Z","end_local":"2024-04-27T15:00:00","updated":"2024-06-12T03:24:38Z"},{"title":"Ligue 2 - West - ES Mostaganem vs Olympique Médéa","description":"Sourced from predicthq.com","category":"sports","start":"2024-04-27T14:00:00Z","geo":{"geometry":{"coordinates":[0.10521233081817627,35.92411889981462],"type":"Point"},"placekey":"@7b6-k86-389","address":{"country_code":"DZ","formatted_address":"10 Rue Ben Salem Amar, Mostaganem, Algeria","locality":"Mostaganem","region":"Wilaya de Mostaganem"}},"labels":["soccer","sport"],"duration":0,"start_local":"2024-04-27T15:00:00","end":"2024-04-27T14:00:00Z","end_local":"2024-04-27T15:00:00","updated":"2024-06-12T18:12:55Z"},{"title":"Ligue 2 - East - Olympique Akbou vs USM El Harrach","description":"Sourced from predicthq.com","category":"sports","start":"2024-04-27T14:00:00Z","geo":{"geometry":{"coordinates":[4.541279396,36.451758481],"type":"Point"},"placekey":"@7bv-wny-mzf","address":{"country_code":"DZ","formatted_address":"FG3R+463, Akbou, Algeria","locality":"Akbou","region":"Béjaïa Province"}},"labels":["soccer","sport"],"duration":0,"start_local":"2024-04-27T15:00:00","end":"2024-04-27T14:00:00Z","end_local":"2024-04-27T15:00:00","updated":"2024-06-12T05:03:35Z"},{"title":"Ligue 2 - East - E Sour El-Ghozlane vs IB Khémis El Khechna","description":"Sourced from predicthq.com","category":"sports","start":"2024-04-27T14:00:00Z","geo":{"geometry":{"coordinates":[3.682796359062195,36.14808962906045],"type":"Point"},"placekey":"@7b4-zbg-66k","address":{"country_code":"DZ","formatted_address":"4MXJ+Q7F, Sour El-Ghozlane, Algeria","locality":"Sour El-Ghozlane","region":"Bouïra Province"}},"labels":["soccer","sport"],"duration":0,"start_local":"2024-04-27T15:00:00","end":"2024-04-27T14:00:00Z","end_local":"2024-04-27T15:00:00","updated":"2024-06-12T13:36:27Z"},{"title":"Ligue 1 - El Bayadh vs Khenchela","description":"Sourced from predicthq.com","category":"sports","start":"2024-04-26T15:00:00Z","geo":{"geometry":{"coordinates":[1.0211699780486505,33.677997275364824],"type":"Point"},"placekey":"@79q-vkb-yd9","address":{"country_code":"DZ","formatted_address":"M2HC+6FH, El Bayadh, Algeria","locality":"El Bayadh","region":"El Bayadh Province"}},"labels":["soccer","sport"],"duration":7557,"start_local":"2024-04-26T16:00:00","end":"2024-04-26T17:05:57Z","end_local":"2024-04-26T18:05:57","updated":"2024-06-12T02:03:51Z"},{"title":"Ligue 1 - US Biskra vs ES Sétif","description":"Sourced from predicthq.com","category":"sports","start":"2024-04-26T15:00:00Z","geo":{"geometry":{"coordinates":[5.7541963,34.8430085],"type":"Point"},"placekey":"@7bv-qmc-bx5","address":{"country_code":"DZ","formatted_address":"RQV3+6M4, Biskra, Algeria","locality":"Biskra","region":"Biskra Province"}},"labels":["soccer","sport"],"duration":7092,"start_local":"2024-04-26T16:00:00","end":"2024-04-26T16:58:12Z","end_local":"2024-04-26T17:58:12","updated":"2024-06-12T08:32:47Z"},{"title":"Ligue 1 - Saoura vs US Souf","description":"Sourced from predicthq.com","category":"sports","start":"2024-04-26T15:00:00Z","geo":{"geometry":{"coordinates":[-2.2314047813415527,31.575953300010806],"type":"Point"},"placekey":"@79w-6ht-m8v","address":{"country_code":"DZ","formatted_address":"JQ4J+7MW, Béchar, Algeria","locality":"Béchar","region":"Béchar Province"}},"labels":["soccer","sport"],"duration":7003,"start_local":"2024-04-26T16:00:00","end":"2024-04-26T16:56:43Z","end_local":"2024-04-26T17:56:43","updated":"2024-06-11T23:00:03Z"},{"title":"El9ante Comedy Club","description":"Sourced from predicthq.com - الحكاية بدات في القنت","category":"performing-arts","start":"2024-04-25T18:00:00Z","geo":{"geometry":{"coordinates":[-0.5931406000000001,35.7244875],"type":"Point"},"placekey":"@7b3-bxr-x3q","address":{"country_code":"DZ","formatted_address":"Rue Dubaï, Bir El Djir, Algeria","locality":"Bir El Djir","region":"Oran Province"}},"labels":["concert","music","performing-arts"],"duration":5400,"start_local":"2024-04-25T19:00:00","end":"2024-04-25T19:30:00Z","end_local":"2024-04-25T20:30:00","updated":"2024-06-05T12:33:05Z"},{"title":"Coupe Nationale - Semi-finals - Belouizdad vs USM Alger","description":"Sourced from predicthq.com","category":"sports","start":"2024-04-24T20:00:00Z","geo":{"geometry":{"coordinates":[3.121854754,36.693750238],"type":"Point"},"placekey":"@7b5-5mw-tsq","address":{"country_code":"DZ","formatted_address":"M4RC+R9, Baraki, Algeria","locality":"Baraki","region":"Algiers Province"}},"labels":["soccer","sport"],"duration":10088,"start_local":"2024-04-24T21:00:00","end":"2024-04-24T22:48:08Z","end_local":"2024-04-24T23:48:08","updated":"2024-06-05T01:20:59Z"},{"title":"Study Day on Applied Chemistry and Environmental Engineering","description":"Sourced from predicthq.com","category":"conferences","start":"2024-04-24T08:00:00Z","geo":{"geometry":{"coordinates":[6.857178,33.394364],"type":"Point"},"placekey":"@7bk-bxf-sbk","address":{"country_code":"DZ","formatted_address":"El Oued, El Oued Province, Algeria","locality":"El Oued","region":"El Oued Province"}},"labels":["conference"],"duration":32400,"start_local":"2024-04-24T09:00:00","end":"2024-04-24T17:00:00Z","end_local":"2024-04-24T18:00:00","updated":"2024-06-05T03:15:53Z"},{"title":"Coupe Nationale - Semi-finals - MC Alger vs CS Constantine","description":"Sourced from predicthq.com","category":"sports","start":"2024-04-23T20:00:00Z","geo":{"geometry":{"coordinates":[-0.549416476,35.728387097],"type":"Point"},"placekey":"@7b3-bxt-6ff","address":{"country_code":"DZ","formatted_address":"PFH2+96H, N11, Bir El Djir, Algeria","locality":"Bir El Djir","region":"Wilaya d'Oran"}},"labels":["soccer","sport"],"duration":10391,"start_local":"2024-04-23T21:00:00","end":"2024-04-23T22:53:11Z","end_local":"2024-04-23T23:53:11","updated":"2024-06-05T02:50:50Z"},{"title":"Ligue 2 - East - JS Bordj Ménaïel vs USM Annaba","description":"Sourced from predicthq.com","category":"sports","start":"2024-04-23T14:00:00Z","geo":{"geometry":{"coordinates":[3.468841318263234,36.76426825842868],"type":"Point"},"placekey":"@7f6-2h9-5s5","address":{"country_code":"DZ","formatted_address":"Boumerdes, Algeria","locality":"Boumerdes","region":"Boumerdès Province"}},"labels":["soccer","sport"],"duration":0,"start_local":"2024-04-23T15:00:00","end":"2024-04-23T14:00:00Z","end_local":"2024-04-23T15:00:00","updated":"2024-06-12T07:52:31Z"},{"title":"International Exhibition of Information & Communication Technology","description":"Sourced from predicthq.com","category":"expos","start":"2024-04-22T23:00:00Z","geo":{"geometry":{"coordinates":[3.082041,36.737475],"type":"Point"},"placekey":"@7f5-yzq-ygk","address":{"country_code":"DZ","formatted_address":"Palais de la culture, El Madania, Algeria","locality":"El Madania","region":"Algiers Province"}},"labels":["expo"],"duration":259199,"start_local":"2024-04-23T00:00:00","end":"2024-04-25T22:59:59Z","end_local":"2024-04-25T23:59:59","updated":"2024-06-05T13:40:10Z"},{"title":"Lift Expo Algeria","description":"Sourced from predicthq.com","category":"expos","start":"2024-04-21T23:00:00Z","geo":{"geometry":{"coordinates":[3.055116,36.772347],"type":"Point"},"placekey":"@7f5-yz2-v4v","address":{"country_code":"DZ","formatted_address":"Rue Rachid Tidjani ex Berthelot, 16000 Alger Centre, Algeria","locality":"Alger Centre","postcode":"16000","region":"Wilaya d'Alger"}},"labels":["expo"],"duration":259199,"start_local":"2024-04-22T00:00:00","end":"2024-04-24T22:59:59Z","end_local":"2024-04-24T23:59:59","updated":"2024-05-27T22:44:29Z"},{"title":"Lift Expo Algeria","description":"Sourced from predicthq.com - Int. Exhibition for Elevator and Escalator Technologies","category":"expos","start":"2024-04-21T23:00:00Z","geo":{"geometry":{"coordinates":[3.1524013,36.7343248],"type":"Point"},"placekey":"@7f5-z5j-wkz","address":{"country_code":"DZ","formatted_address":"Mohammadia, Algiers Province, Algeria","locality":"Mohammadia","region":"Algiers Province"}},"labels":["construction","expo","technology"],"duration":259199,"start_local":"2024-04-22T00:00:00","end":"2024-04-24T22:59:59Z","end_local":"2024-04-24T23:59:59","updated":"2024-06-04T22:31:18Z"},{"title":"DJAZAGRO","description":"Sourced from predicthq.com - The Trade Fair for Agri-Food Production","category":"expos","start":"2024-04-21T23:00:00Z","geo":{"geometry":{"coordinates":[3.1524013,36.7343248],"type":"Point"},"placekey":"@7f5-z5j-wkz","address":{"country_code":"DZ","formatted_address":"Mohammadia, Algiers Province, Algeria","locality":"Mohammadia","region":"Algiers Province"}},"labels":["expo","packaging","product","technology"],"duration":345599,"start_local":"2024-04-22T00:00:00","end":"2024-04-25T22:59:59Z","end_local":"2024-04-25T23:59:59","updated":"2024-05-26T05:09:16Z"},{"title":"The National Seminar on Valorization of Triticale \"From Farm to Table\"","description":"Sourced from predicthq.com","category":"conferences","start":"2024-04-21T08:00:00Z","geo":{"geometry":{"coordinates":[6.859012,33.398132],"type":"Point"},"placekey":"@7bk-bxf-5j9","address":{"country_code":"DZ","formatted_address":"El Oued, El Oued Province, Algeria","locality":"El Oued","region":"El Oued Province"}},"labels":["conference"],"duration":118800,"start_local":"2024-04-21T09:00:00","end":"2024-04-22T17:00:00Z","end_local":"2024-04-22T18:00:00","updated":"2024-05-27T23:13:49Z"},{"title":"Ligue 1 - Paradou AC vs El Bayadh","description":"Sourced from predicthq.com","category":"sports","start":"2024-04-20T15:00:00Z","geo":{"geometry":{"coordinates":[3.21014495351184,36.72085995894815],"type":"Point"},"placekey":"@7f5-z5z-9pv","address":{"country_code":"DZ","formatted_address":"Guemgani Road, al-Jazā’ir (Algiers), Algeria","locality":"al-Jazā’ir (Algiers) "}},"labels":["soccer","sport"],"duration":6882,"start_local":"2024-04-20T16:00:00","end":"2024-04-20T16:54:42Z","end_local":"2024-04-20T17:54:42","updated":"2024-06-05T00:57:00Z"},{"title":"Ligue 2 - West - Koléa vs SC Méchria","description":"Sourced from predicthq.com","category":"sports","start":"2024-04-20T14:00:00Z","geo":{"geometry":{"coordinates":[2.765948119,36.634882617],"type":"Point"},"placekey":"@7b5-45x-jn5","address":{"country_code":"DZ","formatted_address":"JQP8+322, Rue Mostefa Ben Boulaïd, Koléa, Algeria","locality":"Koléa","region":"Wilaya de Tipaza"}},"labels":["soccer","sport"],"duration":0,"start_local":"2024-04-20T15:00:00","end":"2024-04-20T14:00:00Z","end_local":"2024-04-20T15:00:00","updated":"2024-06-12T01:15:58Z"},{"title":"Ligue 2 - West - NA Hussein Dey vs RC Arbaâ","description":"Sourced from predicthq.com","category":"sports","start":"2024-04-20T14:00:00Z","geo":{"geometry":{"coordinates":[3.0784396,36.7454756],"type":"Point"},"placekey":"@7f5-yzq-dsq","address":{"country_code":"DZ","formatted_address":"Rue Rabah Takdjourt, Algiers, Algeria","locality":"Algiers","region":"Algiers Province"}},"labels":["soccer","sport"],"duration":0,"start_local":"2024-04-20T15:00:00","end":"2024-04-20T14:00:00Z","end_local":"2024-04-20T15:00:00","updated":"2024-06-12T03:03:16Z"},{"title":"Ligue 2 - West - Guir Abadla vs ASM Oran","description":"Sourced from predicthq.com","category":"sports","start":"2024-04-20T14:00:00Z","geo":{"geometry":{"coordinates":[-2.2314047813415527,31.575953300010806],"type":"Point"},"placekey":"@79w-6ht-m8v","address":{"country_code":"DZ","formatted_address":"JQ4J+7MW, Béchar, Algeria","locality":"Béchar","region":"Béchar Province"}},"labels":["soccer","sport"],"duration":0,"start_local":"2024-04-20T15:00:00","end":"2024-04-20T14:00:00Z","end_local":"2024-04-20T15:00:00","updated":"2024-06-12T04:57:13Z"},{"title":"Ligue 2 - West - Témouchent vs Oued Sly","description":"Sourced from predicthq.com","category":"sports","start":"2024-04-20T14:00:00Z","geo":{"geometry":{"coordinates":[-1.1469447612762451,35.31186842509688],"type":"Point"},"placekey":"@7b3-cfk-zs5","address":{"country_code":"DZ","formatted_address":"Ain Temouchent, Algeria","locality":"Ain Temouchent","region":"Aïn Témouchent Province"}},"labels":["soccer","sport"],"duration":0,"start_local":"2024-04-20T15:00:00","end":"2024-04-20T14:00:00Z","end_local":"2024-04-20T15:00:00","updated":"2024-06-12T08:58:00Z"},{"title":"Ligue 2 - West - WA Mostaganem vs GC Mascara","description":"Sourced from predicthq.com","category":"sports","start":"2024-04-20T14:00:00Z","geo":{"geometry":{"coordinates":[0.10521233081817627,35.92411889981462],"type":"Point"},"placekey":"@7b6-k86-389","address":{"country_code":"DZ","formatted_address":"10 Rue Ben Salem Amar, Mostaganem, Algeria","locality":"Mostaganem","region":"Wilaya de Mostaganem"}},"labels":["soccer","sport"],"duration":0,"start_local":"2024-04-20T15:00:00","end":"2024-04-20T14:00:00Z","end_local":"2024-04-20T15:00:00","updated":"2024-06-12T02:32:21Z"},{"title":"Ligue 2 - West - Tiaret vs WA Boufarik","description":"Sourced from predicthq.com","category":"sports","start":"2024-04-20T14:00:00Z","geo":{"geometry":{"coordinates":[1.3309557,35.3622993],"type":"Point"},"placekey":"@7b5-fdg-nwk","address":{"country_code":"DZ","formatted_address":"986J+V9J, Tiaret, Algeria","locality":"Tiaret","region":"Tiaret Province"}},"labels":["soccer","sport"],"duration":0,"start_local":"2024-04-20T15:00:00","end":"2024-04-20T14:00:00Z","end_local":"2024-04-20T15:00:00","updated":"2024-06-11T21:15:09Z"},{"title":"Ligue 2 - West - Olympique Médéa vs RC Kouba","description":"Sourced from predicthq.com","category":"sports","start":"2024-04-20T14:00:00Z","geo":{"geometry":{"coordinates":[2.7696209,36.2617367],"type":"Point"},"placekey":"@7b4-yqj-ht9","address":{"country_code":"DZ","formatted_address":"7Q69+MVW, N18, Médéa, Algeria","locality":"Médéa","region":"Wilaya de Médéa"}},"labels":["soccer","sport"],"duration":0,"start_local":"2024-04-20T15:00:00","end":"2024-04-20T14:00:00Z","end_local":"2024-04-20T15:00:00","updated":"2024-06-12T07:18:35Z"},{"title":"Ligue 2 - West - SKAF Khémis Mélina vs ES Mostaganem","description":"Sourced from predicthq.com","category":"sports","start":"2024-04-20T14:00:00Z","geo":{"geometry":{"coordinates":[2.2172207184489783,36.256668405143266],"type":"Point"},"placekey":"@7b5-6v4-hnq","address":{"country_code":"DZ","formatted_address":"7649+X63, Khemis Miliana, Algeria","locality":"Khemis Miliana","region":"Aïn Defla Province"}},"labels":["soccer","sport"],"duration":0,"start_local":"2024-04-20T15:00:00","end":"2024-04-20T14:00:00Z","end_local":"2024-04-20T15:00:00","updated":"2024-06-11T21:30:42Z"},{"title":"Ligue 1 - Belouizdad vs US Biskra","description":"Sourced from predicthq.com","category":"sports","start":"2024-04-19T17:00:00Z","geo":{"geometry":{"coordinates":[2.9954651000000467,36.75992529999999],"type":"Point"},"placekey":"@7f5-z3m-8d9","address":{"country_code":"DZ","formatted_address":"Ben Aknoun, Algiers Province, Algeria","locality":"Ben Aknoun","region":"Algiers Province"}},"labels":["soccer","sport"],"duration":7057,"start_local":"2024-04-19T18:00:00","end":"2024-04-19T18:57:37Z","end_local":"2024-04-19T19:57:37","updated":"2024-06-12T04:21:00Z"},{"title":"Ligue 1 - ES Sétif vs Saoura","description":"Sourced from predicthq.com","category":"sports","start":"2024-04-19T15:00:00Z","geo":{"geometry":{"coordinates":[5.3932786,36.1868318],"type":"Point"},"placekey":"@7bw-6zg-5j9","address":{"country_code":"DZ","formatted_address":"59PV+Q87, Av. Mokhtar Laaribi, Sétif, Algeria","locality":"Sétif","region":"Wilaya de Sétif"}},"labels":["soccer","sport"],"duration":7104,"start_local":"2024-04-19T16:00:00","end":"2024-04-19T16:58:24Z","end_local":"2024-04-19T17:58:24","updated":"2024-06-05T01:40:11Z"},{"title":"Ligue 1 - NC Magra vs MC Alger","description":"Sourced from predicthq.com","category":"sports","start":"2024-04-19T15:00:00Z","geo":{"geometry":{"coordinates":[5.100595,35.617223],"type":"Point"},"placekey":"@7bt-rjy-3qz","address":{"country_code":"DZ","formatted_address":"J482+W82, Magra, Algeria","locality":"Magra","region":"M'Sila Province"}},"labels":["soccer","sport"],"duration":7243,"start_local":"2024-04-19T16:00:00","end":"2024-04-19T17:00:43Z","end_local":"2024-04-19T18:00:43","updated":"2024-06-05T11:55:46Z"},{"title":"Ligue 1 - Khenchela vs CS Constantine","description":"Sourced from predicthq.com","category":"sports","start":"2024-04-19T15:00:00Z","geo":{"geometry":{"coordinates":[7.1465059,35.4284269],"type":"Point"},"placekey":"@7bd-kh2-kmk","address":{"country_code":"DZ","formatted_address":"C4HW+9JC, Khenchela, Algeria","locality":"Khenchela","region":"Khenchela Province"}},"labels":["soccer","sport"],"duration":6853,"start_local":"2024-04-19T16:00:00","end":"2024-04-19T16:54:13Z","end_local":"2024-04-19T17:54:13","updated":"2024-06-05T03:29:17Z"},{"title":"Ligue 1 - US Souf vs ASO Chlef","description":"Sourced from predicthq.com","category":"sports","start":"2024-04-19T15:00:00Z","geo":{"geometry":{"coordinates":[6.878230529,33.400328708],"type":"Point"},"placekey":"@7bk-bxg-rkz","address":{"country_code":"DZ","formatted_address":"CV2H+47Q, El Oued, Algeria","locality":"El Oued","region":"El Oued Province"}},"labels":["soccer","sport"],"duration":7494,"start_local":"2024-04-19T16:00:00","end":"2024-04-19T17:04:54Z","end_local":"2024-04-19T18:04:54","updated":"2024-06-05T05:13:31Z"},{"title":"Ligue 2 - East - MSP Batna vs Olympique Akbou","description":"Sourced from predicthq.com","category":"sports","start":"2024-04-19T14:00:00Z","geo":{"geometry":{"coordinates":[6.188033223152161,35.55724538917183],"type":"Point"},"placekey":"@7bv-2h7-9mk","address":{"country_code":"DZ","formatted_address":"H54Q+V5W, Rue de l'Abattoir, Batna, Algeria","locality":"Batna","region":"Batna Province"}},"labels":["soccer","sport"],"duration":0,"start_local":"2024-04-19T15:00:00","end":"2024-04-19T14:00:00Z","end_local":"2024-04-19T15:00:00","updated":"2024-06-12T18:21:20Z"},{"title":"Ligue 2 - East - El Eulma vs USM Annaba","description":"Sourced from predicthq.com","category":"sports","start":"2024-04-19T14:00:00Z","geo":{"geometry":{"coordinates":[5.698476433753967,36.15191879474478],"type":"Point"},"placekey":"@7bw-7x3-kcq","address":{"country_code":"DZ","formatted_address":"El Eulma 19600, Algeria","postcode":"19600","locality":"El Eulma","region":"Sétif Province"}},"labels":["soccer","sport"],"duration":0,"start_local":"2024-04-19T15:00:00","end":"2024-04-19T14:00:00Z","end_local":"2024-04-19T15:00:00","updated":"2024-06-12T00:09:40Z"},{"title":"Ligue 2 - East - RB Ouargla vs CA Batna","description":"Sourced from predicthq.com","category":"sports","start":"2024-04-19T14:00:00Z","geo":{"geometry":{"coordinates":[5.342013691,31.941230589],"type":"Point"},"placekey":"@7bj-j5v-v9f","address":{"country_code":"DZ","formatted_address":"X85Q+4VW, Ouargla, Algeria","locality":"Ouargla","region":"Ouargla Province"}},"labels":["soccer","sport"],"duration":0,"start_local":"2024-04-19T15:00:00","end":"2024-04-19T14:00:00Z","end_local":"2024-04-19T15:00:00","updated":"2024-06-12T19:41:16Z"},{"title":"Ligue 2 - East - MO Constantine vs Olympique Magrane","description":"Sourced from predicthq.com","category":"sports","start":"2024-04-19T14:00:00Z","geo":{"geometry":{"coordinates":[6.604714393615723,36.35663600066584],"type":"Point"},"placekey":"@7bp-wpg-zfz","address":{"country_code":"DZ","formatted_address":"9J43+JVP, Constantine, Algeria","locality":"Constantine","region":"Constantine Province"}},"labels":["soccer","sport"],"duration":0,"start_local":"2024-04-19T15:00:00","end":"2024-04-19T14:00:00Z","end_local":"2024-04-19T15:00:00","updated":"2024-06-12T11:36:41Z"},{"title":"Ligue 2 - East - USM El Harrach vs HB Chelghoum Laïd","description":"Sourced from predicthq.com","category":"sports","start":"2024-04-19T14:00:00Z","geo":{"geometry":{"coordinates":[3.1314947,36.7346014],"type":"Point"},"placekey":"@7f5-yzk-x5z","address":{"country_code":"DZ","formatted_address":"P4MJ+RHX, Mohammadia, Algeria","locality":"Mohammadia","region":"Algiers Province"}},"labels":["soccer","sport"],"duration":0,"start_local":"2024-04-19T15:00:00","end":"2024-04-19T14:00:00Z","end_local":"2024-04-19T15:00:00","updated":"2024-06-11T21:19:27Z"},{"title":"Ligue 2 - East - Aïn M'lila vs E Sour El-Ghozlane","description":"Sourced from predicthq.com","category":"sports","start":"2024-04-19T14:00:00Z","geo":{"geometry":{"coordinates":[6.557810801541905,36.04493809559481],"type":"Point"},"placekey":"@7bv-74f-94v","address":{"country_code":"DZ","formatted_address":"Unnamed Road, 2HW4+4V8, Aïn M'lila, Algeria","locality":"Aïn M'lila","region":"Wilaya d'Oum El Bouaghi"}},"labels":["soccer","sport"],"duration":0,"start_local":"2024-04-19T15:00:00","end":"2024-04-19T14:00:00Z","end_local":"2024-04-19T15:00:00","updated":"2024-06-12T12:01:04Z"},{"title":"Ligue 2 - East - IB Khémis El Khechna vs AS Khroub","description":"Sourced from predicthq.com","category":"sports","start":"2024-04-19T14:00:00Z","geo":{"geometry":{"coordinates":[3.328778581,36.651511809],"type":"Point"},"placekey":"@7b5-5pq-9s5","address":{"country_code":"DZ","formatted_address":"M82H+JG2, Khemis El-Khechna, Algeria","locality":"Khemis El-Khechna","region":"Boumerdès Province"}},"labels":["soccer","sport"],"duration":0,"start_local":"2024-04-19T15:00:00","end":"2024-04-19T14:00:00Z","end_local":"2024-04-19T15:00:00","updated":"2024-06-11T22:48:21Z"},{"title":"Ligue 2 - East - Teleghma vs JS Bordj Ménaïel","description":"Sourced from predicthq.com","category":"sports","start":"2024-04-19T14:00:00Z","geo":{"geometry":{"coordinates":[6.368476590291451,36.12363858771284],"type":"Point"},"placekey":"@7bv-68t-b6k","address":{"country_code":"DZ","formatted_address":"49F9+FC6, Teleghma, Algeria","locality":"Teleghma","region":"Mila Province"}},"labels":["soccer","sport"],"duration":0,"start_local":"2024-04-19T15:00:00","end":"2024-04-19T14:00:00Z","end_local":"2024-04-19T15:00:00","updated":"2024-06-12T15:38:07Z"},{"title":"El9ante Comedy Club","description":"Sourced from predicthq.com - الحكاية بدات في القنت","category":"performing-arts","start":"2024-04-18T18:00:00Z","geo":{"geometry":{"coordinates":[-0.5931406000000001,35.7244875],"type":"Point"},"placekey":"@7b3-bxr-x3q","address":{"country_code":"DZ","formatted_address":"Rue Dubaï, Bir El Djir, Algeria","locality":"Bir El Djir","region":"Oran Province"}},"labels":["concert","music","performing-arts"],"duration":5400,"start_local":"2024-04-18T19:00:00","end":"2024-04-18T19:30:00Z","end_local":"2024-04-18T20:30:00","updated":"2024-06-05T01:46:21Z"},{"title":"SIMEM International Heath Exhibition","description":"Sourced from predicthq.com - The SIMEM International Health Exhibition is a dynamic expo event showcasing the latest innovations and advancements in the healthcare industry. From cutting-edge medical technology to groundbreaking research, the event brings together experts, professionals, and organizations to explore the future of healthcare.","category":"expos","start":"2024-04-16T23:00:00Z","geo":{"geometry":{"coordinates":[-0.5894637,35.72755340000001],"type":"Point"},"placekey":"@7b3-bxr-xwk","address":{"country_code":"DZ","formatted_address":"CW75, Oran, Algeria","locality":"Oran","region":"Wilaya d'Oran"}},"labels":["expo"],"duration":345599,"start_local":"2024-04-17T00:00:00","end":"2024-04-20T22:59:59Z","end_local":"2024-04-20T23:59:59","updated":"2024-06-04T14:13:40Z"},{"title":"Coupe Nationale - Quarter-finals - US Biskra vs USM Alger","description":"Sourced from predicthq.com","category":"sports","start":"2024-04-16T19:30:00Z","geo":{"geometry":{"coordinates":[7.733280658721924,36.88582941248132],"type":"Point"},"placekey":"@7bq-c4s-d35","address":{"country_code":"DZ","formatted_address":"Piscine Olympique, Annaba, Algeria","locality":"Annaba","region":"Wilaya d'Annaba"}},"labels":["soccer","sport"],"duration":7126,"start_local":"2024-04-16T20:30:00","end":"2024-04-16T21:28:46Z","end_local":"2024-04-16T22:28:46","updated":"2024-06-05T14:00:46Z"},{"title":"Ligue 1 - Kabylie vs MC Oran","description":"Sourced from predicthq.com","category":"sports","start":"2024-04-16T17:00:00Z","geo":{"geometry":{"coordinates":[4.056068658828735,36.706928177446656],"type":"Point"},"placekey":"@7bv-z2g-26k","address":{"country_code":"DZ","formatted_address":"P344+HC5, Rue Lamali Ahmed, Tizi Ouzou 15000, Algeria","postcode":"15000","locality":"Tizi Ouzou","region":"Wilaya de Tizi Ouzou"}},"labels":["soccer","sport"],"duration":8120,"start_local":"2024-04-16T18:00:00","end":"2024-04-16T19:15:20Z","end_local":"2024-04-16T20:15:20","updated":"2024-06-05T17:29:27Z"},{"title":"Ligue 1 - Belouizdad vs Paradou AC","description":"Sourced from predicthq.com","category":"sports","start":"2024-04-16T17:00:00Z","geo":{"geometry":{"coordinates":[2.9954651000000467,36.75992529999999],"type":"Point"},"placekey":"@7f5-z3m-8d9","address":{"country_code":"DZ","formatted_address":"Ben Aknoun, Algiers Province, Algeria","locality":"Ben Aknoun","region":"Algiers Province"}},"labels":["soccer","sport"],"duration":7072,"start_local":"2024-04-16T18:00:00","end":"2024-04-16T18:57:52Z","end_local":"2024-04-16T19:57:52","updated":"2024-06-11T23:35:52Z"},{"title":"Ligue 2 - West - ES Mostaganem vs Tiaret","description":"Sourced from predicthq.com","category":"sports","start":"2024-04-16T14:30:00Z","geo":{"geometry":{"coordinates":[0.10521233081817627,35.92411889981462],"type":"Point"},"placekey":"@7b6-k86-389","address":{"country_code":"DZ","formatted_address":"10 Rue Ben Salem Amar, Mostaganem, Algeria","locality":"Mostaganem","region":"Wilaya de Mostaganem"}},"labels":["soccer","sport"],"duration":0,"start_local":"2024-04-16T15:30:00","end":"2024-04-16T14:30:00Z","end_local":"2024-04-16T15:30:00","updated":"2024-06-11T22:43:51Z"},{"title":"Mediterranean and Middle-East Geoscience and Remote Sensing Symposium","description":"Sourced from predicthq.com","category":"conferences","start":"2024-04-15T08:00:00Z","geo":{"geometry":{"coordinates":[-0.572411,35.705267],"type":"Point"},"placekey":"@7b3-bxj-v75","address":{"country_code":"DZ","formatted_address":"31130 Bir El Djir, Algeria","locality":"Bir El Djir","postcode":"31130","region":"Wilaya d'Oran"}},"labels":["conference"],"duration":205200,"start_local":"2024-04-15T09:00:00","end":"2024-04-17T17:00:00Z","end_local":"2024-04-17T18:00:00","updated":"2024-05-31T23:07:37Z"},{"title":"Coupe Nationale - Quarter-finals - WA Tlemcen vs MC Alger","description":"Sourced from predicthq.com","category":"sports","start":"2024-04-14T19:30:00Z","geo":{"geometry":{"coordinates":[2.9954651000000467,36.75992529999999],"type":"Point"},"placekey":"@7f5-z3m-8d9","address":{"country_code":"DZ","formatted_address":"Ben Aknoun, Algiers Province, Algeria","locality":"Ben Aknoun","region":"Algiers Province"}},"labels":["soccer","sport"],"duration":7784,"start_local":"2024-04-14T20:30:00","end":"2024-04-14T21:39:44Z","end_local":"2024-04-14T22:39:44","updated":"2024-06-05T07:45:44Z"},{"title":"Ligue 2 - West - SKAF Khémis Mélina vs Guir Abadla","description":"Sourced from predicthq.com","category":"sports","start":"2024-04-14T14:30:00Z","geo":{"geometry":{"coordinates":[2.2172207184489783,36.256668405143266],"type":"Point"},"placekey":"@7b5-6v4-hnq","address":{"country_code":"DZ","formatted_address":"7649+X63, Khemis Miliana, Algeria","locality":"Khemis Miliana","region":"Aïn Defla Province"}},"labels":["soccer","sport"],"duration":0,"start_local":"2024-04-14T15:30:00","end":"2024-04-14T14:30:00Z","end_local":"2024-04-14T15:30:00","updated":"2024-06-12T02:09:38Z"},{"title":"Ligue 2 - West - WA Boufarik vs WA Mostaganem","description":"Sourced from predicthq.com","category":"sports","start":"2024-04-14T14:30:00Z","geo":{"geometry":{"coordinates":[2.9072982637542344,36.574511806996355],"type":"Point"},"placekey":"@7b5-48q-54v","address":{"country_code":"DZ","formatted_address":"HWF4+RW9, Boufarik, Algeria","locality":"Boufarik","region":"Blida Province"}},"labels":["soccer","sport"],"duration":0,"start_local":"2024-04-14T15:30:00","end":"2024-04-14T14:30:00Z","end_local":"2024-04-14T15:30:00","updated":"2024-06-12T06:16:10Z"},{"title":"Ligue 2 - West - RC Arbaâ vs Témouchent","description":"Sourced from predicthq.com","category":"sports","start":"2024-04-14T14:30:00Z","geo":{"geometry":{"coordinates":[3.1490448,36.5668591],"type":"Point"},"placekey":"@7b5-5ms-dd9","address":{"country_code":"DZ","formatted_address":"Larbaa, Blida Province, Algeria","locality":"Larbaa","region":"Blida Province"}},"labels":["soccer","sport"],"duration":0,"start_local":"2024-04-14T15:30:00","end":"2024-04-14T14:30:00Z","end_local":"2024-04-14T15:30:00","updated":"2024-06-12T00:03:57Z"},{"title":"Ligue 2 - West - ASM Oran vs NA Hussein Dey","description":"Sourced from predicthq.com","category":"sports","start":"2024-04-14T14:30:00Z","geo":{"geometry":{"coordinates":[-0.6169295310974121,35.68977929448362],"type":"Point"},"placekey":"@7b3-gkm-p5f","address":{"country_code":"DZ","formatted_address":"Route de Misserghin ou RN2, Wahrān (Oran), Algeria","locality":"Wahrān (Oran)"}},"labels":["soccer","sport"],"duration":0,"start_local":"2024-04-14T15:30:00","end":"2024-04-14T14:30:00Z","end_local":"2024-04-14T15:30:00","updated":"2024-06-12T12:32:38Z"},{"title":"Ligue 2 - East - Olympique Akbou vs RB Ouargla","description":"Sourced from predicthq.com","category":"sports","start":"2024-04-14T14:30:00Z","geo":{"geometry":{"coordinates":[4.541279396,36.451758481],"type":"Point"},"placekey":"@7bv-wny-mzf","address":{"country_code":"DZ","formatted_address":"FG3R+463, Akbou, Algeria","locality":"Akbou","region":"Béjaïa Province"}},"labels":["soccer","sport"],"duration":0,"start_local":"2024-04-14T15:30:00","end":"2024-04-14T14:30:00Z","end_local":"2024-04-14T15:30:00","updated":"2024-06-12T00:23:58Z"},{"title":"Ligue 2 - East - HB Chelghoum Laïd vs Teleghma","description":"Sourced from predicthq.com","category":"sports","start":"2024-04-14T14:30:00Z","geo":{"geometry":{"coordinates":[6.172215783319879,36.156356419626746],"type":"Point"},"placekey":"@7bv-64q-fpv","address":{"country_code":"DZ","formatted_address":"554C+GVV, Chelghoum Laïd, Algeria","locality":"Chelghoum Laïd","region":"Mila Province"}},"labels":["soccer","sport"],"duration":0,"start_local":"2024-04-14T15:30:00","end":"2024-04-14T14:30:00Z","end_local":"2024-04-14T15:30:00","updated":"2024-06-12T00:30:41Z"},{"title":"Ligue 2 - West - GC Mascara vs Oued Sly","description":"Sourced from predicthq.com","category":"sports","start":"2024-04-14T14:30:00Z","geo":{"geometry":{"coordinates":[0.1342177391052246,35.39311264175385],"type":"Point"},"placekey":"@7b6-fkd-j5f","address":{"country_code":"DZ","formatted_address":"94VM+6MQ, Av. Boulefred Mohamed, Mascara, Algeria","locality":"Mascara","region":"Wilaya de Mascara"}},"labels":["soccer","sport"],"duration":0,"start_local":"2024-04-14T15:30:00","end":"2024-04-14T14:30:00Z","end_local":"2024-04-14T15:30:00","updated":"2024-06-12T13:46:55Z"},{"title":"Ligue 2 - East - E Sour El-Ghozlane vs MO Constantine","description":"Sourced from predicthq.com","category":"sports","start":"2024-04-14T14:30:00Z","geo":{"geometry":{"coordinates":[3.682796359062195,36.14808962906045],"type":"Point"},"placekey":"@7b4-zbg-66k","address":{"country_code":"DZ","formatted_address":"4MXJ+Q7F, Sour El-Ghozlane, Algeria","locality":"Sour El-Ghozlane","region":"Bouïra Province"}},"labels":["soccer","sport"],"duration":0,"start_local":"2024-04-14T15:30:00","end":"2024-04-14T14:30:00Z","end_local":"2024-04-14T15:30:00","updated":"2024-06-12T02:54:38Z"},{"title":"Ligue 2 - West - RC Kouba vs Koléa","description":"Sourced from predicthq.com","category":"sports","start":"2024-04-14T14:30:00Z","geo":{"geometry":{"coordinates":[3.0904197692871094,36.729546382595046],"type":"Point"},"placekey":"@7f5-yzj-kpv","address":{"country_code":"DZ","formatted_address":"P3HR+V45, Av. des Frères Abdeslami, Kouba, Algeria","locality":"Kouba","region":"Wilaya d'Alger"}},"labels":["soccer","sport"],"duration":0,"start_local":"2024-04-14T15:30:00","end":"2024-04-14T14:30:00Z","end_local":"2024-04-14T15:30:00","updated":"2024-06-11T21:23:07Z"},{"title":"Ligue 2 - East - AS Khroub vs Aïn M'lila","description":"Sourced from predicthq.com","category":"sports","start":"2024-04-14T14:30:00Z","geo":{"geometry":{"coordinates":[6.6873706,36.2606902],"type":"Point"},"placekey":"@7bp-x2s-2hq","address":{"country_code":"DZ","formatted_address":"7M6Q+85F, El Khroub, Algeria","locality":"El Khroub","region":"Constantine Province"}},"labels":["soccer","sport"],"duration":0,"start_local":"2024-04-14T15:30:00","end":"2024-04-14T14:30:00Z","end_local":"2024-04-14T15:30:00","updated":"2024-06-12T02:16:58Z"},{"title":"Ligue 2 - West - SC Méchria vs Olympique Médéa","description":"Sourced from predicthq.com","category":"sports","start":"2024-04-14T14:30:00Z","geo":{"geometry":{"coordinates":[-0.274964,33.551172],"type":"Point"},"placekey":"@79q-m6y-py9","address":{"country_code":"DZ","formatted_address":"HP2G+F2F, Mecheria, Algeria","locality":"Mecheria","region":"Naâma Province"}},"labels":["soccer","sport"],"duration":0,"start_local":"2024-04-14T15:30:00","end":"2024-04-14T14:30:00Z","end_local":"2024-04-14T15:30:00","updated":"2024-06-12T13:54:38Z"},{"title":"Ligue 2 - East - CA Batna vs MSP Batna","description":"Sourced from predicthq.com","category":"sports","start":"2024-04-14T14:30:00Z","geo":{"geometry":{"coordinates":[6.188033223152161,35.55724538917183],"type":"Point"},"placekey":"@7bv-2h7-9mk","address":{"country_code":"DZ","formatted_address":"H54Q+V5W, Rue de l'Abattoir, Batna, Algeria","locality":"Batna","region":"Batna Province"}},"labels":["soccer","sport"],"duration":0,"start_local":"2024-04-14T15:30:00","end":"2024-04-14T14:30:00Z","end_local":"2024-04-14T15:30:00","updated":"2024-06-12T15:21:34Z"},{"title":"Ligue 2 - East - USM Annaba vs USM El Harrach","description":"Sourced from predicthq.com","category":"sports","start":"2024-04-14T14:30:00Z","geo":{"geometry":{"coordinates":[7.7574580907821655,36.90780719312758],"type":"Point"},"placekey":"@7bq-bgj-zfz","address":{"country_code":"DZ","formatted_address":"Annaba, Algeria","locality":"Annaba","region":"Annaba Province"}},"labels":["soccer","sport"],"duration":0,"start_local":"2024-04-14T15:30:00","end":"2024-04-14T14:30:00Z","end_local":"2024-04-14T15:30:00","updated":"2024-06-12T13:16:45Z"},{"title":"Ligue 2 - East - IB Khémis El Khechna vs El Eulma","description":"Sourced from predicthq.com","category":"sports","start":"2024-04-14T14:30:00Z","geo":{"geometry":{"coordinates":[3.328778581,36.651511809],"type":"Point"},"placekey":"@7b5-5pq-9s5","address":{"country_code":"DZ","formatted_address":"M82H+JG2, Khemis El-Khechna, Algeria","locality":"Khemis El-Khechna","region":"Boumerdès Province"}},"labels":["soccer","sport"],"duration":0,"start_local":"2024-04-14T15:30:00","end":"2024-04-14T14:30:00Z","end_local":"2024-04-14T15:30:00","updated":"2024-06-11T22:27:10Z"},{"title":"Ligue 2 - East - Olympique Magrane vs JS Bordj Ménaïel","description":"Sourced from predicthq.com","category":"sports","start":"2024-04-14T14:30:00Z","geo":{"geometry":{"coordinates":[6.878230529,33.400328708],"type":"Point"},"placekey":"@7bk-bxg-rkz","address":{"country_code":"DZ","formatted_address":"CV2H+47Q, El Oued, Algeria","locality":"El Oued","region":"El Oued Province"}},"labels":["soccer","sport"],"duration":0,"start_local":"2024-04-14T15:30:00","end":"2024-04-14T14:30:00Z","end_local":"2024-04-14T15:30:00","updated":"2024-06-12T09:38:43Z"},{"title":"Coupe Nationale - Quarter-finals - CS Constantine vs Ben Aknoun","description":"Sourced from predicthq.com","category":"sports","start":"2024-04-13T16:30:00Z","geo":{"geometry":{"coordinates":[-0.549416476,35.728387097],"type":"Point"},"placekey":"@7b3-bxt-6ff","address":{"country_code":"DZ","formatted_address":"PFH2+96H, N11, Bir El Djir, Algeria","locality":"Bir El Djir","region":"Wilaya d'Oran"}},"labels":["soccer","sport"],"duration":9824,"start_local":"2024-04-13T17:30:00","end":"2024-04-13T19:13:44Z","end_local":"2024-04-13T20:13:44","updated":"2024-06-05T00:42:09Z"},{"title":"Coupe Nationale - Quarter-finals - Belouizdad vs ES Mostaganem","description":"Sourced from predicthq.com","category":"sports","start":"2024-04-12T16:30:00Z","geo":{"geometry":{"coordinates":[6.625172600000042,36.3487364],"type":"Point"},"placekey":"@7bp-wpg-28v","address":{"country_code":"DZ","formatted_address":"Constantine, Constantine Province, Algeria","locality":"Constantine","region":"Constantine Province"}},"labels":["soccer","sport"],"duration":8531,"start_local":"2024-04-12T17:30:00","end":"2024-04-12T18:52:11Z","end_local":"2024-04-12T19:52:11","updated":"2024-05-27T06:49:20Z"},{"title":"Coupe Nationale - 8th Finals - USM Alger vs RC Bougaa","description":"Sourced from predicthq.com","category":"sports","start":"2024-04-12T16:30:00Z","geo":{"geometry":{"coordinates":[2.9954651000000467,36.75992529999999],"type":"Point"},"placekey":"@7f5-z3m-8d9","address":{"country_code":"DZ","formatted_address":"Ben Aknoun, Algiers Province, Algeria","locality":"Ben Aknoun","region":"Algiers Province"}},"labels":["soccer","sport"],"duration":8764,"start_local":"2024-04-12T17:30:00","end":"2024-04-12T18:56:04Z","end_local":"2024-04-12T19:56:04","updated":"2024-06-05T06:32:25Z"},{"title":"El9ante Comedy Club","description":"Sourced from predicthq.com - الحكاية بدات في القنت","category":"performing-arts","start":"2024-04-11T18:00:00Z","geo":{"geometry":{"coordinates":[-0.5931406000000001,35.7244875],"type":"Point"},"placekey":"@7b3-bxr-x3q","address":{"country_code":"DZ","formatted_address":"Rue Dubaï, Bir El Djir, Algeria","locality":"Bir El Djir","region":"Oran Province"}},"labels":["concert","music","performing-arts"],"duration":5400,"start_local":"2024-04-11T19:00:00","end":"2024-04-11T19:30:00Z","end_local":"2024-04-11T20:30:00","updated":"2024-06-05T02:07:44Z"},{"title":"CAF Confederation Cup - Quarter-finals - USM Alger vs Rivers United","description":"Sourced from predicthq.com","category":"sports","start":"2024-04-07T21:00:00Z","geo":{"geometry":{"coordinates":[2.9954651000000467,36.75992529999999],"type":"Point"},"placekey":"@7f5-z3m-8d9","address":{"country_code":"DZ","formatted_address":"Ben Aknoun, Algiers Province, Algeria","locality":"Ben Aknoun","region":"Algiers Province"}},"labels":["soccer","sport"],"duration":7270,"start_local":"2024-04-07T22:00:00","end":"2024-04-07T23:01:10Z","end_local":"2024-04-08T00:01:10","updated":"2024-06-05T06:29:47Z"},{"title":"Ligue 1 - CS Constantine vs Paradou AC","description":"Sourced from predicthq.com","category":"sports","start":"2024-04-06T21:00:00Z","geo":{"geometry":{"coordinates":[6.625172600000042,36.3487364],"type":"Point"},"placekey":"@7bp-wpg-28v","address":{"country_code":"DZ","formatted_address":"Constantine, Constantine Province, Algeria","locality":"Constantine","region":"Constantine Province"}},"labels":["soccer","sport"],"duration":7616,"start_local":"2024-04-06T22:00:00","end":"2024-04-06T23:06:56Z","end_local":"2024-04-07T00:06:56","updated":"2024-05-27T04:33:26Z"},{"title":"El9ante Comedy Club","description":"Sourced from predicthq.com - الحكاية بدات في القنت","category":"performing-arts","start":"2024-04-06T21:00:00Z","geo":{"geometry":{"coordinates":[-0.5931406000000001,35.7244875],"type":"Point"},"placekey":"@7b3-bxr-x3q","address":{"country_code":"DZ","formatted_address":"Rue Dubaï, Bir El Djir, Algeria","locality":"Bir El Djir","region":"Oran Province"}},"labels":["concert","music","performing-arts"],"duration":5400,"start_local":"2024-04-06T22:00:00","end":"2024-04-06T22:30:00Z","end_local":"2024-04-06T23:30:00","updated":"2024-06-04T22:42:12Z"},{"title":"Ligue 1 - Ben Aknoun vs Khenchela","description":"Sourced from predicthq.com","category":"sports","start":"2024-04-06T14:45:00Z","geo":{"geometry":{"coordinates":[3.0784396,36.7454756],"type":"Point"},"placekey":"@7f5-yzq-dsq","address":{"country_code":"DZ","formatted_address":"Rue Rabah Takdjourt, Algiers, Algeria","locality":"Algiers","region":"Algiers Province"}},"labels":["soccer","sport"],"duration":7649,"start_local":"2024-04-06T15:45:00","end":"2024-04-06T16:52:29Z","end_local":"2024-04-06T17:52:29","updated":"2024-06-05T05:29:23Z"}]