[{"title":"IFIP International Conference on Entertainment Computing","description":"Sourced from predicthq.com","category":"conferences","start":"2024-09-30T14:00:00Z","geo":{"geometry":{"coordinates":[-77.995995,-1.468958],"type":"Point"},"placekey":"@ck2-cjj-2rk","address":{"country_code":"EC","formatted_address":"Calle Teniente Hugo Ortíz, Puyo, Ecuador","locality":"Puyo","region":"Pastaza"}},"labels":["conference"],"duration":291600,"start_local":"2024-09-30T09:00:00","end":"2024-10-03T23:00:00Z","end_local":"2024-10-03T18:00:00","updated":"2024-06-16T06:21:12Z"},{"title":"GFNY Manta","description":"Sourced from predicthq.com","category":"sports","start":"2024-09-29T11:30:00Z","geo":{"geometry":{"coordinates":[-80.6588196,-1.0452255],"type":"Point"},"placekey":"@h7q-pk4-hyv","address":{"country_code":"EC","formatted_address":"Avenida Metropolitana, Montecristi, Ecuador","locality":"Montecristi","region":"Manabí"}},"labels":["outdoor-sports","running","sport"],"duration":0,"start_local":"2024-09-29T06:30:00","end":"2024-09-29T11:30:00Z","end_local":"2024-09-29T06:30:00","updated":"2024-06-11T06:29:49Z"},{"title":"Guayaquil International Book Fair","description":"Sourced from predicthq.com","category":"expos","start":"2024-09-18T14:00:00Z","geo":{"geometry":{"coordinates":[-79.88755,-2.159455],"type":"Point"},"placekey":"@h7p-y3p-kzz","address":{"country_code":"EC","formatted_address":"Avenida de las Américas, 090513, Guayaquil, Ecuador","locality":"Guayaquil","postcode":"090513","region":"Guayas"}},"labels":["expo"],"duration":378000,"start_local":"2024-09-18T09:00:00","end":"2024-09-22T23:00:00Z","end_local":"2024-09-22T18:00:00","updated":"2024-05-27T06:22:17Z"},{"title":"Miss Embajadora Mundial del Turismo","description":"Sourced from predicthq.com","category":"performing-arts","start":"2024-09-14T15:00:00Z","geo":{"geometry":{"coordinates":[-80.92463,-2.22836],"type":"Point"},"placekey":"@h7p-n8n-3kf","address":{"country_code":"EC","formatted_address":"Avenida Carlos Espinoza, Salinas, Ecuador","locality":"Salinas","region":"Santa Elena"}},"labels":["entertainment","music","performing-arts"],"duration":43200,"start_local":"2024-09-14T10:00:00","end":"2024-09-15T03:00:00Z","end_local":"2024-09-14T22:00:00","updated":"2024-05-22T17:53:51Z"},{"title":"International Conference of Systems and Smart Technologies","description":"Sourced from predicthq.com","category":"conferences","start":"2024-09-11T14:00:00Z","geo":{"geometry":{"coordinates":[-79.892712,-2.155752],"type":"Point"},"placekey":"@h7p-y3p-qzz","address":{"country_code":"EC","formatted_address":"Guayaquil, Guayas, Ecuador","locality":"Guayaquil","region":"Guayas"}},"labels":["conference"],"duration":118800,"start_local":"2024-09-11T09:00:00","end":"2024-09-12T23:00:00Z","end_local":"2024-09-12T18:00:00","updated":"2024-06-16T04:01:35Z"},{"title":"LIII Congreso Eucarístico Internacional","description":"Sourced from predicthq.com - \"Fraternity to heal the world\": this is the theme of the 53rd International Eucharistic Congress (IEC2024) which will take place in Quito, Ecuador, and will end with the celebration of a Statio Orbis, that is, a moment of special prayer that unites the entire Church in communion around the host that makes Jesus present in the midst of his people.","category":"conferences","start":"2024-09-08T14:00:00Z","geo":{"geometry":{"coordinates":[-78.4881492,-0.1772225],"type":"Point"},"placekey":"@cjy-8qp-9s5","address":{"country_code":"EC","formatted_address":"Corea E148 e, Quito 170135, Ecuador","postcode":"170135","locality":"Quito","region":"Pichincha"}},"labels":["conference","religion"],"duration":630000,"start_local":"2024-09-08T09:00:00","end":"2024-09-15T21:00:00Z","end_local":"2024-09-15T16:00:00","updated":"2024-06-11T05:25:40Z"},{"title":"Silvana Estrada","description":"Sourced from predicthq.com","category":"concerts","start":"2024-09-05T00:00:00Z","geo":{"geometry":{"coordinates":[-79.8879172,-2.185302],"type":"Point"},"placekey":"@h7p-y3v-3qz","address":{"country_code":"EC","formatted_address":"Manabí N8-131 entre Guayaquil y Flores, Quito, Ecuador","locality":"Quito"}},"labels":["concert","music"],"duration":0,"start_local":"2024-09-04T19:00:00","end":"2024-09-05T00:00:00Z","end_local":"2024-09-04T19:00:00","updated":"2024-07-05T11:09:59Z"},{"title":"Presentación del libro: EL NIÑO QUE CAMBIÓ SU DESTINO","description":"Sourced from predicthq.com - Cómo pase de vivir en las calles, a construir mi propia historia.","category":"conferences","start":"2024-09-02T20:00:00Z","geo":{"geometry":{"coordinates":[-79.5946558,-2.128475099999999],"type":"Point"},"placekey":"@h7p-y29-5cq","address":{"country_code":"EC","formatted_address":"Juan Montalvo Ejallos, Milagro, Ecuador","locality":"Milagro","region":"Guayas"}},"labels":["conference","performing-arts"],"duration":5400,"start_local":"2024-09-02T15:00:00","end":"2024-09-02T21:30:00Z","end_local":"2024-09-02T16:30:00","updated":"2024-06-04T05:24:48Z"},{"title":"La Clásica DM3","description":"Sourced from predicthq.com","category":"sports","start":"2024-09-01T12:00:00Z","geo":{"geometry":{"coordinates":[-79.896413,-2.1035904],"type":"Point"},"placekey":"@h7p-y5h-nbk","address":{"country_code":"EC","formatted_address":"Avenida Paseo del Parque, 090502, Guayaquil, Ecuador","locality":"Guayaquil","postcode":"090502","region":"Guayas"}},"labels":["outdoor-sports","running","sport"],"duration":0,"start_local":"2024-09-01T07:00:00","end":"2024-09-01T12:00:00Z","end_local":"2024-09-01T07:00:00","updated":"2024-06-04T04:53:24Z"},{"title":"Daniel Me Estás Matando","description":"Sourced from predicthq.com","category":"concerts","start":"2024-08-17T00:00:00Z","geo":{"geometry":{"coordinates":[-78.49596,-0.18807],"type":"Point"},"placekey":"@cjy-8p4-2rk","address":{"country_code":"EC","formatted_address":"Quito 170147, Ecuador","postcode":"170147","locality":"Quito","region":"Pichincha"}},"labels":["concert","music"],"duration":0,"start_local":"2024-08-16T19:00:00","end":"2024-08-17T00:00:00Z","end_local":"2024-08-16T19:00:00","updated":"2024-06-11T05:39:49Z"},{"title":"C4 Yourself AV Solutions","description":"Sourced from predicthq.com - Come check out the latest in audiovisual technology at C4 Yourself AV Solutions - it's gonna blow your mind!","category":"expos","start":"2024-08-09T15:00:00Z","geo":{"geometry":{"coordinates":[-79.87157119999999,-2.060787],"type":"Point"},"placekey":"@h7p-34r-m6k","address":{"country_code":"EC","formatted_address":"Samborondón, Guayas, Ecuador","locality":"Samborondón","region":"Guayas"}},"labels":["expo","science","technology"],"duration":3600,"start_local":"2024-08-09T10:00:00","end":"2024-08-09T16:00:00Z","end_local":"2024-08-09T11:00:00","updated":"2024-06-06T01:37:24Z"},{"title":"Media Maratón de Guayaquil","description":"Sourced from predicthq.com","category":"sports","start":"2024-07-28T10:00:00Z","geo":{"geometry":{"coordinates":[-79.897453,-2.203816],"type":"Point"},"placekey":"@h7p-y57-zs5","address":{"country_code":"EC","formatted_address":"José Mascote, 090308, Guayaquil, Ecuador","locality":"Guayaquil","postcode":"090308","region":"Guayas"}},"labels":["outdoor-sports","running","sport"],"duration":0,"start_local":"2024-07-28T05:00:00","end":"2024-07-28T10:00:00Z","end_local":"2024-07-28T05:00:00","updated":"2024-06-28T11:04:35Z"},{"title":"CONMEBOL Sudamericana - 16th Finals - Universidad Católica vs Libertad","description":"Sourced from predicthq.com","category":"sports","start":"2024-07-24T22:00:00Z","geo":{"geometry":{"coordinates":[-78.4763288498,-0.1776692404],"type":"Point"},"placekey":"@cjy-8qr-99f","address":{"country_code":"EC","formatted_address":"RGFF+284, Av. Naciones Unidas, Quito 170135, Ecuador","postcode":"170135","locality":"Quito","region":"Pichincha"}},"labels":["soccer","sport"],"duration":0,"start_local":"2024-07-24T17:00:00","end":"2024-07-24T22:00:00Z","end_local":"2024-07-24T17:00:00","updated":"2024-06-13T00:35:04Z"},{"title":"Estrategias de persuasión y cierre de ventas","description":"Sourced from predicthq.com - Ventas","category":"conferences","start":"2024-07-23T22:00:00Z","geo":{"geometry":{"coordinates":[-79.897211,-2.157982],"type":"Point"},"placekey":"@h7p-y3n-nt9","address":{"country_code":"EC","formatted_address":"Avenida Francisco de Orellana y Luis Orrantia, Torre A, Edif. Las Cámaras, Segundo Piso, Av. Francisco de Orellana &, Guayaquil 090512, Ecuador","postcode":"090512","locality":"Guayaquil","region":"Guayas"}},"labels":["business","conference"],"duration":3600,"start_local":"2024-07-23T17:00:00","end":"2024-07-23T23:00:00Z","end_local":"2024-07-23T18:00:00","updated":"2024-06-27T20:49:48Z"},{"title":"UNIDAD","description":"Sourced from predicthq.com - Una experiencia de sanación y autodescubrimiento integrándonos a la comunidad indígena Tsachilas, la naturaleza y su sabiduría ancestral.","category":"conferences","start":"2024-07-21T15:00:00Z","geo":{"geometry":{"coordinates":[-79.2133125,-0.3201875],"type":"Point"},"placekey":"@h7q-86y-qj9","address":{"country_code":"EC","formatted_address":"Santo Domingo, Santo Domingo de los Tsachilas, Ecuador","locality":"Santo Domingo","region":"Santo Domingo de los Tsachilas"}},"labels":["community","conference"],"duration":525600,"start_local":"2024-07-21T10:00:00","end":"2024-07-27T17:00:00Z","end_local":"2024-07-27T12:00:00","updated":"2024-06-11T03:25:40Z"},{"title":"DESPIERTA TUS SENTIDOS: \" EDICION SALUD MENTAL  \"","description":"Sourced from predicthq.com - Evento interactivo donde podrás descubrir herramientas naturales basados en Aceites Esenciales para apoyar tus Emociones y Salud Mental","category":"conferences","start":"2024-07-20T19:00:00Z","geo":{"geometry":{"coordinates":[-79.8899031,-2.1891341],"type":"Point"},"placekey":"@h7p-y4f-t5f","address":{"country_code":"EC","formatted_address":"090311, Guayaquil, Ecuador","locality":"Guayaquil","postcode":"090311","region":"Guayas"}},"labels":["conference","health"],"duration":7200,"start_local":"2024-07-20T14:00:00","end":"2024-07-20T21:00:00Z","end_local":"2024-07-20T16:00:00","updated":"2024-07-04T12:01:40Z"},{"title":"DESPIERTA TUS SENTIDOS: \"EDICION SALUD MENTAL \"","description":"Sourced from predicthq.com - Evento interactivo donde podrás descubrir herramientas naturales basados en Aceites Esenciales para apoyar tus Emociones y Salud Mental.","category":"conferences","start":"2024-07-20T16:00:00Z","geo":{"geometry":{"coordinates":[-79.94511349999999,-2.1666402],"type":"Point"},"placekey":"@h7p-y4m-89z","address":{"country_code":"EC","formatted_address":"090904, Guayaquil, Ecuador","locality":"Guayaquil","postcode":"090904","region":"Guayas"}},"labels":["conference","health"],"duration":7200,"start_local":"2024-07-20T11:00:00","end":"2024-07-20T18:00:00Z","end_local":"2024-07-20T13:00:00","updated":"2024-07-04T12:01:40Z"},{"title":"Charla sobre Devolución de IVA","description":"Sourced from predicthq.com - ¡Aprende cómo recuperar el IVA en nuestra charla presencial! ¡No te lo pierdas!","category":"conferences","start":"2024-07-19T14:30:00Z","geo":{"geometry":{"coordinates":[-79.8982,-2.1577449],"type":"Point"},"placekey":"@h7p-y3n-rc5","address":{"country_code":"EC","formatted_address":"Avenida Francisco de Orellana, 090512, Guayaquil, Ecuador","locality":"Guayaquil","postcode":"090512","region":"Guayas"}},"labels":["business","conference"],"duration":12600,"start_local":"2024-07-19T09:30:00","end":"2024-07-19T18:00:00Z","end_local":"2024-07-19T13:00:00","updated":"2024-07-05T03:47:18Z"},{"title":"ITS 4.0 Quito.","description":"Sourced from predicthq.com - Únete a nuestro evento ITS 4.0 y conoce las últimas tecnologías y enfoques para optimizar tus procesos de mantenimiento.","category":"conferences","start":"2024-07-19T14:00:00Z","geo":{"geometry":{"coordinates":[-78.3595867,-0.1322824],"type":"Point"},"placekey":"@cjy-8f8-kcq","address":{"country_code":"EC","formatted_address":"170183, Quito, Ecuador","locality":"Quito","postcode":"170183","region":"Pichincha"}},"labels":["conference","outdoor"],"duration":25200,"start_local":"2024-07-19T09:00:00","end":"2024-07-19T21:00:00Z","end_local":"2024-07-19T16:00:00","updated":"2024-06-27T09:41:36Z"},{"title":"CONMEBOL Sudamericana - 16th Finals - LDU Quito vs Always Ready","description":"Sourced from predicthq.com","category":"sports","start":"2024-07-19T00:30:00Z","geo":{"geometry":{"coordinates":[-78.48909789999999,-0.1076798],"type":"Point"},"placekey":"@cjy-8qf-7nq","address":{"country_code":"EC","formatted_address":"Quito 170144, Ecuador","postcode":"170144","locality":"Quito","region":"Pichincha"}},"labels":["soccer","sport"],"duration":0,"start_local":"2024-07-18T19:30:00","end":"2024-07-19T00:30:00Z","end_local":"2024-07-18T19:30:00","updated":"2024-06-13T00:34:03Z"},{"title":"Despierta tus sentidos","description":"Sourced from predicthq.com - Edición salud mental","category":"festivals","start":"2024-07-18T15:00:00Z","geo":{"geometry":{"coordinates":[-79.81310739999999,-3.3253742],"type":"Point"},"placekey":"@h7d-m2k-gkz","address":{"country_code":"EC","formatted_address":"Independencia, Pasaje, Ecuador","locality":"Pasaje","region":"El Oro"}},"labels":["festival","health"],"duration":7200,"start_local":"2024-07-18T10:00:00","end":"2024-07-18T17:00:00Z","end_local":"2024-07-18T12:00:00","updated":"2024-07-04T13:37:40Z"},{"title":"CONMEBOL Sudamericana - 16th Finals - Barcelona vs RB Bragantino","description":"Sourced from predicthq.com","category":"sports","start":"2024-07-18T00:30:00Z","geo":{"geometry":{"coordinates":[-79.9249138,-2.1858712],"type":"Point"},"placekey":"@h7p-y56-m8v","address":{"country_code":"EC","formatted_address":"090615, Guayaquil, Ecuador","postcode":"090615","locality":"Guayaquil","region":"Guayas"}},"labels":["soccer","sport"],"duration":0,"start_local":"2024-07-17T19:30:00","end":"2024-07-18T00:30:00Z","end_local":"2024-07-17T19:30:00","updated":"2024-06-27T00:50:37Z"},{"title":"CONMEBOL Sudamericana - 16th Finals - Independiente Valle vs Boca Juniors","description":"Sourced from predicthq.com","category":"sports","start":"2024-07-18T00:30:00Z","geo":{"geometry":{"coordinates":[-78.470615651,-0.349051534],"type":"Point"},"placekey":"@cjy-8d4-5j9","address":{"country_code":"EC","formatted_address":"Calle F S/N y Calle I, Chillo-Jijón, Sangolquí, Ecuador","locality":"Sangolquí"}},"labels":["soccer","sport"],"duration":0,"start_local":"2024-07-17T19:30:00","end":"2024-07-18T00:30:00Z","end_local":"2024-07-17T19:30:00","updated":"2024-07-02T21:39:42Z"},{"title":"RoadShow Santa Elena - Evento Soluciones ICO 2024","description":"Sourced from predicthq.com - Lugar: Hotel Blue Bay","category":"expos","start":"2024-07-17T14:00:00Z","geo":{"geometry":{"coordinates":[-80.958462,-2.2233633],"type":"Point"},"placekey":"@h7p-n9c-mff","address":{"country_code":"EC","formatted_address":"Salinas, Santa Elena, Ecuador","locality":"Salinas","region":"Santa Elena"}},"labels":["business","expo"],"duration":36000,"start_local":"2024-07-17T09:00:00","end":"2024-07-18T00:00:00Z","end_local":"2024-07-17T19:00:00","updated":"2024-06-13T01:09:26Z"},{"title":"Desierta tus sentidos","description":"Sourced from predicthq.com - Edición Salud Mental","category":"concerts","start":"2024-07-16T15:00:00Z","geo":{"geometry":{"coordinates":[-79.86542779999999,-2.1401095],"type":"Point"},"placekey":"@h7p-y64-tjv","address":{"country_code":"EC","formatted_address":"Avenida Samborondón, 092301, Samborondón, Ecuador","locality":"Samborondón","postcode":"092301","region":"Guayas"}},"labels":["concert","food","music"],"duration":7200,"start_local":"2024-07-16T10:00:00","end":"2024-07-16T17:00:00Z","end_local":"2024-07-16T12:00:00","updated":"2024-07-04T04:01:51Z"},{"title":"caem","description":"Sourced from predicthq.com - Vamos nos reunir no evento Caem para compartilhar ideias, se conectar e se divertir juntos!","category":"conferences","start":"2024-07-15T15:00:00Z","geo":{"geometry":{"coordinates":[-80.7089101,-0.9676533],"type":"Point"},"placekey":"@h7q-n9r-3h5","address":{"country_code":"EC","formatted_address":"Manta, Manabí, Ecuador","locality":"Manta","region":"Manabí"}},"labels":["business","conference"],"duration":7200,"start_local":"2024-07-15T10:00:00","end":"2024-07-15T17:00:00Z","end_local":"2024-07-15T12:00:00","updated":"2024-06-13T01:30:48Z"},{"title":"Equilivre","description":"Sourced from predicthq.com","category":"concerts","start":"2024-07-14T00:00:00Z","geo":{"geometry":{"coordinates":[-78.49596,-0.18807],"type":"Point"},"placekey":"@cjy-8p4-2rk","address":{"country_code":"EC","formatted_address":"Quito 170147, Ecuador","postcode":"170147","locality":"Quito","region":"Pichincha"}},"labels":["concert","music"],"duration":0,"start_local":"2024-07-13T19:00:00","end":"2024-07-14T00:00:00Z","end_local":"2024-07-13T19:00:00","updated":"2024-06-11T06:45:37Z"},{"title":"REVOLUTION 2024 | QUITO Concierto Católico","description":"Sourced from predicthq.com - ¡Únete a la revolución en el Concierto Católico del 2024 y vive una experiencia única, llena de música y oración!","category":"concerts","start":"2024-07-13T22:00:00Z","geo":{"geometry":{"coordinates":[-78.5066394,-0.2156906],"type":"Point"},"placekey":"@cjy-8nv-qxq","address":{"country_code":"EC","formatted_address":"170130, Quito, Ecuador","locality":"Quito","postcode":"170130","region":"Pichincha"}},"labels":["concert","music","religion"],"duration":23400,"start_local":"2024-07-13T17:00:00","end":"2024-07-14T04:30:00Z","end_local":"2024-07-13T23:30:00","updated":"2024-06-04T04:09:10Z"},{"title":"Patricia Robaina","description":"Sourced from predicthq.com - El Teatro Capitol es un espacio inclusivo y diverso","category":"performing-arts","start":"2024-07-13T00:00:00Z","geo":{"geometry":{"coordinates":[-78.50060239999999,-0.216895],"type":"Point"},"placekey":"@cjy-8nv-87q","address":{"country_code":"EC","formatted_address":"Ramon Egas, 170136, Quito, Ecuador","locality":"Quito","postcode":"170136","region":"Pichincha"}},"labels":["concert","music","performing-arts"],"duration":5400,"start_local":"2024-07-12T19:00:00","end":"2024-07-13T01:30:00Z","end_local":"2024-07-12T20:30:00","updated":"2024-06-27T11:31:35Z"},{"title":"Tendencias de emprendimiento para 2024 - 2025","description":"Sourced from predicthq.com - Una visión desde Silicon Valley","category":"conferences","start":"2024-07-12T14:00:00Z","geo":{"geometry":{"coordinates":[-79.897211,-2.157982],"type":"Point"},"placekey":"@h7p-y3n-nt9","address":{"country_code":"EC","formatted_address":"Avenida Francisco de Orellana y Luis Orrantia, Torre A, Edif. Las Cámaras, Segundo Piso, Av. Francisco de Orellana &, Guayaquil 090512, Ecuador","postcode":"090512","locality":"Guayaquil","region":"Guayas"}},"labels":["business","conference"],"duration":3600,"start_local":"2024-07-12T09:00:00","end":"2024-07-12T15:00:00Z","end_local":"2024-07-12T10:00:00","updated":"2024-06-27T10:20:34Z"},{"title":"¿Cómo sostener los negocios comerciales a través del tiempo?","description":"Sourced from predicthq.com - Comercio y servicios","category":"conferences","start":"2024-07-11T22:00:00Z","geo":{"geometry":{"coordinates":[-79.897211,-2.157982],"type":"Point"},"placekey":"@h7p-y3n-nt9","address":{"country_code":"EC","formatted_address":"Avenida Francisco de Orellana y Luis Orrantia, Torre A, Edif. Las Cámaras, Segundo Piso, Av. Francisco de Orellana &, Guayaquil 090512, Ecuador","postcode":"090512","locality":"Guayaquil","region":"Guayas"}},"labels":["business","conference"],"duration":3600,"start_local":"2024-07-11T17:00:00","end":"2024-07-11T23:00:00Z","end_local":"2024-07-11T18:00:00","updated":"2024-06-27T12:32:42Z"},{"title":"Congreso de \"Oportunidades Comerciales\": Importación y Exportación","description":"Sourced from predicthq.com - Congreso de \"Oportunidades Comerciales\" desde Napo\nEdición: Importación y Exportación","category":"conferences","start":"2024-07-11T14:00:00Z","geo":{"geometry":{"coordinates":[-77.8157112,-0.9875955999999999],"type":"Point"},"placekey":"@ck3-cqq-gx5","address":{"country_code":"EC","formatted_address":"Avenida Muyuna, Tena, Ecuador","locality":"Tena","region":"Napo"}},"labels":["business","conference"],"duration":18000,"start_local":"2024-07-11T09:00:00","end":"2024-07-11T19:00:00Z","end_local":"2024-07-11T14:00:00","updated":"2024-07-04T11:39:43Z"},{"title":"12 °Cybersecurity Bank & Government Conference- Edición Quito. Ecuador 2024","description":"Sourced from predicthq.com - El máximo y único evento de Ciberseguridad para los Bancos y Gobierno del Ecuador","category":"conferences","start":"2024-07-11T13:00:00Z","geo":{"geometry":{"coordinates":[-78.485335,-0.205183],"type":"Point"},"placekey":"@cjy-8p5-wrk","address":{"country_code":"EC","formatted_address":"Ave 12 de Octubre 1820 y, Quito 170525, Ecuador","postcode":"170525","locality":"Quito","region":"Pichincha"}},"labels":["conference","science","technology"],"duration":19800,"start_local":"2024-07-11T08:00:00","end":"2024-07-11T18:30:00Z","end_local":"2024-07-11T13:30:00","updated":"2024-06-04T07:23:25Z"},{"title":"Beneficios Tributarios bajo los recientes cambios normativos","description":"Sourced from predicthq.com - Tributarios","category":"conferences","start":"2024-07-10T22:00:00Z","geo":{"geometry":{"coordinates":[-79.897211,-2.157982],"type":"Point"},"placekey":"@h7p-y3n-nt9","address":{"country_code":"EC","formatted_address":"Avenida Francisco de Orellana y Luis Orrantia, Torre A, Edif. Las Cámaras, Segundo Piso, Av. Francisco de Orellana &, Guayaquil 090512, Ecuador","postcode":"090512","locality":"Guayaquil","region":"Guayas"}},"labels":["business","conference"],"duration":3600,"start_local":"2024-07-10T17:00:00","end":"2024-07-10T23:00:00Z","end_local":"2024-07-10T18:00:00","updated":"2024-06-28T00:48:11Z"},{"title":"Ajax Roadshow Guayaquil | Domina Tu Espacio","description":"Sourced from predicthq.com - ¡Potencia tu negocio con los nuevos productos que presentarán Ajax junto a ICO en Guayaquil el próximo 10 de julio!","category":"expos","start":"2024-07-10T21:00:00Z","geo":{"geometry":{"coordinates":[-79.9021372,-2.1746788],"type":"Point"},"placekey":"@h7p-y3v-ch5","address":{"country_code":"EC","formatted_address":"Ciudadela Kennedy Av. Gral.y Calle Jorge Insua Hindro, Av Francisco Boloña 503A, Guayaquil 090510, Ecuador","postcode":"090510","locality":"Guayaquil","region":"Guayas"}},"labels":["business","expo"],"duration":14400,"start_local":"2024-07-10T16:00:00","end":"2024-07-11T01:00:00Z","end_local":"2024-07-10T20:00:00","updated":"2024-06-20T03:20:37Z"},{"title":"EXPOMINAS","description":"Sourced from predicthq.com - Heavy Machinery and Construction Exhibition","category":"expos","start":"2024-07-10T05:00:00Z","geo":{"geometry":{"coordinates":[-78.4678382,-0.1806532],"type":"Point"},"placekey":"@cjy-8qr-ht9","address":{"country_code":"EC","formatted_address":"170144, Quito, Ecuador","locality":"Quito","postcode":"170144","region":"Pichincha"}},"labels":["construction","expo","technology"],"duration":259199,"start_local":"2024-07-10T00:00:00","end":"2024-07-13T04:59:59Z","end_local":"2024-07-12T23:59:59","updated":"2024-06-11T00:56:16Z"},{"title":"Copa Ecuador - 1st Round - Tumbaco AV25 vs Chacaritas","description":"Sourced from predicthq.com","category":"sports","start":"2024-07-07T23:00:00Z","geo":{"geometry":{"coordinates":[-78.4763288498,-0.1776692404],"type":"Point"},"placekey":"@cjy-8qr-99f","address":{"country_code":"EC","formatted_address":"RGFF+284, Av. Naciones Unidas, Quito 170135, Ecuador","postcode":"170135","locality":"Quito","region":"Pichincha"}},"labels":["soccer","sport"],"duration":0,"start_local":"2024-07-07T18:00:00","end":"2024-07-07T23:00:00Z","end_local":"2024-07-07T18:00:00","updated":"2024-06-18T13:04:10Z"},{"title":"Copa Ecuador - 1st Round - Naranja Mekánica vs Guayaquil City","description":"Sourced from predicthq.com","category":"sports","start":"2024-07-07T20:30:00Z","geo":{"geometry":{"coordinates":[-79.5901924,-2.1354189],"type":"Point"},"placekey":"@h7p-xzy-cqz","address":{"country_code":"EC","formatted_address":"VC86+85Q, Av. Quito, Milagro 091701, Ecuador","postcode":"091701","locality":"Milagro","region":"Guayas"}},"labels":["soccer","sport"],"duration":0,"start_local":"2024-07-07T15:30:00","end":"2024-07-07T20:30:00Z","end_local":"2024-07-07T15:30:00","updated":"2024-06-18T14:02:27Z"},{"title":"Copa Ecuador - 1st Round - La Cantera de Pastaza vs 9 de Octubre","description":"Sourced from predicthq.com","category":"sports","start":"2024-07-07T17:00:00Z","geo":{"geometry":{"coordinates":[-77.98756020919268,-1.4909007390316176],"type":"Point"},"placekey":"@ck2-cj9-py9","address":{"country_code":"EC","formatted_address":"G256+MW3, Puyo, Ecuador","locality":"Puyo","region":"Pastaza"}},"labels":["soccer","sport"],"duration":0,"start_local":"2024-07-07T12:00:00","end":"2024-07-07T17:00:00Z","end_local":"2024-07-07T12:00:00","updated":"2024-07-01T20:00:41Z"},{"title":"IRONMAN 70.3 Ecuador","description":"Sourced from predicthq.com","category":"sports","start":"2024-07-07T05:00:00Z","geo":{"geometry":{"coordinates":[-80.7089101,-0.9676533],"type":"Point"},"placekey":"@h7q-n9r-3h5","address":{"country_code":"EC","formatted_address":"Manta, Manabí, Ecuador","locality":"Manta","region":"Manabí"}},"labels":["outdoor-sports","running","sport"],"duration":86399,"start_local":"2024-07-07T00:00:00","end":"2024-07-08T04:59:59Z","end_local":"2024-07-07T23:59:59","updated":"2024-06-04T01:50:07Z"},{"title":"DEZENZO - ROSTRO ROTO DADO POR PERDIDO","description":"Sourced from predicthq.com - El Teatro Capitol es un espacio inclusivo y diverso","category":"concerts","start":"2024-07-07T00:00:00Z","geo":{"geometry":{"coordinates":[-78.50060239999999,-0.216895],"type":"Point"},"placekey":"@cjy-8nv-87q","address":{"country_code":"EC","formatted_address":"Ramon Egas, 170136, Quito, Ecuador","locality":"Quito","postcode":"170136","region":"Pichincha"}},"labels":["concert","music"],"duration":5400,"start_local":"2024-07-06T19:00:00","end":"2024-07-07T01:30:00Z","end_local":"2024-07-06T20:30:00","updated":"2024-06-13T01:42:49Z"},{"title":"REVOLUTION CONCERT | GUAYAQUIL","description":"Sourced from predicthq.com - CONCIERTO CATÓLICO REVOLUTION CONCERT GUAYAQUIL con la presentación de RioSQUAD, Ítala & Juanjo, ESTACIÓN CERO y Ana Bolívar y Teté Calderón","category":"concerts","start":"2024-07-06T08:00:00Z","geo":{"geometry":{"coordinates":[-79.9188633,-2.134592099999999],"type":"Point"},"placekey":"@h7p-y69-fcq","address":{"country_code":"EC","formatted_address":"090501, Guayaquil, Ecuador","locality":"Guayaquil","postcode":"090501","region":"Guayas"}},"labels":["concert","music"],"duration":32400,"start_local":"2024-07-06T03:00:00","end":"2024-07-06T17:00:00Z","end_local":"2024-07-06T12:00:00","updated":"2024-06-04T08:44:07Z"},{"title":"Un viaje sonoro con la musica popular ecuatoriana","description":"Sourced from predicthq.com - El Teatro Capitol es un espacio inclusivo y diverso","category":"performing-arts","start":"2024-07-04T23:00:00Z","geo":{"geometry":{"coordinates":[-78.50060239999999,-0.216895],"type":"Point"},"placekey":"@cjy-8nv-87q","address":{"country_code":"EC","formatted_address":"Ramon Egas, 170136, Quito, Ecuador","locality":"Quito","postcode":"170136","region":"Pichincha"}},"labels":["concert","music","performing-arts"],"duration":5400,"start_local":"2024-07-04T18:00:00","end":"2024-07-05T00:30:00Z","end_local":"2024-07-04T19:30:00","updated":"2024-06-27T05:22:30Z"},{"title":"Liga Pro Serie B - Manta vs 9 de Octubre","description":"Sourced from predicthq.com","category":"sports","start":"2024-07-04T20:00:00Z","geo":{"geometry":{"coordinates":[-80.7027347,-0.9640698],"type":"Point"},"placekey":"@h7q-n9q-pqf","address":{"country_code":"EC","formatted_address":"Manta, Manabí Province, Ecuador","locality":"Manta","region":"Manabí Province"}},"labels":["soccer","sport"],"duration":0,"start_local":"2024-07-04T15:00:00","end":"2024-07-04T20:00:00Z","end_local":"2024-07-04T15:00:00","updated":"2024-07-01T18:52:21Z"},{"title":"Copa Ecuador - 1st Round - La Unión vs Bonita Banana","description":"Sourced from predicthq.com","category":"sports","start":"2024-07-03T23:00:00Z","geo":{"geometry":{"coordinates":[-78.61447334289551,-0.924184775319691],"type":"Point"},"placekey":"@h7q-cqm-wff","address":{"country_code":"EC","formatted_address":"Calle Quijano y Ordoñez y Panzaleo, Latacunga, Ecuador","locality":"Latacunga"}},"labels":["soccer","sport"],"duration":0,"start_local":"2024-07-03T18:00:00","end":"2024-07-03T23:00:00Z","end_local":"2024-07-03T18:00:00","updated":"2024-06-18T12:44:43Z"},{"title":"Copa Ecuador - 1st Round - Liga de Cuenca vs Junior","description":"Sourced from predicthq.com","category":"sports","start":"2024-07-03T20:30:00Z","geo":{"geometry":{"coordinates":[-79.0055218,-2.9067434],"type":"Point"},"placekey":"@h8f-v28-hqz","address":{"country_code":"EC","formatted_address":"3XVV+8Q5, Av. del Estadio, Cuenca 010107, Ecuador","postcode":"010107","locality":"Cuenca","region":"Azuay"}},"labels":["soccer","sport"],"duration":0,"start_local":"2024-07-03T15:30:00","end":"2024-07-03T20:30:00Z","end_local":"2024-07-03T15:30:00","updated":"2024-06-18T12:07:01Z"},{"title":"Liga Pro Serie B - Gualaceo vs San Antonio","description":"Sourced from predicthq.com","category":"sports","start":"2024-07-03T20:00:00Z","geo":{"geometry":{"coordinates":[-78.843297958,-2.749988783094],"type":"Point"},"placekey":"@h8f-ttq-sqz","address":{"country_code":"EC","formatted_address":"7524+5G4, C. del Estadio, Azogues, Ecuador","locality":"Azogues","region":"Cañar"}},"labels":["soccer","sport"],"duration":0,"start_local":"2024-07-03T15:00:00","end":"2024-07-03T20:00:00Z","end_local":"2024-07-03T15:00:00","updated":"2024-07-01T17:48:46Z"},{"title":"Liga Pro Serie B - Vargas Torres vs Independiente Juniors","description":"Sourced from predicthq.com","category":"sports","start":"2024-07-03T20:00:00Z","geo":{"geometry":{"coordinates":[-79.6559996,0.96126],"type":"Point"},"placekey":"@cjy-54y-x5z","address":{"country_code":"EC","formatted_address":"Quito, Esmeraldas, Ecuador","locality":"Esmeraldas","region":"Provincia de Esmeraldas"}},"labels":["soccer","sport"],"duration":0,"start_local":"2024-07-03T15:00:00","end":"2024-07-03T20:00:00Z","end_local":"2024-07-03T15:00:00","updated":"2024-07-01T18:32:54Z"},{"title":"Liga Pro Serie B - Leones del Norte vs Cuniburo","description":"Sourced from predicthq.com","category":"sports","start":"2024-07-03T20:00:00Z","geo":{"geometry":{"coordinates":[-78.118313,0.3596067],"type":"Point"},"placekey":"@cjx-qpv-5xq","address":{"country_code":"EC","formatted_address":"Avenida Jaime Roldos Aguilera, Ibarra, Ecuador","locality":"Ibarra","region":"Provincia de Imbabura"}},"labels":["soccer","sport"],"duration":0,"start_local":"2024-07-03T15:00:00","end":"2024-07-03T20:00:00Z","end_local":"2024-07-03T15:00:00","updated":"2024-07-01T18:58:39Z"},{"title":"Liga Pro Serie B - Guayaquil City vs Chacaritas","description":"Sourced from predicthq.com","category":"sports","start":"2024-07-02T20:00:00Z","geo":{"geometry":{"coordinates":[-79.9035275,-2.1030743],"type":"Point"},"placekey":"@h7p-y6h-3h5","address":{"country_code":"EC","formatted_address":"V3WX+G5G Parque Samanes, Guayaquil 090112, Ecuador","postcode":"090112","locality":"Guayaquil","region":"Guayas"}},"labels":["soccer","sport"],"duration":0,"start_local":"2024-07-02T15:00:00","end":"2024-07-02T20:00:00Z","end_local":"2024-07-02T15:00:00","updated":"2024-07-01T19:03:28Z"},{"title":"Copa Ecuador - 1st Round - Olmedo vs Gualaceo","description":"Sourced from predicthq.com","category":"sports","start":"2024-06-30T19:00:00Z","geo":{"geometry":{"coordinates":[-79.0024706,-1.5827737],"type":"Point"},"placekey":"@h7q-gfk-ghq","address":{"country_code":"EC","formatted_address":"Guaranda, Bolívar Province, Ecuador","locality":"Guaranda","region":"Bolívar Province"}},"labels":["soccer","sport"],"duration":0,"start_local":"2024-06-30T14:00:00","end":"2024-06-30T19:00:00Z","end_local":"2024-06-30T14:00:00","updated":"2024-06-18T13:35:18Z"},{"title":"Copa Ecuador - 1st Round - Ecuagenera vs Manta","description":"Sourced from predicthq.com","category":"sports","start":"2024-06-29T20:00:00Z","geo":{"geometry":{"coordinates":[-78.7552401693115,-3.7963462947063773],"type":"Point"},"placekey":"@h8f-qrq-zs5","address":{"country_code":"EC","formatted_address":"663V+FW Yantzaza, Ecuador","locality":"Yantzaza","region":"Zamora Chinchipe"}},"labels":["soccer","sport"],"duration":0,"start_local":"2024-06-29T15:00:00","end":"2024-06-29T20:00:00Z","end_local":"2024-06-29T15:00:00","updated":"2024-06-18T12:09:25Z"},{"title":"Copa Ecuador - 1st Round - Grupo 7 vs Independiente Juniors","description":"Sourced from predicthq.com","category":"sports","start":"2024-06-29T17:00:00Z","geo":{"geometry":{"coordinates":[-80.653250591,-1.040064069],"type":"Point"},"placekey":"@h7q-pmp-kxq","address":{"country_code":"EC","formatted_address":"X85W+VPC, Montecristi, Ecuador","locality":"Montecristi","region":"Manabí"}},"labels":["soccer","sport"],"duration":0,"start_local":"2024-06-29T12:00:00","end":"2024-06-29T17:00:00Z","end_local":"2024-06-29T12:00:00","updated":"2024-06-18T18:44:04Z"},{"title":"Caverna Zoot","description":"Sourced from predicthq.com","category":"concerts","start":"2024-06-29T01:30:00Z","geo":{"geometry":{"coordinates":[-78.42732,-0.19105],"type":"Point"},"placekey":"@cjy-7zr-qzz","address":{"country_code":"EC","formatted_address":"Frente al reservorio, José M. Vargas S/N, Quito 170157, Ecuador","postcode":"170157","locality":"Quito","region":"Pichincha"}},"labels":["concert","music"],"duration":0,"start_local":"2024-06-28T20:30:00","end":"2024-06-29T01:30:00Z","end_local":"2024-06-28T20:30:00","updated":"2024-06-15T01:12:32Z"},{"title":"Copa Ecuador - 1st Round - Castellana vs Atlético Quinindé","description":"Sourced from predicthq.com","category":"sports","start":"2024-06-28T20:00:00Z","geo":{"geometry":{"coordinates":[-79.20773506164551,-3.992013134117186],"type":"Point"},"placekey":"@h8d-spm-hh5","address":{"country_code":"EC","formatted_address":"XRX3+J95, Alonso de Mercadillo, Loja, Ecuador","locality":"Loja","region":"Loja"}},"labels":["soccer","sport"],"duration":0,"start_local":"2024-06-28T15:00:00","end":"2024-06-28T20:00:00Z","end_local":"2024-06-28T15:00:00","updated":"2024-06-20T11:15:58Z"},{"title":"Copa Ecuador - 1st Round - Santa Elena Sumpa vs San Antonio","description":"Sourced from predicthq.com","category":"sports","start":"2024-06-28T17:00:00Z","geo":{"geometry":{"coordinates":[-80.926600397,-2.23809216],"type":"Point"},"placekey":"@h7p-n8f-pn5","address":{"country_code":"EC","formatted_address":"Salinas, Ecuador","locality":"Salinas","region":"Santa Elena"}},"labels":["soccer","sport"],"duration":0,"start_local":"2024-06-28T12:00:00","end":"2024-06-28T17:00:00Z","end_local":"2024-06-28T12:00:00","updated":"2024-06-27T13:11:40Z"},{"title":"Club Friendlies - Club Friendlies 3 - El Nacional vs América de Cali","description":"Sourced from predicthq.com","category":"sports","start":"2024-06-28T00:00:00Z","geo":{"geometry":{"coordinates":[-78.4763288498,-0.1776692404],"type":"Point"},"placekey":"@cjy-8qr-99f","address":{"country_code":"EC","formatted_address":"RGFF+284, Av. Naciones Unidas, Quito 170135, Ecuador","postcode":"170135","locality":"Quito","region":"Pichincha"}},"labels":["soccer","sport"],"duration":0,"start_local":"2024-06-27T19:00:00","end":"2024-06-28T00:00:00Z","end_local":"2024-06-27T19:00:00","updated":"2024-06-27T12:27:34Z"},{"title":"Pubs & Beer Irish Experience","description":"Sourced from predicthq.com - Un evento VIP en el cual podrás conocer más sobre las opciones de estudio de inglés con permiso de trabajo.","category":"conferences","start":"2024-06-27T23:00:00Z","geo":{"geometry":{"coordinates":[-78.4895939,-0.1870408],"type":"Point"},"placekey":"@cjy-8qq-x3q","address":{"country_code":"EC","formatted_address":"170515, Quito, Ecuador","locality":"Quito","postcode":"170515","region":"Pichincha"}},"labels":["conference","education","family"],"duration":10800,"start_local":"2024-06-27T18:00:00","end":"2024-06-28T02:00:00Z","end_local":"2024-06-27T21:00:00","updated":"2024-06-21T16:57:39Z"},{"title":"Liga Pro Serie B - Cuniburo vs Guayaquil City","description":"Sourced from predicthq.com","category":"sports","start":"2024-06-27T20:00:00Z","geo":{"geometry":{"coordinates":[-78.472126835,-0.350220219],"type":"Point"},"placekey":"@cjy-8d4-789","address":{"country_code":"EC","formatted_address":"JGXH+W4 Quito, Ecuador","locality":"Quito","region":"Pichincha"}},"labels":["soccer","sport"],"duration":0,"start_local":"2024-06-27T15:00:00","end":"2024-06-27T20:00:00Z","end_local":"2024-06-27T15:00:00","updated":"2024-06-24T18:20:56Z"},{"title":"Seminario  Prepárate para exportar a China - Bahía de Caráquez","description":"Sourced from predicthq.com - Seminario de capacitación: Prepárate para exportar a China - Bahía de Caráquez","category":"conferences","start":"2024-06-27T14:00:00Z","geo":{"geometry":{"coordinates":[-80.42658829999999,-0.6004096],"type":"Point"},"placekey":"@h7q-rw9-8y9","address":{"country_code":"EC","formatted_address":"Avenida Salinas, Bahía de Caráquez, Ecuador","locality":"Bahía de Caráquez","region":"Manabí"}},"labels":["business","conference"],"duration":10800,"start_local":"2024-06-27T09:00:00","end":"2024-06-27T17:00:00Z","end_local":"2024-06-27T12:00:00","updated":"2024-06-20T01:54:13Z"},{"title":"International Congress of Scientific Research","description":"Sourced from predicthq.com","category":"conferences","start":"2024-06-27T14:00:00Z","geo":{"geometry":{"coordinates":[-79.20253,-3.999132],"type":"Point"},"placekey":"@h8d-spm-pqf","address":{"country_code":"EC","formatted_address":"Miguel Riofrío, Loja, Ecuador","locality":"Loja","region":"Loja"}},"labels":["conference"],"duration":118800,"start_local":"2024-06-27T09:00:00","end":"2024-06-28T23:00:00Z","end_local":"2024-06-28T18:00:00","updated":"2024-05-28T01:47:19Z"},{"title":"International Congress of Business Management and Sustainability","description":"Sourced from predicthq.com","category":"conferences","start":"2024-06-27T14:00:00Z","geo":{"geometry":{"coordinates":[-78.492288,-0.197329],"type":"Point"},"placekey":"@cjy-8p3-hnq","address":{"country_code":"EC","formatted_address":"Marieta de Veintimilla, 170522, Quito, Ecuador","locality":"Quito","postcode":"170522","region":"Pichincha"}},"labels":["conference"],"duration":118800,"start_local":"2024-06-27T09:00:00","end":"2024-06-28T23:00:00Z","end_local":"2024-06-28T18:00:00","updated":"2024-06-16T00:24:37Z"},{"title":"Liga Pro Serie B - 9 de Octubre vs Vargas Torres","description":"Sourced from predicthq.com","category":"sports","start":"2024-06-26T20:00:00Z","geo":{"geometry":{"coordinates":[-79.89841725,-2.258804246],"type":"Point"},"placekey":"@h7p-xp2-jsq","address":{"country_code":"EC","formatted_address":"Arq Andrés Efraín Alava Mestanza 111, Guayaquil 090208, Ecuador","postcode":"090208","locality":"Guayaquil","region":"Guayas"}},"labels":["soccer","sport"],"duration":0,"start_local":"2024-06-26T15:00:00","end":"2024-06-26T20:00:00Z","end_local":"2024-06-26T15:00:00","updated":"2024-06-24T18:17:08Z"},{"title":"Liga Pro Serie B - Chacaritas vs Gualaceo","description":"Sourced from predicthq.com","category":"sports","start":"2024-06-26T20:00:00Z","geo":{"geometry":{"coordinates":[-78.420084885,-1.392784184],"type":"Point"},"placekey":"@h7q-dph-mzf","address":{"country_code":"EC","formatted_address":"Baños de Agua Santa, Ecuador","locality":"Baños de Agua Santa"}},"labels":["soccer","sport"],"duration":0,"start_local":"2024-06-26T15:00:00","end":"2024-06-26T20:00:00Z","end_local":"2024-06-26T15:00:00","updated":"2024-06-24T18:13:33Z"},{"title":"Liga Pro Serie B - Independiente Juniors vs Leones del Norte","description":"Sourced from predicthq.com","category":"sports","start":"2024-06-26T20:00:00Z","geo":{"geometry":{"coordinates":[-78.472126835,-0.350220219],"type":"Point"},"placekey":"@cjy-8d4-789","address":{"country_code":"EC","formatted_address":"JGXH+W4 Quito, Ecuador","locality":"Quito","region":"Pichincha"}},"labels":["soccer","sport"],"duration":0,"start_local":"2024-06-26T15:00:00","end":"2024-06-26T20:00:00Z","end_local":"2024-06-26T15:00:00","updated":"2024-06-24T18:20:56Z"},{"title":"Seminario de capacitación: Prepárate para exportar a China","description":"Sourced from predicthq.com - Seminario de capacitación: Prepárate para exportar a China - Edición Salinas","category":"conferences","start":"2024-06-26T14:00:00Z","geo":{"geometry":{"coordinates":[-80.9598206,-2.2139917],"type":"Point"},"placekey":"@h7p-n9d-575","address":{"country_code":"EC","formatted_address":"Salinas, Santa Elena, Ecuador","locality":"Salinas","region":"Santa Elena"}},"labels":["business","conference"],"duration":10800,"start_local":"2024-06-26T09:00:00","end":"2024-06-26T17:00:00Z","end_local":"2024-06-26T12:00:00","updated":"2024-06-14T07:29:29Z"},{"title":"Liga Pro Serie B - San Antonio vs Manta","description":"Sourced from predicthq.com","category":"sports","start":"2024-06-25T20:00:00Z","geo":{"geometry":{"coordinates":[-78.118313,0.3596067],"type":"Point"},"placekey":"@cjx-qpv-5xq","address":{"country_code":"EC","formatted_address":"Avenida Jaime Roldos Aguilera, Ibarra, Ecuador","locality":"Ibarra","region":"Provincia de Imbabura"}},"labels":["soccer","sport"],"duration":0,"start_local":"2024-06-25T15:00:00","end":"2024-06-25T20:00:00Z","end_local":"2024-06-25T15:00:00","updated":"2024-06-24T18:38:44Z"},{"title":"Doing Business con China","description":"Sourced from predicthq.com - TLC con China","category":"conferences","start":"2024-06-25T15:00:00Z","geo":{"geometry":{"coordinates":[-79.897211,-2.157982],"type":"Point"},"placekey":"@h7p-y3n-nt9","address":{"country_code":"EC","formatted_address":"Avenida Francisco de Orellana y Luis Orrantia, Torre A, Edif. Las Cámaras, Segundo Piso, Av. Francisco de Orellana &, Guayaquil 090512, Ecuador","postcode":"090512","locality":"Guayaquil","region":"Guayas"}},"labels":["business","conference"],"duration":3600,"start_local":"2024-06-25T10:00:00","end":"2024-06-25T16:00:00Z","end_local":"2024-06-25T11:00:00","updated":"2024-05-30T01:02:40Z"},{"title":"Copa Ecuador - 1st Round - Río Aguarico vs Leones del Norte","description":"Sourced from predicthq.com","category":"sports","start":"2024-06-23T19:00:00Z","geo":{"geometry":{"coordinates":[-76.88517707486875,0.07984064733090121],"type":"Point"},"placekey":"@ck2-xfd-ygk","address":{"country_code":"EC","formatted_address":"34H7+XXP, Nueva Loja, Ecuador","locality":"Nueva Loja","region":"Sucumbios"}},"labels":["soccer","sport"],"duration":0,"start_local":"2024-06-23T14:00:00","end":"2024-06-23T19:00:00Z","end_local":"2024-06-23T14:00:00","updated":"2024-06-18T16:42:06Z"},{"title":"Copa Ecuador - 1st Round - Dunamis 04 vs La Paz","description":"Sourced from predicthq.com","category":"sports","start":"2024-06-23T17:00:00Z","geo":{"geometry":{"coordinates":[-77.7231213,0.812083],"type":"Point"},"placekey":"@cjx-vb5-kmk","address":{"country_code":"EC","formatted_address":"Tulcan, Carchi Province, Ecuador","locality":"Tulcan","region":"Carchi Province"}},"labels":["soccer","sport"],"duration":0,"start_local":"2024-06-23T12:00:00","end":"2024-06-23T17:00:00Z","end_local":"2024-06-23T12:00:00","updated":"2024-06-18T14:06:23Z"},{"title":"Garmin Media Maratón Guayaquil","description":"Sourced from predicthq.com","category":"sports","start":"2024-06-23T12:00:00Z","geo":{"geometry":{"coordinates":[-79.896413,-2.1035904],"type":"Point"},"placekey":"@h7p-y5h-nbk","address":{"country_code":"EC","formatted_address":"Avenida Paseo del Parque, 090502, Guayaquil, Ecuador","locality":"Guayaquil","postcode":"090502","region":"Guayas"}},"labels":["marathon","outdoor-sports","running","sport"],"duration":0,"start_local":"2024-06-23T07:00:00","end":"2024-06-23T12:00:00Z","end_local":"2024-06-23T07:00:00","updated":"2024-06-04T01:49:25Z"},{"title":"Caverna Zoot","description":"Sourced from predicthq.com","category":"concerts","start":"2024-06-23T01:30:00Z","geo":{"geometry":{"coordinates":[-78.42942,-0.20026],"type":"Point"},"placekey":"@cjy-7zs-r8v","address":{"country_code":"EC","formatted_address":"Francisco de Orellana E2-102, Quito 170901, Ecuador","postcode":"170901","locality":"Quito","region":"Pichincha"}},"labels":["concert","music"],"duration":0,"start_local":"2024-06-22T20:30:00","end":"2024-06-23T01:30:00Z","end_local":"2024-06-22T20:30:00","updated":"2024-06-11T04:14:00Z"},{"title":"Copa Ecuador - 1st Round - Santo Domingo vs Río Babahoyo","description":"Sourced from predicthq.com","category":"sports","start":"2024-06-23T00:30:00Z","geo":{"geometry":{"coordinates":[-79.148530004,-0.2496505],"type":"Point"},"placekey":"@h7q-8r7-yvz","address":{"country_code":"EC","formatted_address":"Av. Río Lelia, Santo Domingo de los Colorados, Ecuador","locality":"Santo Domingo de los Colorados"}},"labels":["soccer","sport"],"duration":0,"start_local":"2024-06-22T19:30:00","end":"2024-06-23T00:30:00Z","end_local":"2024-06-22T19:30:00","updated":"2024-06-18T12:42:35Z"},{"title":"Proagón de Medea de Euripides","description":"Sourced from predicthq.com - El Teatro Capitol es un espacio inclusivo y diverso","category":"performing-arts","start":"2024-06-23T00:00:00Z","geo":{"geometry":{"coordinates":[-78.50060239999999,-0.216895],"type":"Point"},"placekey":"@cjy-8nv-87q","address":{"country_code":"EC","formatted_address":"Ramon Egas, 170136, Quito, Ecuador","locality":"Quito","postcode":"170136","region":"Pichincha"}},"labels":["concert","music","performing-arts"],"duration":5400,"start_local":"2024-06-22T19:00:00","end":"2024-06-23T01:30:00Z","end_local":"2024-06-22T20:30:00","updated":"2024-06-13T13:54:01Z"},{"title":"Proyecto Uno","description":"Sourced from predicthq.com","category":"concerts","start":"2024-06-23T00:00:00Z","geo":{"geometry":{"coordinates":[-79.0055218,-2.9067434],"type":"Point"},"placekey":"@h8f-v28-hqz","address":{"country_code":"EC","formatted_address":"3XVV+8Q5, Av. del Estadio, Cuenca 010107, Ecuador","postcode":"010107","locality":"Cuenca","region":"Azuay"}},"labels":["concert","music"],"duration":0,"start_local":"2024-06-22T19:00:00","end":"2024-06-23T00:00:00Z","end_local":"2024-06-22T19:00:00","updated":"2024-06-11T08:10:49Z"},{"title":"El último lugar del mar  CND - Junio 22","description":"Sourced from predicthq.com - El último lugar del mar es una obra transdiciplinaria que recurre a distintos lenguajes de las artes\nescénicas, teatro y performance.","category":"performing-arts","start":"2024-06-23T00:00:00Z","geo":{"geometry":{"coordinates":[-78.47715459999999,-0.162727],"type":"Point"},"placekey":"@cjy-8qk-3dv","address":{"country_code":"EC","formatted_address":"Avenida Río Coca, 170138, Quito, Ecuador","locality":"Quito","postcode":"170138","region":"Pichincha"}},"labels":["concert","music","performing-arts"],"duration":5400,"start_local":"2024-06-22T19:00:00","end":"2024-06-23T01:30:00Z","end_local":"2024-06-22T20:30:00","updated":"2024-06-20T03:41:51Z"},{"title":"Copa Ecuador - 1st Round - Baños Ciudad de Fuego vs Vargas Torres","description":"Sourced from predicthq.com","category":"sports","start":"2024-06-22T17:00:00Z","geo":{"geometry":{"coordinates":[-78.420084885,-1.392784184],"type":"Point"},"placekey":"@h7q-dph-mzf","address":{"country_code":"EC","formatted_address":"Baños de Agua Santa, Ecuador","locality":"Baños de Agua Santa"}},"labels":["soccer","sport"],"duration":0,"start_local":"2024-06-22T12:00:00","end":"2024-06-22T17:00:00Z","end_local":"2024-06-22T12:00:00","updated":"2024-06-18T17:00:28Z"},{"title":"Copa Ecuador - 1st Round - Vicentino Dragons vs Deportivo Coca","description":"Sourced from predicthq.com","category":"sports","start":"2024-06-21T18:00:00Z","geo":{"geometry":{"coordinates":[-78.11541332023774,-2.2938375196414325],"type":"Point"},"placekey":"@ck2-8vb-94v","address":{"country_code":"EC","formatted_address":"Macas, Ecuador","locality":"Macas","region":"Morona-Santiago"}},"labels":["soccer","sport"],"duration":0,"start_local":"2024-06-21T13:00:00","end":"2024-06-21T18:00:00Z","end_local":"2024-06-21T13:00:00","updated":"2024-06-18T13:15:30Z"},{"title":"Copa Ecuador - 1st Round - Mineros vs Cuniburo","description":"Sourced from predicthq.com","category":"sports","start":"2024-06-21T16:00:00Z","geo":{"geometry":{"coordinates":[-79.0024706,-1.5827737],"type":"Point"},"placekey":"@h7q-gfk-ghq","address":{"country_code":"EC","formatted_address":"Guaranda, Bolívar Province, Ecuador","locality":"Guaranda","region":"Bolívar Province"}},"labels":["soccer","sport"],"duration":0,"start_local":"2024-06-21T11:00:00","end":"2024-06-21T16:00:00Z","end_local":"2024-06-21T11:00:00","updated":"2024-06-18T12:00:28Z"},{"title":"Liga Pro Serie B - Independiente Juniors vs 9 de Octubre","description":"Sourced from predicthq.com","category":"sports","start":"2024-06-20T20:00:00Z","geo":{"geometry":{"coordinates":[-78.472126835,-0.350220219],"type":"Point"},"placekey":"@cjy-8d4-789","address":{"country_code":"EC","formatted_address":"JGXH+W4 Quito, Ecuador","locality":"Quito","region":"Pichincha"}},"labels":["soccer","sport"],"duration":0,"start_local":"2024-06-20T15:00:00","end":"2024-06-20T20:00:00Z","end_local":"2024-06-20T15:00:00","updated":"2024-06-17T18:17:28Z"},{"title":"SIGNA workshops","description":"Sourced from predicthq.com - Un evento de la Carrera de Diseño Multimedia UPS-Q","category":"conferences","start":"2024-06-20T15:00:00Z","geo":{"geometry":{"coordinates":[-78.4888605,-0.2074942],"type":"Point"},"placekey":"@cjy-8p5-45f","address":{"country_code":"EC","formatted_address":"Mariscal Foch, 170143, Quito, Ecuador","locality":"Quito","postcode":"170143","region":"Pichincha"}},"labels":["conference","performing-arts"],"duration":10800,"start_local":"2024-06-20T10:00:00","end":"2024-06-20T18:00:00Z","end_local":"2024-06-20T13:00:00","updated":"2024-06-20T01:45:39Z"},{"title":"Comunicación efectiva","description":"Sourced from predicthq.com - Definición de comunicación efectiva y su importancia en el entorno empresarial.","category":"conferences","start":"2024-06-19T22:00:00Z","geo":{"geometry":{"coordinates":[-79.897211,-2.157982],"type":"Point"},"placekey":"@h7p-y3n-nt9","address":{"country_code":"EC","formatted_address":"Avenida Francisco de Orellana y Luis Orrantia, Torre A, Edif. Las Cámaras, Segundo Piso, Av. Francisco de Orellana &, Guayaquil 090512, Ecuador","postcode":"090512","locality":"Guayaquil","region":"Guayas"}},"labels":["business","conference"],"duration":3600,"start_local":"2024-06-19T17:00:00","end":"2024-06-19T23:00:00Z","end_local":"2024-06-19T18:00:00","updated":"2024-05-30T01:06:18Z"},{"title":"Liga Pro Serie B - Vargas Torres vs San Antonio","description":"Sourced from predicthq.com","category":"sports","start":"2024-06-19T20:00:00Z","geo":{"geometry":{"coordinates":[-79.6559996,0.96126],"type":"Point"},"placekey":"@cjy-54y-x5z","address":{"country_code":"EC","formatted_address":"Quito, Esmeraldas, Ecuador","locality":"Esmeraldas","region":"Provincia de Esmeraldas"}},"labels":["soccer","sport"],"duration":0,"start_local":"2024-06-19T15:00:00","end":"2024-06-19T20:00:00Z","end_local":"2024-06-19T15:00:00","updated":"2024-06-17T18:01:33Z"},{"title":"Liga Pro Serie B - Leones del Norte vs Chacaritas","description":"Sourced from predicthq.com","category":"sports","start":"2024-06-19T20:00:00Z","geo":{"geometry":{"coordinates":[-78.118313,0.3596067],"type":"Point"},"placekey":"@cjx-qpv-5xq","address":{"country_code":"EC","formatted_address":"Avenida Jaime Roldos Aguilera, Ibarra, Ecuador","locality":"Ibarra","region":"Provincia de Imbabura"}},"labels":["soccer","sport"],"duration":0,"start_local":"2024-06-19T15:00:00","end":"2024-06-19T20:00:00Z","end_local":"2024-06-19T15:00:00","updated":"2024-06-17T18:17:53Z"},{"title":"Liga Pro Serie B - Guayaquil City vs Gualaceo","description":"Sourced from predicthq.com","category":"sports","start":"2024-06-19T20:00:00Z","geo":{"geometry":{"coordinates":[-79.9035275,-2.1030743],"type":"Point"},"placekey":"@h7p-y6h-3h5","address":{"country_code":"EC","formatted_address":"V3WX+G5G Parque Samanes, Guayaquil 090112, Ecuador","postcode":"090112","locality":"Guayaquil","region":"Guayas"}},"labels":["soccer","sport"],"duration":0,"start_local":"2024-06-19T15:00:00","end":"2024-06-19T20:00:00Z","end_local":"2024-06-19T15:00:00","updated":"2024-06-17T18:09:35Z"},{"title":"Copa Ecuador - Preliminary Round - Quito vs Atlético Quinindé","description":"Sourced from predicthq.com","category":"sports","start":"2024-06-19T17:00:00Z","geo":{"geometry":{"coordinates":[-78.2172703742981,0.04641293971771222],"type":"Point"},"placekey":"@cjy-d89-z9f","address":{"country_code":"EC","formatted_address":"Tabacundo, Ecuador","locality":"Tabacundo"}},"labels":["soccer","sport"],"duration":0,"start_local":"2024-06-19T12:00:00","end":"2024-06-19T17:00:00Z","end_local":"2024-06-19T12:00:00","updated":"2024-06-18T11:36:56Z"},{"title":"Congreso: \"Prepárate para exportar a China\"","description":"Sourced from predicthq.com - Congreso de Oportunidades Comerciales entre China y Ecuador: \"Prepárate para exportar a China\"","category":"conferences","start":"2024-06-19T15:00:00Z","geo":{"geometry":{"coordinates":[-79.0031824,-2.905577],"type":"Point"},"placekey":"@h8f-v28-n5z","address":{"country_code":"EC","formatted_address":"Alfonso Cordero, 010107, Cuenca, Ecuador","locality":"Cuenca","postcode":"010107","region":"Azuay"}},"labels":["business","conference"],"duration":10800,"start_local":"2024-06-19T10:00:00","end":"2024-06-19T18:00:00Z","end_local":"2024-06-19T13:00:00","updated":"2024-06-06T04:02:31Z"},{"title":"Liga Pro Serie B - Manta vs Cuniburo","description":"Sourced from predicthq.com","category":"sports","start":"2024-06-18T20:00:00Z","geo":{"geometry":{"coordinates":[-80.7027347,-0.9640698],"type":"Point"},"placekey":"@h7q-n9q-pqf","address":{"country_code":"EC","formatted_address":"Manta, Manabí Province, Ecuador","locality":"Manta","region":"Manabí Province"}},"labels":["soccer","sport"],"duration":0,"start_local":"2024-06-18T15:00:00","end":"2024-06-18T20:00:00Z","end_local":"2024-06-18T15:00:00","updated":"2024-06-17T17:57:49Z"},{"title":"Estudia en el College #1 de Canadá - Evento Cuenca","description":"Sourced from predicthq.com - ¡Ven y descubre por qué nuestro college en Canadá es el mejor para estudiar, con información, tours y más!","category":"conferences","start":"2024-06-17T22:00:00Z","geo":{"geometry":{"coordinates":[-79.006225,-2.9055456],"type":"Point"},"placekey":"@h8f-v28-hnq","address":{"country_code":"EC","formatted_address":"Florencia Astudillo, 010204, Cuenca, Ecuador","locality":"Cuenca","postcode":"010204","region":"Azuay"}},"labels":["conference"],"duration":10800,"start_local":"2024-06-17T17:00:00","end":"2024-06-18T01:00:00Z","end_local":"2024-06-17T20:00:00","updated":"2024-06-13T00:53:43Z"},{"title":"International Congress of Technology, Sustainability and Educational Innovation","description":"Sourced from predicthq.com","category":"conferences","start":"2024-06-17T14:00:00Z","geo":{"geometry":{"coordinates":[-78.111508,0.358189],"type":"Point"},"placekey":"@cjx-qpn-f2k","address":{"country_code":"EC","formatted_address":"Avenida 17 de Julio, Ibarra, Ecuador","locality":"Ibarra","region":"Imbabura"}},"labels":["conference"],"duration":205200,"start_local":"2024-06-17T09:00:00","end":"2024-06-19T23:00:00Z","end_local":"2024-06-19T18:00:00","updated":"2024-06-16T00:19:10Z"},{"title":"“Cantina, circo y música en movimiento”","description":"Sourced from predicthq.com - El Teatro Capitol es un espacio inclusivo y diverso","category":"performing-arts","start":"2024-06-16T20:00:00Z","geo":{"geometry":{"coordinates":[-78.50060239999999,-0.216895],"type":"Point"},"placekey":"@cjy-8nv-87q","address":{"country_code":"EC","formatted_address":"Ramon Egas, 170136, Quito, Ecuador","locality":"Quito","postcode":"170136","region":"Pichincha"}},"labels":["concert","music","performing-arts"],"duration":7200,"start_local":"2024-06-16T15:00:00","end":"2024-06-16T22:00:00Z","end_local":"2024-06-16T17:00:00","updated":"2024-06-06T02:52:19Z"},{"title":"Caverna Zoot","description":"Sourced from predicthq.com","category":"concerts","start":"2024-06-16T01:00:00Z","geo":{"geometry":{"coordinates":[-78.48527,-0.19437],"type":"Point"},"placekey":"@cjy-8qr-47q","address":{"country_code":"EC","formatted_address":"Mariano Aguilera E7-141, Quito 170517, Ecuador","postcode":"170517","locality":"Quito","region":"Pichincha"}},"labels":["concert","music"],"duration":0,"start_local":"2024-06-15T20:00:00","end":"2024-06-16T01:00:00Z","end_local":"2024-06-15T20:00:00","updated":"2024-06-30T01:05:14Z"},{"title":"Hombre de Barro: cantos de la Sierra Nevada y las selvas colombianas","description":"Sourced from predicthq.com - El Teatro Capitol es un espacio inclusivo y diverso","category":"concerts","start":"2024-06-15T21:00:00Z","geo":{"geometry":{"coordinates":[-78.50060239999999,-0.216895],"type":"Point"},"placekey":"@cjy-8nv-87q","address":{"country_code":"EC","formatted_address":"Ramon Egas, 170136, Quito, Ecuador","locality":"Quito","postcode":"170136","region":"Pichincha"}},"labels":["concert","music"],"duration":5400,"start_local":"2024-06-15T16:00:00","end":"2024-06-15T22:30:00Z","end_local":"2024-06-15T17:30:00","updated":"2024-05-30T01:01:18Z"},{"title":"Estudia en el  College #1 de Canadá - Evento Quito","description":"Sourced from predicthq.com - ¡Ven y descubre por qué nuestro college en Canadá es el mejor para estudiar y disfrutar de nuevas experiencias!","category":"conferences","start":"2024-06-15T16:00:00Z","geo":{"geometry":{"coordinates":[-78.479127,-0.1779446],"type":"Point"},"placekey":"@cjy-8qr-ndv","address":{"country_code":"EC","formatted_address":"No. 36 - 212 y, Av República de El Salvador, Quito 170135, Ecuador","postcode":"170135","locality":"Quito","region":"Pichincha"}},"labels":["conference"],"duration":10800,"start_local":"2024-06-15T11:00:00","end":"2024-06-15T19:00:00Z","end_local":"2024-06-15T14:00:00","updated":"2024-06-13T00:36:38Z"},{"title":"Conquistando Provincias Ecuador - Manta","description":"Sourced from predicthq.com - Conquistando territorios es un plan de trabajo entre líderes y el corporativo que busca compartir bienestar con más personas en Ecuador","category":"conferences","start":"2024-06-15T15:30:00Z","geo":{"geometry":{"coordinates":[-80.732736,-0.941516],"type":"Point"},"placekey":"@h7q-n94-pn5","address":{"country_code":"EC","formatted_address":"Malecon de Manta y calle 23, Manta 130213, Ecuador","postcode":"130213","locality":"Manta","region":"Manabí"}},"labels":["conference","health"],"duration":7200,"start_local":"2024-06-15T10:30:00","end":"2024-06-15T17:30:00Z","end_local":"2024-06-15T12:30:00","updated":"2024-06-03T23:28:28Z"},{"title":"Estéreo Arepa Quito","description":"Sourced from predicthq.com - ¡Te invitamos a ser parte del primer festival Estéreo Arepa del Ecuador! Únete a nosotros y construyamos juntos y juntas #UnMundoPosible","category":"festivals","start":"2024-06-15T15:00:00Z","geo":{"geometry":{"coordinates":[-78.54642249999999,-0.2789814],"type":"Point"},"placekey":"@cjy-87m-2x5","address":{"country_code":"EC","formatted_address":"170131, Quito, Ecuador","locality":"Quito","postcode":"170131","region":"Pichincha"}},"labels":["community","festival"],"duration":25200,"start_local":"2024-06-15T10:00:00","end":"2024-06-15T22:00:00Z","end_local":"2024-06-15T17:00:00","updated":"2024-06-06T01:20:00Z"},{"title":"Liga Pro Serie B - Gualaceo vs Manta","description":"Sourced from predicthq.com","category":"sports","start":"2024-06-14T00:00:00Z","geo":{"geometry":{"coordinates":[-78.843297958,-2.749988783094],"type":"Point"},"placekey":"@h8f-ttq-sqz","address":{"country_code":"EC","formatted_address":"7524+5G4, C. del Estadio, Azogues, Ecuador","locality":"Azogues","region":"Cañar"}},"labels":["soccer","sport"],"duration":0,"start_local":"2024-06-13T19:00:00","end":"2024-06-14T00:00:00Z","end_local":"2024-06-13T19:00:00","updated":"2024-06-11T05:02:27Z"},{"title":"Estudia en el mejor College de Canadá - Evento Guayaquil","description":"Sourced from predicthq.com - ¡Ven y descubre por qué nuestro college en Canadá es el mejor para estudiar y disfrutar de nuevas experiencias!","category":"conferences","start":"2024-06-14T00:00:00Z","geo":{"geometry":{"coordinates":[-79.8836345,-2.1451692],"type":"Point"},"placekey":"@h7p-y3y-975","address":{"country_code":"EC","formatted_address":"Avenida de las Américas, 090513, Guayaquil, Ecuador","locality":"Guayaquil","postcode":"090513","region":"Guayas"}},"labels":["conference"],"duration":5400,"start_local":"2024-06-13T19:00:00","end":"2024-06-14T01:30:00Z","end_local":"2024-06-13T20:30:00","updated":"2024-06-12T23:56:02Z"},{"title":"Aniversario CCG 135 (Presencial)","description":"Sourced from predicthq.com - La Cámara de Comercio de Guayaquil celebra 135 años junto a sus socios.","category":"conferences","start":"2024-06-13T23:00:00Z","geo":{"geometry":{"coordinates":[-79.8877042,-2.1584211],"type":"Point"},"placekey":"@h7p-y3p-kzz","address":{"country_code":"EC","formatted_address":"Centro de Convenciones, 090513, Guayaquil, Ecuador","locality":"Guayaquil","postcode":"090513","region":"Guayas"}},"labels":["business","conference"],"duration":14400,"start_local":"2024-06-13T18:00:00","end":"2024-06-14T03:00:00Z","end_local":"2024-06-13T22:00:00","updated":"2024-06-04T01:00:56Z"},{"title":"Congreso de \"Oportunidades Comerciales\": Importación y Exportación","description":"Sourced from predicthq.com - Congreso de \"Oportunidades Comerciales\" desde Esmeraldas\nEdición: Importación y Exportación","category":"conferences","start":"2024-06-13T14:00:00Z","geo":{"geometry":{"coordinates":[-79.6559379,0.9820628],"type":"Point"},"placekey":"@cjy-556-st9","address":{"country_code":"EC","formatted_address":"Chiriboga, Esmeraldas, Ecuador","locality":"Esmeraldas","region":"Esmeraldas"}},"labels":["business","conference"],"duration":14400,"start_local":"2024-06-13T09:00:00","end":"2024-06-13T18:00:00Z","end_local":"2024-06-13T13:00:00","updated":"2024-06-06T03:24:04Z"},{"title":"Liga Pro Serie B - Cuniburo vs Independiente Juniors","description":"Sourced from predicthq.com","category":"sports","start":"2024-06-13T00:00:00Z","geo":{"geometry":{"coordinates":[-78.4763288498,-0.1776692404],"type":"Point"},"placekey":"@cjy-8qr-99f","address":{"country_code":"EC","formatted_address":"RGFF+284, Av. Naciones Unidas, Quito 170135, Ecuador","postcode":"170135","locality":"Quito","region":"Pichincha"}},"labels":["soccer","sport"],"duration":0,"start_local":"2024-06-12T19:00:00","end":"2024-06-13T00:00:00Z","end_local":"2024-06-12T19:00:00","updated":"2024-06-11T09:06:07Z"},{"title":"Liga Pro Serie B - San Antonio vs Leones del Norte","description":"Sourced from predicthq.com","category":"sports","start":"2024-06-12T20:00:00Z","geo":{"geometry":{"coordinates":[-78.118313,0.3596067],"type":"Point"},"placekey":"@cjx-qpv-5xq","address":{"country_code":"EC","formatted_address":"Avenida Jaime Roldos Aguilera, Ibarra, Ecuador","locality":"Ibarra","region":"Provincia de Imbabura"}},"labels":["soccer","sport"],"duration":0,"start_local":"2024-06-12T15:00:00","end":"2024-06-12T20:00:00Z","end_local":"2024-06-12T15:00:00","updated":"2024-06-11T08:57:31Z"},{"title":"Liga Pro Serie B - Chacaritas vs 9 de Octubre","description":"Sourced from predicthq.com","category":"sports","start":"2024-06-12T20:00:00Z","geo":{"geometry":{"coordinates":[-78.420084885,-1.392784184],"type":"Point"},"placekey":"@h7q-dph-mzf","address":{"country_code":"EC","formatted_address":"Baños de Agua Santa, Ecuador","locality":"Baños de Agua Santa"}},"labels":["soccer","sport"],"duration":0,"start_local":"2024-06-12T15:00:00","end":"2024-06-12T20:00:00Z","end_local":"2024-06-12T15:00:00","updated":"2024-06-11T02:04:47Z"},{"title":"Copy of ¡Quito, estudia y trabaja en Canadá! Mayo de mimosas y maestrías.","description":"Sourced from predicthq.com - Asiste a una charla informativa para conocer más de los beneficios de estudiar una maestría en Canadá.","category":"conferences","start":"2024-06-12T17:00:00Z","geo":{"geometry":{"coordinates":[-78.4895939,-0.1870408],"type":"Point"},"placekey":"@cjy-8qq-x3q","address":{"country_code":"EC","formatted_address":"170515, Quito, Ecuador","locality":"Quito","postcode":"170515","region":"Pichincha"}},"labels":["conference","education","family"],"duration":7200,"start_local":"2024-06-12T12:00:00","end":"2024-06-12T19:00:00Z","end_local":"2024-06-12T14:00:00","updated":"2024-06-06T04:02:16Z"},{"title":"Liga Pro Serie B - Guayaquil City vs Vargas Torres","description":"Sourced from predicthq.com","category":"sports","start":"2024-06-12T00:00:00Z","geo":{"geometry":{"coordinates":[-79.9035275,-2.1030743],"type":"Point"},"placekey":"@h7p-y6h-3h5","address":{"country_code":"EC","formatted_address":"V3WX+G5G Parque Samanes, Guayaquil 090112, Ecuador","postcode":"090112","locality":"Guayaquil","region":"Guayas"}},"labels":["soccer","sport"],"duration":0,"start_local":"2024-06-11T19:00:00","end":"2024-06-12T00:00:00Z","end_local":"2024-06-11T19:00:00","updated":"2024-06-11T07:42:29Z"},{"title":"Simposio \"Archivos e Historia\"","description":"Sourced from predicthq.com - Este evento se desarrollará el 11 de junio a las 09h00","category":"conferences","start":"2024-06-11T14:00:00Z","geo":{"geometry":{"coordinates":[-78.50226420000001,-0.1999997],"type":"Point"},"placekey":"@cjy-8p3-vxq","address":{"country_code":"EC","formatted_address":"170129, Quito, Ecuador","locality":"Quito","postcode":"170129","region":"Pichincha"}},"labels":["community","conference"],"duration":10800,"start_local":"2024-06-11T09:00:00","end":"2024-06-11T17:00:00Z","end_local":"2024-06-11T12:00:00","updated":"2024-06-06T01:23:55Z"},{"title":"Liga Pro Serie B - Leones del Norte vs Gualaceo","description":"Sourced from predicthq.com","category":"sports","start":"2024-06-09T23:00:00Z","geo":{"geometry":{"coordinates":[-78.118313,0.3596067],"type":"Point"},"placekey":"@cjx-qpv-5xq","address":{"country_code":"EC","formatted_address":"Avenida Jaime Roldos Aguilera, Ibarra, Ecuador","locality":"Ibarra","region":"Provincia de Imbabura"}},"labels":["soccer","sport"],"duration":0,"start_local":"2024-06-09T18:00:00","end":"2024-06-09T23:00:00Z","end_local":"2024-06-09T18:00:00","updated":"2024-06-12T06:36:17Z"},{"title":"Liga Pro Serie B - Independiente Juniors vs Chacaritas","description":"Sourced from predicthq.com","category":"sports","start":"2024-06-09T20:30:00Z","geo":{"geometry":{"coordinates":[-78.470615651,-0.349051534],"type":"Point"},"placekey":"@cjy-8d4-5j9","address":{"country_code":"EC","formatted_address":"Calle F S/N y Calle I, Chillo-Jijón, Sangolquí, Ecuador","locality":"Sangolquí"}},"labels":["soccer","sport"],"duration":0,"start_local":"2024-06-09T15:30:00","end":"2024-06-09T20:30:00Z","end_local":"2024-06-09T15:30:00","updated":"2024-06-12T18:03:39Z"},{"title":"Liga Pro Serie B - 9 de Octubre vs San Antonio","description":"Sourced from predicthq.com","category":"sports","start":"2024-06-09T20:00:00Z","geo":{"geometry":{"coordinates":[-79.89841725,-2.258804246],"type":"Point"},"placekey":"@h7p-xp2-jsq","address":{"country_code":"EC","formatted_address":"Arq Andrés Efraín Alava Mestanza 111, Guayaquil 090208, Ecuador","postcode":"090208","locality":"Guayaquil","region":"Guayas"}},"labels":["soccer","sport"],"duration":0,"start_local":"2024-06-09T15:00:00","end":"2024-06-09T20:00:00Z","end_local":"2024-06-09T15:00:00","updated":"2024-06-12T03:19:41Z"},{"title":"Liga Pro Serie B - Manta vs Guayaquil City","description":"Sourced from predicthq.com","category":"sports","start":"2024-06-08T23:00:00Z","geo":{"geometry":{"coordinates":[-80.7027347,-0.9640698],"type":"Point"},"placekey":"@h7q-n9q-pqf","address":{"country_code":"EC","formatted_address":"Manta, Manabí Province, Ecuador","locality":"Manta","region":"Manabí Province"}},"labels":["soccer","sport"],"duration":0,"start_local":"2024-06-08T18:00:00","end":"2024-06-08T23:00:00Z","end_local":"2024-06-08T18:00:00","updated":"2024-06-12T08:33:09Z"},{"title":"Ritmos del Ecuador y Latinoamérica: Un encuentro Generacional","description":"Sourced from predicthq.com - El Teatro Capitol es un espacio inclusivo y diverso","category":"concerts","start":"2024-06-08T23:00:00Z","geo":{"geometry":{"coordinates":[-78.50060239999999,-0.216895],"type":"Point"},"placekey":"@cjy-8nv-87q","address":{"country_code":"EC","formatted_address":"Ramon Egas, 170136, Quito, Ecuador","locality":"Quito","postcode":"170136","region":"Pichincha"}},"labels":["concert","music"],"duration":5400,"start_local":"2024-06-08T18:00:00","end":"2024-06-09T00:30:00Z","end_local":"2024-06-08T19:30:00","updated":"2024-06-06T03:22:45Z"},{"title":"Liga Pro Serie B - Vargas Torres vs Cuniburo","description":"Sourced from predicthq.com","category":"sports","start":"2024-06-08T20:00:00Z","geo":{"geometry":{"coordinates":[-79.6559996,0.96126],"type":"Point"},"placekey":"@cjy-54y-x5z","address":{"country_code":"EC","formatted_address":"Quito, Esmeraldas, Ecuador","locality":"Esmeraldas","region":"Provincia de Esmeraldas"}},"labels":["soccer","sport"],"duration":0,"start_local":"2024-06-08T15:00:00","end":"2024-06-08T20:00:00Z","end_local":"2024-06-08T15:00:00","updated":"2024-06-12T08:26:48Z"},{"title":"Maestrías en Canadá - Guayaquil","description":"Sourced from predicthq.com - Descubre todo sobre estudiar una maestría en Canadá en nuestro evento presencial. ¡No te lo pierdas!","category":"conferences","start":"2024-06-08T00:00:00Z","geo":{"geometry":{"coordinates":[-79.890298,-2.1554814],"type":"Point"},"placekey":"@h7p-y3p-pd9","address":{"country_code":"EC","formatted_address":"Dr.Leopoldo Benitez Vinueza, 090513, Guayaquil, Ecuador","locality":"Guayaquil","postcode":"090513","region":"Guayas"}},"labels":["conference"],"duration":9000,"start_local":"2024-06-07T19:00:00","end":"2024-06-08T02:30:00Z","end_local":"2024-06-07T21:30:00","updated":"2024-05-29T01:51:11Z"},{"title":"Liga Pro Serie B - San Antonio vs Chacaritas","description":"Sourced from predicthq.com","category":"sports","start":"2024-06-07T00:00:00Z","geo":{"geometry":{"coordinates":[-78.118313,0.3596067],"type":"Point"},"placekey":"@cjx-qpv-5xq","address":{"country_code":"EC","formatted_address":"Avenida Jaime Roldos Aguilera, Ibarra, Ecuador","locality":"Ibarra","region":"Provincia de Imbabura"}},"labels":["soccer","sport"],"duration":0,"start_local":"2024-06-06T19:00:00","end":"2024-06-07T00:00:00Z","end_local":"2024-06-06T19:00:00","updated":"2024-06-12T02:36:20Z"},{"title":"Liga Pro Serie B - Cuniburo vs 9 de Octubre","description":"Sourced from predicthq.com","category":"sports","start":"2024-06-06T00:00:00Z","geo":{"geometry":{"coordinates":[-78.4763288498,-0.1776692404],"type":"Point"},"placekey":"@cjy-8qr-99f","address":{"country_code":"EC","formatted_address":"RGFF+284, Av. Naciones Unidas, Quito 170135, Ecuador","postcode":"170135","locality":"Quito","region":"Pichincha"}},"labels":["soccer","sport"],"duration":0,"start_local":"2024-06-05T19:00:00","end":"2024-06-06T00:00:00Z","end_local":"2024-06-05T19:00:00","updated":"2024-06-11T22:46:30Z"},{"title":"Liderazgo estratégico","description":"Sourced from predicthq.com - Importancia del liderazgo estratégico: Enfatizar el papel crucial del liderazgo estratégico para el éxito empresarial.","category":"conferences","start":"2024-06-05T22:00:00Z","geo":{"geometry":{"coordinates":[-79.897211,-2.157982],"type":"Point"},"placekey":"@h7p-y3n-nt9","address":{"country_code":"EC","formatted_address":"Avenida Francisco de Orellana y Luis Orrantia, Torre A, Edif. Las Cámaras, Segundo Piso, Av. Francisco de Orellana &, Guayaquil 090512, Ecuador","postcode":"090512","locality":"Guayaquil","region":"Guayas"}},"labels":["business","conference"],"duration":3600,"start_local":"2024-06-05T17:00:00","end":"2024-06-05T23:00:00Z","end_local":"2024-06-05T18:00:00","updated":"2024-05-30T01:40:38Z"},{"title":"Liga Pro Serie B - Guayaquil City vs Independiente Juniors","description":"Sourced from predicthq.com","category":"sports","start":"2024-06-05T20:00:00Z","geo":{"geometry":{"coordinates":[-79.9035275,-2.1030743],"type":"Point"},"placekey":"@h7p-y6h-3h5","address":{"country_code":"EC","formatted_address":"V3WX+G5G Parque Samanes, Guayaquil 090112, Ecuador","postcode":"090112","locality":"Guayaquil","region":"Guayas"}},"labels":["soccer","sport"],"duration":0,"start_local":"2024-06-05T15:00:00","end":"2024-06-05T20:00:00Z","end_local":"2024-06-05T15:00:00","updated":"2024-06-12T10:14:26Z"},{"title":"Liga Pro Serie B - Gualaceo vs Vargas Torres","description":"Sourced from predicthq.com","category":"sports","start":"2024-06-05T20:00:00Z","geo":{"geometry":{"coordinates":[-78.843297958,-2.749988783094],"type":"Point"},"placekey":"@h8f-ttq-sqz","address":{"country_code":"EC","formatted_address":"7524+5G4, C. del Estadio, Azogues, Ecuador","locality":"Azogues","region":"Cañar"}},"labels":["soccer","sport"],"duration":0,"start_local":"2024-06-05T15:00:00","end":"2024-06-05T20:00:00Z","end_local":"2024-06-05T15:00:00","updated":"2024-06-12T02:05:07Z"},{"title":"360DigiTMG - Data Analytics, Data Science Course Training Hyderabad","description":"Sourced from predicthq.com","category":"concerts","start":"2024-06-05T01:00:00Z","geo":{"geometry":{"coordinates":[-79.9000015,-2.1666667],"type":"Point"},"placekey":"@h7p-y3p-bkz","address":{"country_code":"EC","formatted_address":"Calle 12A NO, 090512, Guayaquil, Ecuador","locality":"Guayaquil","postcode":"090512","region":"Guayas"}},"labels":["concert","music"],"duration":0,"start_local":"2024-06-04T20:00:00","end":"2024-06-05T01:00:00Z","end_local":"2024-06-04T20:00:00","updated":"2024-06-22T01:11:01Z"},{"title":"Liga Pro Serie B - Manta vs Leones del Norte","description":"Sourced from predicthq.com","category":"sports","start":"2024-06-05T00:00:00Z","geo":{"geometry":{"coordinates":[-80.7027347,-0.9640698],"type":"Point"},"placekey":"@h7q-n9q-pqf","address":{"country_code":"EC","formatted_address":"Manta, Manabí Province, Ecuador","locality":"Manta","region":"Manabí Province"}},"labels":["soccer","sport"],"duration":0,"start_local":"2024-06-04T19:00:00","end":"2024-06-05T00:00:00Z","end_local":"2024-06-04T19:00:00","updated":"2024-06-11T22:28:40Z"},{"title":"CGS Ecuador 2024","description":"Sourced from predicthq.com - Todo que quieres saber sobre la mineria de cobre y oro en Ecuador.\nAll you want to know about Ecuador's copper and gold mining sector.","category":"conferences","start":"2024-06-03T13:00:00Z","geo":{"geometry":{"coordinates":[-78.496606,-0.207645],"type":"Point"},"placekey":"@cjy-8nv-zfz","address":{"country_code":"EC","formatted_address":"Amazonas 1914 Y Patria Avenida, Quito 170143, Ecuador","postcode":"170143","locality":"Quito","region":"Pichincha"}},"labels":["business","conference"],"duration":122400,"start_local":"2024-06-03T08:00:00","end":"2024-06-04T23:00:00Z","end_local":"2024-06-04T18:00:00","updated":"2024-06-04T01:01:30Z"},{"title":"Liga Pro - 1st Round - Deportivo Cuenca vs LDU Quito","description":"Sourced from predicthq.com","category":"sports","start":"2024-06-02T23:00:00Z","geo":{"geometry":{"coordinates":[-79.0055218,-2.9067434],"type":"Point"},"placekey":"@h8f-v28-hqz","address":{"country_code":"EC","formatted_address":"3XVV+8Q5, Av. del Estadio, Cuenca 010107, Ecuador","postcode":"010107","locality":"Cuenca","region":"Azuay"}},"labels":["soccer","sport"],"duration":7179,"start_local":"2024-06-02T18:00:00","end":"2024-06-03T00:59:39Z","end_local":"2024-06-02T19:59:39","updated":"2024-06-03T20:57:58Z"},{"title":"Liga Pro - 1st Round - Mushuc Runa vs Barcelona","description":"Sourced from predicthq.com","category":"sports","start":"2024-06-02T23:00:00Z","geo":{"geometry":{"coordinates":[-78.61447334289551,-0.924184775319691],"type":"Point"},"placekey":"@h7q-cqm-wff","address":{"country_code":"EC","formatted_address":"Calle Quijano y Ordoñez y Panzaleo, Latacunga, Ecuador","locality":"Latacunga"}},"labels":["soccer","sport"],"duration":8297,"start_local":"2024-06-02T18:00:00","end":"2024-06-03T01:18:17Z","end_local":"2024-06-02T20:18:17","updated":"2024-06-03T20:55:32Z"},{"title":"Liga Pro - 1st Round - Independiente Valle vs Orense","description":"Sourced from predicthq.com","category":"sports","start":"2024-06-02T23:00:00Z","geo":{"geometry":{"coordinates":[-78.470615651,-0.349051534],"type":"Point"},"placekey":"@cjy-8d4-5j9","address":{"country_code":"EC","formatted_address":"Calle F S/N y Calle I, Chillo-Jijón, Sangolquí, Ecuador","locality":"Sangolquí"}},"labels":["soccer","sport"],"duration":7128,"start_local":"2024-06-02T18:00:00","end":"2024-06-03T00:58:48Z","end_local":"2024-06-02T19:58:48","updated":"2024-06-03T20:51:59Z"},{"title":"Liga Pro - 1st Round - Universidad Católica vs Macará","description":"Sourced from predicthq.com","category":"sports","start":"2024-06-02T20:00:00Z","geo":{"geometry":{"coordinates":[-78.48909789999999,-0.1076798],"type":"Point"},"placekey":"@cjy-8qf-7nq","address":{"country_code":"EC","formatted_address":"Quito 170144, Ecuador","postcode":"170144","locality":"Quito","region":"Pichincha"}},"labels":["soccer","sport"],"duration":6880,"start_local":"2024-06-02T15:00:00","end":"2024-06-02T21:54:40Z","end_local":"2024-06-02T16:54:40","updated":"2024-06-11T22:02:16Z"},{"title":"Liga Pro - 1st Round - Emelec vs Libertad","description":"Sourced from predicthq.com","category":"sports","start":"2024-06-01T23:00:00Z","geo":{"geometry":{"coordinates":[-79.8937912,-2.2067158],"type":"Point"},"placekey":"@h7p-y57-vxq","address":{"country_code":"EC","formatted_address":"Gral. José A.Gómez, Guayaquil 090315, Ecuador","postcode":"090315","locality":"Guayaquil","region":"Guayas"}},"labels":["soccer","sport"],"duration":6947,"start_local":"2024-06-01T18:00:00","end":"2024-06-02T00:55:47Z","end_local":"2024-06-01T19:55:47","updated":"2024-06-02T05:21:42Z"},{"title":"Liga Pro - 1st Round - Cumbayá vs Delfín","description":"Sourced from predicthq.com","category":"sports","start":"2024-06-01T20:30:00Z","geo":{"geometry":{"coordinates":[-78.61447334289551,-0.924184775319691],"type":"Point"},"placekey":"@h7q-cqm-wff","address":{"country_code":"EC","formatted_address":"Calle Quijano y Ordoñez y Panzaleo, Latacunga, Ecuador","locality":"Latacunga"}},"labels":["soccer","sport"],"duration":7101,"start_local":"2024-06-01T15:30:00","end":"2024-06-01T22:28:21Z","end_local":"2024-06-01T17:28:21","updated":"2024-06-12T18:12:37Z"},{"title":"Liga Pro - 1st Round - Aucas vs Imbabura","description":"Sourced from predicthq.com","category":"sports","start":"2024-06-01T18:00:00Z","geo":{"geometry":{"coordinates":[-78.5464225,-0.2789814],"type":"Point"},"placekey":"@cjy-87m-2x5","address":{"country_code":"EC","formatted_address":"Avenida Rumichaca Ñan, EC170131, Quito, Ecuador","postcode":"EC170131","locality":"Quito","region":"Pichincha"}},"labels":["soccer","sport"],"duration":7006,"start_local":"2024-06-01T13:00:00","end":"2024-06-01T19:56:46Z","end_local":"2024-06-01T14:56:46","updated":"2024-06-12T05:35:54Z"},{"title":"MINTEL","description":"Sourced from predicthq.com - Listos para capacitarnos","category":"conferences","start":"2024-06-01T15:00:00Z","geo":{"geometry":{"coordinates":[-78.4594686,-0.1628959],"type":"Point"},"placekey":"@cjy-8qv-3qz","address":{"country_code":"EC","formatted_address":"Vía a Nayón, 170124, Quito, Ecuador","locality":"Quito","postcode":"170124","region":"Pichincha"}},"labels":["conference","science","technology"],"duration":7200,"start_local":"2024-06-01T10:00:00","end":"2024-06-01T17:00:00Z","end_local":"2024-06-01T12:00:00","updated":"2024-06-04T09:08:55Z"},{"title":"Maestrías en Canadá - Quito","description":"Sourced from predicthq.com - Descubre todo sobre estudiar una maestría en Canadá en nuestro evento presencial. ¡No te lo pierdas!","category":"conferences","start":"2024-06-01T00:00:00Z","geo":{"geometry":{"coordinates":[-78.479127,-0.1779446],"type":"Point"},"placekey":"@cjy-8qr-ndv","address":{"country_code":"EC","formatted_address":"No. 36 - 212 y, Av República de El Salvador, Quito 170135, Ecuador","postcode":"170135","locality":"Quito","region":"Pichincha"}},"labels":["conference"],"duration":9000,"start_local":"2024-05-31T19:00:00","end":"2024-06-01T02:30:00Z","end_local":"2024-05-31T21:30:00","updated":"2024-06-04T12:04:50Z"},{"title":"Liga Pro - 1st Round - Técnico Universitario vs El Nacional","description":"Sourced from predicthq.com","category":"sports","start":"2024-06-01T00:00:00Z","geo":{"geometry":{"coordinates":[-78.6232051,-1.2446095],"type":"Point"},"placekey":"@h7q-dt7-qmk","address":{"country_code":"EC","formatted_address":"Avenida Bolivariana, EC180104, Ambato, Ecuador","postcode":"EC180104","locality":"Ambato","region":"Tungurahua"}},"labels":["soccer","sport"],"duration":7152,"start_local":"2024-05-31T19:00:00","end":"2024-06-01T01:59:12Z","end_local":"2024-05-31T20:59:12","updated":"2024-06-11T21:50:29Z"},{"title":"Liga Pro Serie B - Vargas Torres vs Manta","description":"Sourced from predicthq.com","category":"sports","start":"2024-05-31T00:00:00Z","geo":{"geometry":{"coordinates":[-79.148530004,-0.2496505],"type":"Point"},"placekey":"@h7q-8r7-yvz","address":{"country_code":"EC","formatted_address":"Av. Río Lelia, Santo Domingo de los Colorados, Ecuador","locality":"Santo Domingo de los Colorados"}},"labels":["soccer","sport"],"duration":0,"start_local":"2024-05-30T19:00:00","end":"2024-05-31T00:00:00Z","end_local":"2024-05-30T19:00:00","updated":"2024-06-12T00:04:59Z"},{"title":"CONMEBOL Libertadores - Group Stage - Independiente Valle vs Liverpool","description":"Sourced from predicthq.com","category":"sports","start":"2024-05-30T22:00:00Z","geo":{"geometry":{"coordinates":[-78.470615651,-0.349051534],"type":"Point"},"placekey":"@cjy-8d4-5j9","address":{"country_code":"EC","formatted_address":"Calle F S/N y Calle I, Chillo-Jijón, Sangolquí, Ecuador","locality":"Sangolquí"}},"labels":["soccer","sport"],"duration":6702,"start_local":"2024-05-30T17:00:00","end":"2024-05-30T23:51:42Z","end_local":"2024-05-30T18:51:42","updated":"2024-05-31T22:53:48Z"},{"title":"Beneficios del Tratado de Libre Comercio entre China y Ecuador","description":"Sourced from predicthq.com - Beneficios del Tratado de Libre Comercio entre China y Ecuador","category":"conferences","start":"2024-05-30T20:00:00Z","geo":{"geometry":{"coordinates":[-78.11953849999999,0.3480219],"type":"Point"},"placekey":"@cjx-qpm-q9f","address":{"country_code":"EC","formatted_address":"Juan de Velasco, Ibarra, Ecuador","locality":"Ibarra","region":"Imbabura"}},"labels":["business","conference"],"duration":10800,"start_local":"2024-05-30T15:00:00","end":"2024-05-30T23:00:00Z","end_local":"2024-05-30T18:00:00","updated":"2024-06-05T07:59:34Z"},{"title":"Los Mercados cantan a Mamá","description":"Sourced from predicthq.com - Varios artistas representantes de los mercados del Distrito Metropolitano de Quito","category":"concerts","start":"2024-05-30T19:00:00Z","geo":{"geometry":{"coordinates":[-78.50060239999999,-0.216895],"type":"Point"},"placekey":"@cjy-8nv-87q","address":{"country_code":"EC","formatted_address":"Ramon Egas, 170136, Quito, Ecuador","locality":"Quito","postcode":"170136","region":"Pichincha"}},"labels":["community","concert","music"],"duration":10800,"start_local":"2024-05-30T14:00:00","end":"2024-05-30T22:00:00Z","end_local":"2024-05-30T17:00:00","updated":"2024-05-23T01:21:52Z"},{"title":"CONMEBOL Libertadores - Group Stage - Barcelona vs Cobresal","description":"Sourced from predicthq.com","category":"sports","start":"2024-05-30T00:30:00Z","geo":{"geometry":{"coordinates":[-79.9249138,-2.1858712],"type":"Point"},"placekey":"@h7p-y56-m8v","address":{"country_code":"EC","formatted_address":"090615, Guayaquil, Ecuador","postcode":"090615","locality":"Guayaquil","region":"Guayas"}},"labels":["soccer","sport"],"duration":6698,"start_local":"2024-05-29T19:30:00","end":"2024-05-30T02:21:38Z","end_local":"2024-05-29T21:21:38","updated":"2024-05-30T05:25:41Z"},{"title":"Liga Pro Serie B - Leones del Norte vs Guayaquil City","description":"Sourced from predicthq.com","category":"sports","start":"2024-05-30T00:00:00Z","geo":{"geometry":{"coordinates":[-78.118313,0.3596067],"type":"Point"},"placekey":"@cjx-qpv-5xq","address":{"country_code":"EC","formatted_address":"Avenida Jaime Roldos Aguilera, Ibarra, Ecuador","locality":"Ibarra","region":"Provincia de Imbabura"}},"labels":["soccer","sport"],"duration":0,"start_local":"2024-05-29T19:00:00","end":"2024-05-30T00:00:00Z","end_local":"2024-05-29T19:00:00","updated":"2024-06-12T03:45:38Z"},{"title":"Liga Pro Serie B - 9 de Octubre vs Gualaceo","description":"Sourced from predicthq.com","category":"sports","start":"2024-05-29T20:00:00Z","geo":{"geometry":{"coordinates":[-79.89841725,-2.258804246],"type":"Point"},"placekey":"@h7p-xp2-jsq","address":{"country_code":"EC","formatted_address":"Arq Andrés Efraín Alava Mestanza 111, Guayaquil 090208, Ecuador","postcode":"090208","locality":"Guayaquil","region":"Guayas"}},"labels":["soccer","sport"],"duration":0,"start_local":"2024-05-29T15:00:00","end":"2024-05-29T20:00:00Z","end_local":"2024-05-29T15:00:00","updated":"2024-06-12T03:16:58Z"},{"title":"II Legal Tech Summit - Ethereum Ecuador 2024","description":"Sourced from predicthq.com - Únete al II Legal Tech Summit 2024. Aprende sobre blockchain, smart contracts y tecnología. Innovación y networking en un solo lugar.","category":"conferences","start":"2024-05-29T20:00:00Z","geo":{"geometry":{"coordinates":[-78.4356688,-0.1992208],"type":"Point"},"placekey":"@cjy-7zr-bc5","address":{"country_code":"EC","formatted_address":"170902, Quito, Ecuador","locality":"Quito","postcode":"170902","region":"Pichincha"}},"labels":["conference","science","technology"],"duration":21600,"start_local":"2024-05-29T15:00:00","end":"2024-05-30T02:00:00Z","end_local":"2024-05-29T21:00:00","updated":"2024-05-30T01:08:04Z"},{"title":"Liga Pro Serie B - Chacaritas vs Cuniburo","description":"Sourced from predicthq.com","category":"sports","start":"2024-05-29T20:00:00Z","geo":{"geometry":{"coordinates":[-78.420084885,-1.392784184],"type":"Point"},"placekey":"@h7q-dph-mzf","address":{"country_code":"EC","formatted_address":"Baños de Agua Santa, Ecuador","locality":"Baños de Agua Santa"}},"labels":["soccer","sport"],"duration":0,"start_local":"2024-05-29T15:00:00","end":"2024-05-29T20:00:00Z","end_local":"2024-05-29T15:00:00","updated":"2024-06-12T05:50:46Z"},{"title":"RoadShow Machala- Evento Soluciones ICO 2024","description":"Sourced from predicthq.com - Lugar: Hotel Veuxor","category":"expos","start":"2024-05-29T19:00:00Z","geo":{"geometry":{"coordinates":[-79.9593552,-3.2604651],"type":"Point"},"placekey":"@h7d-kwx-g8v","address":{"country_code":"EC","formatted_address":"Machala, Ecuador","locality":"Machala","region":"El Oro"}},"labels":["business","expo"],"duration":18000,"start_local":"2024-05-29T14:00:00","end":"2024-05-30T00:00:00Z","end_local":"2024-05-29T19:00:00","updated":"2024-06-04T23:26:26Z"},{"title":"CONMEBOL Sudamericana - Group Stage - Delfín vs Real Tomayapo","description":"Sourced from predicthq.com","category":"sports","start":"2024-05-29T00:30:00Z","geo":{"geometry":{"coordinates":[-80.7027347,-0.9640698],"type":"Point"},"placekey":"@h7q-n9q-pqf","address":{"country_code":"EC","formatted_address":"Manta, Manabí Province, Ecuador","locality":"Manta","region":"Manabí Province"}},"labels":["soccer","sport"],"duration":6829,"start_local":"2024-05-28T19:30:00","end":"2024-05-29T02:23:49Z","end_local":"2024-05-28T21:23:49","updated":"2024-05-29T06:15:11Z"},{"title":"Liga Pro Serie B - Independiente Juniors vs San Antonio","description":"Sourced from predicthq.com","category":"sports","start":"2024-05-29T00:00:00Z","geo":{"geometry":{"coordinates":[-78.4763288498,-0.1776692404],"type":"Point"},"placekey":"@cjy-8qr-99f","address":{"country_code":"EC","formatted_address":"RGFF+284, Av. Naciones Unidas, Quito 170135, Ecuador","postcode":"170135","locality":"Quito","region":"Pichincha"}},"labels":["soccer","sport"],"duration":0,"start_local":"2024-05-28T19:00:00","end":"2024-05-29T00:00:00Z","end_local":"2024-05-28T19:00:00","updated":"2024-06-11T22:06:29Z"},{"title":"CONMEBOL Libertadores - Group Stage - LDU Quito vs Universitario","description":"Sourced from predicthq.com","category":"sports","start":"2024-05-28T22:00:00Z","geo":{"geometry":{"coordinates":[-78.48909789999999,-0.1076798],"type":"Point"},"placekey":"@cjy-8qf-7nq","address":{"country_code":"EC","formatted_address":"Quito 170144, Ecuador","postcode":"170144","locality":"Quito","region":"Pichincha"}},"labels":["soccer","sport"],"duration":6764,"start_local":"2024-05-28T17:00:00","end":"2024-05-28T23:52:44Z","end_local":"2024-05-28T18:52:44","updated":"2024-05-29T05:57:00Z"},{"title":"SEMINARIO DE COMERCIO EXTERIOR Y LOGÍSTICA INTERNACIONAL:","description":"Sourced from predicthq.com - “La Ruta de los Negocios entre China y Ecuador”","category":"conferences","start":"2024-05-28T14:00:00Z","geo":{"geometry":{"coordinates":[-78.4820508,-0.1945579],"type":"Point"},"placekey":"@cjy-8qr-575","address":{"country_code":"EC","formatted_address":"Avenida 6 de Diciembre, 170517, Quito, Ecuador","locality":"Quito","postcode":"170517","region":"Pichincha"}},"labels":["business","conference"],"duration":12600,"start_local":"2024-05-28T09:00:00","end":"2024-05-28T17:30:00Z","end_local":"2024-05-28T12:30:00","updated":"2024-06-05T18:38:28Z"},{"title":"Liga Pro - 1st Round - Libertad vs Deportivo Cuenca","description":"Sourced from predicthq.com","category":"sports","start":"2024-05-28T00:00:00Z","geo":{"geometry":{"coordinates":[-79.20773506164551,-3.992013134117186],"type":"Point"},"placekey":"@h8d-spm-hh5","address":{"country_code":"EC","formatted_address":"XRX3+J95, Alonso de Mercadillo, Loja, Ecuador","locality":"Loja","region":"Loja"}},"labels":["soccer","sport"],"duration":7065,"start_local":"2024-05-27T19:00:00","end":"2024-05-28T01:57:45Z","end_local":"2024-05-27T20:57:45","updated":"2024-06-05T08:22:43Z"},{"title":"Liga Pro - 1st Round - Orense vs Cumbayá","description":"Sourced from predicthq.com","category":"sports","start":"2024-05-26T23:00:00Z","geo":{"geometry":{"coordinates":[-79.9622857,-3.2547344],"type":"Point"},"placekey":"@h7d-m6r-qvf","address":{"country_code":"EC","formatted_address":"Avenida de Las Palmeras 919, Machala 070201, Ecuador","postcode":"070201","locality":"Machala","region":"El Oro"}},"labels":["soccer","sport"],"duration":7201,"start_local":"2024-05-26T18:00:00","end":"2024-05-27T01:00:01Z","end_local":"2024-05-26T20:00:01","updated":"2024-06-05T02:18:46Z"},{"title":"Liga Pro - 1st Round - El Nacional vs Mushuc Runa","description":"Sourced from predicthq.com","category":"sports","start":"2024-05-26T20:30:00Z","geo":{"geometry":{"coordinates":[-78.4763288498,-0.1776692404],"type":"Point"},"placekey":"@cjy-8qr-99f","address":{"country_code":"EC","formatted_address":"RGFF+284, Av. Naciones Unidas, Quito 170135, Ecuador","postcode":"170135","locality":"Quito","region":"Pichincha"}},"labels":["soccer","sport"],"duration":6984,"start_local":"2024-05-26T15:30:00","end":"2024-05-26T22:26:24Z","end_local":"2024-05-26T17:26:24","updated":"2024-05-26T23:45:41Z"},{"title":"Liga Pro - 1st Round - Barcelona vs Técnico Universitario","description":"Sourced from predicthq.com","category":"sports","start":"2024-05-26T01:00:00Z","geo":{"geometry":{"coordinates":[-79.9249138,-2.1858712],"type":"Point"},"placekey":"@h7p-y56-m8v","address":{"country_code":"EC","formatted_address":"090615, Guayaquil, Ecuador","postcode":"090615","locality":"Guayaquil","region":"Guayas"}},"labels":["soccer","sport"],"duration":6990,"start_local":"2024-05-25T20:00:00","end":"2024-05-26T02:56:30Z","end_local":"2024-05-25T21:56:30","updated":"2024-05-27T16:39:18Z"},{"title":"Liga Pro - 1st Round - Macará vs Independiente Valle","description":"Sourced from predicthq.com","category":"sports","start":"2024-05-26T01:00:00Z","geo":{"geometry":{"coordinates":[-78.6232051,-1.2446095],"type":"Point"},"placekey":"@h7q-dt7-qmk","address":{"country_code":"EC","formatted_address":"Avenida Bolivariana, EC180104, Ambato, Ecuador","postcode":"EC180104","locality":"Ambato","region":"Tungurahua"}},"labels":["soccer","sport"],"duration":6991,"start_local":"2024-05-25T20:00:00","end":"2024-05-26T02:56:31Z","end_local":"2024-05-25T21:56:31","updated":"2024-06-12T12:25:37Z"},{"title":"Liga Pro - 1st Round - LDU Quito vs Universidad Católica","description":"Sourced from predicthq.com","category":"sports","start":"2024-05-26T01:00:00Z","geo":{"geometry":{"coordinates":[-78.48909789999999,-0.1076798],"type":"Point"},"placekey":"@cjy-8qf-7nq","address":{"country_code":"EC","formatted_address":"Quito 170144, Ecuador","postcode":"170144","locality":"Quito","region":"Pichincha"}},"labels":["soccer","sport"],"duration":7191,"start_local":"2024-05-25T20:00:00","end":"2024-05-26T02:59:51Z","end_local":"2024-05-25T21:59:51","updated":"2024-06-05T08:24:12Z"},{"title":"Liga Pro - 1st Round - Delfín vs Aucas","description":"Sourced from predicthq.com","category":"sports","start":"2024-05-26T01:00:00Z","geo":{"geometry":{"coordinates":[-80.7027347,-0.9640698],"type":"Point"},"placekey":"@h7q-n9q-pqf","address":{"country_code":"EC","formatted_address":"Manta, Manabí Province, Ecuador","locality":"Manta","region":"Manabí Province"}},"labels":["soccer","sport"],"duration":7131,"start_local":"2024-05-25T20:00:00","end":"2024-05-26T02:58:51Z","end_local":"2024-05-25T21:58:51","updated":"2024-05-28T23:54:19Z"},{"title":"Festival de Expresiones Culturales, Libertad y Justicia.","description":"Sourced from predicthq.com - El Teatro Capitol es un espacio inclusivo y diverso","category":"festivals","start":"2024-05-25T23:30:00Z","geo":{"geometry":{"coordinates":[-78.50060239999999,-0.216895],"type":"Point"},"placekey":"@cjy-8nv-87q","address":{"country_code":"EC","formatted_address":"Ramon Egas, 170136, Quito, Ecuador","locality":"Quito","postcode":"170136","region":"Pichincha"}},"labels":["community","concert","music"],"duration":5400,"start_local":"2024-05-25T18:30:00","end":"2024-05-26T01:00:00Z","end_local":"2024-05-25T20:00:00","updated":"2024-05-23T01:43:35Z"},{"title":"Mall del Río","description":"Sourced from predicthq.com","category":"festivals","start":"2024-05-25T05:00:00Z","geo":{"geometry":{"coordinates":[-79.0058965,-2.9001285],"type":"Point"},"placekey":"@h8f-v2f-yqf","address":{"country_code":"EC","formatted_address":"Mall del Río, Av. Felipe II, Cuenca 010205, Ecuador","postcode":"010205","locality":"Cuenca","region":"Azuay"}},"labels":["festival","music"],"duration":86399,"start_local":"2024-05-25T00:00:00","end":"2024-05-26T04:59:59Z","end_local":"2024-05-25T23:59:59","updated":"2024-06-11T21:31:15Z"},{"title":"Fragments","description":"Sourced from predicthq.com","category":"concerts","start":"2024-05-25T01:00:00Z","geo":{"geometry":{"coordinates":[-79.00227,-2.89673],"type":"Point"},"placekey":"@h8f-v2f-xnq","address":{"country_code":"EC","formatted_address":"Calle Padre Pedro Touloup, Plazoleta San Alfonso entre la Borrero y la, Presidente Borrero, Cuenca 010101, Ecuador","postcode":"010101","locality":"Cuenca","region":"Azuay"}},"labels":["concert","music"],"duration":0,"start_local":"2024-05-24T20:00:00","end":"2024-05-25T01:00:00Z","end_local":"2024-05-24T20:00:00","updated":"2024-06-12T06:43:11Z"},{"title":"Liga Pro - 1st Round - Imbabura vs Emelec","description":"Sourced from predicthq.com","category":"sports","start":"2024-05-25T00:00:00Z","geo":{"geometry":{"coordinates":[-78.118313,0.3596067],"type":"Point"},"placekey":"@cjx-qpv-5xq","address":{"country_code":"EC","formatted_address":"Avenida Jaime Roldos Aguilera, Ibarra, Ecuador","locality":"Ibarra","region":"Provincia de Imbabura"}},"labels":["soccer","sport"],"duration":7035,"start_local":"2024-05-24T19:00:00","end":"2024-05-25T01:57:15Z","end_local":"2024-05-24T20:57:15","updated":"2024-06-05T14:36:09Z"},{"title":"Aztra","description":"Sourced from predicthq.com","category":"community","start":"2024-05-24T23:00:00Z","geo":{"geometry":{"coordinates":[-78.45305,-0.00781],"type":"Point"},"placekey":"@cjy-757-8sq","address":{"country_code":"EC","formatted_address":"Av. Manuel Córdova Galarza 3, Quito, Ecuador","locality":"Quito","region":"Pichincha"}},"labels":["concert","music"],"duration":0,"start_local":"2024-05-24T18:00:00","end":"2024-05-24T23:00:00Z","end_local":"2024-05-24T18:00:00","updated":"2024-06-05T01:32:05Z"},{"title":"Liga Pro Serie B - Manta vs Chacaritas","description":"Sourced from predicthq.com","category":"sports","start":"2024-05-24T00:00:00Z","geo":{"geometry":{"coordinates":[-80.7027347,-0.9640698],"type":"Point"},"placekey":"@h7q-n9q-pqf","address":{"country_code":"EC","formatted_address":"Manta, Manabí Province, Ecuador","locality":"Manta","region":"Manabí Province"}},"labels":["soccer","sport"],"duration":0,"start_local":"2024-05-23T19:00:00","end":"2024-05-24T00:00:00Z","end_local":"2024-05-23T19:00:00","updated":"2024-06-11T23:17:06Z"},{"title":"Foro Comercio Electrónico","description":"Sourced from predicthq.com - Ventas en linea.","category":"conferences","start":"2024-05-23T15:00:00Z","geo":{"geometry":{"coordinates":[-79.897211,-2.157982],"type":"Point"},"placekey":"@h7p-y3n-nt9","address":{"country_code":"EC","formatted_address":"Avenida Francisco de Orellana y Luis Orrantia, Torre A, Edif. Las Cámaras, Segundo Piso, Av. Francisco de Orellana &, Guayaquil 090512, Ecuador","postcode":"090512","locality":"Guayaquil","region":"Guayas"}},"labels":["business","conference"],"duration":3600,"start_local":"2024-05-23T10:00:00","end":"2024-05-23T16:00:00Z","end_local":"2024-05-23T11:00:00","updated":"2024-06-05T03:20:21Z"},{"title":"Carmen - Elenco de Ballet Clásico de la Compañía Nacional de Danza","description":"Sourced from predicthq.com - El Teatro Capitol es un espacio inclusivo y diverso","category":"performing-arts","start":"2024-05-23T00:00:00Z","geo":{"geometry":{"coordinates":[-78.50060239999999,-0.216895],"type":"Point"},"placekey":"@cjy-8nv-87q","address":{"country_code":"EC","formatted_address":"Ramon Egas, 170136, Quito, Ecuador","locality":"Quito","postcode":"170136","region":"Pichincha"}},"labels":["concert","music","performing-arts"],"duration":7200,"start_local":"2024-05-22T19:00:00","end":"2024-05-23T02:00:00Z","end_local":"2024-05-22T21:00:00","updated":"2024-06-05T07:06:11Z"},{"title":"Liga Pro Serie B - Leones del Norte vs Vargas Torres","description":"Sourced from predicthq.com","category":"sports","start":"2024-05-23T00:00:00Z","geo":{"geometry":{"coordinates":[-78.118313,0.3596067],"type":"Point"},"placekey":"@cjx-qpv-5xq","address":{"country_code":"EC","formatted_address":"Avenida Jaime Roldos Aguilera, Ibarra, Ecuador","locality":"Ibarra","region":"Provincia de Imbabura"}},"labels":["soccer","sport"],"duration":0,"start_local":"2024-05-22T19:00:00","end":"2024-05-23T00:00:00Z","end_local":"2024-05-22T19:00:00","updated":"2024-06-12T06:27:55Z"},{"title":"Liga Pro - 1st Round - Barcelona vs LDU Quito","description":"Sourced from predicthq.com","category":"sports","start":"2024-05-23T00:00:00Z","geo":{"geometry":{"coordinates":[-79.9249138,-2.1858712],"type":"Point"},"placekey":"@h7p-y56-m8v","address":{"country_code":"EC","formatted_address":"090615, Guayaquil, Ecuador","postcode":"090615","locality":"Guayaquil","region":"Guayas"}},"labels":["soccer","sport"],"duration":6899,"start_local":"2024-05-22T19:00:00","end":"2024-05-23T01:54:59Z","end_local":"2024-05-22T20:54:59","updated":"2024-06-11T21:19:04Z"},{"title":"Liga Pro - 1st Round - Mushuc Runa vs Universidad Católica","description":"Sourced from predicthq.com","category":"sports","start":"2024-05-22T20:30:00Z","geo":{"geometry":{"coordinates":[-78.727898,-1.3091289],"type":"Point"},"placekey":"@h7q-dsg-vxq","address":{"country_code":"EC","formatted_address":"Vía Ambato-Guaranda E491, Pilahuin, Ambato, Ecuador","locality":"Ambato"}},"labels":["soccer","sport"],"duration":7048,"start_local":"2024-05-22T15:30:00","end":"2024-05-22T22:27:28Z","end_local":"2024-05-22T17:27:28","updated":"2024-06-11T22:13:09Z"},{"title":"Liga Pro Serie B - Gualaceo vs Independiente Juniors","description":"Sourced from predicthq.com","category":"sports","start":"2024-05-22T20:00:00Z","geo":{"geometry":{"coordinates":[-78.843297958,-2.749988783094],"type":"Point"},"placekey":"@h8f-ttq-sqz","address":{"country_code":"EC","formatted_address":"7524+5G4, C. del Estadio, Azogues, Ecuador","locality":"Azogues","region":"Cañar"}},"labels":["soccer","sport"],"duration":0,"start_local":"2024-05-22T15:00:00","end":"2024-05-22T20:00:00Z","end_local":"2024-05-22T15:00:00","updated":"2024-06-12T01:26:17Z"},{"title":"PanaSoMM","description":"Sourced from predicthq.com","category":"conferences","start":"2024-05-22T14:00:00Z","geo":{"geometry":{"coordinates":[-78.5023889,-0.2006288],"type":"Point"},"placekey":"@cjy-8p3-sdv","address":{"country_code":"EC","formatted_address":"Av. Universitaria, Quito 170129, Ecuador","postcode":"170129","locality":"Quito","region":"Pichincha"}},"labels":["conference"],"duration":118800,"start_local":"2024-05-22T09:00:00","end":"2024-05-23T23:00:00Z","end_local":"2024-05-23T18:00:00","updated":"2024-07-02T03:41:39Z"},{"title":"Datos seguros, empresas seguras.","description":"Sourced from predicthq.com - Ley de Protección de Datos Personales","category":"conferences","start":"2024-05-22T10:30:00Z","geo":{"geometry":{"coordinates":[-79.897211,-2.157982],"type":"Point"},"placekey":"@h7p-y3n-nt9","address":{"country_code":"EC","formatted_address":"Avenida Francisco de Orellana y Luis Orrantia, Torre A, Edif. Las Cámaras, Segundo Piso, Av. Francisco de Orellana &, Guayaquil 090512, Ecuador","postcode":"090512","locality":"Guayaquil","region":"Guayas"}},"labels":["business","conference"],"duration":41400,"start_local":"2024-05-22T05:30:00","end":"2024-05-22T22:00:00Z","end_local":"2024-05-22T17:00:00","updated":"2024-06-05T21:24:21Z"},{"title":"Liga Pro Serie B - Guayaquil City vs 9 de Octubre","description":"Sourced from predicthq.com","category":"sports","start":"2024-05-22T00:00:00Z","geo":{"geometry":{"coordinates":[-79.9035275,-2.1030743],"type":"Point"},"placekey":"@h7p-y6h-3h5","address":{"country_code":"EC","formatted_address":"V3WX+G5G Parque Samanes, Guayaquil 090112, Ecuador","postcode":"090112","locality":"Guayaquil","region":"Guayas"}},"labels":["soccer","sport"],"duration":0,"start_local":"2024-05-21T19:00:00","end":"2024-05-22T00:00:00Z","end_local":"2024-05-21T19:00:00","updated":"2024-06-12T10:36:35Z"},{"title":"Liga Pro Serie B - Cuniburo vs San Antonio","description":"Sourced from predicthq.com","category":"sports","start":"2024-05-21T21:30:00Z","geo":{"geometry":{"coordinates":[-78.4763288498,-0.1776692404],"type":"Point"},"placekey":"@cjy-8qr-99f","address":{"country_code":"EC","formatted_address":"RGFF+284, Av. Naciones Unidas, Quito 170135, Ecuador","postcode":"170135","locality":"Quito","region":"Pichincha"}},"labels":["soccer","sport"],"duration":0,"start_local":"2024-05-21T16:30:00","end":"2024-05-21T21:30:00Z","end_local":"2024-05-21T16:30:00","updated":"2024-06-12T05:02:19Z"},{"title":"Liga Pro - 1st Round - Técnico Universitario vs Orense","description":"Sourced from predicthq.com","category":"sports","start":"2024-05-21T00:00:00Z","geo":{"geometry":{"coordinates":[-78.6232051,-1.2446095],"type":"Point"},"placekey":"@h7q-dt7-qmk","address":{"country_code":"EC","formatted_address":"Avenida Bolivariana, EC180104, Ambato, Ecuador","postcode":"EC180104","locality":"Ambato","region":"Tungurahua"}},"labels":["soccer","sport"],"duration":7359,"start_local":"2024-05-20T19:00:00","end":"2024-05-21T02:02:39Z","end_local":"2024-05-20T21:02:39","updated":"2024-06-12T00:53:46Z"},{"title":"Liga Pro - 1st Round - Cumbayá vs Barcelona","description":"Sourced from predicthq.com","category":"sports","start":"2024-05-19T23:00:00Z","geo":{"geometry":{"coordinates":[-78.4763288498,-0.1776692404],"type":"Point"},"placekey":"@cjy-8qr-99f","address":{"country_code":"EC","formatted_address":"RGFF+284, Av. Naciones Unidas, Quito 170135, Ecuador","postcode":"170135","locality":"Quito","region":"Pichincha"}},"labels":["soccer","sport"],"duration":7275,"start_local":"2024-05-19T18:00:00","end":"2024-05-20T01:01:15Z","end_local":"2024-05-19T20:01:15","updated":"2024-06-05T01:28:35Z"},{"title":"Concierto de Temporada Sinfónica Juvenil Osne","description":"Sourced from predicthq.com - El Teatro Capitol es un espacio inclusivo y diverso","category":"concerts","start":"2024-05-19T22:00:00Z","geo":{"geometry":{"coordinates":[-78.50060239999999,-0.216895],"type":"Point"},"placekey":"@cjy-8nv-87q","address":{"country_code":"EC","formatted_address":"Ramon Egas, 170136, Quito, Ecuador","locality":"Quito","postcode":"170136","region":"Pichincha"}},"labels":["concert","music"],"duration":3600,"start_local":"2024-05-19T17:00:00","end":"2024-05-19T23:00:00Z","end_local":"2024-05-19T18:00:00","updated":"2024-06-02T22:04:52Z"},{"title":"Liga Pro - 1st Round - Aucas vs Universidad Católica","description":"Sourced from predicthq.com","category":"sports","start":"2024-05-19T20:30:00Z","geo":{"geometry":{"coordinates":[-78.5464225,-0.2789814],"type":"Point"},"placekey":"@cjy-87m-2x5","address":{"country_code":"EC","formatted_address":"Avenida Rumichaca Ñan, EC170131, Quito, Ecuador","postcode":"EC170131","locality":"Quito","region":"Pichincha"}},"labels":["soccer","sport"],"duration":7236,"start_local":"2024-05-19T15:30:00","end":"2024-05-19T22:30:36Z","end_local":"2024-05-19T17:30:36","updated":"2024-06-12T07:22:45Z"},{"title":"Liga Pro - 1st Round - Mushuc Runa vs Delfín","description":"Sourced from predicthq.com","category":"sports","start":"2024-05-19T18:00:00Z","geo":{"geometry":{"coordinates":[-78.727898,-1.3091289],"type":"Point"},"placekey":"@h7q-dsg-vxq","address":{"country_code":"EC","formatted_address":"Vía Ambato-Guaranda E491, Pilahuin, Ambato, Ecuador","locality":"Ambato"}},"labels":["soccer","sport"],"duration":6940,"start_local":"2024-05-19T13:00:00","end":"2024-05-19T19:55:40Z","end_local":"2024-05-19T14:55:40","updated":"2024-06-05T03:16:36Z"},{"title":"Liga Pro - 1st Round - Independiente Valle vs LDU Quito","description":"Sourced from predicthq.com","category":"sports","start":"2024-05-18T23:00:00Z","geo":{"geometry":{"coordinates":[-78.470615651,-0.349051534],"type":"Point"},"placekey":"@cjy-8d4-5j9","address":{"country_code":"EC","formatted_address":"Calle F S/N y Calle I, Chillo-Jijón, Sangolquí, Ecuador","locality":"Sangolquí"}},"labels":["soccer","sport"],"duration":7064,"start_local":"2024-05-18T18:00:00","end":"2024-05-19T00:57:44Z","end_local":"2024-05-18T19:57:44","updated":"2024-06-05T07:44:17Z"},{"title":"Liga Pro - 1st Round - Emelec vs Macará","description":"Sourced from predicthq.com","category":"sports","start":"2024-05-18T20:30:00Z","geo":{"geometry":{"coordinates":[-79.8937912,-2.2067158],"type":"Point"},"placekey":"@h7p-y57-vxq","address":{"country_code":"EC","formatted_address":"Gral. José A.Gómez, Guayaquil 090315, Ecuador","postcode":"090315","locality":"Guayaquil","region":"Guayas"}},"labels":["soccer","sport"],"duration":7114,"start_local":"2024-05-18T15:30:00","end":"2024-05-18T22:28:34Z","end_local":"2024-05-18T17:28:34","updated":"2024-05-28T04:57:09Z"},{"title":"Liga Pro - 1st Round - Libertad vs El Nacional","description":"Sourced from predicthq.com","category":"sports","start":"2024-05-18T18:00:00Z","geo":{"geometry":{"coordinates":[-79.20773506164551,-3.992013134117186],"type":"Point"},"placekey":"@h8d-spm-hh5","address":{"country_code":"EC","formatted_address":"XRX3+J95, Alonso de Mercadillo, Loja, Ecuador","locality":"Loja","region":"Loja"}},"labels":["soccer","sport"],"duration":7101,"start_local":"2024-05-18T13:00:00","end":"2024-05-18T19:58:21Z","end_local":"2024-05-18T14:58:21","updated":"2024-06-05T01:17:27Z"},{"title":"¡Quito, estudia y trabaja en Canadá! Mayo de mimosas y maestrías.","description":"Sourced from predicthq.com - Asiste a una charla informativa para conocer más de los beneficios de estudiar una maestría en Canadá.","category":"conferences","start":"2024-05-18T15:00:00Z","geo":{"geometry":{"coordinates":[-78.4895939,-0.1870408],"type":"Point"},"placekey":"@cjy-8qq-x3q","address":{"country_code":"EC","formatted_address":"170515, Quito, Ecuador","locality":"Quito","postcode":"170515","region":"Pichincha"}},"labels":["conference","education","family"],"duration":14400,"start_local":"2024-05-18T10:00:00","end":"2024-05-18T19:00:00Z","end_local":"2024-05-18T14:00:00","updated":"2024-06-05T03:36:27Z"},{"title":"Star Fest","description":"Sourced from predicthq.com","category":"festivals","start":"2024-05-18T05:00:00Z","geo":{"geometry":{"coordinates":[-78.48555,-0.21264],"type":"Point"},"placekey":"@cjy-8p5-f4v","address":{"country_code":"EC","formatted_address":"QGP5+JXX, Av. Ladrón de Guevara, Quito 170136, Ecuador","postcode":"170136","locality":"Quito","region":"Pichincha"}},"labels":["festival","music"],"duration":86399,"start_local":"2024-05-18T00:00:00","end":"2024-05-19T04:59:59Z","end_local":"2024-05-18T23:59:59","updated":"2024-06-05T14:59:58Z"},{"title":"QULTURA ROCK","description":"Sourced from predicthq.com - El Teatro Capitol es un espacio inclusivo y diverso","category":"concerts","start":"2024-05-18T00:00:00Z","geo":{"geometry":{"coordinates":[-78.50060239999999,-0.216895],"type":"Point"},"placekey":"@cjy-8nv-87q","address":{"country_code":"EC","formatted_address":"Ramon Egas, 170136, Quito, Ecuador","locality":"Quito","postcode":"170136","region":"Pichincha"}},"labels":["concert","music"],"duration":7200,"start_local":"2024-05-17T19:00:00","end":"2024-05-18T02:00:00Z","end_local":"2024-05-17T21:00:00","updated":"2024-06-01T00:14:59Z"},{"title":"Liga Pro - 1st Round - Deportivo Cuenca vs Imbabura","description":"Sourced from predicthq.com","category":"sports","start":"2024-05-18T00:00:00Z","geo":{"geometry":{"coordinates":[-79.0055218,-2.9067434],"type":"Point"},"placekey":"@h8f-v28-hqz","address":{"country_code":"EC","formatted_address":"3XVV+8Q5, Av. del Estadio, Cuenca 010107, Ecuador","postcode":"010107","locality":"Cuenca","region":"Azuay"}},"labels":["soccer","sport"],"duration":7067,"start_local":"2024-05-17T19:00:00","end":"2024-05-18T01:57:47Z","end_local":"2024-05-17T20:57:47","updated":"2024-06-05T10:05:14Z"},{"title":"CONMEBOL Sudamericana - Group Stage - Universidad Católica vs Alianza","description":"Sourced from predicthq.com","category":"sports","start":"2024-05-17T02:00:00Z","geo":{"geometry":{"coordinates":[-78.4763288498,-0.1776692404],"type":"Point"},"placekey":"@cjy-8qr-99f","address":{"country_code":"EC","formatted_address":"RGFF+284, Av. Naciones Unidas, Quito 170135, Ecuador","postcode":"170135","locality":"Quito","region":"Pichincha"}},"labels":["soccer","sport"],"duration":7403,"start_local":"2024-05-16T21:00:00","end":"2024-05-17T04:03:23Z","end_local":"2024-05-16T23:03:23","updated":"2024-06-05T18:39:26Z"},{"title":"Liga Pro Serie B - Independiente Juniors vs Manta","description":"Sourced from predicthq.com","category":"sports","start":"2024-05-17T00:00:00Z","geo":{"geometry":{"coordinates":[-78.470615651,-0.349051534],"type":"Point"},"placekey":"@cjy-8d4-5j9","address":{"country_code":"EC","formatted_address":"Calle F S/N y Calle I, Chillo-Jijón, Sangolquí, Ecuador","locality":"Sangolquí"}},"labels":["soccer","sport"],"duration":0,"start_local":"2024-05-16T19:00:00","end":"2024-05-17T00:00:00Z","end_local":"2024-05-16T19:00:00","updated":"2024-06-12T19:03:19Z"},{"title":"¡QUITO, ESTUDIA Y TRABAJA EN CANADÁ!","description":"Sourced from predicthq.com - Ven y descubre todas las oportunidades para estudiar y trabajar en Canadá, ¡te esperamos en Quito!","category":"conferences","start":"2024-05-16T23:30:00Z","geo":{"geometry":{"coordinates":[-78.4832382,-0.1714058],"type":"Point"},"placekey":"@cjy-8qp-ygk","address":{"country_code":"EC","formatted_address":"Alfonso Pereira, 170135, Quito, Ecuador","locality":"Quito","postcode":"170135","region":"Pichincha"}},"labels":["conference","outdoor"],"duration":5400,"start_local":"2024-05-16T18:30:00","end":"2024-05-17T01:00:00Z","end_local":"2024-05-16T20:00:00","updated":"2024-06-05T16:39:16Z"},{"title":"Facultad de Artes de la Universidad Central del Ecuador  -Ballet Carmen-","description":"Sourced from predicthq.com - Facultad de Artes de la Universidad Central del Ecuador (FAUCE) y  la Compañía Nacional de Danza del Ecuador -Ballet Carmen-","category":"performing-arts","start":"2024-05-16T20:00:00Z","geo":{"geometry":{"coordinates":[-78.4678382,-0.1806532],"type":"Point"},"placekey":"@cjy-8qr-ht9","address":{"country_code":"EC","formatted_address":"Quito, Pichincha, Ecuador","locality":"Quito","region":"Pichincha"}},"labels":["concert","music","performing-arts"],"duration":10800,"start_local":"2024-05-16T15:00:00","end":"2024-05-16T23:00:00Z","end_local":"2024-05-16T18:00:00","updated":"2024-05-30T20:02:00Z"},{"title":"RoadShow Loja- Evento Soluciones ICO 2024","description":"Sourced from predicthq.com - Lugar: Hotel Sonesta","category":"expos","start":"2024-05-16T19:00:00Z","geo":{"geometry":{"coordinates":[-79.1977599,-3.9936954],"type":"Point"},"placekey":"@h8d-sph-dgk","address":{"country_code":"EC","formatted_address":"Loja, Ecuador","locality":"Loja","region":"Loja"}},"labels":["business","expo"],"duration":18000,"start_local":"2024-05-16T14:00:00","end":"2024-05-17T00:00:00Z","end_local":"2024-05-16T19:00:00","updated":"2024-06-05T18:32:59Z"},{"title":"Liga Pro Serie B - San Antonio vs Guayaquil City","description":"Sourced from predicthq.com","category":"sports","start":"2024-05-16T00:00:00Z","geo":{"geometry":{"coordinates":[-78.118313,0.3596067],"type":"Point"},"placekey":"@cjx-qpv-5xq","address":{"country_code":"EC","formatted_address":"Avenida Jaime Roldos Aguilera, Ibarra, Ecuador","locality":"Ibarra","region":"Provincia de Imbabura"}},"labels":["soccer","sport"],"duration":0,"start_local":"2024-05-15T19:00:00","end":"2024-05-16T00:00:00Z","end_local":"2024-05-15T19:00:00","updated":"2024-06-12T16:55:16Z"},{"title":"Dragada por la Diversidad","description":"Sourced from predicthq.com - El Teatro Capitol es un espacio inclusivo y diverso","category":"concerts","start":"2024-05-16T00:00:00Z","geo":{"geometry":{"coordinates":[-78.50060239999999,-0.216895],"type":"Point"},"placekey":"@cjy-8nv-87q","address":{"country_code":"EC","formatted_address":"Ramon Egas, 170136, Quito, Ecuador","locality":"Quito","postcode":"170136","region":"Pichincha"}},"labels":["community","concert","music"],"duration":7200,"start_local":"2024-05-15T19:00:00","end":"2024-05-16T02:00:00Z","end_local":"2024-05-15T21:00:00","updated":"2024-05-30T00:12:34Z"},{"title":"Liga Pro Serie B - 9 de Octubre vs Leones del Norte","description":"Sourced from predicthq.com","category":"sports","start":"2024-05-15T20:00:00Z","geo":{"geometry":{"coordinates":[-79.89841725,-2.258804246],"type":"Point"},"placekey":"@h7p-xp2-jsq","address":{"country_code":"EC","formatted_address":"Arq Andrés Efraín Alava Mestanza 111, Guayaquil 090208, Ecuador","postcode":"090208","locality":"Guayaquil","region":"Guayas"}},"labels":["soccer","sport"],"duration":0,"start_local":"2024-05-15T15:00:00","end":"2024-05-15T20:00:00Z","end_local":"2024-05-15T15:00:00","updated":"2024-06-12T16:42:58Z"},{"title":"International Geographical Union Thematic Conference","description":"Sourced from predicthq.com","category":"conferences","start":"2024-05-15T14:00:00Z","geo":{"geometry":{"coordinates":[-78.4854805,-0.1963021],"type":"Point"},"placekey":"@cjy-8p5-xnq","address":{"country_code":"EC","formatted_address":"Avenue Diego de Almagro, 170201, Quito, Ecuador","postcode":"170201","locality":"Quito","region":"Pichincha"}},"labels":["conference"],"duration":205200,"start_local":"2024-05-15T09:00:00","end":"2024-05-17T23:00:00Z","end_local":"2024-05-17T18:00:00","updated":"2024-05-31T22:57:31Z"},{"title":"Liga Pro Serie B - Chacaritas vs Vargas Torres","description":"Sourced from predicthq.com","category":"sports","start":"2024-05-15T00:00:00Z","geo":{"geometry":{"coordinates":[-78.6232051,-1.2446095],"type":"Point"},"placekey":"@h7q-dt7-qmk","address":{"country_code":"EC","formatted_address":"Avenida Bolivariana, EC180104, Ambato, Ecuador","postcode":"EC180104","locality":"Ambato","region":"Tungurahua"}},"labels":["soccer","sport"],"duration":0,"start_local":"2024-05-14T19:00:00","end":"2024-05-15T00:00:00Z","end_local":"2024-05-14T19:00:00","updated":"2024-06-12T06:12:01Z"},{"title":"¡GUAYAQUIL, ESTUDIA Y TRABAJA EN CANADA!","description":"Sourced from predicthq.com - Ven y descubre todas las oportunidades para estudiar y trabajar en Canadá, ¡te esperamos en Guayaquil!","category":"conferences","start":"2024-05-14T23:30:00Z","geo":{"geometry":{"coordinates":[-79.89604109999999,-2.1665653],"type":"Point"},"placekey":"@h7p-y3n-yvz","address":{"country_code":"EC","formatted_address":"Avenida Francisco de Orellana, 090512, Guayaquil, Ecuador","locality":"Guayaquil","postcode":"090512","region":"Guayas"}},"labels":["conference","outdoor"],"duration":5400,"start_local":"2024-05-14T18:30:00","end":"2024-05-15T01:00:00Z","end_local":"2024-05-14T20:00:00","updated":"2024-06-05T08:41:49Z"},{"title":"CONMEBOL Libertadores - Group Stage - LDU Quito vs Junior","description":"Sourced from predicthq.com","category":"sports","start":"2024-05-14T22:00:00Z","geo":{"geometry":{"coordinates":[-78.48909789999999,-0.1076798],"type":"Point"},"placekey":"@cjy-8qf-7nq","address":{"country_code":"EC","formatted_address":"Quito 170144, Ecuador","postcode":"170144","locality":"Quito","region":"Pichincha"}},"labels":["soccer","sport"],"duration":6824,"start_local":"2024-05-14T17:00:00","end":"2024-05-14T23:53:44Z","end_local":"2024-05-14T18:53:44","updated":"2024-06-05T00:39:55Z"},{"title":"Liga Pro Serie B - Cuniburo vs Gualaceo","description":"Sourced from predicthq.com","category":"sports","start":"2024-05-14T20:00:00Z","geo":{"geometry":{"coordinates":[-78.470615651,-0.349051534],"type":"Point"},"placekey":"@cjy-8d4-5j9","address":{"country_code":"EC","formatted_address":"Calle F S/N y Calle I, Chillo-Jijón, Sangolquí, Ecuador","locality":"Sangolquí"}},"labels":["soccer","sport"],"duration":0,"start_local":"2024-05-14T15:00:00","end":"2024-05-14T20:00:00Z","end_local":"2024-05-14T15:00:00","updated":"2024-06-12T06:34:47Z"},{"title":"RoadShow Cuenca - Evento Soluciones ICO 2024","description":"Sourced from predicthq.com - Lugar: Kuna Hotel","category":"expos","start":"2024-05-14T19:00:00Z","geo":{"geometry":{"coordinates":[-79.0023714,-2.8844982],"type":"Point"},"placekey":"@h8f-v2g-hnq","address":{"country_code":"EC","formatted_address":"Avenida de las Américas, Cuenca, Ecuador","locality":"Cuenca","region":"Azuay"}},"labels":["business","expo"],"duration":18000,"start_local":"2024-05-14T14:00:00","end":"2024-05-15T00:00:00Z","end_local":"2024-05-14T19:00:00","updated":"2024-06-04T23:36:44Z"},{"title":"Liga Pro - 1st Round - Universidad Católica vs Técnico Universitario","description":"Sourced from predicthq.com","category":"sports","start":"2024-05-14T00:00:00Z","geo":{"geometry":{"coordinates":[-78.4763288498,-0.1776692404],"type":"Point"},"placekey":"@cjy-8qr-99f","address":{"country_code":"EC","formatted_address":"RGFF+284, Av. Naciones Unidas, Quito 170135, Ecuador","postcode":"170135","locality":"Quito","region":"Pichincha"}},"labels":["soccer","sport"],"duration":7553,"start_local":"2024-05-13T19:00:00","end":"2024-05-14T02:05:53Z","end_local":"2024-05-13T21:05:53","updated":"2024-06-05T11:11:04Z"},{"title":"Liga Pro - 1st Round - Barcelona vs Aucas","description":"Sourced from predicthq.com","category":"sports","start":"2024-05-12T23:00:00Z","geo":{"geometry":{"coordinates":[-79.9249138,-2.1858712],"type":"Point"},"placekey":"@h7p-y56-m8v","address":{"country_code":"EC","formatted_address":"090615, Guayaquil, Ecuador","postcode":"090615","locality":"Guayaquil","region":"Guayas"}},"labels":["soccer","sport"],"duration":7248,"start_local":"2024-05-12T18:00:00","end":"2024-05-13T01:00:48Z","end_local":"2024-05-12T20:00:48","updated":"2024-05-27T16:32:35Z"},{"title":"Grand March en Ballroom: El Esplendor de las casas","description":"Sourced from predicthq.com - El Teatro Capitol es un espacio inclusivo y diverso","category":"concerts","start":"2024-05-12T21:00:00Z","geo":{"geometry":{"coordinates":[-78.50060239999999,-0.216895],"type":"Point"},"placekey":"@cjy-8nv-87q","address":{"country_code":"EC","formatted_address":"Ramon Egas, 170136, Quito, Ecuador","locality":"Quito","postcode":"170136","region":"Pichincha"}},"labels":["community","concert","music"],"duration":7200,"start_local":"2024-05-12T16:00:00","end":"2024-05-12T23:00:00Z","end_local":"2024-05-12T18:00:00","updated":"2024-05-26T21:02:22Z"},{"title":"Liga Pro - 1st Round - Delfín vs Orense","description":"Sourced from predicthq.com","category":"sports","start":"2024-05-12T20:30:00Z","geo":{"geometry":{"coordinates":[-80.7027347,-0.9640698],"type":"Point"},"placekey":"@h7q-n9q-pqf","address":{"country_code":"EC","formatted_address":"Manta, Manabí Province, Ecuador","locality":"Manta","region":"Manabí Province"}},"labels":["soccer","sport"],"duration":7158,"start_local":"2024-05-12T15:30:00","end":"2024-05-12T22:29:18Z","end_local":"2024-05-12T17:29:18","updated":"2024-05-28T23:35:26Z"},{"title":"Liga Pro - 1st Round - El Nacional vs Independiente Valle","description":"Sourced from predicthq.com","category":"sports","start":"2024-05-12T18:00:00Z","geo":{"geometry":{"coordinates":[-78.4763288498,-0.1776692404],"type":"Point"},"placekey":"@cjy-8qr-99f","address":{"country_code":"EC","formatted_address":"RGFF+284, Av. Naciones Unidas, Quito 170135, Ecuador","postcode":"170135","locality":"Quito","region":"Pichincha"}},"labels":["soccer","sport"],"duration":7207,"start_local":"2024-05-12T13:00:00","end":"2024-05-12T20:00:07Z","end_local":"2024-05-12T15:00:07","updated":"2024-06-05T11:22:44Z"},{"title":"Aquisito no mas ...","description":"Sourced from predicthq.com - El Teatro Capitol es un espacio inclusivo y diverso","category":"concerts","start":"2024-05-12T00:00:00Z","geo":{"geometry":{"coordinates":[-78.50060239999999,-0.216895],"type":"Point"},"placekey":"@cjy-8nv-87q","address":{"country_code":"EC","formatted_address":"Ramon Egas, 170136, Quito, Ecuador","locality":"Quito","postcode":"170136","region":"Pichincha"}},"labels":["community","concert","music"],"duration":7200,"start_local":"2024-05-11T19:00:00","end":"2024-05-12T02:00:00Z","end_local":"2024-05-11T21:00:00","updated":"2024-05-26T00:42:22Z"},{"title":"Liga Pro - 1st Round - LDU Quito vs Emelec","description":"Sourced from predicthq.com","category":"sports","start":"2024-05-11T23:00:00Z","geo":{"geometry":{"coordinates":[-78.48909789999999,-0.1076798],"type":"Point"},"placekey":"@cjy-8qf-7nq","address":{"country_code":"EC","formatted_address":"Quito 170144, Ecuador","postcode":"170144","locality":"Quito","region":"Pichincha"}},"labels":["soccer","sport"],"duration":7138,"start_local":"2024-05-11T18:00:00","end":"2024-05-12T00:58:58Z","end_local":"2024-05-11T19:58:58","updated":"2024-06-05T01:13:44Z"},{"title":"Liga Pro - 1st Round - Macará vs Mushuc Runa","description":"Sourced from predicthq.com","category":"sports","start":"2024-05-11T20:30:00Z","geo":{"geometry":{"coordinates":[-78.6232051,-1.2446095],"type":"Point"},"placekey":"@h7q-dt7-qmk","address":{"country_code":"EC","formatted_address":"Avenida Bolivariana, EC180104, Ambato, Ecuador","postcode":"EC180104","locality":"Ambato","region":"Tungurahua"}},"labels":["soccer","sport"],"duration":6885,"start_local":"2024-05-11T15:30:00","end":"2024-05-11T22:24:45Z","end_local":"2024-05-11T17:24:45","updated":"2024-06-12T08:53:31Z"},{"title":"Liga Pro - 1st Round - Imbabura vs Libertad","description":"Sourced from predicthq.com","category":"sports","start":"2024-05-11T18:00:00Z","geo":{"geometry":{"coordinates":[-78.118313,0.3596067],"type":"Point"},"placekey":"@cjx-qpv-5xq","address":{"country_code":"EC","formatted_address":"Avenida Jaime Roldos Aguilera, Ibarra, Ecuador","locality":"Ibarra","region":"Provincia de Imbabura"}},"labels":["soccer","sport"],"duration":7114,"start_local":"2024-05-11T13:00:00","end":"2024-05-11T19:58:34Z","end_local":"2024-05-11T14:58:34","updated":"2024-06-05T07:51:30Z"},{"title":"Neblina Polar, pinpunpaw, Junkie Monkie, and Joda Universal","description":"Sourced from predicthq.com","category":"concerts","start":"2024-05-11T01:00:00Z","geo":{"geometry":{"coordinates":[-78.50077,-0.21766],"type":"Point"},"placekey":"@cjy-8nv-89z","address":{"country_code":"EC","formatted_address":"Av. Paúl Rivet N30-98, Edf Melrose Plaza. (Entre Whymper, y, Quito 170517, Ecuador","postcode":"170517","locality":"Quito","region":"Pichincha"}},"labels":["concert","music"],"duration":0,"start_local":"2024-05-10T20:00:00","end":"2024-05-11T01:00:00Z","end_local":"2024-05-10T20:00:00","updated":"2024-06-12T08:54:08Z"},{"title":"Liga Pro - 1st Round - Deportivo Cuenca vs Cumbayá","description":"Sourced from predicthq.com","category":"sports","start":"2024-05-11T00:00:00Z","geo":{"geometry":{"coordinates":[-79.0055218,-2.9067434],"type":"Point"},"placekey":"@h8f-v28-hqz","address":{"country_code":"EC","formatted_address":"3XVV+8Q5, Av. del Estadio, Cuenca 010107, Ecuador","postcode":"010107","locality":"Cuenca","region":"Azuay"}},"labels":["soccer","sport"],"duration":7205,"start_local":"2024-05-10T19:00:00","end":"2024-05-11T02:00:05Z","end_local":"2024-05-10T21:00:05","updated":"2024-06-05T17:11:15Z"},{"title":"CONMEBOL Sudamericana - Group Stage - Universidad Católica vs Unión La Calera","description":"Sourced from predicthq.com","category":"sports","start":"2024-05-10T02:00:00Z","geo":{"geometry":{"coordinates":[-78.4763288498,-0.1776692404],"type":"Point"},"placekey":"@cjy-8qr-99f","address":{"country_code":"EC","formatted_address":"RGFF+284, Av. Naciones Unidas, Quito 170135, Ecuador","postcode":"170135","locality":"Quito","region":"Pichincha"}},"labels":["soccer","sport"],"duration":6650,"start_local":"2024-05-09T21:00:00","end":"2024-05-10T03:50:50Z","end_local":"2024-05-09T22:50:50","updated":"2024-06-05T12:57:35Z"},{"title":"Liga Pro Serie B - Gualaceo vs Chacaritas","description":"Sourced from predicthq.com","category":"sports","start":"2024-05-10T00:00:00Z","geo":{"geometry":{"coordinates":[-78.843297958,-2.749988783094],"type":"Point"},"placekey":"@h8f-ttq-sqz","address":{"country_code":"EC","formatted_address":"7524+5G4, C. del Estadio, Azogues, Ecuador","locality":"Azogues","region":"Cañar"}},"labels":["soccer","sport"],"duration":0,"start_local":"2024-05-09T19:00:00","end":"2024-05-10T00:00:00Z","end_local":"2024-05-09T19:00:00","updated":"2024-06-12T00:54:34Z"},{"title":"Las Criadas","description":"Sourced from predicthq.com - El Teatro Capitol es un espacio inclusivo y diverso","category":"concerts","start":"2024-05-10T00:00:00Z","geo":{"geometry":{"coordinates":[-78.50060239999999,-0.216895],"type":"Point"},"placekey":"@cjy-8nv-87q","address":{"country_code":"EC","formatted_address":"Ramon Egas, 170136, Quito, Ecuador","locality":"Quito","postcode":"170136","region":"Pichincha"}},"labels":["community","concert","music"],"duration":7200,"start_local":"2024-05-09T19:00:00","end":"2024-05-10T02:00:00Z","end_local":"2024-05-09T21:00:00","updated":"2024-05-24T00:08:34Z"},{"title":"Liga Pro Serie B - Vargas Torres vs 9 de Octubre","description":"Sourced from predicthq.com","category":"sports","start":"2024-05-09T00:00:00Z","geo":{"geometry":{"coordinates":[-79.148530004,-0.2496505],"type":"Point"},"placekey":"@h7q-8r7-yvz","address":{"country_code":"EC","formatted_address":"Av. Río Lelia, Santo Domingo de los Colorados, Ecuador","locality":"Santo Domingo de los Colorados"}},"labels":["soccer","sport"],"duration":0,"start_local":"2024-05-08T19:00:00","end":"2024-05-09T00:00:00Z","end_local":"2024-05-08T19:00:00","updated":"2024-06-12T08:43:32Z"},{"title":"Estudia y trabaja en el exterior","description":"Sourced from predicthq.com - ¡Descubre cómo estudiar y trabajar en el extranjero en este evento único, lleno de consejos, experiencias y oportunidades!","category":"conferences","start":"2024-05-08T22:30:00Z","geo":{"geometry":{"coordinates":[-78.64312559999999,-1.2536894],"type":"Point"},"placekey":"@h7q-dtb-q2k","address":{"country_code":"EC","formatted_address":"Las Rosas, Ambato, Ecuador","locality":"Ambato","region":"Tungurahua"}},"labels":["conference","outdoor"],"duration":9000,"start_local":"2024-05-08T17:30:00","end":"2024-05-09T01:00:00Z","end_local":"2024-05-08T20:00:00","updated":"2024-06-05T16:53:04Z"},{"title":"Transformación digital: Creatividad y diseño de soluciones digitales","description":"Sourced from predicthq.com - Creatividad y diseño de soluciones digitales","category":"conferences","start":"2024-05-08T22:00:00Z","geo":{"geometry":{"coordinates":[-79.897211,-2.157982],"type":"Point"},"placekey":"@h7p-y3n-nt9","address":{"country_code":"EC","formatted_address":"Avenida Francisco de Orellana y Luis Orrantia, Torre A, Edif. Las Cámaras, Segundo Piso, Av. Francisco de Orellana &, Guayaquil 090512, Ecuador","postcode":"090512","locality":"Guayaquil","region":"Guayas"}},"labels":["business","conference"],"duration":3600,"start_local":"2024-05-08T17:00:00","end":"2024-05-08T23:00:00Z","end_local":"2024-05-08T18:00:00","updated":"2024-06-04T23:36:39Z"},{"title":"Liga Pro Serie B - Guayaquil City vs Cuniburo","description":"Sourced from predicthq.com","category":"sports","start":"2024-05-08T20:30:00Z","geo":{"geometry":{"coordinates":[-79.9035275,-2.1030743],"type":"Point"},"placekey":"@h7p-y6h-3h5","address":{"country_code":"EC","formatted_address":"V3WX+G5G Parque Samanes, Guayaquil 090112, Ecuador","postcode":"090112","locality":"Guayaquil","region":"Guayas"}},"labels":["soccer","sport"],"duration":0,"start_local":"2024-05-08T15:30:00","end":"2024-05-08T20:30:00Z","end_local":"2024-05-08T15:30:00","updated":"2024-06-12T10:14:21Z"},{"title":"Mr. Big","description":"Sourced from predicthq.com","category":"concerts","start":"2024-05-08T00:00:00Z","geo":{"geometry":{"coordinates":[-78.48466,-0.20461],"type":"Point"},"placekey":"@cjy-8p5-wkz","address":{"country_code":"EC","formatted_address":"Av. 6 de Diciembre 345, Quito 170136, Ecuador","postcode":"170136","locality":"Quito","region":"Pichincha"}},"labels":["concert","music"],"duration":0,"start_local":"2024-05-07T19:00:00","end":"2024-05-08T00:00:00Z","end_local":"2024-05-07T19:00:00","updated":"2024-06-18T12:47:31Z"},{"title":"Abanicos","description":"Sourced from predicthq.com - El Teatro Capitol es un espacio inclusivo y diverso","category":"concerts","start":"2024-05-08T00:00:00Z","geo":{"geometry":{"coordinates":[-78.50060239999999,-0.216895],"type":"Point"},"placekey":"@cjy-8nv-87q","address":{"country_code":"EC","formatted_address":"Ramon Egas, 170136, Quito, Ecuador","locality":"Quito","postcode":"170136","region":"Pichincha"}},"labels":["community","concert","music"],"duration":7200,"start_local":"2024-05-07T19:00:00","end":"2024-05-08T02:00:00Z","end_local":"2024-05-07T21:00:00","updated":"2024-05-22T00:11:06Z"},{"title":"Liga Pro Serie B - Manta vs San Antonio","description":"Sourced from predicthq.com","category":"sports","start":"2024-05-08T00:00:00Z","geo":{"geometry":{"coordinates":[-80.7027347,-0.9640698],"type":"Point"},"placekey":"@h7q-n9q-pqf","address":{"country_code":"EC","formatted_address":"Manta, Manabí Province, Ecuador","locality":"Manta","region":"Manabí Province"}},"labels":["soccer","sport"],"duration":0,"start_local":"2024-05-07T19:00:00","end":"2024-05-08T00:00:00Z","end_local":"2024-05-07T19:00:00","updated":"2024-06-11T22:24:15Z"},{"title":"MR. BIG VIP 2024 // May 07 Quito, Ecuador","description":"Sourced from predicthq.com - Join MR. BIG on a limited VIP Experience during their 2024 world tour for your chance to meet the band.","category":"concerts","start":"2024-05-07T21:00:00Z","geo":{"geometry":{"coordinates":[-78.4951981,-0.2101667],"type":"Point"},"placekey":"@cjy-8nw-28v","address":{"country_code":"EC","formatted_address":"Avenida 6 de Diciembre, 170136, Quito, Ecuador","locality":"Quito","postcode":"170136","region":"Pichincha"}},"labels":["concert","music"],"duration":3600,"start_local":"2024-05-07T16:00:00","end":"2024-05-07T22:00:00Z","end_local":"2024-05-07T17:00:00","updated":"2024-05-21T21:01:47Z"},{"title":"Liga Pro Serie B - Leones del Norte vs Independiente Juniors","description":"Sourced from predicthq.com","category":"sports","start":"2024-05-07T20:00:00Z","geo":{"geometry":{"coordinates":[-78.118313,0.3596067],"type":"Point"},"placekey":"@cjx-qpv-5xq","address":{"country_code":"EC","formatted_address":"Avenida Jaime Roldos Aguilera, Ibarra, Ecuador","locality":"Ibarra","region":"Provincia de Imbabura"}},"labels":["soccer","sport"],"duration":0,"start_local":"2024-05-07T15:00:00","end":"2024-05-07T20:00:00Z","end_local":"2024-05-07T15:00:00","updated":"2024-06-12T09:24:16Z"},{"title":"Liga Pro - 1st Round - Técnico Universitario vs Imbabura","description":"Sourced from predicthq.com","category":"sports","start":"2024-05-07T00:00:00Z","geo":{"geometry":{"coordinates":[-78.6232051,-1.2446095],"type":"Point"},"placekey":"@h7q-dt7-qmk","address":{"country_code":"EC","formatted_address":"Avenida Bolivariana, EC180104, Ambato, Ecuador","postcode":"EC180104","locality":"Ambato","region":"Tungurahua"}},"labels":["soccer","sport"],"duration":7253,"start_local":"2024-05-06T19:00:00","end":"2024-05-07T02:00:53Z","end_local":"2024-05-06T21:00:53","updated":"2024-06-11T22:38:57Z"},{"title":"Liga Pro - 1st Round - Emelec vs Universidad Católica","description":"Sourced from predicthq.com","category":"sports","start":"2024-05-05T23:00:00Z","geo":{"geometry":{"coordinates":[-79.8937912,-2.2067158],"type":"Point"},"placekey":"@h7p-y57-vxq","address":{"country_code":"EC","formatted_address":"Gral. José A.Gómez, Guayaquil 090315, Ecuador","postcode":"090315","locality":"Guayaquil","region":"Guayas"}},"labels":["soccer","sport"],"duration":6922,"start_local":"2024-05-05T18:00:00","end":"2024-05-06T00:55:22Z","end_local":"2024-05-05T19:55:22","updated":"2024-05-27T20:05:01Z"},{"title":"Liga Pro - 1st Round - Independiente Valle vs Deportivo Cuenca","description":"Sourced from predicthq.com","category":"sports","start":"2024-05-05T20:30:00Z","geo":{"geometry":{"coordinates":[-78.470615651,-0.349051534],"type":"Point"},"placekey":"@cjy-8d4-5j9","address":{"country_code":"EC","formatted_address":"Calle F S/N y Calle I, Chillo-Jijón, Sangolquí, Ecuador","locality":"Sangolquí"}},"labels":["soccer","sport"],"duration":7054,"start_local":"2024-05-05T15:30:00","end":"2024-05-05T22:27:34Z","end_local":"2024-05-05T17:27:34","updated":"2024-06-05T13:40:50Z"},{"title":"Liga Pro - 1st Round - Aucas vs Libertad","description":"Sourced from predicthq.com","category":"sports","start":"2024-05-05T18:00:00Z","geo":{"geometry":{"coordinates":[-78.5464225,-0.2789814],"type":"Point"},"placekey":"@cjy-87m-2x5","address":{"country_code":"EC","formatted_address":"Avenida Rumichaca Ñan, EC170131, Quito, Ecuador","postcode":"EC170131","locality":"Quito","region":"Pichincha"}},"labels":["soccer","sport"],"duration":7198,"start_local":"2024-05-05T13:00:00","end":"2024-05-05T19:59:58Z","end_local":"2024-05-05T14:59:58","updated":"2024-06-12T04:25:51Z"},{"title":"Liga Pro - 1st Round - Delfín vs Barcelona","description":"Sourced from predicthq.com","category":"sports","start":"2024-05-04T23:00:00Z","geo":{"geometry":{"coordinates":[-80.7027347,-0.9640698],"type":"Point"},"placekey":"@h7q-n9q-pqf","address":{"country_code":"EC","formatted_address":"Manta, Manabí Province, Ecuador","locality":"Manta","region":"Manabí Province"}},"labels":["soccer","sport"],"duration":7314,"start_local":"2024-05-04T18:00:00","end":"2024-05-05T01:01:54Z","end_local":"2024-05-04T20:01:54","updated":"2024-05-28T23:50:29Z"},{"title":"Liga Pro - 1st Round - Mushuc Runa vs LDU Quito","description":"Sourced from predicthq.com","category":"sports","start":"2024-05-04T20:30:00Z","geo":{"geometry":{"coordinates":[-78.727898,-1.3091289],"type":"Point"},"placekey":"@h7q-dsg-vxq","address":{"country_code":"EC","formatted_address":"Vía Ambato-Guaranda E491, Pilahuin, Ambato, Ecuador","locality":"Ambato"}},"labels":["soccer","sport"],"duration":7522,"start_local":"2024-05-04T15:30:00","end":"2024-05-04T22:35:22Z","end_local":"2024-05-04T17:35:22","updated":"2024-06-04T21:40:30Z"},{"title":"Liga Pro - 1st Round - Cumbayá vs Macará","description":"Sourced from predicthq.com","category":"sports","start":"2024-05-04T18:00:00Z","geo":{"geometry":{"coordinates":[-78.4763288498,-0.1776692404],"type":"Point"},"placekey":"@cjy-8qr-99f","address":{"country_code":"EC","formatted_address":"RGFF+284, Av. Naciones Unidas, Quito 170135, Ecuador","postcode":"170135","locality":"Quito","region":"Pichincha"}},"labels":["soccer","sport"],"duration":7457,"start_local":"2024-05-04T13:00:00","end":"2024-05-04T20:04:17Z","end_local":"2024-05-04T15:04:17","updated":"2024-06-05T01:18:18Z"},{"title":"Liga Pro - 1st Round - Orense vs El Nacional","description":"Sourced from predicthq.com","category":"sports","start":"2024-05-04T00:00:00Z","geo":{"geometry":{"coordinates":[-79.9622857,-3.2547344],"type":"Point"},"placekey":"@h7d-m6r-qvf","address":{"country_code":"EC","formatted_address":"Avenida de Las Palmeras 919, Machala 070201, Ecuador","postcode":"070201","locality":"Machala","region":"El Oro"}},"labels":["soccer","sport"],"duration":6927,"start_local":"2024-05-03T19:00:00","end":"2024-05-04T01:55:27Z","end_local":"2024-05-03T20:55:27","updated":"2024-06-05T07:46:03Z"},{"title":"Liga Pro Serie B - San Antonio vs Vargas Torres","description":"Sourced from predicthq.com","category":"sports","start":"2024-05-03T00:00:00Z","geo":{"geometry":{"coordinates":[-78.118313,0.3596067],"type":"Point"},"placekey":"@cjx-qpv-5xq","address":{"country_code":"EC","formatted_address":"Avenida Jaime Roldos Aguilera, Ibarra, Ecuador","locality":"Ibarra","region":"Provincia de Imbabura"}},"labels":["soccer","sport"],"duration":0,"start_local":"2024-05-02T19:00:00","end":"2024-05-03T00:00:00Z","end_local":"2024-05-02T19:00:00","updated":"2024-06-11T22:58:37Z"},{"title":"Liga Pro Serie B - 9 de Octubre vs Independiente Juniors","description":"Sourced from predicthq.com","category":"sports","start":"2024-05-02T20:00:00Z","geo":{"geometry":{"coordinates":[-79.89841725,-2.258804246],"type":"Point"},"placekey":"@h7p-xp2-jsq","address":{"country_code":"EC","formatted_address":"Arq Andrés Efraín Alava Mestanza 111, Guayaquil 090208, Ecuador","postcode":"090208","locality":"Guayaquil","region":"Guayas"}},"labels":["soccer","sport"],"duration":0,"start_local":"2024-05-02T15:00:00","end":"2024-05-02T20:00:00Z","end_local":"2024-05-02T15:00:00","updated":"2024-06-12T03:36:04Z"},{"title":"BALLET CARMEN - CND / Mayo 1","description":"Sourced from predicthq.com - Ballet Carmen interpretado por los Elencos Ballet y Pluricultural de la Compañía Nacional de Danza","category":"performing-arts","start":"2024-05-02T00:00:00Z","geo":{"geometry":{"coordinates":[-78.47715459999999,-0.162727],"type":"Point"},"placekey":"@cjy-8qk-3dv","address":{"country_code":"EC","formatted_address":"Avenida Río Coca, 170138, Quito, Ecuador","locality":"Quito","postcode":"170138","region":"Pichincha"}},"labels":["concert","music","performing-arts"],"duration":5400,"start_local":"2024-05-01T19:00:00","end":"2024-05-02T01:30:00Z","end_local":"2024-05-01T20:30:00","updated":"2024-06-04T22:57:23Z"},{"title":"Liga Pro - 1st Round - Universidad Católica vs Barcelona","description":"Sourced from predicthq.com","category":"sports","start":"2024-05-02T00:00:00Z","geo":{"geometry":{"coordinates":[-78.4763288498,-0.1776692404],"type":"Point"},"placekey":"@cjy-8qr-99f","address":{"country_code":"EC","formatted_address":"RGFF+284, Av. Naciones Unidas, Quito 170135, Ecuador","postcode":"170135","locality":"Quito","region":"Pichincha"}},"labels":["soccer","sport"],"duration":7478,"start_local":"2024-05-01T19:00:00","end":"2024-05-02T02:04:38Z","end_local":"2024-05-01T21:04:38","updated":"2024-06-12T01:35:11Z"},{"title":"Liga Pro Serie B - Gualaceo vs Guayaquil City","description":"Sourced from predicthq.com","category":"sports","start":"2024-05-01T21:30:00Z","geo":{"geometry":{"coordinates":[-78.843297958,-2.749988783094],"type":"Point"},"placekey":"@h8f-ttq-sqz","address":{"country_code":"EC","formatted_address":"7524+5G4, C. del Estadio, Azogues, Ecuador","locality":"Azogues","region":"Cañar"}},"labels":["soccer","sport"],"duration":0,"start_local":"2024-05-01T16:30:00","end":"2024-05-01T21:30:00Z","end_local":"2024-05-01T16:30:00","updated":"2024-06-12T09:05:33Z"},{"title":"Liga Pro Serie B - Chacaritas vs Leones del Norte","description":"Sourced from predicthq.com","category":"sports","start":"2024-05-01T20:00:00Z","geo":{"geometry":{"coordinates":[-78.420084885,-1.392784184],"type":"Point"},"placekey":"@h7q-dph-mzf","address":{"country_code":"EC","formatted_address":"Baños de Agua Santa, Ecuador","locality":"Baños de Agua Santa"}},"labels":["soccer","sport"],"duration":0,"start_local":"2024-05-01T15:00:00","end":"2024-05-01T20:00:00Z","end_local":"2024-05-01T15:00:00","updated":"2024-06-12T07:42:44Z"},{"title":"Liga Pro - 1st Round - Libertad vs LDU Quito","description":"Sourced from predicthq.com","category":"sports","start":"2024-05-01T00:00:00Z","geo":{"geometry":{"coordinates":[-79.20773506164551,-3.992013134117186],"type":"Point"},"placekey":"@h8d-spm-hh5","address":{"country_code":"EC","formatted_address":"XRX3+J95, Alonso de Mercadillo, Loja, Ecuador","locality":"Loja","region":"Loja"}},"labels":["soccer","sport"],"duration":7399,"start_local":"2024-04-30T19:00:00","end":"2024-05-01T02:03:19Z","end_local":"2024-04-30T21:03:19","updated":"2024-06-12T03:43:16Z"},{"title":"Liga Pro Serie B - Cuniburo vs Manta","description":"Sourced from predicthq.com","category":"sports","start":"2024-04-30T21:30:00Z","geo":{"geometry":{"coordinates":[-78.4763288498,-0.1776692404],"type":"Point"},"placekey":"@cjy-8qr-99f","address":{"country_code":"EC","formatted_address":"RGFF+284, Av. Naciones Unidas, Quito 170135, Ecuador","postcode":"170135","locality":"Quito","region":"Pichincha"}},"labels":["soccer","sport"],"duration":0,"start_local":"2024-04-30T16:30:00","end":"2024-04-30T21:30:00Z","end_local":"2024-04-30T16:30:00","updated":"2024-06-12T11:44:39Z"},{"title":"Liga Pro - 1st Round - El Nacional vs Delfín","description":"Sourced from predicthq.com","category":"sports","start":"2024-04-30T00:00:00Z","geo":{"geometry":{"coordinates":[-78.4763288498,-0.1776692404],"type":"Point"},"placekey":"@cjy-8qr-99f","address":{"country_code":"EC","formatted_address":"RGFF+284, Av. Naciones Unidas, Quito 170135, Ecuador","postcode":"170135","locality":"Quito","region":"Pichincha"}},"labels":["soccer","sport"],"duration":7211,"start_local":"2024-04-29T19:00:00","end":"2024-04-30T02:00:11Z","end_local":"2024-04-29T21:00:11","updated":"2024-06-05T01:00:14Z"},{"title":"El Fuego y El Colibrí ¡Un ballet inédito encantador de tres actos!","description":"Sourced from predicthq.com - ¡Ven a disfrutar de un ballet único e encantador que combina la pasión del fuego con la delicadeza del colibrí en tres actos!","category":"performing-arts","start":"2024-04-29T23:00:00Z","geo":{"geometry":{"coordinates":[-78.50928789999999,-0.2235013],"type":"Point"},"placekey":"@cjy-8nz-9mk","address":{"country_code":"EC","formatted_address":"Junín, 170130, Quito, Ecuador","locality":"Quito","postcode":"170130","region":"Pichincha"}},"labels":["concert","music","performing-arts"],"duration":3600,"start_local":"2024-04-29T18:00:00","end":"2024-04-30T00:00:00Z","end_local":"2024-04-29T19:00:00","updated":"2024-06-05T03:22:44Z"},{"title":"Liga Pro - 1st Round - Emelec vs Barcelona","description":"Sourced from predicthq.com","category":"sports","start":"2024-04-28T23:00:00Z","geo":{"geometry":{"coordinates":[-79.8937912,-2.2067158],"type":"Point"},"placekey":"@h7p-y57-vxq","address":{"country_code":"EC","formatted_address":"Gral. José A.Gómez, Guayaquil 090315, Ecuador","postcode":"090315","locality":"Guayaquil","region":"Guayas"}},"labels":["soccer","sport"],"duration":7263,"start_local":"2024-04-28T18:00:00","end":"2024-04-29T01:01:03Z","end_local":"2024-04-28T20:01:03","updated":"2024-05-28T07:19:01Z"},{"title":"Liga Pro - 1st Round - Macará vs Aucas","description":"Sourced from predicthq.com","category":"sports","start":"2024-04-28T20:00:00Z","geo":{"geometry":{"coordinates":[-78.6232051,-1.2446095],"type":"Point"},"placekey":"@h7q-dt7-qmk","address":{"country_code":"EC","formatted_address":"Avenida Bolivariana, EC180104, Ambato, Ecuador","postcode":"EC180104","locality":"Ambato","region":"Tungurahua"}},"labels":["soccer","sport"],"duration":6886,"start_local":"2024-04-28T15:00:00","end":"2024-04-28T21:54:46Z","end_local":"2024-04-28T16:54:46","updated":"2024-06-12T13:15:35Z"},{"title":"Liga Pro - 1st Round - Imbabura vs Independiente Valle","description":"Sourced from predicthq.com","category":"sports","start":"2024-04-28T17:30:00Z","geo":{"geometry":{"coordinates":[-78.118313,0.3596067],"type":"Point"},"placekey":"@cjx-qpv-5xq","address":{"country_code":"EC","formatted_address":"Avenida Jaime Roldos Aguilera, Ibarra, Ecuador","locality":"Ibarra","region":"Provincia de Imbabura"}},"labels":["soccer","sport"],"duration":7067,"start_local":"2024-04-28T12:30:00","end":"2024-04-28T19:27:47Z","end_local":"2024-04-28T14:27:47","updated":"2024-06-05T02:22:00Z"},{"title":"Estrategias celestiales - Quito, Ecuador","description":"Sourced from predicthq.com - Una cita con Dios que no te puedes perder con una palabra de esperanza del cielo para ti ¡Entrada Libre!","category":"conferences","start":"2024-04-28T15:00:00Z","geo":{"geometry":{"coordinates":[-78.4808103,-0.1835228],"type":"Point"},"placekey":"@cjy-8qq-n89","address":{"country_code":"EC","formatted_address":"Av República de El Salvador N 34-377, Quito 170150, Ecuador","postcode":"170150","locality":"Quito","region":"Pichincha"}},"labels":["conference","outdoor"],"duration":0,"start_local":"2024-04-28T10:00:00","end":"2024-04-28T15:00:00Z","end_local":"2024-04-28T10:00:00","updated":"2024-06-05T04:04:33Z"},{"title":"Liga Pro - 1st Round - LDU Quito vs Técnico Universitario","description":"Sourced from predicthq.com","category":"sports","start":"2024-04-27T23:00:00Z","geo":{"geometry":{"coordinates":[-78.48909789999999,-0.1076798],"type":"Point"},"placekey":"@cjy-8qf-7nq","address":{"country_code":"EC","formatted_address":"Quito 170144, Ecuador","postcode":"170144","locality":"Quito","region":"Pichincha"}},"labels":["soccer","sport"],"duration":6969,"start_local":"2024-04-27T18:00:00","end":"2024-04-28T00:56:09Z","end_local":"2024-04-27T19:56:09","updated":"2024-06-05T01:40:44Z"},{"title":"CONCIERTO LIRICO GOSPEL","description":"Sourced from predicthq.com - ¡Ven a disfrutar de una noche llena de música gospel inspiradora en el CONCIERTO LÍRIGO GOSPEL!","category":"performing-arts","start":"2024-04-27T23:00:00Z","geo":{"geometry":{"coordinates":[-78.467248,-0.1329461],"type":"Point"},"placekey":"@cjy-8qs-rkz","address":{"country_code":"EC","formatted_address":"De los Fresnos, 170532, Quito, Ecuador","locality":"Quito","postcode":"170532","region":"Pichincha"}},"labels":["concert","music","performing-arts"],"duration":7200,"start_local":"2024-04-27T18:00:00","end":"2024-04-28T01:00:00Z","end_local":"2024-04-27T20:00:00","updated":"2024-06-05T00:59:40Z"},{"title":"Liga Pro - 1st Round - Libertad vs Orense","description":"Sourced from predicthq.com","category":"sports","start":"2024-04-27T20:30:00Z","geo":{"geometry":{"coordinates":[-79.20773506164551,-3.992013134117186],"type":"Point"},"placekey":"@h8d-spm-hh5","address":{"country_code":"EC","formatted_address":"XRX3+J95, Alonso de Mercadillo, Loja, Ecuador","locality":"Loja","region":"Loja"}},"labels":["soccer","sport"],"duration":7137,"start_local":"2024-04-27T15:30:00","end":"2024-04-27T22:28:57Z","end_local":"2024-04-27T17:28:57","updated":"2024-06-05T13:55:56Z"},{"title":"Liga Pro - 1st Round - Universidad Católica vs Cumbayá","description":"Sourced from predicthq.com","category":"sports","start":"2024-04-27T18:00:00Z","geo":{"geometry":{"coordinates":[-78.4763288498,-0.1776692404],"type":"Point"},"placekey":"@cjy-8qr-99f","address":{"country_code":"EC","formatted_address":"RGFF+284, Av. Naciones Unidas, Quito 170135, Ecuador","postcode":"170135","locality":"Quito","region":"Pichincha"}},"labels":["soccer","sport"],"duration":6999,"start_local":"2024-04-27T13:00:00","end":"2024-04-27T19:56:39Z","end_local":"2024-04-27T14:56:39","updated":"2024-06-05T03:50:35Z"},{"title":"Liga Pro - 1st Round - Deportivo Cuenca vs Mushuc Runa","description":"Sourced from predicthq.com","category":"sports","start":"2024-04-27T00:00:00Z","geo":{"geometry":{"coordinates":[-79.0055218,-2.9067434],"type":"Point"},"placekey":"@h8f-v28-hqz","address":{"country_code":"EC","formatted_address":"3XVV+8Q5, Av. del Estadio, Cuenca 010107, Ecuador","postcode":"010107","locality":"Cuenca","region":"Azuay"}},"labels":["soccer","sport"],"duration":6935,"start_local":"2024-04-26T19:00:00","end":"2024-04-27T01:55:35Z","end_local":"2024-04-26T20:55:35","updated":"2024-06-05T02:19:24Z"},{"title":"CONMEBOL Sudamericana - Group Stage - Delfín vs Internacional","description":"Sourced from predicthq.com","category":"sports","start":"2024-04-26T02:00:00Z","geo":{"geometry":{"coordinates":[-80.7027347,-0.9640698],"type":"Point"},"placekey":"@h7q-n9q-pqf","address":{"country_code":"EC","formatted_address":"Manta, Manabí Province, Ecuador","locality":"Manta","region":"Manabí Province"}},"labels":["soccer","sport"],"duration":6853,"start_local":"2024-04-25T21:00:00","end":"2024-04-26T03:54:13Z","end_local":"2024-04-25T22:54:13","updated":"2024-05-28T23:49:36Z"},{"title":"BALLET CARMEN - CND / Abril 25","description":"Sourced from predicthq.com - Ballet Carmen interpretado por los Elencos Ballet y Pluricultural de la Compañía Nacional de Danza","category":"performing-arts","start":"2024-04-26T00:00:00Z","geo":{"geometry":{"coordinates":[-78.47715459999999,-0.162727],"type":"Point"},"placekey":"@cjy-8qk-3dv","address":{"country_code":"EC","formatted_address":"Avenida Río Coca, 170138, Quito, Ecuador","locality":"Quito","postcode":"170138","region":"Pichincha"}},"labels":["concert","music","performing-arts"],"duration":5400,"start_local":"2024-04-25T19:00:00","end":"2024-04-26T01:30:00Z","end_local":"2024-04-25T20:30:00","updated":"2024-06-05T16:02:15Z"},{"title":"CONMEBOL Libertadores - Group Stage - Barcelona vs São Paulo","description":"Sourced from predicthq.com","category":"sports","start":"2024-04-26T00:00:00Z","geo":{"geometry":{"coordinates":[-79.9249138,-2.1858712],"type":"Point"},"placekey":"@h7p-y56-m8v","address":{"country_code":"EC","formatted_address":"090615, Guayaquil, Ecuador","postcode":"090615","locality":"Guayaquil","region":"Guayas"}},"labels":["soccer","sport"],"duration":6986,"start_local":"2024-04-25T19:00:00","end":"2024-04-26T01:56:26Z","end_local":"2024-04-25T20:56:26","updated":"2024-05-28T07:31:30Z"},{"title":"Liga Pro Serie B - Independiente Juniors vs Cuniburo","description":"Sourced from predicthq.com","category":"sports","start":"2024-04-26T00:00:00Z","geo":{"geometry":{"coordinates":[-78.470615651,-0.349051534],"type":"Point"},"placekey":"@cjy-8d4-5j9","address":{"country_code":"EC","formatted_address":"Calle F S/N y Calle I, Chillo-Jijón, Sangolquí, Ecuador","locality":"Sangolquí"}},"labels":["soccer","sport"],"duration":0,"start_local":"2024-04-25T19:00:00","end":"2024-04-26T00:00:00Z","end_local":"2024-04-25T19:00:00","updated":"2024-06-12T03:38:16Z"},{"title":"RoadShow - Evento Soluciones ICO 2024","description":"Sourced from predicthq.com - Lugar: Hotel Ambato","category":"expos","start":"2024-04-25T19:00:00Z","geo":{"geometry":{"coordinates":[-78.6316284,-1.2429506],"type":"Point"},"placekey":"@h7q-dt8-26k","address":{"country_code":"EC","formatted_address":"Guayaquil, 180103, Ambato, Ecuador","locality":"Ambato","postcode":"180103","region":"Tungurahua"}},"labels":["business","expo"],"duration":19800,"start_local":"2024-04-25T14:00:00","end":"2024-04-26T00:30:00Z","end_local":"2024-04-25T19:30:00","updated":"2024-06-05T02:04:22Z"},{"title":"Congreso de Oportunidades Comerciales China-Ecuador para Exportadores","description":"Sourced from predicthq.com - Congreso de Oportunidades Comerciales China-Ecuador para exportadores -  desde Imbabura","category":"conferences","start":"2024-04-25T13:30:00Z","geo":{"geometry":{"coordinates":[-78.11841129999999,0.3495867],"type":"Point"},"placekey":"@cjx-qpm-q2k","address":{"country_code":"EC","formatted_address":"Ibarra, Imbabura, Ecuador","locality":"Ibarra","region":"Imbabura"}},"labels":["business","conference"],"duration":7200,"start_local":"2024-04-25T08:30:00","end":"2024-04-25T15:30:00Z","end_local":"2024-04-25T10:30:00","updated":"2024-06-12T12:11:39Z"},{"title":"CONMEBOL Libertadores - Group Stage - Independiente Valle vs Palmeiras","description":"Sourced from predicthq.com","category":"sports","start":"2024-04-25T00:30:00Z","geo":{"geometry":{"coordinates":[-78.470615651,-0.349051534],"type":"Point"},"placekey":"@cjy-8d4-5j9","address":{"country_code":"EC","formatted_address":"Calle F S/N y Calle I, Chillo-Jijón, Sangolquí, Ecuador","locality":"Sangolquí"}},"labels":["soccer","sport"],"duration":7114,"start_local":"2024-04-24T19:30:00","end":"2024-04-25T02:28:34Z","end_local":"2024-04-24T21:28:34","updated":"2024-06-03T18:35:55Z"},{"title":"Liga Pro Serie B - Leones del Norte vs San Antonio","description":"Sourced from predicthq.com","category":"sports","start":"2024-04-25T00:00:00Z","geo":{"geometry":{"coordinates":[-78.118313,0.3596067],"type":"Point"},"placekey":"@cjx-qpv-5xq","address":{"country_code":"EC","formatted_address":"Avenida Jaime Roldos Aguilera, Ibarra, Ecuador","locality":"Ibarra","region":"Provincia de Imbabura"}},"labels":["soccer","sport"],"duration":0,"start_local":"2024-04-24T19:00:00","end":"2024-04-25T00:00:00Z","end_local":"2024-04-24T19:00:00","updated":"2024-06-12T18:47:00Z"},{"title":"BALLET CARMEN - CND / Abril 24","description":"Sourced from predicthq.com - Ballet Carmen interpretado por los Elencos Ballet y Pluricultural de la Compañía Nacional de Danza","category":"performing-arts","start":"2024-04-25T00:00:00Z","geo":{"geometry":{"coordinates":[-78.47715459999999,-0.162727],"type":"Point"},"placekey":"@cjy-8qk-3dv","address":{"country_code":"EC","formatted_address":"Avenida Río Coca, 170138, Quito, Ecuador","locality":"Quito","postcode":"170138","region":"Pichincha"}},"labels":["concert","music","performing-arts"],"duration":5400,"start_local":"2024-04-24T19:00:00","end":"2024-04-25T01:30:00Z","end_local":"2024-04-24T20:30:00","updated":"2024-06-05T06:27:50Z"},{"title":"Liga Pro Serie B - 9 de Octubre vs Chacaritas","description":"Sourced from predicthq.com","category":"sports","start":"2024-04-24T20:00:00Z","geo":{"geometry":{"coordinates":[-79.89841725,-2.258804246],"type":"Point"},"placekey":"@h7p-xp2-jsq","address":{"country_code":"EC","formatted_address":"Arq Andrés Efraín Alava Mestanza 111, Guayaquil 090208, Ecuador","postcode":"090208","locality":"Guayaquil","region":"Guayas"}},"labels":["soccer","sport"],"duration":0,"start_local":"2024-04-24T15:00:00","end":"2024-04-24T20:00:00Z","end_local":"2024-04-24T15:00:00","updated":"2024-06-12T04:06:18Z"},{"title":"Liga Pro Serie B - Vargas Torres vs Guayaquil City","description":"Sourced from predicthq.com","category":"sports","start":"2024-04-24T00:00:00Z","geo":{"geometry":{"coordinates":[-79.148530004,-0.2496505],"type":"Point"},"placekey":"@h7q-8r7-yvz","address":{"country_code":"EC","formatted_address":"Av. Río Lelia, Santo Domingo de los Colorados, Ecuador","locality":"Santo Domingo de los Colorados"}},"labels":["soccer","sport"],"duration":0,"start_local":"2024-04-23T19:00:00","end":"2024-04-24T00:00:00Z","end_local":"2024-04-23T19:00:00","updated":"2024-06-11T21:59:26Z"},{"title":"BALLET CARMEN - CND / Abril 23","description":"Sourced from predicthq.com - Ballet Carmen interpretado por los Elencos Ballet y Pluricultural de la Compañía Nacional de Danza","category":"performing-arts","start":"2024-04-24T00:00:00Z","geo":{"geometry":{"coordinates":[-78.47715459999999,-0.162727],"type":"Point"},"placekey":"@cjy-8qk-3dv","address":{"country_code":"EC","formatted_address":"Avenida Río Coca, 170138, Quito, Ecuador","locality":"Quito","postcode":"170138","region":"Pichincha"}},"labels":["concert","music","performing-arts"],"duration":5400,"start_local":"2024-04-23T19:00:00","end":"2024-04-24T01:30:00Z","end_local":"2024-04-23T20:30:00","updated":"2024-06-05T18:24:16Z"},{"title":"Tópicos importantes para la tributación internacional en el Ecuador","description":"Sourced from predicthq.com - Temas tributarios","category":"conferences","start":"2024-04-23T22:00:00Z","geo":{"geometry":{"coordinates":[-79.897211,-2.157982],"type":"Point"},"placekey":"@h7p-y3n-nt9","address":{"country_code":"EC","formatted_address":"Avenida Francisco de Orellana y Luis Orrantia, Torre A, Edif. Las Cámaras, Segundo Piso, Av. Francisco de Orellana &, Guayaquil 090512, Ecuador","postcode":"090512","locality":"Guayaquil","region":"Guayas"}},"labels":["business","conference"],"duration":3600,"start_local":"2024-04-23T17:00:00","end":"2024-04-23T23:00:00Z","end_local":"2024-04-23T18:00:00","updated":"2024-06-05T02:38:45Z"},{"title":"Liga Pro Serie B - Manta vs Gualaceo","description":"Sourced from predicthq.com","category":"sports","start":"2024-04-23T20:00:00Z","geo":{"geometry":{"coordinates":[-80.7027347,-0.9640698],"type":"Point"},"placekey":"@h7q-n9q-pqf","address":{"country_code":"EC","formatted_address":"Manta, Manabí Province, Ecuador","locality":"Manta","region":"Manabí Province"}},"labels":["soccer","sport"],"duration":0,"start_local":"2024-04-23T15:00:00","end":"2024-04-23T20:00:00Z","end_local":"2024-04-23T15:00:00","updated":"2024-06-12T01:33:51Z"},{"title":"BALLET CARMEN - CND / Abril 22","description":"Sourced from predicthq.com - Ballet Carmen interpretado por los Elencos Ballet y Pluricultural de la Compañía Nacional de Danza","category":"performing-arts","start":"2024-04-23T00:00:00Z","geo":{"geometry":{"coordinates":[-78.47715459999999,-0.162727],"type":"Point"},"placekey":"@cjy-8qk-3dv","address":{"country_code":"EC","formatted_address":"Avenida Río Coca, 170138, Quito, Ecuador","locality":"Quito","postcode":"170138","region":"Pichincha"}},"labels":["concert","music","performing-arts"],"duration":5400,"start_local":"2024-04-22T19:00:00","end":"2024-04-23T01:30:00Z","end_local":"2024-04-22T20:30:00","updated":"2024-06-05T16:51:15Z"},{"title":"Referendum Ecuador","description":"Sourced from predicthq.com","category":"politics","start":"2024-04-21T00:00:00Z","geo":{"geometry":{"coordinates":[-78.183406,-1.831239],"type":"Point"},"address":{"country_code":"EC","formatted_address":"Ecuador"}},"labels":["politics","referendum"],"duration":86399,"start_local":"2024-04-21T00:00:00","end":"2024-04-21T23:59:59Z","end_local":"2024-04-21T23:59:59","updated":"2024-06-12T18:41:11Z"},{"title":"TercerMundo","description":"Sourced from predicthq.com","category":"concerts","start":"2024-04-20T01:00:00Z","geo":{"geometry":{"coordinates":[-78.62786,-1.23942],"type":"Point"},"placekey":"@h7q-dt8-5pv","address":{"country_code":"EC","formatted_address":"Simón Bolívar 1345, Ambato 180109, Ecuador","postcode":"180109","locality":"Ambato","region":"Tungurahua"}},"labels":["concert","music"],"duration":0,"start_local":"2024-04-19T20:00:00","end":"2024-04-20T01:00:00Z","end_local":"2024-04-19T20:00:00","updated":"2024-06-12T01:26:21Z"},{"title":"Within Temptation","description":"Sourced from predicthq.com","category":"concerts","start":"2024-04-20T00:00:00Z","geo":{"geometry":{"coordinates":[-78.5169882,-0.2170967],"type":"Point"},"placekey":"@cjy-8nz-45f","address":{"country_code":"EC","formatted_address":"Parque Bicentenario, Antigua terminal aerea, Av. Río Amazonas, Quito 170104, Ecuador","postcode":"170104","locality":"Quito","region":"Pichincha"}},"labels":["concert","music"],"duration":0,"start_local":"2024-04-19T19:00:00","end":"2024-04-20T00:00:00Z","end_local":"2024-04-19T19:00:00","updated":"2024-06-12T11:14:38Z"},{"title":"Liga Pro - 1st Round - Orense vs LDU Quito","description":"Sourced from predicthq.com","category":"sports","start":"2024-04-19T21:30:00Z","geo":{"geometry":{"coordinates":[-79.9622857,-3.2547344],"type":"Point"},"placekey":"@h7d-m6r-qvf","address":{"country_code":"EC","formatted_address":"Avenida de Las Palmeras 919, Machala 070201, Ecuador","postcode":"070201","locality":"Machala","region":"El Oro"}},"labels":["soccer","sport"],"duration":7370,"start_local":"2024-04-19T16:30:00","end":"2024-04-19T23:32:50Z","end_local":"2024-04-19T18:32:50","updated":"2024-06-05T03:59:46Z"},{"title":"Liga Pro - 1st Round - Aucas vs Emelec","description":"Sourced from predicthq.com","category":"sports","start":"2024-04-19T21:30:00Z","geo":{"geometry":{"coordinates":[-78.5464225,-0.2789814],"type":"Point"},"placekey":"@cjy-87m-2x5","address":{"country_code":"EC","formatted_address":"Avenida Rumichaca Ñan, EC170131, Quito, Ecuador","postcode":"EC170131","locality":"Quito","region":"Pichincha"}},"labels":["soccer","sport"],"duration":7134,"start_local":"2024-04-19T16:30:00","end":"2024-04-19T23:28:54Z","end_local":"2024-04-19T18:28:54","updated":"2024-06-12T06:09:38Z"},{"title":"Liga Pro - 1st Round - Delfín vs Macará","description":"Sourced from predicthq.com","category":"sports","start":"2024-04-19T19:00:00Z","geo":{"geometry":{"coordinates":[-80.7027347,-0.9640698],"type":"Point"},"placekey":"@h7q-n9q-pqf","address":{"country_code":"EC","formatted_address":"Manta, Manabí Province, Ecuador","locality":"Manta","region":"Manabí Province"}},"labels":["soccer","sport"],"duration":7488,"start_local":"2024-04-19T14:00:00","end":"2024-04-19T21:04:48Z","end_local":"2024-04-19T16:04:48","updated":"2024-05-28T23:51:11Z"},{"title":"The Metal Fest Quito","description":"Sourced from predicthq.com","category":"festivals","start":"2024-04-19T05:00:00Z","geo":{"geometry":{"coordinates":[-78.5169882,-0.2170967],"type":"Point"},"placekey":"@cjy-8nz-45f","address":{"country_code":"EC","formatted_address":"Parque Bicentenario, Antigua terminal aerea, Av. Río Amazonas, Quito 170104, Ecuador","postcode":"170104","locality":"Quito","region":"Pichincha"}},"labels":["festival","music"],"duration":86399,"start_local":"2024-04-19T00:00:00","end":"2024-04-20T04:59:59Z","end_local":"2024-04-19T23:59:59","updated":"2024-06-05T09:30:41Z"},{"title":"Mon Laferte","description":"Sourced from predicthq.com","category":"concerts","start":"2024-04-19T00:00:00Z","geo":{"geometry":{"coordinates":[-78.48555,-0.21264],"type":"Point"},"placekey":"@cjy-8p5-f4v","address":{"country_code":"EC","formatted_address":"QGP5+JXX, Av. Ladrón de Guevara, Quito 170136, Ecuador","postcode":"170136","locality":"Quito","region":"Pichincha"}},"labels":["concert","music"],"duration":0,"start_local":"2024-04-18T19:00:00","end":"2024-04-19T00:00:00Z","end_local":"2024-04-18T19:00:00","updated":"2024-06-26T20:25:32Z"},{"title":"Liga Pro - 1st Round - Barcelona vs El Nacional","description":"Sourced from predicthq.com","category":"sports","start":"2024-04-19T00:00:00Z","geo":{"geometry":{"coordinates":[-79.9249138,-2.1858712],"type":"Point"},"placekey":"@h7p-y56-m8v","address":{"country_code":"EC","formatted_address":"090615, Guayaquil, Ecuador","postcode":"090615","locality":"Guayaquil","region":"Guayas"}},"labels":["soccer","sport"],"duration":7033,"start_local":"2024-04-18T19:00:00","end":"2024-04-19T01:57:13Z","end_local":"2024-04-18T20:57:13","updated":"2024-05-27T17:28:26Z"},{"title":"Liga Pro - 1st Round - Independiente Valle vs Mushuc Runa","description":"Sourced from predicthq.com","category":"sports","start":"2024-04-18T21:30:00Z","geo":{"geometry":{"coordinates":[-78.470615651,-0.349051534],"type":"Point"},"placekey":"@cjy-8d4-5j9","address":{"country_code":"EC","formatted_address":"Calle F S/N y Calle I, Chillo-Jijón, Sangolquí, Ecuador","locality":"Sangolquí"}},"labels":["soccer","sport"],"duration":6965,"start_local":"2024-04-18T16:30:00","end":"2024-04-18T23:26:05Z","end_local":"2024-04-18T18:26:05","updated":"2024-06-05T05:43:00Z"},{"title":"ITS 4.0 Quito","description":"Sourced from predicthq.com - Únete a nuestro evento ITS 4.0 y conoce las últimas tecnologías y enfoques para optimizar tus procesos de mantenimiento.","category":"conferences","start":"2024-04-18T21:00:00Z","geo":{"geometry":{"coordinates":[-78.3595867,-0.1322824],"type":"Point"},"placekey":"@cjy-8f8-kcq","address":{"country_code":"EC","formatted_address":"170183, Quito, Ecuador","locality":"Quito","postcode":"170183","region":"Pichincha"}},"labels":["conference","outdoor"],"duration":16200,"start_local":"2024-04-18T16:00:00","end":"2024-04-19T01:30:00Z","end_local":"2024-04-18T20:30:00","updated":"2024-06-05T09:06:35Z"},{"title":"Liga Pro - 1st Round - Imbabura vs Universidad Católica","description":"Sourced from predicthq.com","category":"sports","start":"2024-04-18T19:00:00Z","geo":{"geometry":{"coordinates":[-78.118313,0.3596067],"type":"Point"},"placekey":"@cjx-qpv-5xq","address":{"country_code":"EC","formatted_address":"Avenida Jaime Roldos Aguilera, Ibarra, Ecuador","locality":"Ibarra","region":"Provincia de Imbabura"}},"labels":["soccer","sport"],"duration":272360,"start_local":"2024-04-18T14:00:00","end":"2024-04-21T22:39:20Z","end_local":"2024-04-21T17:39:20","updated":"2024-06-05T11:24:44Z"},{"title":"Liga Pro - 1st Round - Técnico Universitario vs Deportivo Cuenca","description":"Sourced from predicthq.com","category":"sports","start":"2024-04-18T00:00:00Z","geo":{"geometry":{"coordinates":[-78.6232051,-1.2446095],"type":"Point"},"placekey":"@h7q-dt7-qmk","address":{"country_code":"EC","formatted_address":"Avenida Bolivariana, EC180104, Ambato, Ecuador","postcode":"EC180104","locality":"Ambato","region":"Tungurahua"}},"labels":["soccer","sport"],"duration":7440,"start_local":"2024-04-17T19:00:00","end":"2024-04-18T02:04:00Z","end_local":"2024-04-17T21:04:00","updated":"2024-06-12T13:50:32Z"},{"title":"Quito - Casa Abierta Abril 2024","description":"Sourced from predicthq.com - ¡Ven y disfruta de un día lleno de diversión y aprendizaje en Quito- Casa Abierta Abril 2024!","category":"expos","start":"2024-04-17T23:30:00Z","geo":{"geometry":{"coordinates":[-78.4832382,-0.1714058],"type":"Point"},"placekey":"@cjy-8qp-ygk","address":{"country_code":"EC","formatted_address":"Alfonso Pereira, 170135, Quito, Ecuador","locality":"Quito","postcode":"170135","region":"Pichincha"}},"labels":["community","expo"],"duration":5400,"start_local":"2024-04-17T18:30:00","end":"2024-04-18T01:00:00Z","end_local":"2024-04-17T20:00:00","updated":"2024-06-05T03:26:32Z"},{"title":"Cuenca - Casa Abierta Abril 2024","description":"Sourced from predicthq.com - ¡Ven y disfruta de un día lleno de diversión y aprendizaje en Cuenca - Casa Abierta Abril 2024!","category":"expos","start":"2024-04-17T23:30:00Z","geo":{"geometry":{"coordinates":[-79.00234189999999,-2.9088559],"type":"Point"},"placekey":"@h8f-v28-jd9","address":{"country_code":"EC","formatted_address":"Cornelio Merchan, 010107, Cuenca, Ecuador","locality":"Cuenca","postcode":"010107","region":"Azuay"}},"labels":["community","expo"],"duration":5400,"start_local":"2024-04-17T18:30:00","end":"2024-04-18T01:00:00Z","end_local":"2024-04-17T20:00:00","updated":"2024-06-05T01:28:23Z"},{"title":"Guayaquil - Casa Abierta Abril 2024","description":"Sourced from predicthq.com - ¡Ven y disfruta de un día lleno de diversión y aprendizaje en Guayaquil - Casa Abierta Abril 2024!","category":"expos","start":"2024-04-17T23:30:00Z","geo":{"geometry":{"coordinates":[-79.8961894,-2.1667144],"type":"Point"},"placekey":"@h7p-y3n-yvz","address":{"country_code":"EC","formatted_address":"090512, Guayaquil, Ecuador","locality":"Guayaquil","postcode":"090512","region":"Guayas"}},"labels":["community","expo"],"duration":5400,"start_local":"2024-04-17T18:30:00","end":"2024-04-18T01:00:00Z","end_local":"2024-04-17T20:00:00","updated":"2024-06-05T18:36:31Z"},{"title":"Liga Pro - 1st Round - Cumbayá vs Libertad","description":"Sourced from predicthq.com","category":"sports","start":"2024-04-17T21:30:00Z","geo":{"geometry":{"coordinates":[-78.61447334289551,-0.924184775319691],"type":"Point"},"placekey":"@h7q-cqm-wff","address":{"country_code":"EC","formatted_address":"Calle Quijano y Ordoñez y Panzaleo, Latacunga, Ecuador","locality":"Latacunga"}},"labels":["soccer","sport"],"duration":6931,"start_local":"2024-04-17T16:30:00","end":"2024-04-17T23:25:31Z","end_local":"2024-04-17T18:25:31","updated":"2024-06-05T21:51:11Z"},{"title":"Liga Pro Serie B - Chacaritas vs Independiente Juniors","description":"Sourced from predicthq.com","category":"sports","start":"2024-04-17T20:00:00Z","geo":{"geometry":{"coordinates":[-78.6232051,-1.2446095],"type":"Point"},"placekey":"@h7q-dt7-qmk","address":{"country_code":"EC","formatted_address":"Avenida Bolivariana, EC180104, Ambato, Ecuador","postcode":"EC180104","locality":"Ambato","region":"Tungurahua"}},"labels":["soccer","sport"],"duration":0,"start_local":"2024-04-17T15:00:00","end":"2024-04-17T20:00:00Z","end_local":"2024-04-17T15:00:00","updated":"2024-06-11T22:44:50Z"},{"title":"Liga Pro Serie B - Gualaceo vs Leones del Norte","description":"Sourced from predicthq.com","category":"sports","start":"2024-04-17T20:00:00Z","geo":{"geometry":{"coordinates":[-78.843297958,-2.749988783094],"type":"Point"},"placekey":"@h8f-ttq-sqz","address":{"country_code":"EC","formatted_address":"7524+5G4, C. del Estadio, Azogues, Ecuador","locality":"Azogues","region":"Cañar"}},"labels":["soccer","sport"],"duration":0,"start_local":"2024-04-17T15:00:00","end":"2024-04-17T20:00:00Z","end_local":"2024-04-17T15:00:00","updated":"2024-06-12T18:35:21Z"},{"title":"Liga Pro Serie B - San Antonio vs 9 de Octubre","description":"Sourced from predicthq.com","category":"sports","start":"2024-04-17T19:00:00Z","geo":{"geometry":{"coordinates":[-78.118313,0.3596067],"type":"Point"},"placekey":"@cjx-qpv-5xq","address":{"country_code":"EC","formatted_address":"Avenida Jaime Roldos Aguilera, Ibarra, Ecuador","locality":"Ibarra","region":"Provincia de Imbabura"}},"labels":["soccer","sport"],"duration":0,"start_local":"2024-04-17T14:00:00","end":"2024-04-17T19:00:00Z","end_local":"2024-04-17T14:00:00","updated":"2024-06-12T09:46:23Z"},{"title":"Foro Referéndum y Consulta Popular","description":"Sourced from predicthq.com - Conoce, analiza y decide","category":"conferences","start":"2024-04-17T15:00:00Z","geo":{"geometry":{"coordinates":[-79.897211,-2.157982],"type":"Point"},"placekey":"@h7p-y3n-nt9","address":{"country_code":"EC","formatted_address":"Avenida Francisco de Orellana y Luis Orrantia, Torre A, Edif. Las Cámaras, Segundo Piso, Av. Francisco de Orellana &, Guayaquil 090512, Ecuador","postcode":"090512","locality":"Guayaquil","region":"Guayas"}},"labels":["business","conference"],"duration":7200,"start_local":"2024-04-17T10:00:00","end":"2024-04-17T17:00:00Z","end_local":"2024-04-17T12:00:00","updated":"2024-06-05T05:14:28Z"},{"title":"Liga Pro Serie B - Guayaquil City vs Manta","description":"Sourced from predicthq.com","category":"sports","start":"2024-04-17T00:00:00Z","geo":{"geometry":{"coordinates":[-79.9035275,-2.1030743],"type":"Point"},"placekey":"@h7p-y6h-3h5","address":{"country_code":"EC","formatted_address":"V3WX+G5G Parque Samanes, Guayaquil 090112, Ecuador","postcode":"090112","locality":"Guayaquil","region":"Guayas"}},"labels":["soccer","sport"],"duration":0,"start_local":"2024-04-16T19:00:00","end":"2024-04-17T00:00:00Z","end_local":"2024-04-16T19:00:00","updated":"2024-06-12T06:29:23Z"},{"title":"Charla - Prevención de Drogas","description":"Sourced from predicthq.com - En el ambiente laboral y sus factores de riesgo","category":"conferences","start":"2024-04-16T22:00:00Z","geo":{"geometry":{"coordinates":[-79.897211,-2.157982],"type":"Point"},"placekey":"@h7p-y3n-nt9","address":{"country_code":"EC","formatted_address":"Avenida Francisco de Orellana y Luis Orrantia, Torre A, Edif. Las Cámaras, Segundo Piso, Av. Francisco de Orellana &, Guayaquil 090512, Ecuador","postcode":"090512","locality":"Guayaquil","region":"Guayas"}},"labels":["business","conference"],"duration":3600,"start_local":"2024-04-16T17:00:00","end":"2024-04-16T23:00:00Z","end_local":"2024-04-16T18:00:00","updated":"2024-06-05T09:41:47Z"},{"title":"Liga Pro Serie B - Cuniburo vs Vargas Torres","description":"Sourced from predicthq.com","category":"sports","start":"2024-04-16T21:30:00Z","geo":{"geometry":{"coordinates":[-78.5464225,-0.2789814],"type":"Point"},"placekey":"@cjy-87m-2x5","address":{"country_code":"EC","formatted_address":"Avenida Rumichaca Ñan, EC170131, Quito, Ecuador","postcode":"EC170131","locality":"Quito","region":"Pichincha"}},"labels":["soccer","sport"],"duration":0,"start_local":"2024-04-16T16:30:00","end":"2024-04-16T21:30:00Z","end_local":"2024-04-16T16:30:00","updated":"2024-06-12T06:48:39Z"},{"title":"ITS 4.0","description":"Sourced from predicthq.com - Únete a nuestro evento ITS 4.0 y conoce las últimas tecnologías y enfoques para optimizar tus procesos de mantenimiento.","category":"conferences","start":"2024-04-16T21:00:00Z","geo":{"geometry":{"coordinates":[-79.8760992,-2.1793302],"type":"Point"},"placekey":"@h7p-y3q-gff","address":{"country_code":"EC","formatted_address":"1er Callejon 11 N-E, 090514, Guayaquil, Ecuador","locality":"Guayaquil","postcode":"090514","region":"Guayas"}},"labels":["conference","outdoor"],"duration":16200,"start_local":"2024-04-16T16:00:00","end":"2024-04-17T01:30:00Z","end_local":"2024-04-16T20:30:00","updated":"2024-06-04T22:38:39Z"},{"title":"Liga Pro - 1st Round - LDU Quito vs Delfín","description":"Sourced from predicthq.com","category":"sports","start":"2024-04-16T00:00:00Z","geo":{"geometry":{"coordinates":[-78.48909789999999,-0.1076798],"type":"Point"},"placekey":"@cjy-8qf-7nq","address":{"country_code":"EC","formatted_address":"Quito 170144, Ecuador","postcode":"170144","locality":"Quito","region":"Pichincha"}},"labels":["soccer","sport"],"duration":6919,"start_local":"2024-04-15T19:00:00","end":"2024-04-16T01:55:19Z","end_local":"2024-04-15T20:55:19","updated":"2024-06-05T07:27:35Z"},{"title":"Liga Pro - 1st Round - Libertad vs Barcelona","description":"Sourced from predicthq.com","category":"sports","start":"2024-04-14T23:00:00Z","geo":{"geometry":{"coordinates":[-79.20773506164551,-3.992013134117186],"type":"Point"},"placekey":"@h8d-spm-hh5","address":{"country_code":"EC","formatted_address":"XRX3+J95, Alonso de Mercadillo, Loja, Ecuador","locality":"Loja","region":"Loja"}},"labels":["soccer","sport"],"duration":6997,"start_local":"2024-04-14T18:00:00","end":"2024-04-15T00:56:37Z","end_local":"2024-04-14T19:56:37","updated":"2024-06-05T11:09:39Z"},{"title":"Liga Pro - 1st Round - El Nacional vs Imbabura","description":"Sourced from predicthq.com","category":"sports","start":"2024-04-14T20:30:00Z","geo":{"geometry":{"coordinates":[-78.5464225,-0.2789814],"type":"Point"},"placekey":"@cjy-87m-2x5","address":{"country_code":"EC","formatted_address":"Avenida Rumichaca Ñan, EC170131, Quito, Ecuador","postcode":"EC170131","locality":"Quito","region":"Pichincha"}},"labels":["soccer","sport"],"duration":6918,"start_local":"2024-04-14T15:30:00","end":"2024-04-14T22:25:18Z","end_local":"2024-04-14T17:25:18","updated":"2024-06-12T02:29:27Z"},{"title":"Liga Pro - 1st Round - Universidad Católica vs Independiente Valle","description":"Sourced from predicthq.com","category":"sports","start":"2024-04-14T18:00:00Z","geo":{"geometry":{"coordinates":[-78.48909789999999,-0.1076798],"type":"Point"},"placekey":"@cjy-8qf-7nq","address":{"country_code":"EC","formatted_address":"Quito 170144, Ecuador","postcode":"170144","locality":"Quito","region":"Pichincha"}},"labels":["soccer","sport"],"duration":7021,"start_local":"2024-04-14T13:00:00","end":"2024-04-14T19:57:01Z","end_local":"2024-04-14T14:57:01","updated":"2024-06-05T03:04:11Z"},{"title":"Anja Schneider","description":"Sourced from predicthq.com","category":"concerts","start":"2024-04-14T04:30:00Z","geo":{"geometry":{"coordinates":[-79.9223592,-2.1709979],"type":"Point"},"placekey":"@h7p-y3r-pd9","address":{"country_code":"EC","formatted_address":"R3HH+J32, Guayaquil 090615, Ecuador","postcode":"090615","locality":"Guayaquil","region":"Guayas"}},"labels":["concert","music"],"duration":0,"start_local":"2024-04-13T23:30:00","end":"2024-04-14T04:30:00Z","end_local":"2024-04-13T23:30:00","updated":"2024-06-12T01:37:44Z"},{"title":"TercerMundo","description":"Sourced from predicthq.com","category":"concerts","start":"2024-04-14T01:00:00Z","geo":{"geometry":{"coordinates":[-79.2016237,-3.9727459],"type":"Point"},"placekey":"@h8f-spp-3qz","address":{"country_code":"EC","formatted_address":"Salvador Bustamante Celi, Loja, Ecuador","locality":"Loja","region":"Loja"}},"labels":["concert","music"],"duration":0,"start_local":"2024-04-13T20:00:00","end":"2024-04-14T01:00:00Z","end_local":"2024-04-13T20:00:00","updated":"2024-06-12T01:43:29Z"},{"title":"Gonzalo Avila","description":"Sourced from predicthq.com","category":"concerts","start":"2024-04-14T00:00:00Z","geo":{"geometry":{"coordinates":[-78.48627,-0.19997],"type":"Point"},"placekey":"@cjy-8p5-tqf","address":{"country_code":"EC","formatted_address":"RG27+2F9, Yánez Pinzón, Quito 170517, Ecuador","postcode":"170517","locality":"Quito","region":"Pichincha"}},"labels":["concert","music"],"duration":0,"start_local":"2024-04-13T19:00:00","end":"2024-04-14T00:00:00Z","end_local":"2024-04-13T19:00:00","updated":"2024-06-11T23:45:31Z"},{"title":"Liga Pro - 1st Round - Emelec vs Cumbayá","description":"Sourced from predicthq.com","category":"sports","start":"2024-04-13T23:00:00Z","geo":{"geometry":{"coordinates":[-79.8937912,-2.2067158],"type":"Point"},"placekey":"@h7p-y57-vxq","address":{"country_code":"EC","formatted_address":"Gral. José A.Gómez, Guayaquil 090315, Ecuador","postcode":"090315","locality":"Guayaquil","region":"Guayas"}},"labels":["soccer","sport"],"duration":7224,"start_local":"2024-04-13T18:00:00","end":"2024-04-14T01:00:24Z","end_local":"2024-04-13T20:00:24","updated":"2024-05-27T19:49:37Z"},{"title":"Liga Pro - 1st Round - Macará vs Orense","description":"Sourced from predicthq.com","category":"sports","start":"2024-04-13T20:30:00Z","geo":{"geometry":{"coordinates":[-78.6232051,-1.2446095],"type":"Point"},"placekey":"@h7q-dt7-qmk","address":{"country_code":"EC","formatted_address":"Avenida Bolivariana, EC180104, Ambato, Ecuador","postcode":"EC180104","locality":"Ambato","region":"Tungurahua"}},"labels":["soccer","sport"],"duration":6973,"start_local":"2024-04-13T15:30:00","end":"2024-04-13T22:26:13Z","end_local":"2024-04-13T17:26:13","updated":"2024-06-12T10:22:17Z"},{"title":"Liga Pro - 1st Round - Mushuc Runa vs Técnico Universitario","description":"Sourced from predicthq.com","category":"sports","start":"2024-04-13T18:00:00Z","geo":{"geometry":{"coordinates":[-78.727898,-1.3091289],"type":"Point"},"placekey":"@h7q-dsg-vxq","address":{"country_code":"EC","formatted_address":"Vía Ambato-Guaranda E491, Pilahuin, Ambato, Ecuador","locality":"Ambato"}},"labels":["soccer","sport"],"duration":7231,"start_local":"2024-04-13T13:00:00","end":"2024-04-13T20:00:31Z","end_local":"2024-04-13T15:00:31","updated":"2024-06-05T06:35:08Z"},{"title":"Boot Camp dōTERRA Ecuador 2024","description":"Sourced from predicthq.com - ¡Te invitamos nuestro Boot Camp 2024!","category":"conferences","start":"2024-04-13T14:00:00Z","geo":{"geometry":{"coordinates":[-78.4678382,-0.1806532],"type":"Point"},"placekey":"@cjy-8qr-ht9","address":{"country_code":"EC","formatted_address":"Quito, Pichincha, Ecuador","locality":"Quito","region":"Pichincha"}},"labels":["conference","health"],"duration":32400,"start_local":"2024-04-13T09:00:00","end":"2024-04-13T23:00:00Z","end_local":"2024-04-13T18:00:00","updated":"2024-06-05T08:24:14Z"},{"title":"Hardtecno in Cuenca","description":"Sourced from predicthq.com - Electronic party in middle of town.","category":"community","start":"2024-04-13T02:00:00Z","geo":{"geometry":{"coordinates":[-79.0097128,-2.8985833],"type":"Point"},"placekey":"@h8f-wwf-q2k","address":{"country_code":"EC","formatted_address":"La Condamine, 010101, Cuenca, Ecuador","locality":"Cuenca","postcode":"010101","region":"Azuay"}},"labels":["concert","music"],"duration":0,"start_local":"2024-04-12T21:00:00","end":"2024-04-13T02:00:00Z","end_local":"2024-04-12T21:00:00","updated":"2024-06-05T02:33:09Z"},{"title":"Equilivre","description":"Sourced from predicthq.com","category":"concerts","start":"2024-04-13T01:00:00Z","geo":{"geometry":{"coordinates":[-78.48953,-0.20288],"type":"Point"},"placekey":"@cjy-8p3-fpv","address":{"country_code":"EC","formatted_address":"Lizardo García E7-81, Quito 170524, Ecuador","postcode":"170524","locality":"Quito","region":"Pichincha"}},"labels":["concert","music"],"duration":0,"start_local":"2024-04-12T20:00:00","end":"2024-04-13T01:00:00Z","end_local":"2024-04-12T20:00:00","updated":"2024-06-12T16:54:21Z"},{"title":"Liga Pro - 1st Round - Deportivo Cuenca vs Aucas","description":"Sourced from predicthq.com","category":"sports","start":"2024-04-13T00:00:00Z","geo":{"geometry":{"coordinates":[-79.0055218,-2.9067434],"type":"Point"},"placekey":"@h8f-v28-hqz","address":{"country_code":"EC","formatted_address":"3XVV+8Q5, Av. del Estadio, Cuenca 010107, Ecuador","postcode":"010107","locality":"Cuenca","region":"Azuay"}},"labels":["soccer","sport"],"duration":7122,"start_local":"2024-04-12T19:00:00","end":"2024-04-13T01:58:42Z","end_local":"2024-04-12T20:58:42","updated":"2024-06-05T13:18:36Z"},{"title":"CONMEBOL Sudamericana - Group Stage - Delfín vs Belgrano","description":"Sourced from predicthq.com","category":"sports","start":"2024-04-12T02:00:00Z","geo":{"geometry":{"coordinates":[-80.7027347,-0.9640698],"type":"Point"},"placekey":"@h7q-n9q-pqf","address":{"country_code":"EC","formatted_address":"Manta, Manabí Province, Ecuador","locality":"Manta","region":"Manabí Province"}},"labels":["soccer","sport"],"duration":6868,"start_local":"2024-04-11T21:00:00","end":"2024-04-12T03:54:28Z","end_local":"2024-04-11T22:54:28","updated":"2024-05-28T23:57:13Z"},{"title":"Liga Pro Serie B - Chacaritas vs San Antonio","description":"Sourced from predicthq.com","category":"sports","start":"2024-04-12T00:00:00Z","geo":{"geometry":{"coordinates":[-78.6232051,-1.2446095],"type":"Point"},"placekey":"@h7q-dt7-qmk","address":{"country_code":"EC","formatted_address":"Avenida Bolivariana, EC180104, Ambato, Ecuador","postcode":"EC180104","locality":"Ambato","region":"Tungurahua"}},"labels":["soccer","sport"],"duration":0,"start_local":"2024-04-11T19:00:00","end":"2024-04-12T00:00:00Z","end_local":"2024-04-11T19:00:00","updated":"2024-06-11T23:04:37Z"},{"title":"C-Level Network Dinner","description":"Sourced from predicthq.com - Nos complace invitarte a una cena exclusiva que promete una velada de networking y conversaciones sobre el estado actual de la industria","category":"conferences","start":"2024-04-12T00:00:00Z","geo":{"geometry":{"coordinates":[-79.8900633,-2.2302173],"type":"Point"},"placekey":"@h7p-y47-6ff","address":{"country_code":"EC","formatted_address":"Avenida Domingo Comín, 090102, Guayaquil, Ecuador","locality":"Guayaquil","postcode":"090102","region":"Guayas"}},"labels":["business","conference"],"duration":14400,"start_local":"2024-04-11T19:00:00","end":"2024-04-12T04:00:00Z","end_local":"2024-04-11T23:00:00","updated":"2024-06-04T21:53:41Z"},{"title":"CONMEBOL Libertadores - Group Stage - LDU Quito vs Botafogo","description":"Sourced from predicthq.com","category":"sports","start":"2024-04-11T22:00:00Z","geo":{"geometry":{"coordinates":[-78.48909789999999,-0.1076798],"type":"Point"},"placekey":"@cjy-8qf-7nq","address":{"country_code":"EC","formatted_address":"Quito 170144, Ecuador","postcode":"170144","locality":"Quito","region":"Pichincha"}},"labels":["soccer","sport"],"duration":7068,"start_local":"2024-04-11T17:00:00","end":"2024-04-11T23:57:48Z","end_local":"2024-04-11T18:57:48","updated":"2024-06-05T07:11:16Z"},{"title":"TEDxUniversidad Técnica de Ambato","description":"Sourced from predicthq.com - Expositores ecuatorianos conversarán sobre varios temas: educación, arte, periodismo, biología, acción social, inventos,","category":"conferences","start":"2024-04-11T14:30:00Z","geo":{"geometry":{"coordinates":[-78.6310498,-1.242044],"type":"Point"},"placekey":"@h7q-dt7-zxq","address":{"country_code":"EC","formatted_address":"Calle Vicente Rocafuerte, Ambato, Ecuador","locality":"Ambato","region":"Tungurahua"}},"labels":["conference","science","technology"],"duration":28800,"start_local":"2024-04-11T09:30:00","end":"2024-04-11T22:30:00Z","end_local":"2024-04-11T17:30:00","updated":"2024-06-05T03:40:12Z"},{"title":"CONMEBOL Libertadores - Group Stage - Barcelona vs Talleres de Córdoba","description":"Sourced from predicthq.com","category":"sports","start":"2024-04-11T02:00:00Z","geo":{"geometry":{"coordinates":[-79.9249138,-2.1858712],"type":"Point"},"placekey":"@h7p-y56-m8v","address":{"country_code":"EC","formatted_address":"090615, Guayaquil, Ecuador","postcode":"090615","locality":"Guayaquil","region":"Guayas"}},"labels":["soccer","sport"],"duration":6966,"start_local":"2024-04-10T21:00:00","end":"2024-04-11T03:56:06Z","end_local":"2024-04-10T22:56:06","updated":"2024-05-27T17:28:48Z"},{"title":"Liga Pro Serie B - Leones del Norte vs Manta","description":"Sourced from predicthq.com","category":"sports","start":"2024-04-11T00:00:00Z","geo":{"geometry":{"coordinates":[-78.118313,0.3596067],"type":"Point"},"placekey":"@cjx-qpv-5xq","address":{"country_code":"EC","formatted_address":"Avenida Jaime Roldos Aguilera, Ibarra, Ecuador","locality":"Ibarra","region":"Provincia de Imbabura"}},"labels":["soccer","sport"],"duration":0,"start_local":"2024-04-10T19:00:00","end":"2024-04-11T00:00:00Z","end_local":"2024-04-10T19:00:00","updated":"2024-06-12T04:10:32Z"},{"title":"CONMEBOL Libertadores - Group Stage - Independiente Valle vs San Lorenzo","description":"Sourced from predicthq.com","category":"sports","start":"2024-04-10T22:00:00Z","geo":{"geometry":{"coordinates":[-78.470615651,-0.349051534],"type":"Point"},"placekey":"@cjy-8d4-5j9","address":{"country_code":"EC","formatted_address":"Calle F S/N y Calle I, Chillo-Jijón, Sangolquí, Ecuador","locality":"Sangolquí"}},"labels":["soccer","sport"],"duration":6983,"start_local":"2024-04-10T17:00:00","end":"2024-04-10T23:56:23Z","end_local":"2024-04-10T18:56:23","updated":"2024-06-04T22:14:40Z"},{"title":"Liga Pro Serie B - Vargas Torres vs Gualaceo","description":"Sourced from predicthq.com","category":"sports","start":"2024-04-10T20:30:00Z","geo":{"geometry":{"coordinates":[-79.6559996,0.96126],"type":"Point"},"placekey":"@cjy-54y-x5z","address":{"country_code":"EC","formatted_address":"Quito, Esmeraldas, Ecuador","locality":"Esmeraldas","region":"Provincia de Esmeraldas"}},"labels":["soccer","sport"],"duration":0,"start_local":"2024-04-10T15:30:00","end":"2024-04-10T20:30:00Z","end_local":"2024-04-10T15:30:00","updated":"2024-06-12T04:23:15Z"},{"title":"Liga Pro Serie B - 9 de Octubre vs Cuniburo","description":"Sourced from predicthq.com","category":"sports","start":"2024-04-10T20:00:00Z","geo":{"geometry":{"coordinates":[-79.89841725,-2.258804246],"type":"Point"},"placekey":"@h7p-xp2-jsq","address":{"country_code":"EC","formatted_address":"Arq Andrés Efraín Alava Mestanza 111, Guayaquil 090208, Ecuador","postcode":"090208","locality":"Guayaquil","region":"Guayas"}},"labels":["soccer","sport"],"duration":0,"start_local":"2024-04-10T15:00:00","end":"2024-04-10T20:00:00Z","end_local":"2024-04-10T15:00:00","updated":"2024-06-12T14:25:06Z"},{"title":"Talleres: Retos de la Vinculación","description":"Sourced from predicthq.com - Talleres presenciales sobre los desafíos de la vinculación con Patricio Montesinos - UPV","category":"conferences","start":"2024-04-10T14:00:00Z","geo":{"geometry":{"coordinates":[-79.9041704,-2.1815037],"type":"Point"},"placekey":"@h7p-y3t-8y9","address":{"country_code":"EC","formatted_address":"Avenida Presidente Carlos Julio Arosemena Tola, 090615, Guayaquil, Ecuador","locality":"Guayaquil","postcode":"090615","region":"Guayas"}},"labels":["conference"],"duration":115200,"start_local":"2024-04-10T09:00:00","end":"2024-04-11T22:00:00Z","end_local":"2024-04-11T17:00:00","updated":"2024-06-05T11:28:44Z"},{"title":"Liga Pro Serie B - Independiente Juniors vs Guayaquil City","description":"Sourced from predicthq.com","category":"sports","start":"2024-04-10T00:00:00Z","geo":{"geometry":{"coordinates":[-78.4763288498,-0.1776692404],"type":"Point"},"placekey":"@cjy-8qr-99f","address":{"country_code":"EC","formatted_address":"RGFF+284, Av. Naciones Unidas, Quito 170135, Ecuador","postcode":"170135","locality":"Quito","region":"Pichincha"}},"labels":["soccer","sport"],"duration":0,"start_local":"2024-04-09T19:00:00","end":"2024-04-10T00:00:00Z","end_local":"2024-04-09T19:00:00","updated":"2024-06-12T16:43:13Z"},{"title":"Convención 2024- abril","description":"Sourced from predicthq.com - ¡La Convención 2024, el evento del año donde la diversión y el aprendizaje se unen para crear una experiencia inolvidable!","category":"conferences","start":"2024-04-09T05:00:00Z","geo":{"geometry":{"coordinates":[-79.99303789999999,-2.1839368],"type":"Point"},"placekey":"@h7p-zym-w49","address":{"country_code":"EC","formatted_address":"Guayaquil, Guayas, Ecuador","locality":"Guayaquil","region":"Guayas"}},"labels":["community","conference"],"duration":86400,"start_local":"2024-04-09T00:00:00","end":"2024-04-10T05:00:00Z","end_local":"2024-04-10T00:00:00","updated":"2024-06-05T07:25:04Z"},{"title":"Liga Pro - 1st Round - Imbabura vs Macará","description":"Sourced from predicthq.com","category":"sports","start":"2024-04-09T00:00:00Z","geo":{"geometry":{"coordinates":[-78.118313,0.3596067],"type":"Point"},"placekey":"@cjx-qpv-5xq","address":{"country_code":"EC","formatted_address":"Avenida Jaime Roldos Aguilera, Ibarra, Ecuador","locality":"Ibarra","region":"Provincia de Imbabura"}},"labels":["soccer","sport"],"duration":7054,"start_local":"2024-04-08T19:00:00","end":"2024-04-09T01:57:34Z","end_local":"2024-04-08T20:57:34","updated":"2024-06-05T12:23:53Z"},{"title":"Liga Pro - 1st Round - Técnico Universitario vs Emelec","description":"Sourced from predicthq.com","category":"sports","start":"2024-04-07T23:00:00Z","geo":{"geometry":{"coordinates":[-78.6232051,-1.2446095],"type":"Point"},"placekey":"@h7q-dt7-qmk","address":{"country_code":"EC","formatted_address":"Avenida Bolivariana, EC180104, Ambato, Ecuador","postcode":"EC180104","locality":"Ambato","region":"Tungurahua"}},"labels":["soccer","sport"],"duration":7159,"start_local":"2024-04-07T18:00:00","end":"2024-04-08T00:59:19Z","end_local":"2024-04-07T19:59:19","updated":"2024-06-12T08:29:28Z"},{"title":"Liga Pro - 1st Round - Delfín vs Universidad Católica","description":"Sourced from predicthq.com","category":"sports","start":"2024-04-07T20:30:00Z","geo":{"geometry":{"coordinates":[-80.7027347,-0.9640698],"type":"Point"},"placekey":"@h7q-n9q-pqf","address":{"country_code":"EC","formatted_address":"Manta, Manabí Province, Ecuador","locality":"Manta","region":"Manabí Province"}},"labels":["soccer","sport"],"duration":6908,"start_local":"2024-04-07T15:30:00","end":"2024-04-07T22:25:08Z","end_local":"2024-04-07T17:25:08","updated":"2024-05-28T23:34:49Z"},{"title":"Liga Pro - 1st Round - Independiente Valle vs Libertad","description":"Sourced from predicthq.com","category":"sports","start":"2024-04-07T18:00:00Z","geo":{"geometry":{"coordinates":[-78.470615651,-0.349051534],"type":"Point"},"placekey":"@cjy-8d4-5j9","address":{"country_code":"EC","formatted_address":"Calle F S/N y Calle I, Chillo-Jijón, Sangolquí, Ecuador","locality":"Sangolquí"}},"labels":["soccer","sport"],"duration":6911,"start_local":"2024-04-07T13:00:00","end":"2024-04-07T19:55:11Z","end_local":"2024-04-07T14:55:11","updated":"2024-06-05T07:20:27Z"},{"title":"Día del Señor - Quito, Ecuador","description":"Sourced from predicthq.com - ¡Una cita especial con Dios que no te puedes perder!","category":"festivals","start":"2024-04-07T15:00:00Z","geo":{"geometry":{"coordinates":[-78.4808103,-0.1835228],"type":"Point"},"placekey":"@cjy-8qq-n89","address":{"country_code":"EC","formatted_address":"Avenida República de El Salvador, 170135, Quito, Ecuador","locality":"Quito","postcode":"170135","region":"Pichincha"}},"labels":["festival","religion"],"duration":7200,"start_local":"2024-04-07T10:00:00","end":"2024-04-07T17:00:00Z","end_local":"2024-04-07T12:00:00","updated":"2024-06-05T07:33:20Z"},{"title":"Liga Pro - 1st Round - Barcelona vs Deportivo Cuenca","description":"Sourced from predicthq.com","category":"sports","start":"2024-04-06T23:00:00Z","geo":{"geometry":{"coordinates":[-79.9249138,-2.1858712],"type":"Point"},"placekey":"@h7p-y56-m8v","address":{"country_code":"EC","formatted_address":"090615, Guayaquil, Ecuador","postcode":"090615","locality":"Guayaquil","region":"Guayas"}},"labels":["soccer","sport"],"duration":6837,"start_local":"2024-04-06T18:00:00","end":"2024-04-07T00:53:57Z","end_local":"2024-04-06T19:53:57","updated":"2024-05-27T22:58:27Z"},{"title":"Liga Pro - 1st Round - El Nacional vs LDU Quito","description":"Sourced from predicthq.com","category":"sports","start":"2024-04-06T20:30:00Z","geo":{"geometry":{"coordinates":[-78.4763288498,-0.1776692404],"type":"Point"},"placekey":"@cjy-8qr-99f","address":{"country_code":"EC","formatted_address":"RGFF+284, Av. Naciones Unidas, Quito 170135, Ecuador","postcode":"170135","locality":"Quito","region":"Pichincha"}},"labels":["soccer","sport"],"duration":7023,"start_local":"2024-04-06T15:30:00","end":"2024-04-06T22:27:03Z","end_local":"2024-04-06T17:27:03","updated":"2024-06-04T21:44:31Z"},{"title":"Liga Pro - 1st Round - Aucas vs Cumbayá","description":"Sourced from predicthq.com","category":"sports","start":"2024-04-06T18:00:00Z","geo":{"geometry":{"coordinates":[-78.5464225,-0.2789814],"type":"Point"},"placekey":"@cjy-87m-2x5","address":{"country_code":"EC","formatted_address":"Avenida Rumichaca Ñan, EC170131, Quito, Ecuador","postcode":"EC170131","locality":"Quito","region":"Pichincha"}},"labels":["soccer","sport"],"duration":6880,"start_local":"2024-04-06T13:00:00","end":"2024-04-06T19:54:40Z","end_local":"2024-04-06T14:54:40","updated":"2024-06-12T09:33:06Z"},{"title":"Fatima Hajji","description":"Sourced from predicthq.com","category":"concerts","start":"2024-04-06T04:00:00Z","geo":{"geometry":{"coordinates":[-78.4165,-0.21218],"type":"Point"},"placekey":"@cjy-7zs-g49","address":{"country_code":"EC","formatted_address":"Av. Oswaldo Guayasamín KM 14, Quito 170184, Ecuador","postcode":"170184","locality":"Quito","region":"Pichincha"}},"labels":["concert","music"],"duration":0,"start_local":"2024-04-05T23:00:00","end":"2024-04-06T04:00:00Z","end_local":"2024-04-05T23:00:00","updated":"2024-06-12T00:00:29Z"},{"title":"Liga Pro - 1st Round - Orense vs Mushuc Runa","description":"Sourced from predicthq.com","category":"sports","start":"2024-04-06T00:00:00Z","geo":{"geometry":{"coordinates":[-79.9622857,-3.2547344],"type":"Point"},"placekey":"@h7d-m6r-qvf","address":{"country_code":"EC","formatted_address":"Avenida de Las Palmeras 919, Machala 070201, Ecuador","postcode":"070201","locality":"Machala","region":"El Oro"}},"labels":["soccer","sport"],"duration":6901,"start_local":"2024-04-05T19:00:00","end":"2024-04-06T01:55:01Z","end_local":"2024-04-05T20:55:01","updated":"2024-06-05T09:50:29Z"},{"title":"La Consagración de la Primavera - Abril 5, CND","description":"Sourced from predicthq.com - La Consagración de la Primavera\" interpretada por el Elenco Contemporáneo de la CND","category":"performing-arts","start":"2024-04-06T00:00:00Z","geo":{"geometry":{"coordinates":[-78.4776516,-0.1629802],"type":"Point"},"placekey":"@cjy-8qk-2zf","address":{"country_code":"EC","formatted_address":"Quito, Pichincha, Ecuador","locality":"Quito","region":"Pichincha"}},"labels":["concert","music","performing-arts"],"duration":0,"start_local":"2024-04-05T19:00:00","end":"2024-04-06T00:00:00Z","end_local":"2024-04-05T19:00:00","updated":"2024-06-12T04:40:51Z"}]