[{"title":"Cairo Fashion & Tex","description":"Sourced from predicthq.com - Cairo International Fashion, Garments, Accessories and Textile Exhibition","category":"expos","start":"2024-10-02T21:00:00Z","geo":{"geometry":{"coordinates":[31.3093537,30.0652927],"type":"Point"},"placekey":"@7vy-she-7bk","address":{"country_code":"EG","formatted_address":"El-Nasr Road, 4436001, Egypt","postcode":"4436001","region":"Cairo Governorate"}},"labels":["expo","fashion","jewelry","sales"],"duration":259199,"start_local":"2024-10-03T00:00:00","end":"2024-10-05T20:59:59Z","end_local":"2024-10-05T23:59:59","updated":"2024-06-30T07:47:37Z"},{"title":"L'Etape Egypt","description":"Sourced from predicthq.com","category":"sports","start":"2024-09-28T07:00:00Z","geo":{"geometry":{"coordinates":[34.3617769,27.9654198],"type":"Point"},"placekey":"@7w2-yvw-h5z","address":{"country_code":"EG","formatted_address":"8761452, Egypt","postcode":"8761452","region":"South Sinai Governorate"}},"labels":["outdoor-sports","running","sport"],"duration":0,"start_local":"2024-09-28T10:00:00","end":"2024-09-28T07:00:00Z","end_local":"2024-09-28T10:00:00","updated":"2024-06-04T07:15:43Z"},{"title":"Cityscape Egypt","description":"Sourced from predicthq.com","category":"conferences","start":"2024-09-24T21:00:00Z","geo":{"geometry":{"coordinates":[31.3850444,30.0143021],"type":"Point"},"placekey":"@7vy-v5z-grk","address":{"country_code":"EG","formatted_address":"297P+H3G, Al Hay Al Asher, Nasr City, Cairo Governorate 4440510, Egypt","postcode":"4440510","region":"Cairo Governorate"}},"labels":["conference"],"duration":345599,"start_local":"2024-09-25T00:00:00","end":"2024-09-28T20:59:59Z","end_local":"2024-09-28T23:59:59","updated":"2024-06-04T03:10:08Z"},{"title":"The 5th Libya Energy Week","description":"Sourced from predicthq.com - The summit is a platform for industry leaders, experts, and investors to engage and connect with the Libya NOC","category":"conferences","start":"2024-09-24T06:00:00Z","geo":{"geometry":{"coordinates":[31.2357116,30.0444196],"type":"Point"},"placekey":"@7vy-ssq-r8v","address":{"country_code":"EG","formatted_address":"Mohammed Mahmoud, 4272077, Egypt","postcode":"4272077","region":"Cairo Governorate"}},"labels":["business","conference"],"duration":205200,"start_local":"2024-09-24T09:00:00","end":"2024-09-26T15:00:00Z","end_local":"2024-09-26T18:00:00","updated":"2024-06-04T06:37:56Z"},{"title":"Arab Security Conference 2024","description":"Sourced from predicthq.com - Arab security conference is the biggest annual cyber security Conference MENA Region and Arab World.","category":"conferences","start":"2024-09-22T06:00:00Z","geo":{"geometry":{"coordinates":[31.2320089,30.0459174],"type":"Point"},"placekey":"@7vy-ssq-h3q","address":{"country_code":"EG","formatted_address":"1113 Nile Corniche, Ismailia, El Nil, Cairo Governorate 11221, Egypt","postcode":"11221","region":"Cairo Governorate"}},"labels":["conference","science","technology"],"duration":129600,"start_local":"2024-09-22T09:00:00","end":"2024-09-23T18:00:00Z","end_local":"2024-09-23T21:00:00","updated":"2024-06-06T04:09:25Z"},{"title":"EGYMEDICA","description":"Sourced from predicthq.com - International Medical Exhibition and Exhibition for Hospitals Service Marketing","category":"expos","start":"2024-09-21T21:00:00Z","geo":{"geometry":{"coordinates":[31.3840314,30.0145172],"type":"Point"},"placekey":"@7vy-v5y-vpv","address":{"country_code":"EG","formatted_address":"El-Moshir Tantawy Axis, 4440510, Egypt","postcode":"4440510","region":"Cairo Governorate"}},"labels":["expo"],"duration":259199,"start_local":"2024-09-22T00:00:00","end":"2024-09-24T20:59:59Z","end_local":"2024-09-24T23:59:59","updated":"2024-06-30T06:58:50Z"},{"title":"comdy cold","description":"Sourced from predicthq.com - Get ready to laugh until you're freezing at Comdy Cold - a night of hilarious stand-up comedy that will leave you in stitches!","category":"conferences","start":"2024-09-21T07:00:00Z","geo":{"geometry":{"coordinates":[30.73499499999999,31.1819552],"type":"Point"},"placekey":"@7vz-wkc-rc5","address":{"country_code":"EG","formatted_address":"6827060, Egypt","postcode":"6827060","region":"Kafr El-Sheikh Governorate"}},"labels":["conference","performing-arts"],"duration":7200,"start_local":"2024-09-21T10:00:00","end":"2024-09-21T09:00:00Z","end_local":"2024-09-21T12:00:00","updated":"2024-06-13T00:27:01Z"},{"title":"Sahara Expo","description":"Sourced from predicthq.com - Sahara Expo is the International Agricultural Exhibition for Africa and the Middle East and the commercial heart and crop production hub for Egypt and the MENA region. Sahara helps you create the networks that you need to expand your business. It is a trusted source of new technologies and information for the whole domestic market, from the smallest farmers, to the biggest agribusinesses and government ministries.","category":"expos","start":"2024-09-14T21:00:00Z","geo":{"geometry":{"coordinates":[31.3850444,30.0143021],"type":"Point"},"placekey":"@7vy-v5z-grk","address":{"country_code":"EG","formatted_address":"297P+H3G, Al Hay Al Asher, Nasr City, Cairo Governorate 4440510, Egypt","postcode":"4440510","region":"Cairo Governorate"}},"labels":["agriculture","expo"],"duration":259199,"start_local":"2024-09-15T00:00:00","end":"2024-09-17T20:59:59Z","end_local":"2024-09-17T23:59:59","updated":"2024-06-04T06:30:03Z"},{"title":"International Conference on Chemical and Biochemical Engineering","description":"Sourced from predicthq.com","category":"conferences","start":"2024-09-10T21:00:00Z","geo":{"geometry":{"coordinates":[31.232169,30.050423],"type":"Point"},"placekey":"@7vy-ssq-jn5","address":{"country_code":"EG","formatted_address":"1115 Nile Corniche\nSharkas\nCairo\nCairo Governorate 12344\nEgypt","locality":"Cairo"}},"labels":["conference"],"duration":172799,"start_local":"2024-09-11T00:00:00","end":"2024-09-12T20:59:59Z","end_local":"2024-09-12T23:59:59","updated":"2024-06-01T14:19:56Z"},{"title":"EgyMedica","description":"Sourced from predicthq.com - EgyMedica is a prominent expo event that brings together healthcare professionals, industry experts, and leading companies in the medical field to showcase the latest advancements, technologies, and solutions in healthcare and medical equipment. With a diverse range of exhibits, conferences, and networking opportunities, it serves as a premier platform for knowledge exchange, business collaborations, and innovation in the healthcare industry.","category":"expos","start":"2024-09-10T21:00:00Z","geo":{"geometry":{"coordinates":[31.309635,30.0647523],"type":"Point"},"placekey":"@7vy-she-7bk","address":{"country_code":"EG","formatted_address":"2 El-Nasr Rd, Al Estad, Qesm Than Madinet Nasr, Cairo Governorate 4436001, Egypt","postcode":"4436001","region":"Cairo Governorate"}},"labels":["expo"],"duration":259199,"start_local":"2024-09-11T00:00:00","end":"2024-09-13T20:59:59Z","end_local":"2024-09-13T23:59:59","updated":"2024-06-04T04:45:14Z"},{"title":"Pharmaconex","description":"Sourced from predicthq.com","category":"expos","start":"2024-09-07T21:00:00Z","geo":{"geometry":{"coordinates":[31.3840314,30.0145172],"type":"Point"},"placekey":"@7vy-v5y-vpv","address":{"country_code":"EG","formatted_address":"El-Moshir Tantawy Axis, 4440510, Egypt","postcode":"4440510","region":"Cairo Governorate"}},"labels":["expo","medical","technology"],"duration":259199,"start_local":"2024-09-08T00:00:00","end":"2024-09-10T20:59:59Z","end_local":"2024-09-10T23:59:59","updated":"2024-06-04T00:31:31Z"},{"title":"Seamless North Africa","description":"Sourced from predicthq.com","category":"conferences","start":"2024-09-01T21:00:00Z","geo":{"geometry":{"coordinates":[31.3850444,30.0143021],"type":"Point"},"placekey":"@7vy-v5z-grk","address":{"country_code":"EG","formatted_address":"297P+H3G, Al Hay Al Asher, Nasr City, Cairo Governorate 4440510, Egypt","postcode":"4440510","region":"Cairo Governorate"}},"labels":["conference"],"duration":172799,"start_local":"2024-09-02T00:00:00","end":"2024-09-03T20:59:59Z","end_local":"2024-09-03T23:59:59","updated":"2024-06-04T01:55:50Z"},{"title":"HACE","description":"Sourced from predicthq.com - International Hotel Supplies Exhibition","category":"expos","start":"2024-09-01T21:00:00Z","geo":{"geometry":{"coordinates":[31.3093537,30.0652927],"type":"Point"},"placekey":"@7vy-she-7bk","address":{"country_code":"EG","formatted_address":"El-Nasr Road, 4436001, Egypt","postcode":"4436001","region":"Cairo Governorate"}},"labels":["business","expo"],"duration":259199,"start_local":"2024-09-02T00:00:00","end":"2024-09-04T20:59:59Z","end_local":"2024-09-04T23:59:59","updated":"2024-06-30T10:37:08Z"},{"title":"HACE Hotel Expo 2024 - International Hotels Supplies Exhibition","description":"Sourced from predicthq.com","category":"expos","start":"2024-09-01T21:00:00Z","geo":{"geometry":{"coordinates":[31.3840314,30.0145172],"type":"Point"},"placekey":"@7vy-v5y-vpv","address":{"country_code":"EG","formatted_address":"El-Moshir Tantawy Axis, 4440510, Egypt","postcode":"4440510","region":"Cairo Governorate"}},"labels":["agriculture","business","construction","expo","food","furniture","industrial","product"],"duration":259199,"start_local":"2024-09-02T00:00:00","end":"2024-09-04T20:59:59Z","end_local":"2024-09-04T23:59:59","updated":"2024-06-04T03:23:50Z"},{"title":"LED Middle East Lighting Expo 2024 - International Exhibition For LED Technology, Modern Lighting Systems, Decorative Lighting, Solar Lighting And Electronic Components","description":"Sourced from predicthq.com","category":"expos","start":"2024-08-28T21:00:00Z","geo":{"geometry":{"coordinates":[31.3093537,30.0652927],"type":"Point"},"placekey":"@7vy-she-7bk","address":{"country_code":"EG","formatted_address":"El-Nasr Road, 4436001, Egypt","postcode":"4436001","region":"Cairo Governorate"}},"labels":["construction","expo","furniture","industrial","technology"],"duration":259199,"start_local":"2024-08-29T00:00:00","end":"2024-08-31T20:59:59Z","end_local":"2024-08-31T23:59:59","updated":"2024-06-04T00:21:25Z"},{"title":"Premier League - ENPPI vs Al Ahly","description":"Sourced from predicthq.com","category":"sports","start":"2024-08-14T16:00:00Z","geo":{"geometry":{"coordinates":[31.2969817,30.0511433],"type":"Point"},"placekey":"@7vy-ssf-q2k","address":{"country_code":"EG","formatted_address":"372X+W52, Al Abageyah, El Khalifa, Cairo Governorate 4433013, Egypt","postcode":"4433013","region":"Cairo Governorate"}},"labels":["soccer","sport"],"duration":0,"start_local":"2024-08-14T19:00:00","end":"2024-08-14T16:00:00Z","end_local":"2024-08-14T19:00:00","updated":"2024-06-26T23:57:53Z"},{"title":"Premier League - Pyramids vs El Dakhleya","description":"Sourced from predicthq.com","category":"sports","start":"2024-08-14T16:00:00Z","geo":{"geometry":{"coordinates":[31.3737559,30.0199086],"type":"Point"},"placekey":"@7vy-v5z-ysq","address":{"country_code":"EG","formatted_address":"299F+XGQ, Al Hay Al Asher, Nasr City, Cairo Governorate 4440510, Egypt","postcode":"4440510","region":"Cairo Governorate"}},"labels":["soccer","sport"],"duration":0,"start_local":"2024-08-14T19:00:00","end":"2024-08-14T16:00:00Z","end_local":"2024-08-14T19:00:00","updated":"2024-06-26T22:22:14Z"},{"title":"Premier League - Zamalek vs El Geish","description":"Sourced from predicthq.com","category":"sports","start":"2024-08-14T13:00:00Z","geo":{"geometry":{"coordinates":[31.3122579,30.0691131],"type":"Point"},"placekey":"@7vy-she-8d9","address":{"country_code":"EG","formatted_address":"Mamdouh Salem، Street، Al Estad, Nasr City, Egypt","locality":"Nasr City","region":"Cairo Governorate"}},"labels":["soccer","sport"],"duration":0,"start_local":"2024-08-14T16:00:00","end":"2024-08-14T13:00:00Z","end_local":"2024-08-14T16:00:00","updated":"2024-06-27T09:23:54Z"},{"title":"Premier League - Al Masry vs ZED","description":"Sourced from predicthq.com","category":"sports","start":"2024-08-14T13:00:00Z","geo":{"geometry":{"coordinates":[29.7293881,30.9995782],"type":"Point"},"placekey":"@7yg-6gh-45f","address":{"country_code":"EG","formatted_address":"Cairo - Borg El-Arab Desert Road, Alexandria, 5247007, Egypt","postcode":"5247007","locality":"Alexandria","region":"Alexandria Governorate"}},"labels":["soccer","sport"],"duration":0,"start_local":"2024-08-14T16:00:00","end":"2024-08-14T13:00:00Z","end_local":"2024-08-14T16:00:00","updated":"2024-06-26T18:33:26Z"},{"title":"Premier League - Ismaily vs Al Mokawloon","description":"Sourced from predicthq.com","category":"sports","start":"2024-08-13T16:00:00Z","geo":{"geometry":{"coordinates":[32.27381944656372,30.60098964027036],"type":"Point"},"placekey":"@7vy-3zq-rc5","address":{"country_code":"EG","formatted_address":"Reda Street, Shebeen, Ismailia, Egypt","locality":"Ismailia"}},"labels":["soccer","sport"],"duration":0,"start_local":"2024-08-13T19:00:00","end":"2024-08-13T16:00:00Z","end_local":"2024-08-13T19:00:00","updated":"2024-06-26T18:07:36Z"},{"title":"Premier League - El Gouna vs Baladiyyat Al Mehalla","description":"Sourced from predicthq.com","category":"sports","start":"2024-08-13T16:00:00Z","geo":{"geometry":{"coordinates":[33.65985095500946,27.360219177250688],"type":"Point"},"placekey":"@7vn-gjh-835","address":{"country_code":"EG","formatted_address":"El-Gouna, Egypt","locality":"El-Gouna"}},"labels":["soccer","sport"],"duration":0,"start_local":"2024-08-13T19:00:00","end":"2024-08-13T16:00:00Z","end_local":"2024-08-13T19:00:00","updated":"2024-06-27T02:07:34Z"},{"title":"Premier League - National Bank of Egypt vs Pharco","description":"Sourced from predicthq.com","category":"sports","start":"2024-08-13T13:00:00Z","geo":{"geometry":{"coordinates":[31.3122579,30.0691131],"type":"Point"},"placekey":"@7vy-she-8d9","address":{"country_code":"EG","formatted_address":"Mamdouh Salem، Street، Al Estad, Nasr City, Egypt","locality":"Nasr City","region":"Cairo Governorate"}},"labels":["soccer","sport"],"duration":0,"start_local":"2024-08-13T16:00:00","end":"2024-08-13T13:00:00Z","end_local":"2024-08-13T16:00:00","updated":"2024-06-26T21:23:51Z"},{"title":"Premier League - Ceramica Cleopatra vs Smouha","description":"Sourced from predicthq.com","category":"sports","start":"2024-08-12T16:00:00Z","geo":{"geometry":{"coordinates":[31.2969817,30.0511433],"type":"Point"},"placekey":"@7vy-ssf-q2k","address":{"country_code":"EG","formatted_address":"372X+W52, Al Abageyah, El Khalifa, Cairo Governorate 4433013, Egypt","postcode":"4433013","region":"Cairo Governorate"}},"labels":["soccer","sport"],"duration":0,"start_local":"2024-08-12T19:00:00","end":"2024-08-12T16:00:00Z","end_local":"2024-08-12T19:00:00","updated":"2024-06-26T18:21:03Z"},{"title":"Premier League - Modern vs Al Ittihad","description":"Sourced from predicthq.com","category":"sports","start":"2024-08-12T16:00:00Z","geo":{"geometry":{"coordinates":[31.3122579,30.0691131],"type":"Point"},"placekey":"@7vy-she-8d9","address":{"country_code":"EG","formatted_address":"Mamdouh Salem، Street، Al Estad, Nasr City, Egypt","locality":"Nasr City","region":"Cairo Governorate"}},"labels":["soccer","sport"],"duration":0,"start_local":"2024-08-12T19:00:00","end":"2024-08-12T16:00:00Z","end_local":"2024-08-12T19:00:00","updated":"2024-07-02T17:30:54Z"},{"title":"Premier League - Al Ahly vs ZED","description":"Sourced from predicthq.com","category":"sports","start":"2024-08-11T16:00:00Z","geo":{"geometry":{"coordinates":[31.3122579,30.0691131],"type":"Point"},"placekey":"@7vy-she-8d9","address":{"country_code":"EG","formatted_address":"Mamdouh Salem، Street، Al Estad, Nasr City, Egypt","locality":"Nasr City","region":"Cairo Governorate"}},"labels":["soccer","sport"],"duration":0,"start_local":"2024-08-11T19:00:00","end":"2024-08-11T16:00:00Z","end_local":"2024-08-11T19:00:00","updated":"2024-06-26T18:21:03Z"},{"title":"Premier League - ZED vs Zamalek","description":"Sourced from predicthq.com","category":"sports","start":"2024-08-08T16:00:00Z","geo":{"geometry":{"coordinates":[31.3122579,30.0691131],"type":"Point"},"placekey":"@7vy-she-8d9","address":{"country_code":"EG","formatted_address":"Mamdouh Salem، Street، Al Estad, Nasr City, Egypt","locality":"Nasr City","region":"Cairo Governorate"}},"labels":["soccer","sport"],"duration":0,"start_local":"2024-08-08T19:00:00","end":"2024-08-08T16:00:00Z","end_local":"2024-08-08T19:00:00","updated":"2024-06-26T17:49:49Z"},{"title":"Premier League - Smouha vs Al Ahly","description":"Sourced from predicthq.com","category":"sports","start":"2024-08-08T16:00:00Z","geo":{"geometry":{"coordinates":[29.7293881,30.9995782],"type":"Point"},"placekey":"@7yg-6gh-45f","address":{"country_code":"EG","formatted_address":"Cairo - Borg El-Arab Desert Road, Alexandria, 5247007, Egypt","postcode":"5247007","locality":"Alexandria","region":"Alexandria Governorate"}},"labels":["soccer","sport"],"duration":0,"start_local":"2024-08-08T19:00:00","end":"2024-08-08T16:00:00Z","end_local":"2024-08-08T19:00:00","updated":"2024-06-26T22:15:20Z"},{"title":"Premier League - Zamalek vs ENPPI","description":"Sourced from predicthq.com","category":"sports","start":"2024-08-05T16:00:00Z","geo":{"geometry":{"coordinates":[31.3122579,30.0691131],"type":"Point"},"placekey":"@7vy-she-8d9","address":{"country_code":"EG","formatted_address":"Mamdouh Salem، Street، Al Estad, Nasr City, Egypt","locality":"Nasr City","region":"Cairo Governorate"}},"labels":["soccer","sport"],"duration":0,"start_local":"2024-08-05T19:00:00","end":"2024-08-05T16:00:00Z","end_local":"2024-08-05T19:00:00","updated":"2024-06-26T18:21:25Z"},{"title":"Premier League - Al Ahly vs Al Mokawloon","description":"Sourced from predicthq.com","category":"sports","start":"2024-08-04T16:00:00Z","geo":{"geometry":{"coordinates":[31.3122579,30.0691131],"type":"Point"},"placekey":"@7vy-she-8d9","address":{"country_code":"EG","formatted_address":"Mamdouh Salem، Street، Al Estad, Nasr City, Egypt","locality":"Nasr City","region":"Cairo Governorate"}},"labels":["soccer","sport"],"duration":0,"start_local":"2024-08-04T19:00:00","end":"2024-08-04T16:00:00Z","end_local":"2024-08-04T19:00:00","updated":"2024-06-26T21:48:47Z"},{"title":"Premier League - Pyramids vs ZED","description":"Sourced from predicthq.com","category":"sports","start":"2024-08-04T16:00:00Z","geo":{"geometry":{"coordinates":[31.3737559,30.0199086],"type":"Point"},"placekey":"@7vy-v5z-ysq","address":{"country_code":"EG","formatted_address":"299F+XGQ, Al Hay Al Asher, Nasr City, Cairo Governorate 4440510, Egypt","postcode":"4440510","region":"Cairo Governorate"}},"labels":["soccer","sport"],"duration":0,"start_local":"2024-08-04T19:00:00","end":"2024-08-04T16:00:00Z","end_local":"2024-08-04T19:00:00","updated":"2024-07-02T05:37:03Z"},{"title":"EDUGATE SUMMER EVENT 2024","description":"Sourced from predicthq.com - Get ready for the ultimate summer educational experience at EDUGATE SUMMER EVENT 2024!","category":"conferences","start":"2024-08-04T08:00:00Z","geo":{"geometry":{"coordinates":[31.4182826,30.0610113],"type":"Point"},"placekey":"@7vy-sj6-pgk","address":{"country_code":"EG","formatted_address":"Ring Road, 4732021, Egypt","postcode":"4732021","region":"Cairo Governorate"}},"labels":["conference","education","family"],"duration":198000,"start_local":"2024-08-04T11:00:00","end":"2024-08-06T15:00:00Z","end_local":"2024-08-06T18:00:00","updated":"2024-06-04T05:45:23Z"},{"title":"Premier League - Zamalek vs El Gouna","description":"Sourced from predicthq.com","category":"sports","start":"2024-08-02T16:00:00Z","geo":{"geometry":{"coordinates":[31.3122579,30.0691131],"type":"Point"},"placekey":"@7vy-she-8d9","address":{"country_code":"EG","formatted_address":"Mamdouh Salem، Street، Al Estad, Nasr City, Egypt","locality":"Nasr City","region":"Cairo Governorate"}},"labels":["soccer","sport"],"duration":0,"start_local":"2024-08-02T19:00:00","end":"2024-08-02T16:00:00Z","end_local":"2024-08-02T19:00:00","updated":"2024-06-26T17:57:55Z"},{"title":"Premier League - Smouha vs Al Masry","description":"Sourced from predicthq.com","category":"sports","start":"2024-08-01T16:00:00Z","geo":{"geometry":{"coordinates":[29.7293881,30.9995782],"type":"Point"},"placekey":"@7yg-6gh-45f","address":{"country_code":"EG","formatted_address":"Cairo - Borg El-Arab Desert Road, Alexandria, 5247007, Egypt","postcode":"5247007","locality":"Alexandria","region":"Alexandria Governorate"}},"labels":["soccer","sport"],"duration":0,"start_local":"2024-08-01T19:00:00","end":"2024-08-01T16:00:00Z","end_local":"2024-08-01T19:00:00","updated":"2024-06-26T22:59:39Z"},{"title":"Premier League - Al Ahly vs National Bank of Egypt","description":"Sourced from predicthq.com","category":"sports","start":"2024-08-01T16:00:00Z","geo":{"geometry":{"coordinates":[31.3122579,30.0691131],"type":"Point"},"placekey":"@7vy-she-8d9","address":{"country_code":"EG","formatted_address":"Mamdouh Salem، Street، Al Estad, Nasr City, Egypt","locality":"Nasr City","region":"Cairo Governorate"}},"labels":["soccer","sport"],"duration":0,"start_local":"2024-08-01T19:00:00","end":"2024-08-01T16:00:00Z","end_local":"2024-08-01T19:00:00","updated":"2024-06-27T00:07:53Z"},{"title":"Premier League - Al Mokawloon vs Ceramica Cleopatra","description":"Sourced from predicthq.com","category":"sports","start":"2024-08-01T13:00:00Z","geo":{"geometry":{"coordinates":[31.2969817,30.0511433],"type":"Point"},"placekey":"@7vy-ssf-q2k","address":{"country_code":"EG","formatted_address":"372X+W52, Al Abageyah, El Khalifa, Cairo Governorate 4433013, Egypt","postcode":"4433013","region":"Cairo Governorate"}},"labels":["soccer","sport"],"duration":0,"start_local":"2024-08-01T16:00:00","end":"2024-08-01T13:00:00Z","end_local":"2024-08-01T16:00:00","updated":"2024-06-26T22:59:32Z"},{"title":"Premier League - ZED vs Modern","description":"Sourced from predicthq.com","category":"sports","start":"2024-07-31T16:00:00Z","geo":{"geometry":{"coordinates":[31.3122579,30.0691131],"type":"Point"},"placekey":"@7vy-she-8d9","address":{"country_code":"EG","formatted_address":"Mamdouh Salem، Street، Al Estad, Nasr City, Egypt","locality":"Nasr City","region":"Cairo Governorate"}},"labels":["soccer","sport"],"duration":0,"start_local":"2024-07-31T19:00:00","end":"2024-07-31T16:00:00Z","end_local":"2024-07-31T19:00:00","updated":"2024-07-02T15:14:09Z"},{"title":"Premier League - Al Ittihad vs ENPPI","description":"Sourced from predicthq.com","category":"sports","start":"2024-07-31T16:00:00Z","geo":{"geometry":{"coordinates":[29.9136971,31.1972747],"type":"Point"},"placekey":"@7yg-6dd-p7q","address":{"country_code":"EG","formatted_address":"5WX7+39Q, Bab Sharqi WA Wabour Al Meyah, Bab Sharqi, Alexandria Governorate 5422001, Egypt","postcode":"5422001","region":"Alexandria Governorate"}},"labels":["soccer","sport"],"duration":0,"start_local":"2024-07-31T19:00:00","end":"2024-07-31T16:00:00Z","end_local":"2024-07-31T19:00:00","updated":"2024-06-26T22:19:16Z"},{"title":"Premier League - Baladiyyat Al Mehalla vs Ismaily","description":"Sourced from predicthq.com","category":"sports","start":"2024-07-30T16:00:00Z","geo":{"geometry":{"coordinates":[29.7293881,30.9995782],"type":"Point"},"placekey":"@7yg-6gh-45f","address":{"country_code":"EG","formatted_address":"Cairo - Borg El-Arab Desert Road, Alexandria, 5247007, Egypt","postcode":"5247007","locality":"Alexandria","region":"Alexandria Governorate"}},"labels":["soccer","sport"],"duration":0,"start_local":"2024-07-30T19:00:00","end":"2024-07-30T16:00:00Z","end_local":"2024-07-30T19:00:00","updated":"2024-06-26T18:17:35Z"},{"title":"Premier League - Pharco vs Pyramids","description":"Sourced from predicthq.com","category":"sports","start":"2024-07-30T16:00:00Z","geo":{"geometry":{"coordinates":[29.848415851593018,31.150954572123393],"type":"Point"},"placekey":"@7yg-6f8-tjv","address":{"country_code":"EG","formatted_address":"Al-Maks Street, Al-Maks, Al-Iskandarîah (Alexandria), Egypt","locality":"Al-Iskandarîah (Alexandria)"}},"labels":["soccer","sport"],"duration":0,"start_local":"2024-07-30T19:00:00","end":"2024-07-30T16:00:00Z","end_local":"2024-07-30T19:00:00","updated":"2024-06-27T02:10:41Z"},{"title":"Premier League - El Dakhleya vs El Geish","description":"Sourced from predicthq.com","category":"sports","start":"2024-07-30T13:00:00Z","geo":{"geometry":{"coordinates":[31.4461625,30.0247007],"type":"Point"},"placekey":"@7vy-v4x-cyv","address":{"country_code":"EG","formatted_address":"2CFW+WRF, New Cairo 1, Cairo Governorate 4730301, Egypt","postcode":"4730301","region":"Cairo Governorate"}},"labels":["soccer","sport"],"duration":0,"start_local":"2024-07-30T16:00:00","end":"2024-07-30T13:00:00Z","end_local":"2024-07-30T16:00:00","updated":"2024-06-26T18:09:10Z"},{"title":"Premier League - Al Mokawloon vs Zamalek","description":"Sourced from predicthq.com","category":"sports","start":"2024-07-29T16:00:00Z","geo":{"geometry":{"coordinates":[31.2969817,30.0511433],"type":"Point"},"placekey":"@7vy-ssf-q2k","address":{"country_code":"EG","formatted_address":"372X+W52, Al Abageyah, El Khalifa, Cairo Governorate 4433013, Egypt","postcode":"4433013","region":"Cairo Governorate"}},"labels":["soccer","sport"],"duration":0,"start_local":"2024-07-29T19:00:00","end":"2024-07-29T16:00:00Z","end_local":"2024-07-29T19:00:00","updated":"2024-06-26T18:20:57Z"},{"title":"Premier League - Al Ahly vs Ceramica Cleopatra","description":"Sourced from predicthq.com","category":"sports","start":"2024-07-29T16:00:00Z","geo":{"geometry":{"coordinates":[31.3122579,30.0691131],"type":"Point"},"placekey":"@7vy-she-8d9","address":{"country_code":"EG","formatted_address":"Mamdouh Salem، Street، Al Estad, Nasr City, Egypt","locality":"Nasr City","region":"Cairo Governorate"}},"labels":["soccer","sport"],"duration":0,"start_local":"2024-07-29T19:00:00","end":"2024-07-29T16:00:00Z","end_local":"2024-07-29T19:00:00","updated":"2024-06-26T22:36:56Z"},{"title":"Lee Burridge","description":"Sourced from predicthq.com","category":"concerts","start":"2024-07-27T16:00:00Z","geo":{"geometry":{"coordinates":[28.58272,31.03323],"type":"Point"},"placekey":"@7yg-7xq-rrk","address":{"country_code":"EG","formatted_address":"El Dabaa, Matrouh, Cairo, Egypt","locality":"Cairo"}},"labels":["concert","music"],"duration":0,"start_local":"2024-07-27T19:00:00","end":"2024-07-27T16:00:00Z","end_local":"2024-07-27T19:00:00","updated":"2024-06-17T02:05:09Z"},{"title":"Premier League - Zamalek vs Pyramids","description":"Sourced from predicthq.com","category":"sports","start":"2024-07-26T16:00:00Z","geo":{"geometry":{"coordinates":[31.3122579,30.0691131],"type":"Point"},"placekey":"@7vy-she-8d9","address":{"country_code":"EG","formatted_address":"Mamdouh Salem، Street، Al Estad, Nasr City, Egypt","locality":"Nasr City","region":"Cairo Governorate"}},"labels":["soccer","sport"],"duration":0,"start_local":"2024-07-26T19:00:00","end":"2024-07-26T16:00:00Z","end_local":"2024-07-26T19:00:00","updated":"2024-06-27T09:41:21Z"},{"title":"Premier League - Al Masry vs Al Ahly","description":"Sourced from predicthq.com","category":"sports","start":"2024-07-26T16:00:00Z","geo":{"geometry":{"coordinates":[29.7293881,30.9995782],"type":"Point"},"placekey":"@7yg-6gh-45f","address":{"country_code":"EG","formatted_address":"Cairo - Borg El-Arab Desert Road, Alexandria, 5247007, Egypt","postcode":"5247007","locality":"Alexandria","region":"Alexandria Governorate"}},"labels":["soccer","sport"],"duration":0,"start_local":"2024-07-26T19:00:00","end":"2024-07-26T16:00:00Z","end_local":"2024-07-26T19:00:00","updated":"2024-06-26T21:17:39Z"},{"title":"Odqin","description":"Sourced from predicthq.com","category":"community","start":"2024-07-25T17:00:00Z","geo":{"geometry":{"coordinates":[31.2122561,30.0622368],"type":"Point"},"placekey":"@7vy-sdw-ty9","address":{"country_code":"EG","formatted_address":"197 26th of July Corridor, Madinet Al Eelam, Agouza, Giza Governorate 3755220, Egypt","postcode":"3755220","region":"Giza Governorate"}},"labels":["concert","music"],"duration":0,"start_local":"2024-07-25T20:00:00","end":"2024-07-25T17:00:00Z","end_local":"2024-07-25T20:00:00","updated":"2024-06-04T10:05:50Z"},{"title":"Premier League - Pyramids vs Al Ahly","description":"Sourced from predicthq.com","category":"sports","start":"2024-07-22T16:00:00Z","geo":{"geometry":{"coordinates":[31.3737559,30.0199086],"type":"Point"},"placekey":"@7vy-v5z-ysq","address":{"country_code":"EG","formatted_address":"299F+XGQ, Al Hay Al Asher, Nasr City, Cairo Governorate 4440510, Egypt","postcode":"4440510","region":"Cairo Governorate"}},"labels":["soccer","sport"],"duration":0,"start_local":"2024-07-22T19:00:00","end":"2024-07-22T16:00:00Z","end_local":"2024-07-22T19:00:00","updated":"2024-06-27T02:36:36Z"},{"title":"Premier League - Modern vs Smouha","description":"Sourced from predicthq.com","category":"sports","start":"2024-07-22T16:00:00Z","geo":{"geometry":{"coordinates":[31.3122579,30.0691131],"type":"Point"},"placekey":"@7vy-she-8d9","address":{"country_code":"EG","formatted_address":"Mamdouh Salem، Street، Al Estad, Nasr City, Egypt","locality":"Nasr City","region":"Cairo Governorate"}},"labels":["soccer","sport"],"duration":0,"start_local":"2024-07-22T19:00:00","end":"2024-07-22T16:00:00Z","end_local":"2024-07-22T19:00:00","updated":"2024-07-02T17:32:39Z"},{"title":"Premier League - Ismaily vs El Gouna","description":"Sourced from predicthq.com","category":"sports","start":"2024-07-22T13:00:00Z","geo":{"geometry":{"coordinates":[32.27381944656372,30.60098964027036],"type":"Point"},"placekey":"@7vy-3zq-rc5","address":{"country_code":"EG","formatted_address":"Reda Street, Shebeen, Ismailia, Egypt","locality":"Ismailia"}},"labels":["soccer","sport"],"duration":0,"start_local":"2024-07-22T16:00:00","end":"2024-07-22T13:00:00Z","end_local":"2024-07-22T16:00:00","updated":"2024-06-27T09:25:36Z"},{"title":"Premier League - El Dakhleya vs Zamalek","description":"Sourced from predicthq.com","category":"sports","start":"2024-07-21T16:00:00Z","geo":{"geometry":{"coordinates":[31.43519420000007,30.1744268],"type":"Point"},"placekey":"@7vy-sk7-mzf","address":{"country_code":"EG","formatted_address":"Cairo, Cairo Governorate, Egypt","locality":"Cairo","region":"Cairo Governorate"}},"labels":["soccer","sport"],"duration":0,"start_local":"2024-07-21T19:00:00","end":"2024-07-21T16:00:00Z","end_local":"2024-07-21T19:00:00","updated":"2024-06-26T18:20:32Z"},{"title":"Premier League - Al Masry vs Al Mokawloon","description":"Sourced from predicthq.com","category":"sports","start":"2024-07-21T16:00:00Z","geo":{"geometry":{"coordinates":[29.7293881,30.9995782],"type":"Point"},"placekey":"@7yg-6gh-45f","address":{"country_code":"EG","formatted_address":"Cairo - Borg El-Arab Desert Road, Alexandria, 5247007, Egypt","postcode":"5247007","locality":"Alexandria","region":"Alexandria Governorate"}},"labels":["soccer","sport"],"duration":0,"start_local":"2024-07-21T19:00:00","end":"2024-07-21T16:00:00Z","end_local":"2024-07-21T19:00:00","updated":"2024-06-28T07:24:39Z"},{"title":"Premier League - ENPPI vs ZED","description":"Sourced from predicthq.com","category":"sports","start":"2024-07-21T16:00:00Z","geo":{"geometry":{"coordinates":[31.4461625,30.0247007],"type":"Point"},"placekey":"@7vy-v4x-cyv","address":{"country_code":"EG","formatted_address":"2CFW+WRF, New Cairo 1, Cairo Governorate 4730301, Egypt","postcode":"4730301","region":"Cairo Governorate"}},"labels":["soccer","sport"],"duration":0,"start_local":"2024-07-21T19:00:00","end":"2024-07-21T16:00:00Z","end_local":"2024-07-21T19:00:00","updated":"2024-06-26T21:33:32Z"},{"title":"Premier League - Ceramica Cleopatra vs Baladiyyat Al Mehalla","description":"Sourced from predicthq.com","category":"sports","start":"2024-07-20T16:00:00Z","geo":{"geometry":{"coordinates":[31.2969817,30.0511433],"type":"Point"},"placekey":"@7vy-ssf-q2k","address":{"country_code":"EG","formatted_address":"372X+W52, Al Abageyah, El Khalifa, Cairo Governorate 4433013, Egypt","postcode":"4433013","region":"Cairo Governorate"}},"labels":["soccer","sport"],"duration":0,"start_local":"2024-07-20T19:00:00","end":"2024-07-20T16:00:00Z","end_local":"2024-07-20T19:00:00","updated":"2024-06-27T01:25:32Z"},{"title":"Premier League - El Geish vs Pharco","description":"Sourced from predicthq.com","category":"sports","start":"2024-07-20T13:00:00Z","geo":{"geometry":{"coordinates":[31.30351980674596,30.08114886560622],"type":"Point"},"placekey":"@7vy-sj2-psq","address":{"country_code":"EG","formatted_address":"Al Shahid Al Mokadem Ahmed, al-Qāhirah (Cairo), Egypt","locality":"al-Qāhirah (Cairo)"}},"labels":["soccer","sport"],"duration":0,"start_local":"2024-07-20T16:00:00","end":"2024-07-20T13:00:00Z","end_local":"2024-07-20T16:00:00","updated":"2024-06-27T14:24:00Z"},{"title":"International Conference on Automation, Control and Robots","description":"Sourced from predicthq.com - The International Industrial Control & Automation Technology Exhibition & Conference is a highly anticipated expo event showcasing the latest advancements and innovations in the field of industrial control and automation technology. With a focus on creating networking opportunities and promoting collaboration, this event brings together industry leaders, experts, and enthusiasts under one roof for insightful discussions and demonstrations.","category":"conferences","start":"2024-07-19T21:00:00Z","geo":{"geometry":{"coordinates":[31.300752,30.07297],"type":"Point"},"placekey":"@7vy-shv-cnq","address":{"country_code":"EG","formatted_address":"Salah Salem Street, 4435222, Egypt","postcode":"4435222","region":"Cairo Governorate"}},"labels":["conference"],"duration":259199,"start_local":"2024-07-20T00:00:00","end":"2024-07-22T20:59:59Z","end_local":"2024-07-22T23:59:59","updated":"2024-06-10T23:49:50Z"},{"title":"Premier League - Modern vs Al Ahly","description":"Sourced from predicthq.com","category":"sports","start":"2024-07-16T16:00:00Z","geo":{"geometry":{"coordinates":[31.3122579,30.0691131],"type":"Point"},"placekey":"@7vy-she-8d9","address":{"country_code":"EG","formatted_address":"Mamdouh Salem، Street، Al Estad, Nasr City, Egypt","locality":"Nasr City","region":"Cairo Governorate"}},"labels":["soccer","sport"],"duration":0,"start_local":"2024-07-16T19:00:00","end":"2024-07-16T16:00:00Z","end_local":"2024-07-16T19:00:00","updated":"2024-07-02T11:52:27Z"},{"title":"Premier League - Zamalek vs Baladiyyat Al Mehalla","description":"Sourced from predicthq.com","category":"sports","start":"2024-07-15T16:00:00Z","geo":{"geometry":{"coordinates":[31.3122579,30.0691131],"type":"Point"},"placekey":"@7vy-she-8d9","address":{"country_code":"EG","formatted_address":"Mamdouh Salem، Street، Al Estad, Nasr City, Egypt","locality":"Nasr City","region":"Cairo Governorate"}},"labels":["soccer","sport"],"duration":0,"start_local":"2024-07-15T19:00:00","end":"2024-07-15T16:00:00Z","end_local":"2024-07-15T19:00:00","updated":"2024-06-27T13:55:09Z"},{"title":"Nottingham Trent University Open Day - AHZ Cairo Office","description":"Sourced from predicthq.com - AHZ is thrilled to announce the Open Day for Nottingham Trent University (NTU) on July 1 from 11 am to 2 pm at AHZ Cairo office.","category":"expos","start":"2024-07-14T07:00:00Z","geo":{"geometry":{"coordinates":[31.4029399,30.0087861],"type":"Point"},"placekey":"@7vy-v62-r49","address":{"country_code":"EG","formatted_address":"4720113, Egypt","postcode":"4720113","region":"Cairo Governorate"}},"labels":["education","expo","family"],"duration":7200,"start_local":"2024-07-14T10:00:00","end":"2024-07-14T09:00:00Z","end_local":"2024-07-14T12:00:00","updated":"2024-06-06T04:26:54Z"},{"title":"Premier League - National Bank of Egypt vs Smouha","description":"Sourced from predicthq.com","category":"sports","start":"2024-07-13T16:00:00Z","geo":{"geometry":{"coordinates":[31.3122579,30.0691131],"type":"Point"},"placekey":"@7vy-she-8d9","address":{"country_code":"EG","formatted_address":"Mamdouh Salem، Street، Al Estad, Nasr City, Egypt","locality":"Nasr City","region":"Cairo Governorate"}},"labels":["soccer","sport"],"duration":0,"start_local":"2024-07-13T19:00:00","end":"2024-07-13T16:00:00Z","end_local":"2024-07-13T19:00:00","updated":"2024-07-02T15:44:35Z"},{"title":"Premier League - Al Ahly vs Pyramids","description":"Sourced from predicthq.com","category":"sports","start":"2024-07-12T17:00:00Z","geo":{"geometry":{"coordinates":[31.3122579,30.0691131],"type":"Point"},"placekey":"@7vy-she-8d9","address":{"country_code":"EG","formatted_address":"Mamdouh Salem، Street، Al Estad, Nasr City, Egypt","locality":"Nasr City","region":"Cairo Governorate"}},"labels":["soccer","sport"],"duration":0,"start_local":"2024-07-12T20:00:00","end":"2024-07-12T17:00:00Z","end_local":"2024-07-12T20:00:00","updated":"2024-06-24T12:15:47Z"},{"title":"Ghy","description":"Sourced from predicthq.com - Ghy: A gathering of friends and family to celebrate life, love, and laughter in a fun and lively atmosphere!","category":"concerts","start":"2024-07-12T07:00:00Z","geo":{"geometry":{"coordinates":[29.9187387,31.2000924],"type":"Point"},"placekey":"@7yg-6df-kmk","address":{"country_code":"EG","formatted_address":"5422015, Egypt","postcode":"5422015","region":"Alexandria Governorate"}},"labels":["community","concert","music"],"duration":7200,"start_local":"2024-07-12T10:00:00","end":"2024-07-12T09:00:00Z","end_local":"2024-07-12T12:00:00","updated":"2024-06-06T04:09:45Z"},{"title":"Premier League - El Geish vs Zamalek","description":"Sourced from predicthq.com","category":"sports","start":"2024-07-11T16:00:00Z","geo":{"geometry":{"coordinates":[31.3673857,30.1113123],"type":"Point"},"placekey":"@7vy-sgy-z9f","address":{"country_code":"EG","formatted_address":"4969+C2Q, El-Orouba, Al Matar, El Nozha, Cairo Governorate 4470801, Egypt","postcode":"4470801","region":"Cairo Governorate"}},"labels":["soccer","sport"],"duration":0,"start_local":"2024-07-11T19:00:00","end":"2024-07-11T16:00:00Z","end_local":"2024-07-11T19:00:00","updated":"2024-06-11T04:03:08Z"},{"title":"Squash League","description":"Sourced from predicthq.com - Level up your game !\n\nJoin the game !","category":"community","start":"2024-07-10T19:00:00Z","geo":{"geometry":{"coordinates":[31.4651587,30.0213013],"type":"Point"},"placekey":"@7vy-v54-9cq","address":{"country_code":"EG","formatted_address":"4724243, Egypt","postcode":"4724243","region":"محافظة القاهرة‬"}},"labels":["community","sport"],"duration":3600,"start_local":"2024-07-10T22:00:00","end":"2024-07-10T20:00:00Z","end_local":"2024-07-10T23:00:00","updated":"2024-07-04T07:57:27Z"},{"title":"Premier League - Al Ahly vs El Geish","description":"Sourced from predicthq.com","category":"sports","start":"2024-07-08T16:00:00Z","geo":{"geometry":{"coordinates":[31.3122579,30.0691131],"type":"Point"},"placekey":"@7vy-she-8d9","address":{"country_code":"EG","formatted_address":"Mamdouh Salem، Street، Al Estad, Nasr City, Egypt","locality":"Nasr City","region":"Cairo Governorate"}},"labels":["soccer","sport"],"duration":0,"start_local":"2024-07-08T19:00:00","end":"2024-07-08T16:00:00Z","end_local":"2024-07-08T19:00:00","updated":"2024-06-11T01:41:38Z"},{"title":"Premier League - Al Ittihad vs Pyramids","description":"Sourced from predicthq.com","category":"sports","start":"2024-07-08T14:30:00Z","geo":{"geometry":{"coordinates":[29.9136971,31.1972747],"type":"Point"},"placekey":"@7yg-6dd-p7q","address":{"country_code":"EG","formatted_address":"5WX7+39Q, Bab Sharqi WA Wabour Al Meyah, Bab Sharqi, Alexandria Governorate 5422001, Egypt","postcode":"5422001","region":"Alexandria Governorate"}},"labels":["soccer","sport"],"duration":0,"start_local":"2024-07-08T17:30:00","end":"2024-07-08T14:30:00Z","end_local":"2024-07-08T17:30:00","updated":"2024-07-03T18:44:55Z"},{"title":"Premier League - Pharco vs El Dakhleya","description":"Sourced from predicthq.com","category":"sports","start":"2024-07-08T13:00:00Z","geo":{"geometry":{"coordinates":[29.848415851593018,31.150954572123393],"type":"Point"},"placekey":"@7yg-6f8-tjv","address":{"country_code":"EG","formatted_address":"Al-Maks Street, Al-Maks, Al-Iskandarîah (Alexandria), Egypt","locality":"Al-Iskandarîah (Alexandria)"}},"labels":["soccer","sport"],"duration":0,"start_local":"2024-07-08T16:00:00","end":"2024-07-08T13:00:00Z","end_local":"2024-07-08T16:00:00","updated":"2024-06-11T02:06:50Z"},{"title":"Premier League - Zamalek vs Ismaily","description":"Sourced from predicthq.com","category":"sports","start":"2024-07-07T16:00:00Z","geo":{"geometry":{"coordinates":[31.3122579,30.0691131],"type":"Point"},"placekey":"@7vy-she-8d9","address":{"country_code":"EG","formatted_address":"Mamdouh Salem، Street، Al Estad, Nasr City, Egypt","locality":"Nasr City","region":"Cairo Governorate"}},"labels":["soccer","sport"],"duration":0,"start_local":"2024-07-07T19:00:00","end":"2024-07-07T16:00:00Z","end_local":"2024-07-07T19:00:00","updated":"2024-06-11T01:41:44Z"},{"title":"Premier League - El Gouna vs Ceramica Cleopatra","description":"Sourced from predicthq.com","category":"sports","start":"2024-07-07T16:00:00Z","geo":{"geometry":{"coordinates":[33.65985095500946,27.360219177250688],"type":"Point"},"placekey":"@7vn-gjh-835","address":{"country_code":"EG","formatted_address":"El-Gouna, Egypt","locality":"El-Gouna"}},"labels":["soccer","sport"],"duration":0,"start_local":"2024-07-07T19:00:00","end":"2024-07-07T16:00:00Z","end_local":"2024-07-07T19:00:00","updated":"2024-06-11T03:35:29Z"},{"title":"Premier League - Baladiyyat Al Mehalla vs Al Masry","description":"Sourced from predicthq.com","category":"sports","start":"2024-07-07T13:00:00Z","geo":{"geometry":{"coordinates":[32.5425124,29.957686],"type":"Point"},"placekey":"@7vz-37c-k4v","address":{"country_code":"EG","formatted_address":"XG5R+4G3, Suez, Suez Governorate 8140101, Egypt","postcode":"8140101","region":"Suez Governorate"}},"labels":["soccer","sport"],"duration":0,"start_local":"2024-07-07T16:00:00","end":"2024-07-07T13:00:00Z","end_local":"2024-07-07T16:00:00","updated":"2024-06-14T16:07:11Z"},{"title":"Premier League - ZED vs National Bank of Egypt","description":"Sourced from predicthq.com","category":"sports","start":"2024-07-06T16:00:00Z","geo":{"geometry":{"coordinates":[31.3122579,30.0691131],"type":"Point"},"placekey":"@7vy-she-8d9","address":{"country_code":"EG","formatted_address":"Mamdouh Salem، Street، Al Estad, Nasr City, Egypt","locality":"Nasr City","region":"Cairo Governorate"}},"labels":["soccer","sport"],"duration":0,"start_local":"2024-07-06T19:00:00","end":"2024-07-06T16:00:00Z","end_local":"2024-07-06T19:00:00","updated":"2024-06-11T03:14:59Z"},{"title":"Premier League - Smouha vs ENPPI","description":"Sourced from predicthq.com","category":"sports","start":"2024-07-06T14:30:00Z","geo":{"geometry":{"coordinates":[29.9136971,31.1972747],"type":"Point"},"placekey":"@7yg-6dd-p7q","address":{"country_code":"EG","formatted_address":"5WX7+39Q, Bab Sharqi WA Wabour Al Meyah, Bab Sharqi, Alexandria Governorate 5422001, Egypt","postcode":"5422001","region":"Alexandria Governorate"}},"labels":["soccer","sport"],"duration":0,"start_local":"2024-07-06T17:30:00","end":"2024-07-06T14:30:00Z","end_local":"2024-07-06T17:30:00","updated":"2024-07-04T00:08:37Z"},{"title":"Premier League - Al Mokawloon vs Modern","description":"Sourced from predicthq.com","category":"sports","start":"2024-07-06T13:00:00Z","geo":{"geometry":{"coordinates":[31.2969817,30.0511433],"type":"Point"},"placekey":"@7vy-ssf-q2k","address":{"country_code":"EG","formatted_address":"372X+W52, Al Abageyah, El Khalifa, Cairo Governorate 4433013, Egypt","postcode":"4433013","region":"Cairo Governorate"}},"labels":["soccer","sport"],"duration":0,"start_local":"2024-07-06T16:00:00","end":"2024-07-06T13:00:00Z","end_local":"2024-07-06T16:00:00","updated":"2024-07-02T11:42:41Z"},{"title":"Premier League - Al Ahly vs El Dakhleya","description":"Sourced from predicthq.com","category":"sports","start":"2024-07-04T16:00:00Z","geo":{"geometry":{"coordinates":[31.3122579,30.0691131],"type":"Point"},"placekey":"@7vy-she-8d9","address":{"country_code":"EG","formatted_address":"Mamdouh Salem، Street، Al Estad, Nasr City, Egypt","locality":"Nasr City","region":"Cairo Governorate"}},"labels":["soccer","sport"],"duration":7241,"start_local":"2024-07-04T19:00:00","end":"2024-07-04T18:00:41Z","end_local":"2024-07-04T21:00:41","updated":"2024-07-04T19:10:17Z"},{"title":"Squash League","description":"Sourced from predicthq.com - Level up your game !\n\nJoin the game !","category":"community","start":"2024-07-03T19:00:00Z","geo":{"geometry":{"coordinates":[31.4651587,30.0213013],"type":"Point"},"placekey":"@7vy-v54-9cq","address":{"country_code":"EG","formatted_address":"4724243, Egypt","postcode":"4724243","region":"محافظة القاهرة‬"}},"labels":["community","sport"],"duration":3600,"start_local":"2024-07-03T22:00:00","end":"2024-07-03T20:00:00Z","end_local":"2024-07-03T23:00:00","updated":"2024-06-27T11:38:33Z"},{"title":"Premier League - Pharco vs Zamalek","description":"Sourced from predicthq.com","category":"sports","start":"2024-07-03T16:00:00Z","geo":{"geometry":{"coordinates":[29.7293881,30.9995782],"type":"Point"},"placekey":"@7yg-6gh-45f","address":{"country_code":"EG","formatted_address":"Cairo - Borg El-Arab Desert Road, Alexandria, 5247007, Egypt","postcode":"5247007","locality":"Alexandria","region":"Alexandria Governorate"}},"labels":["soccer","sport"],"duration":7175,"start_local":"2024-07-03T19:00:00","end":"2024-07-03T17:59:35Z","end_local":"2024-07-03T20:59:35","updated":"2024-07-03T19:04:53Z"},{"title":"Premier League - Ceramica Cleopatra vs Ismaily","description":"Sourced from predicthq.com","category":"sports","start":"2024-07-03T16:00:00Z","geo":{"geometry":{"coordinates":[31.2969817,30.0511433],"type":"Point"},"placekey":"@7vy-ssf-q2k","address":{"country_code":"EG","formatted_address":"372X+W52, Al Abageyah, El Khalifa, Cairo Governorate 4433013, Egypt","postcode":"4433013","region":"Cairo Governorate"}},"labels":["soccer","sport"],"duration":7244,"start_local":"2024-07-03T19:00:00","end":"2024-07-03T18:00:44Z","end_local":"2024-07-03T21:00:44","updated":"2024-07-03T18:51:28Z"},{"title":"Premier League - Modern vs Baladiyyat Al Mehalla","description":"Sourced from predicthq.com","category":"sports","start":"2024-07-03T13:00:00Z","geo":{"geometry":{"coordinates":[31.3122579,30.0691131],"type":"Point"},"placekey":"@7vy-she-8d9","address":{"country_code":"EG","formatted_address":"Mamdouh Salem، Street، Al Estad, Nasr City, Egypt","locality":"Nasr City","region":"Cairo Governorate"}},"labels":["soccer","sport"],"duration":7189,"start_local":"2024-07-03T16:00:00","end":"2024-07-03T14:59:49Z","end_local":"2024-07-03T17:59:49","updated":"2024-07-03T19:34:31Z"},{"title":"Premier League - Smouha vs Pyramids","description":"Sourced from predicthq.com","category":"sports","start":"2024-07-02T17:00:00Z","geo":{"geometry":{"coordinates":[29.9136971,31.1972747],"type":"Point"},"placekey":"@7yg-6dd-p7q","address":{"country_code":"EG","formatted_address":"5WX7+39Q, Bab Sharqi WA Wabour Al Meyah, Bab Sharqi, Alexandria Governorate 5422001, Egypt","postcode":"5422001","region":"Alexandria Governorate"}},"labels":["soccer","sport"],"duration":7984,"start_local":"2024-07-02T20:00:00","end":"2024-07-02T19:13:04Z","end_local":"2024-07-02T22:13:04","updated":"2024-07-03T14:25:13Z"},{"title":"Premier League - ENPPI vs Al Mokawloon","description":"Sourced from predicthq.com","category":"sports","start":"2024-07-02T16:00:00Z","geo":{"geometry":{"coordinates":[31.4461625,30.0247007],"type":"Point"},"placekey":"@7vy-v4x-cyv","address":{"country_code":"EG","formatted_address":"2CFW+WRF, New Cairo 1, Cairo Governorate 4730301, Egypt","postcode":"4730301","region":"Cairo Governorate"}},"labels":["soccer","sport"],"duration":8231,"start_local":"2024-07-02T19:00:00","end":"2024-07-02T18:17:11Z","end_local":"2024-07-02T21:17:11","updated":"2024-07-03T03:15:54Z"},{"title":"Premier League - Al Masry vs El Gouna","description":"Sourced from predicthq.com","category":"sports","start":"2024-07-01T16:00:00Z","geo":{"geometry":{"coordinates":[29.7293881,30.9995782],"type":"Point"},"placekey":"@7yg-6gh-45f","address":{"country_code":"EG","formatted_address":"Cairo - Borg El-Arab Desert Road, Alexandria, 5247007, Egypt","postcode":"5247007","locality":"Alexandria","region":"Alexandria Governorate"}},"labels":["soccer","sport"],"duration":7243,"start_local":"2024-07-01T19:00:00","end":"2024-07-01T18:00:43Z","end_local":"2024-07-01T21:00:43","updated":"2024-07-02T16:32:15Z"},{"title":"Premier League - El Geish vs Al Ahly","description":"Sourced from predicthq.com","category":"sports","start":"2024-07-01T16:00:00Z","geo":{"geometry":{"coordinates":[31.3673857,30.1113123],"type":"Point"},"placekey":"@7vy-sgy-z9f","address":{"country_code":"EG","formatted_address":"4969+C2Q, El-Orouba, Al Matar, El Nozha, Cairo Governorate 4470801, Egypt","postcode":"4470801","region":"Cairo Governorate"}},"labels":["soccer","sport"],"duration":7029,"start_local":"2024-07-01T19:00:00","end":"2024-07-01T17:57:09Z","end_local":"2024-07-01T20:57:09","updated":"2024-07-02T03:04:42Z"},{"title":"Cleopatra Fest 2024","description":"Sourced from predicthq.com - https://cleopatrafest.com/","category":"festivals","start":"2024-07-01T16:00:00Z","geo":{"geometry":{"coordinates":[31.0561893,29.9645659],"type":"Point"},"placekey":"@7vy-sn6-hkf","address":{"country_code":"EG","formatted_address":"3294501, Egypt","postcode":"3294501","region":"Giza Governorate"}},"labels":["community","festival"],"duration":10800,"start_local":"2024-07-01T19:00:00","end":"2024-07-01T19:00:00Z","end_local":"2024-07-01T22:00:00","updated":"2024-06-04T01:34:23Z"},{"title":"Nottingham Trent University Open Day | AHZ Cairo Office","description":"Sourced from predicthq.com - AHZ is thrilled to announce the Open Day for Nottingham Trent University (NTU) on July 1 from 11 am to 2 pm at AHZ Cairo office.","category":"conferences","start":"2024-07-01T08:00:00Z","geo":{"geometry":{"coordinates":[31.4029399,30.0087861],"type":"Point"},"placekey":"@7vy-v62-r49","address":{"country_code":"EG","formatted_address":"4720113, Egypt","postcode":"4720113","region":"Cairo Governorate"}},"labels":["conference","education","family"],"duration":10800,"start_local":"2024-07-01T11:00:00","end":"2024-07-01T11:00:00Z","end_local":"2024-07-01T14:00:00","updated":"2024-06-06T02:36:30Z"},{"title":"Premier League - Zamalek vs Ceramica Cleopatra","description":"Sourced from predicthq.com","category":"sports","start":"2024-06-29T16:00:00Z","geo":{"geometry":{"coordinates":[31.3122579,30.0691131],"type":"Point"},"placekey":"@7vy-she-8d9","address":{"country_code":"EG","formatted_address":"Mamdouh Salem، Street، Al Estad, Nasr City, Egypt","locality":"Nasr City","region":"Cairo Governorate"}},"labels":["soccer","sport"],"duration":7471,"start_local":"2024-06-29T19:00:00","end":"2024-06-29T18:04:31Z","end_local":"2024-06-29T21:04:31","updated":"2024-06-29T18:30:29Z"},{"title":"Premier League - Al Ittihad vs El Dakhleya","description":"Sourced from predicthq.com","category":"sports","start":"2024-06-29T14:30:00Z","geo":{"geometry":{"coordinates":[29.9136971,31.1972747],"type":"Point"},"placekey":"@7yg-6dd-p7q","address":{"country_code":"EG","formatted_address":"5WX7+39Q, Bab Sharqi WA Wabour Al Meyah, Bab Sharqi, Alexandria Governorate 5422001, Egypt","postcode":"5422001","region":"Alexandria Governorate"}},"labels":["soccer","sport"],"duration":7542,"start_local":"2024-06-29T17:30:00","end":"2024-06-29T16:35:42Z","end_local":"2024-06-29T19:35:42","updated":"2024-06-29T18:30:29Z"},{"title":"Premier League - Baladiyyat Al Mehalla vs ENPPI","description":"Sourced from predicthq.com","category":"sports","start":"2024-06-29T13:00:00Z","geo":{"geometry":{"coordinates":[32.5425124,29.957686],"type":"Point"},"placekey":"@7vz-37c-k4v","address":{"country_code":"EG","formatted_address":"XG5R+4G3, Suez, Suez Governorate 8140101, Egypt","postcode":"8140101","region":"Suez Governorate"}},"labels":["soccer","sport"],"duration":7230,"start_local":"2024-06-29T16:00:00","end":"2024-06-29T15:00:30Z","end_local":"2024-06-29T18:00:30","updated":"2024-06-29T18:18:54Z"},{"title":"Premier League - Al Ahly vs Pharco","description":"Sourced from predicthq.com","category":"sports","start":"2024-06-28T16:00:00Z","geo":{"geometry":{"coordinates":[31.3122579,30.0691131],"type":"Point"},"placekey":"@7vy-she-8d9","address":{"country_code":"EG","formatted_address":"Mamdouh Salem، Street، Al Estad, Nasr City, Egypt","locality":"Nasr City","region":"Cairo Governorate"}},"labels":["soccer","sport"],"duration":7537,"start_local":"2024-06-28T19:00:00","end":"2024-06-28T18:05:37Z","end_local":"2024-06-28T21:05:37","updated":"2024-06-28T18:07:19Z"},{"title":"Premier League - Al Mokawloon vs National Bank of Egypt","description":"Sourced from predicthq.com","category":"sports","start":"2024-06-28T13:00:00Z","geo":{"geometry":{"coordinates":[31.2969817,30.0511433],"type":"Point"},"placekey":"@7vy-ssf-q2k","address":{"country_code":"EG","formatted_address":"372X+W52, Al Abageyah, El Khalifa, Cairo Governorate 4433013, Egypt","postcode":"4433013","region":"Cairo Governorate"}},"labels":["soccer","sport"],"duration":6910,"start_local":"2024-06-28T16:00:00","end":"2024-06-28T14:55:10Z","end_local":"2024-06-28T17:55:10","updated":"2024-06-28T18:14:37Z"},{"title":"Premier League - ZED vs El Geish","description":"Sourced from predicthq.com","category":"sports","start":"2024-06-27T16:00:00Z","geo":{"geometry":{"coordinates":[31.3122579,30.0691131],"type":"Point"},"placekey":"@7vy-she-8d9","address":{"country_code":"EG","formatted_address":"Mamdouh Salem، Street، Al Estad, Nasr City, Egypt","locality":"Nasr City","region":"Cairo Governorate"}},"labels":["soccer","sport"],"duration":7124,"start_local":"2024-06-27T19:00:00","end":"2024-06-27T17:58:44Z","end_local":"2024-06-27T20:58:44","updated":"2024-06-28T03:27:51Z"},{"title":"Premier League - Ismaily vs Al Masry","description":"Sourced from predicthq.com","category":"sports","start":"2024-06-27T16:00:00Z","geo":{"geometry":{"coordinates":[29.7293881,30.9995782],"type":"Point"},"placekey":"@7yg-6gh-45f","address":{"country_code":"EG","formatted_address":"Cairo - Borg El-Arab Desert Road, Alexandria, 5247007, Egypt","postcode":"5247007","locality":"Alexandria","region":"Alexandria Governorate"}},"labels":["soccer","sport"],"duration":7625,"start_local":"2024-06-27T19:00:00","end":"2024-06-27T18:07:05Z","end_local":"2024-06-27T21:07:05","updated":"2024-06-27T18:42:12Z"},{"title":"Premier League - El Gouna vs Modern","description":"Sourced from predicthq.com","category":"sports","start":"2024-06-27T13:00:00Z","geo":{"geometry":{"coordinates":[33.65985095500946,27.360219177250688],"type":"Point"},"placekey":"@7vn-gjh-835","address":{"country_code":"EG","formatted_address":"El-Gouna, Egypt","locality":"El-Gouna"}},"labels":["soccer","sport"],"duration":7697,"start_local":"2024-06-27T16:00:00","end":"2024-06-27T15:08:17Z","end_local":"2024-06-27T18:08:17","updated":"2024-07-02T11:41:19Z"},{"title":"Cyberx Egypt Summit & Awards","description":"Sourced from predicthq.com","category":"conferences","start":"2024-06-26T21:00:00Z","geo":{"geometry":{"coordinates":[31.419031,30.060425],"type":"Point"},"placekey":"@7vy-sj6-q75","address":{"country_code":"EG","formatted_address":"First Settlement\nEastern Ring Road\nCairo\nCairo Governorate 11477\nEgypt","locality":"Cairo"}},"labels":["conference"],"duration":86399,"start_local":"2024-06-27T00:00:00","end":"2024-06-27T20:59:59Z","end_local":"2024-06-27T23:59:59","updated":"2024-06-30T09:16:34Z"},{"title":"Squash League","description":"Sourced from predicthq.com - Level up your game !\n\nJoin the game !","category":"community","start":"2024-06-26T19:00:00Z","geo":{"geometry":{"coordinates":[31.4651587,30.0213013],"type":"Point"},"placekey":"@7vy-v54-9cq","address":{"country_code":"EG","formatted_address":"4724243, Egypt","postcode":"4724243","region":"محافظة القاهرة‬"}},"labels":["community","sport"],"duration":3600,"start_local":"2024-06-26T22:00:00","end":"2024-06-26T20:00:00Z","end_local":"2024-06-26T23:00:00","updated":"2024-06-20T06:00:44Z"},{"title":"The Big 5 Construct Egypt","description":"Sourced from predicthq.com - 'The Big 5 Construct Egypt' is a remarkable expo event showcasing the latest advancements and innovations in the construction industry. With a wide array of exhibitors, industry experts, and networking opportunities, it is a definitive platform for professionals to explore cutting-edge solutions and drive growth in the sector.","category":"expos","start":"2024-06-24T21:00:00Z","geo":{"geometry":{"coordinates":[31.3840314,30.0145172],"type":"Point"},"placekey":"@7vy-v5y-vpv","address":{"country_code":"EG","formatted_address":"El-Moshir Tantawy Axis, 4440510, Egypt","postcode":"4440510","region":"Cairo Governorate"}},"labels":["construction","expo","technology"],"duration":259199,"start_local":"2024-06-25T00:00:00","end":"2024-06-27T20:59:59Z","end_local":"2024-06-27T23:59:59","updated":"2024-06-04T01:58:34Z"},{"title":"Premier League - El Dakhleya vs ZED","description":"Sourced from predicthq.com","category":"sports","start":"2024-06-24T16:00:00Z","geo":{"geometry":{"coordinates":[31.43519420000007,30.1744268],"type":"Point"},"placekey":"@7vy-sk7-mzf","address":{"country_code":"EG","formatted_address":"Cairo, Cairo Governorate, Egypt","locality":"Cairo","region":"Cairo Governorate"}},"labels":["soccer","sport"],"duration":7321,"start_local":"2024-06-24T19:00:00","end":"2024-06-24T18:02:01Z","end_local":"2024-06-24T21:02:01","updated":"2024-06-25T00:23:49Z"},{"title":"Premier League - Pharco vs Al Ittihad","description":"Sourced from predicthq.com","category":"sports","start":"2024-06-24T16:00:00Z","geo":{"geometry":{"coordinates":[29.7293881,30.9995782],"type":"Point"},"placekey":"@7yg-6gh-45f","address":{"country_code":"EG","formatted_address":"Cairo - Borg El-Arab Desert Road, Alexandria, 5247007, Egypt","postcode":"5247007","locality":"Alexandria","region":"Alexandria Governorate"}},"labels":["soccer","sport"],"duration":7193,"start_local":"2024-06-24T19:00:00","end":"2024-06-24T17:59:53Z","end_local":"2024-06-24T20:59:53","updated":"2024-06-24T23:08:11Z"},{"title":"Premier League - National Bank of Egypt vs Baladiyyat Al Mehalla","description":"Sourced from predicthq.com","category":"sports","start":"2024-06-24T13:00:00Z","geo":{"geometry":{"coordinates":[31.43519420000007,30.1744268],"type":"Point"},"placekey":"@7vy-sk7-mzf","address":{"country_code":"EG","formatted_address":"Cairo, Cairo Governorate, Egypt","locality":"Cairo","region":"Cairo Governorate"}},"labels":["soccer","sport"],"duration":7069,"start_local":"2024-06-24T16:00:00","end":"2024-06-24T14:57:49Z","end_local":"2024-06-24T17:57:49","updated":"2024-06-24T18:36:58Z"},{"title":"Premier League - Al Masry vs Ceramica Cleopatra","description":"Sourced from predicthq.com","category":"sports","start":"2024-06-23T16:00:00Z","geo":{"geometry":{"coordinates":[29.7293881,30.9995782],"type":"Point"},"placekey":"@7yg-6gh-45f","address":{"country_code":"EG","formatted_address":"Cairo - Borg El-Arab Desert Road, Alexandria, 5247007, Egypt","postcode":"5247007","locality":"Alexandria","region":"Alexandria Governorate"}},"labels":["soccer","sport"],"duration":7243,"start_local":"2024-06-23T19:00:00","end":"2024-06-23T18:00:43Z","end_local":"2024-06-23T21:00:43","updated":"2024-06-24T03:57:05Z"},{"title":"Premier League - Pyramids vs Al Mokawloon","description":"Sourced from predicthq.com","category":"sports","start":"2024-06-23T16:00:00Z","geo":{"geometry":{"coordinates":[31.3737559,30.0199086],"type":"Point"},"placekey":"@7vy-v5z-ysq","address":{"country_code":"EG","formatted_address":"299F+XGQ, Al Hay Al Asher, Nasr City, Cairo Governorate 4440510, Egypt","postcode":"4440510","region":"Cairo Governorate"}},"labels":["soccer","sport"],"duration":7076,"start_local":"2024-06-23T19:00:00","end":"2024-06-23T17:57:56Z","end_local":"2024-06-23T20:57:56","updated":"2024-06-24T17:50:17Z"},{"title":"Premier League - Modern vs Ismaily","description":"Sourced from predicthq.com","category":"sports","start":"2024-06-23T13:00:00Z","geo":{"geometry":{"coordinates":[31.43519420000007,30.1744268],"type":"Point"},"placekey":"@7vy-sk7-mzf","address":{"country_code":"EG","formatted_address":"Cairo, Cairo Governorate, Egypt","locality":"Cairo","region":"Cairo Governorate"}},"labels":["soccer","sport"],"duration":7406,"start_local":"2024-06-23T16:00:00","end":"2024-06-23T15:03:26Z","end_local":"2024-06-23T18:03:26","updated":"2024-07-02T18:08:00Z"},{"title":"Premier League - El Geish vs Smouha","description":"Sourced from predicthq.com","category":"sports","start":"2024-06-22T16:00:00Z","geo":{"geometry":{"coordinates":[31.30351980674596,30.08114886560622],"type":"Point"},"placekey":"@7vy-sj2-psq","address":{"country_code":"EG","formatted_address":"Al Shahid Al Mokadem Ahmed, al-Qāhirah (Cairo), Egypt","locality":"al-Qāhirah (Cairo)"}},"labels":["soccer","sport"],"duration":7473,"start_local":"2024-06-22T19:00:00","end":"2024-06-22T18:04:33Z","end_local":"2024-06-22T21:04:33","updated":"2024-06-22T18:21:47Z"},{"title":"Premier League - ENPPI vs El Gouna","description":"Sourced from predicthq.com","category":"sports","start":"2024-06-22T16:00:00Z","geo":{"geometry":{"coordinates":[31.4461625,30.0247007],"type":"Point"},"placekey":"@7vy-v4x-cyv","address":{"country_code":"EG","formatted_address":"2CFW+WRF, New Cairo 1, Cairo Governorate 4730301, Egypt","postcode":"4730301","region":"Cairo Governorate"}},"labels":["soccer","sport"],"duration":7329,"start_local":"2024-06-22T19:00:00","end":"2024-06-22T18:02:09Z","end_local":"2024-06-22T21:02:09","updated":"2024-06-22T18:23:26Z"},{"title":"Premier League - El Dakhleya vs Al Ahly","description":"Sourced from predicthq.com","category":"sports","start":"2024-06-21T16:00:00Z","geo":{"geometry":{"coordinates":[31.43519420000007,30.1744268],"type":"Point"},"placekey":"@7vy-sk7-mzf","address":{"country_code":"EG","formatted_address":"Cairo, Cairo Governorate, Egypt","locality":"Cairo","region":"Cairo Governorate"}},"labels":["soccer","sport"],"duration":7730,"start_local":"2024-06-21T19:00:00","end":"2024-06-21T18:08:50Z","end_local":"2024-06-21T21:08:50","updated":"2024-06-22T00:21:36Z"},{"title":"Premier League - Zamalek vs Pharco","description":"Sourced from predicthq.com","category":"sports","start":"2024-06-21T16:00:00Z","geo":{"geometry":{"coordinates":[31.2969817,30.0511433],"type":"Point"},"placekey":"@7vy-ssf-q2k","address":{"country_code":"EG","formatted_address":"372X+W52, Al Abageyah, El Khalifa, Cairo Governorate 4433013, Egypt","postcode":"4433013","region":"Cairo Governorate"}},"labels":["soccer","sport"],"duration":7051,"start_local":"2024-06-21T19:00:00","end":"2024-06-21T17:57:31Z","end_local":"2024-06-21T20:57:31","updated":"2024-06-21T18:07:45Z"},{"title":"B Jones","description":"Sourced from predicthq.com","category":"concerts","start":"2024-06-19T19:30:00Z","geo":{"geometry":{"coordinates":[34.4313209,28.0382086],"type":"Point"},"placekey":"@7w2-z96-y9z","address":{"country_code":"EG","formatted_address":"Nabq Bay EGYPT, Second Sharm Al Shiekh, South Sinai Governorate 46628, Egypt","postcode":"46628","region":"South Sinai Governorate"}},"labels":["concert","music"],"duration":0,"start_local":"2024-06-19T22:30:00","end":"2024-06-19T19:30:00Z","end_local":"2024-06-19T22:30:00","updated":"2024-07-03T19:53:39Z"},{"title":"Squash League","description":"Sourced from predicthq.com - Level up your game !\n\nJoin the game !","category":"community","start":"2024-06-19T19:00:00Z","geo":{"geometry":{"coordinates":[31.4651587,30.0213013],"type":"Point"},"placekey":"@7vy-v54-9cq","address":{"country_code":"EG","formatted_address":"4724243, Egypt","postcode":"4724243","region":"محافظة القاهرة‬"}},"labels":["community","sport"],"duration":3600,"start_local":"2024-06-19T22:00:00","end":"2024-06-19T20:00:00Z","end_local":"2024-06-19T23:00:00","updated":"2024-06-13T00:34:30Z"},{"title":"Premier League - Baladiyyat Al Mehalla vs Pyramids","description":"Sourced from predicthq.com","category":"sports","start":"2024-06-19T16:00:00Z","geo":{"geometry":{"coordinates":[32.5425124,29.957686],"type":"Point"},"placekey":"@7vz-37c-k4v","address":{"country_code":"EG","formatted_address":"XG5R+4G3, Suez, Suez Governorate 8140101, Egypt","postcode":"8140101","region":"Suez Governorate"}},"labels":["soccer","sport"],"duration":7114,"start_local":"2024-06-19T19:00:00","end":"2024-06-19T17:58:34Z","end_local":"2024-06-19T20:58:34","updated":"2024-06-19T21:01:36Z"},{"title":"Premier League - Ceramica Cleopatra vs Modern","description":"Sourced from predicthq.com","category":"sports","start":"2024-06-19T16:00:00Z","geo":{"geometry":{"coordinates":[31.2969817,30.0511433],"type":"Point"},"placekey":"@7vy-ssf-q2k","address":{"country_code":"EG","formatted_address":"372X+W52, Al Abageyah, El Khalifa, Cairo Governorate 4433013, Egypt","postcode":"4433013","region":"Cairo Governorate"}},"labels":["soccer","sport"],"duration":7402,"start_local":"2024-06-19T19:00:00","end":"2024-06-19T18:03:22Z","end_local":"2024-06-19T21:03:22","updated":"2024-07-02T14:12:36Z"},{"title":"B Jones","description":"Sourced from predicthq.com","category":"concerts","start":"2024-06-18T19:30:00Z","geo":{"geometry":{"coordinates":[34.3611554,27.9426367],"type":"Point"},"placekey":"@7w2-yvw-bx5","address":{"country_code":"EG","formatted_address":"El-Salam, Sharm Al Shiekh, South Sinai Governorate 8764001, Egypt","postcode":"8764001","region":"South Sinai Governorate"}},"labels":["concert","music"],"duration":0,"start_local":"2024-06-18T22:30:00","end":"2024-06-18T19:30:00Z","end_local":"2024-06-18T22:30:00","updated":"2024-07-02T21:03:43Z"},{"title":"Premier League - Al Ittihad vs Al Ahly","description":"Sourced from predicthq.com","category":"sports","start":"2024-06-18T16:00:00Z","geo":{"geometry":{"coordinates":[29.7293881,30.9995782],"type":"Point"},"placekey":"@7yg-6gh-45f","address":{"country_code":"EG","formatted_address":"Cairo - Borg El-Arab Desert Road, Alexandria, 5247007, Egypt","postcode":"5247007","locality":"Alexandria","region":"Alexandria Governorate"}},"labels":["soccer","sport"],"duration":7467,"start_local":"2024-06-18T19:00:00","end":"2024-06-18T18:04:27Z","end_local":"2024-06-18T21:04:27","updated":"2024-06-19T16:05:18Z"},{"title":"Premier League - ZED vs Pharco","description":"Sourced from predicthq.com","category":"sports","start":"2024-06-18T16:00:00Z","geo":{"geometry":{"coordinates":[31.4461625,30.0247007],"type":"Point"},"placekey":"@7vy-v4x-cyv","address":{"country_code":"EG","formatted_address":"2CFW+WRF, New Cairo 1, Cairo Governorate 4730301, Egypt","postcode":"4730301","region":"Cairo Governorate"}},"labels":["soccer","sport"],"duration":7744,"start_local":"2024-06-18T19:00:00","end":"2024-06-18T18:09:04Z","end_local":"2024-06-18T21:09:04","updated":"2024-06-19T18:55:35Z"},{"title":"Premier League - Smouha vs El Dakhleya","description":"Sourced from predicthq.com","category":"sports","start":"2024-06-18T13:00:00Z","geo":{"geometry":{"coordinates":[29.9136971,31.1972747],"type":"Point"},"placekey":"@7yg-6dd-p7q","address":{"country_code":"EG","formatted_address":"5WX7+39Q, Bab Sharqi WA Wabour Al Meyah, Bab Sharqi, Alexandria Governorate 5422001, Egypt","postcode":"5422001","region":"Alexandria Governorate"}},"labels":["soccer","sport"],"duration":7639,"start_local":"2024-06-18T16:00:00","end":"2024-06-18T15:07:19Z","end_local":"2024-06-18T18:07:19","updated":"2024-06-18T19:25:28Z"},{"title":"Premier League - Zamalek vs Al Masry","description":"Sourced from predicthq.com","category":"sports","start":"2024-06-17T16:00:00Z","geo":{"geometry":{"coordinates":[29.7293881,30.9995782],"type":"Point"},"placekey":"@7yg-6gh-45f","address":{"country_code":"EG","formatted_address":"Cairo - Borg El-Arab Desert Road, Alexandria, 5247007, Egypt","postcode":"5247007","locality":"Alexandria","region":"Alexandria Governorate"}},"labels":["soccer","sport"],"duration":7693,"start_local":"2024-06-17T19:00:00","end":"2024-06-17T18:08:13Z","end_local":"2024-06-17T21:08:13","updated":"2024-06-17T23:12:53Z"},{"title":"Premier League - Ismaily vs ENPPI","description":"Sourced from predicthq.com","category":"sports","start":"2024-06-17T16:00:00Z","geo":{"geometry":{"coordinates":[32.27381944656372,30.60098964027036],"type":"Point"},"placekey":"@7vy-3zq-rc5","address":{"country_code":"EG","formatted_address":"Reda Street, Shebeen, Ismailia, Egypt","locality":"Ismailia"}},"labels":["soccer","sport"],"duration":7405,"start_local":"2024-06-17T19:00:00","end":"2024-06-17T18:03:25Z","end_local":"2024-06-17T21:03:25","updated":"2024-06-17T23:55:38Z"},{"title":"Premier League - El Gouna vs National Bank of Egypt","description":"Sourced from predicthq.com","category":"sports","start":"2024-06-17T13:00:00Z","geo":{"geometry":{"coordinates":[33.65985095500946,27.360219177250688],"type":"Point"},"placekey":"@7vn-gjh-835","address":{"country_code":"EG","formatted_address":"El-Gouna, Egypt","locality":"El-Gouna"}},"labels":["soccer","sport"],"duration":7340,"start_local":"2024-06-17T16:00:00","end":"2024-06-17T15:02:20Z","end_local":"2024-06-17T18:02:20","updated":"2024-06-17T17:45:53Z"},{"title":"Premier League - Al Mokawloon vs El Geish","description":"Sourced from predicthq.com","category":"sports","start":"2024-06-16T16:00:00Z","geo":{"geometry":{"coordinates":[31.2969817,30.0511433],"type":"Point"},"placekey":"@7vy-ssf-q2k","address":{"country_code":"EG","formatted_address":"372X+W52, Al Abageyah, El Khalifa, Cairo Governorate 4433013, Egypt","postcode":"4433013","region":"Cairo Governorate"}},"labels":["soccer","sport"],"duration":7222,"start_local":"2024-06-16T19:00:00","end":"2024-06-16T18:00:22Z","end_local":"2024-06-16T21:00:22","updated":"2024-06-17T15:59:58Z"},{"title":"Premier League - Pharco vs Al Ahly","description":"Sourced from predicthq.com","category":"sports","start":"2024-06-14T16:00:00Z","geo":{"geometry":{"coordinates":[29.7293881,30.9995782],"type":"Point"},"placekey":"@7yg-6gh-45f","address":{"country_code":"EG","formatted_address":"Cairo - Borg El-Arab Desert Road, Alexandria, 5247007, Egypt","postcode":"5247007","locality":"Alexandria","region":"Alexandria Governorate"}},"labels":["soccer","sport"],"duration":7584,"start_local":"2024-06-14T19:00:00","end":"2024-06-14T18:06:24Z","end_local":"2024-06-14T21:06:24","updated":"2024-06-15T00:18:03Z"},{"title":"Premier League - Ceramica Cleopatra vs Zamalek","description":"Sourced from predicthq.com","category":"sports","start":"2024-06-14T16:00:00Z","geo":{"geometry":{"coordinates":[31.2969817,30.0511433],"type":"Point"},"placekey":"@7vy-ssf-q2k","address":{"country_code":"EG","formatted_address":"372X+W52, Al Abageyah, El Khalifa, Cairo Governorate 4433013, Egypt","postcode":"4433013","region":"Cairo Governorate"}},"labels":["soccer","sport"],"duration":7702,"start_local":"2024-06-14T19:00:00","end":"2024-06-14T18:08:22Z","end_local":"2024-06-14T21:08:22","updated":"2024-06-14T23:17:59Z"},{"title":"Premier League - Modern vs El Gouna","description":"Sourced from predicthq.com","category":"sports","start":"2024-06-13T16:00:00Z","geo":{"geometry":{"coordinates":[31.43519420000007,30.1744268],"type":"Point"},"placekey":"@7vy-sk7-mzf","address":{"country_code":"EG","formatted_address":"Cairo, Cairo Governorate, Egypt","locality":"Cairo","region":"Cairo Governorate"}},"labels":["soccer","sport"],"duration":7531,"start_local":"2024-06-13T19:00:00","end":"2024-06-13T18:05:31Z","end_local":"2024-06-13T21:05:31","updated":"2024-07-02T12:16:31Z"},{"title":"Premier League - Pyramids vs Smouha","description":"Sourced from predicthq.com","category":"sports","start":"2024-06-13T16:00:00Z","geo":{"geometry":{"coordinates":[31.3737559,30.0199086],"type":"Point"},"placekey":"@7vy-v5z-ysq","address":{"country_code":"EG","formatted_address":"299F+XGQ, Al Hay Al Asher, Nasr City, Cairo Governorate 4440510, Egypt","postcode":"4440510","region":"Cairo Governorate"}},"labels":["soccer","sport"],"duration":7308,"start_local":"2024-06-13T19:00:00","end":"2024-06-13T18:01:48Z","end_local":"2024-06-13T21:01:48","updated":"2024-06-14T00:46:11Z"},{"title":"Squash League","description":"Sourced from predicthq.com - Level up your game !\n\nJoin the game !","category":"community","start":"2024-06-12T19:00:00Z","geo":{"geometry":{"coordinates":[31.4651587,30.0213013],"type":"Point"},"placekey":"@7vy-v54-9cq","address":{"country_code":"EG","formatted_address":"4724243, Egypt","postcode":"4724243","region":"محافظة القاهرة‬"}},"labels":["community","sport"],"duration":3600,"start_local":"2024-06-12T22:00:00","end":"2024-06-12T20:00:00Z","end_local":"2024-06-12T23:00:00","updated":"2024-06-06T05:45:31Z"},{"title":"Maii Waleed","description":"Sourced from predicthq.com","category":"community","start":"2024-06-11T18:00:00Z","geo":{"geometry":{"coordinates":[31.2122561,30.0622368],"type":"Point"},"placekey":"@7vy-sdw-ty9","address":{"country_code":"EG","formatted_address":"197 26th of July Corridor, Madinet Al Eelam, Agouza, Giza Governorate 3755220, Egypt","postcode":"3755220","region":"Giza Governorate"}},"labels":["concert","music"],"duration":0,"start_local":"2024-06-11T21:00:00","end":"2024-06-11T18:00:00Z","end_local":"2024-06-11T21:00:00","updated":"2024-06-04T10:47:46Z"},{"title":"CardioAlex Conference","description":"Sourced from predicthq.com","category":"conferences","start":"2024-06-11T06:00:00Z","geo":{"geometry":{"coordinates":[29.908607,31.208266],"type":"Point"},"placekey":"@7yg-6vc-hnq","address":{"country_code":"EG","formatted_address":"Alexandria Library El-Gaish Rd Al Azaritah WA Ash Shatebi Qesm Bab Sharqi Alexandria Governorate\nEgypt","locality":"Alexandria"}},"labels":["conference"],"duration":291600,"start_local":"2024-06-11T09:00:00","end":"2024-06-14T15:00:00Z","end_local":"2024-06-14T18:00:00","updated":"2024-05-31T23:04:19Z"},{"title":"خدمات صيانة الاجهزة المنزلية","description":"Sourced from predicthq.com - هل تحتاج إلى صيانة لأجهزتك المنزلية؟ انضم إلينا في هذا الحدث لتحصل على أفضل الخدمات والنصائح من الخبراء! https://kiriazicompany.com/","category":"expos","start":"2024-06-09T07:00:00Z","geo":{"geometry":{"coordinates":[31.2120847,30.01521529999999],"type":"Point"},"placekey":"@7vy-st7-zpv","address":{"country_code":"EG","formatted_address":"3725110, Egypt","postcode":"3725110","region":"Giza Governorate"}},"labels":["expo","household"],"duration":7200,"start_local":"2024-06-09T10:00:00","end":"2024-06-09T09:00:00Z","end_local":"2024-06-09T12:00:00","updated":"2024-06-04T01:49:35Z"},{"title":"Seniors American","description":"Sourced from predicthq.com - Enjoy our Party","category":"conferences","start":"2024-06-08T17:00:00Z","geo":{"geometry":{"coordinates":[31.4284756,30.0084868],"type":"Point"},"placekey":"@7vy-v52-g6k","address":{"country_code":"EG","formatted_address":"4723140, Egypt","postcode":"4723140","region":"Cairo Governorate"}},"labels":["community","conference"],"duration":12600,"start_local":"2024-06-08T20:00:00","end":"2024-06-08T20:30:00Z","end_local":"2024-06-08T23:30:00","updated":"2024-05-30T06:38:05Z"},{"title":"Squash League","description":"Sourced from predicthq.com - Level up your game !\n\nJoin the game !","category":"community","start":"2024-06-05T19:00:00Z","geo":{"geometry":{"coordinates":[31.4651587,30.0213013],"type":"Point"},"placekey":"@7vy-v54-9cq","address":{"country_code":"EG","formatted_address":"4724243, Egypt","postcode":"4724243","region":"محافظة القاهرة‬"}},"labels":["community","sport"],"duration":3600,"start_local":"2024-06-05T22:00:00","end":"2024-06-05T20:00:00Z","end_local":"2024-06-05T23:00:00","updated":"2024-05-30T07:25:26Z"},{"title":"Africa Health ExCon","description":"Sourced from predicthq.com","category":"conferences","start":"2024-06-03T21:00:00Z","geo":{"geometry":{"coordinates":[31.3850444,30.0143021],"type":"Point"},"placekey":"@7vy-v5z-grk","address":{"country_code":"EG","formatted_address":"297P+H3G, Al Hay Al Asher, Nasr City, Cairo Governorate 4440510, Egypt","postcode":"4440510","region":"Cairo Governorate"}},"labels":["conference"],"duration":345599,"start_local":"2024-06-04T00:00:00","end":"2024-06-07T20:59:59Z","end_local":"2024-06-07T23:59:59","updated":"2024-06-30T13:20:38Z"},{"title":"AFRICA HEALTH ExCon 2024","description":"Sourced from predicthq.com","category":"expos","start":"2024-06-03T21:00:00Z","geo":{"geometry":{"coordinates":[31.3840314,30.0145172],"type":"Point"},"placekey":"@7vy-v5y-vpv","address":{"country_code":"EG","formatted_address":"El-Moshir Tantawy Axis, 4440301, Egypt","postcode":"4440301","region":"Cairo Governorate"}},"labels":["expo","health","medical"],"duration":259199,"start_local":"2024-06-04T00:00:00","end":"2024-06-06T20:59:59Z","end_local":"2024-06-06T23:59:59","updated":"2024-06-24T21:01:46Z"},{"title":"Ceramica & Kitchen Market","description":"Sourced from predicthq.com - Ceramica Market is a vibrant expo event showcasing a diverse array of ceramics, pottery, and porcelain masterpieces from renowned artists and craftsmen in the industry. With its wide range of stylish and innovative designs, it offers a unique opportunity for visitors to explore the rich heritage and artistic excellence of the ceramics world.","category":"expos","start":"2024-05-29T21:00:00Z","geo":{"geometry":{"coordinates":[31.309635,30.0647523],"type":"Point"},"placekey":"@7vy-she-7bk","address":{"country_code":"EG","formatted_address":"2 El-Nasr Rd, Al Estad, Qesm Than Madinet Nasr, Cairo Governorate 4436001, Egypt","postcode":"4436001","region":"Cairo Governorate"}},"labels":["craft","design","expo","household","product"],"duration":345599,"start_local":"2024-05-30T00:00:00","end":"2024-06-02T20:59:59Z","end_local":"2024-06-02T23:59:59","updated":"2024-06-19T23:40:19Z"},{"title":"Cycling & Gathering in Maadi","description":"Sourced from predicthq.com - Join us for a fun day of cycling and hanging out in Maadi!","category":"community","start":"2024-05-29T16:00:00Z","geo":{"geometry":{"coordinates":[31.2569138,29.9601561],"type":"Point"},"placekey":"@7vy-sqs-vpv","address":{"country_code":"EG","formatted_address":"Street 11, 4211125, Egypt","postcode":"4211125","region":"Cairo Governorate"}},"labels":["community","sport"],"duration":12600,"start_local":"2024-05-29T19:00:00","end":"2024-05-29T19:30:00Z","end_local":"2024-05-29T22:30:00","updated":"2024-05-22T16:38:47Z"},{"title":"The Solar & Storage Show MENA","description":"Sourced from predicthq.com","category":"expos","start":"2024-05-29T06:00:00Z","geo":{"geometry":{"coordinates":[31.3850444,30.0143021],"type":"Point"},"placekey":"@7vy-v5z-grk","address":{"country_code":"EG","formatted_address":"297P+H3G, Al Hay Al Asher, Nasr City, Cairo Governorate 4440510, Egypt","postcode":"4440510","region":"Cairo Governorate"}},"labels":["expo"],"duration":118800,"start_local":"2024-05-29T09:00:00","end":"2024-05-30T15:00:00Z","end_local":"2024-05-30T18:00:00","updated":"2024-06-04T22:54:55Z"},{"title":"Premier League - Al Ittihad vs Zamalek","description":"Sourced from predicthq.com","category":"sports","start":"2024-05-27T16:00:00Z","geo":{"geometry":{"coordinates":[29.7293881,30.9995782],"type":"Point"},"placekey":"@7yg-6gh-45f","address":{"country_code":"EG","formatted_address":"Cairo - Borg El-Arab Desert Road, Alexandria, 5247007, Egypt","postcode":"5247007","locality":"Alexandria","region":"Alexandria Governorate"}},"labels":["soccer","sport"],"duration":7222,"start_local":"2024-05-27T19:00:00","end":"2024-05-27T18:00:22Z","end_local":"2024-05-27T21:00:22","updated":"2024-05-28T05:17:50Z"},{"title":"Premier League - Pyramids vs El Gouna","description":"Sourced from predicthq.com","category":"sports","start":"2024-05-27T13:00:00Z","geo":{"geometry":{"coordinates":[31.3737559,30.0199086],"type":"Point"},"placekey":"@7vy-v5z-ysq","address":{"country_code":"EG","formatted_address":"299F+XGQ, Al Hay Al Asher, Nasr City, Cairo Governorate 4440510, Egypt","postcode":"4440510","region":"Cairo Governorate"}},"labels":["soccer","sport"],"duration":7111,"start_local":"2024-05-27T16:00:00","end":"2024-05-27T14:58:31Z","end_local":"2024-05-27T17:58:31","updated":"2024-06-05T14:17:38Z"},{"title":"Premier League - El Geish vs Baladiyyat Al Mehalla","description":"Sourced from predicthq.com","category":"sports","start":"2024-05-26T16:00:00Z","geo":{"geometry":{"coordinates":[31.30351980674596,30.08114886560622],"type":"Point"},"placekey":"@7vy-sj2-psq","address":{"country_code":"EG","formatted_address":"Al Shahid Al Mokadem Ahmed, al-Qāhirah (Cairo), Egypt","locality":"al-Qāhirah (Cairo)"}},"labels":["soccer","sport"],"duration":7572,"start_local":"2024-05-26T19:00:00","end":"2024-05-26T18:06:12Z","end_local":"2024-05-26T21:06:12","updated":"2024-06-05T09:31:11Z"},{"title":"Premier League - Modern vs Al Masry","description":"Sourced from predicthq.com","category":"sports","start":"2024-05-26T16:00:00Z","geo":{"geometry":{"coordinates":[29.7293881,30.9995782],"type":"Point"},"placekey":"@7yg-6gh-45f","address":{"country_code":"EG","formatted_address":"Cairo - Borg El-Arab Desert Road, Alexandria, 5247007, Egypt","postcode":"5247007","locality":"Alexandria","region":"Alexandria Governorate"}},"labels":["soccer","sport"],"duration":7329,"start_local":"2024-05-26T19:00:00","end":"2024-05-26T18:02:09Z","end_local":"2024-05-26T21:02:09","updated":"2024-07-02T17:28:10Z"},{"title":"Premier League - National Bank of Egypt vs Ismaily","description":"Sourced from predicthq.com","category":"sports","start":"2024-05-26T13:00:00Z","geo":{"geometry":{"coordinates":[31.3122579,30.0691131],"type":"Point"},"placekey":"@7vy-she-8d9","address":{"country_code":"EG","formatted_address":"Mamdouh Salem، Street، Al Estad, Nasr City, Egypt","locality":"Nasr City","region":"Cairo Governorate"}},"labels":["soccer","sport"],"duration":7531,"start_local":"2024-05-26T16:00:00","end":"2024-05-26T15:05:31Z","end_local":"2024-05-26T18:05:31","updated":"2024-05-27T10:14:29Z"},{"title":"Fi Africa (formerly Africa Food Manufacturing)","description":"Sourced from predicthq.com","category":"expos","start":"2024-05-25T21:00:00Z","geo":{"geometry":{"coordinates":[31.3840314,30.0145172],"type":"Point"},"placekey":"@7vy-v5y-vpv","address":{"country_code":"EG","formatted_address":"El-Moshir Tantawy Axis, 4440510, Egypt","postcode":"4440510","region":"Cairo Governorate"}},"labels":["expo","packaging","product","technology"],"duration":259199,"start_local":"2024-05-26T00:00:00","end":"2024-05-28T20:59:59Z","end_local":"2024-05-28T23:59:59","updated":"2024-06-04T22:00:52Z"},{"title":"PROPAK MENA","description":"Sourced from predicthq.com","category":"expos","start":"2024-05-25T21:00:00Z","geo":{"geometry":{"coordinates":[31.3840314,30.0145172],"type":"Point"},"placekey":"@7vy-v5y-vpv","address":{"country_code":"EG","formatted_address":"El-Moshir Tantawy Axis, 4440510, Egypt","postcode":"4440510","region":"Cairo Governorate"}},"labels":["expo","packaging","product","technology"],"duration":259199,"start_local":"2024-05-26T00:00:00","end":"2024-05-28T20:59:59Z","end_local":"2024-05-28T23:59:59","updated":"2024-06-05T01:50:34Z"},{"title":"CAF Champions League - Final - Al Ahly vs ES Tunis","description":"Sourced from predicthq.com","category":"sports","start":"2024-05-25T17:00:00Z","geo":{"geometry":{"coordinates":[31.3122579,30.0691131],"type":"Point"},"placekey":"@7vy-she-8d9","address":{"country_code":"EG","formatted_address":"Mamdouh Salem، Street، Al Estad, Nasr City, Egypt","locality":"Nasr City","region":"Cairo Governorate"}},"labels":["soccer","sport"],"duration":7077,"start_local":"2024-05-25T20:00:00","end":"2024-05-25T18:57:57Z","end_local":"2024-05-25T21:57:57","updated":"2024-05-27T18:00:12Z"},{"title":"Premier League - El Dakhleya vs Al Mokawloon","description":"Sourced from predicthq.com","category":"sports","start":"2024-05-25T15:00:00Z","geo":{"geometry":{"coordinates":[31.4461625,30.0247007],"type":"Point"},"placekey":"@7vy-v4x-cyv","address":{"country_code":"EG","formatted_address":"2CFW+WRF, New Cairo 1, Cairo Governorate 4730301, Egypt","postcode":"4730301","region":"Cairo Governorate"}},"labels":["soccer","sport"],"duration":7296,"start_local":"2024-05-25T18:00:00","end":"2024-05-25T17:01:36Z","end_local":"2024-05-25T20:01:36","updated":"2024-06-05T07:09:58Z"},{"title":"Premier League - Pharco vs Smouha","description":"Sourced from predicthq.com","category":"sports","start":"2024-05-24T16:00:00Z","geo":{"geometry":{"coordinates":[29.848415851593018,31.150954572123393],"type":"Point"},"placekey":"@7yg-6f8-tjv","address":{"country_code":"EG","formatted_address":"Al-Maks Street, Al-Maks, Al-Iskandarîah (Alexandria), Egypt","locality":"Al-Iskandarîah (Alexandria)"}},"labels":["soccer","sport"],"duration":6976,"start_local":"2024-05-24T19:00:00","end":"2024-05-24T17:56:16Z","end_local":"2024-05-24T20:56:16","updated":"2024-06-04T21:44:36Z"},{"title":"Premier League - ENPPI vs Ceramica Cleopatra","description":"Sourced from predicthq.com","category":"sports","start":"2024-05-24T16:00:00Z","geo":{"geometry":{"coordinates":[31.4461625,30.0247007],"type":"Point"},"placekey":"@7vy-v4x-cyv","address":{"country_code":"EG","formatted_address":"2CFW+WRF, New Cairo 1, Cairo Governorate 4730301, Egypt","postcode":"4730301","region":"Cairo Governorate"}},"labels":["soccer","sport"],"duration":7189,"start_local":"2024-05-24T19:00:00","end":"2024-05-24T17:59:49Z","end_local":"2024-05-24T20:59:49","updated":"2024-06-05T16:11:04Z"},{"title":"I Feel the World","description":"Sourced from predicthq.com - A photo, documentary and advocacy apparel exhibition combining visual art, mental health, and fashion.","category":"festivals","start":"2024-05-24T07:00:00Z","geo":{"geometry":{"coordinates":[31.23653910000001,30.0429089],"type":"Point"},"placekey":"@7vy-ssq-nyv","address":{"country_code":"EG","formatted_address":"Al Kasr Al Aini, 4280030, Egypt","postcode":"4280030","region":"Cairo Governorate"}},"labels":["community","festival"],"duration":129600,"start_local":"2024-05-24T10:00:00","end":"2024-05-25T19:00:00Z","end_local":"2024-05-25T22:00:00","updated":"2024-05-23T03:42:59Z"},{"title":"Premier League - Zamalek vs Modern","description":"Sourced from predicthq.com","category":"sports","start":"2024-05-23T16:00:00Z","geo":{"geometry":{"coordinates":[31.2969817,30.0511433],"type":"Point"},"placekey":"@7vy-ssf-q2k","address":{"country_code":"EG","formatted_address":"372X+W52, Al Abageyah, El Khalifa, Cairo Governorate 4433013, Egypt","postcode":"4433013","region":"Cairo Governorate"}},"labels":["soccer","sport"],"duration":7263,"start_local":"2024-05-23T19:00:00","end":"2024-05-23T18:01:03Z","end_local":"2024-05-23T21:01:03","updated":"2024-07-02T11:45:17Z"},{"title":"TDS - The Design Show","description":"Sourced from predicthq.com - International Architecture, Interior and Fot-Out Exhibition","category":"expos","start":"2024-05-22T21:00:00Z","geo":{"geometry":{"coordinates":[31.3093537,30.0652927],"type":"Point"},"placekey":"@7vy-she-7bk","address":{"country_code":"EG","formatted_address":"El-Nasr Road, 4436001, Egypt","postcode":"4436001","region":"Cairo Governorate"}},"labels":["construction","expo","furniture"],"duration":259199,"start_local":"2024-05-23T00:00:00","end":"2024-05-25T20:59:59Z","end_local":"2024-05-25T23:59:59","updated":"2024-06-12T07:40:23Z"},{"title":"Lift City Expo Egypt","description":"Sourced from predicthq.com - LIFT CITY EXPO EGYPT is an immersive and groundbreaking expo event that showcases the latest advancements, technologies, and solutions in the urban mobility sector. From innovative elevator designs to smart city initiatives, the expo brings together industry experts, leading manufacturers, and enthusiastic attendees to explore the future of urban transportation and its impact on city life.","category":"expos","start":"2024-05-22T21:00:00Z","geo":{"geometry":{"coordinates":[31.309635,30.0647523],"type":"Point"},"placekey":"@7vy-she-7bk","address":{"country_code":"EG","formatted_address":"2 El-Nasr Rd, Al Estad, Qesm Than Madinet Nasr, Cairo Governorate 4436001, Egypt","postcode":"4436001","region":"Cairo Governorate"}},"labels":["expo"],"duration":259199,"start_local":"2024-05-23T00:00:00","end":"2024-05-25T20:59:59Z","end_local":"2024-05-25T23:59:59","updated":"2024-06-03T20:34:45Z"},{"title":"Squash League","description":"Sourced from predicthq.com - Level up your game !\n\nJoin the game !","category":"community","start":"2024-05-22T19:00:00Z","geo":{"geometry":{"coordinates":[31.4651587,30.0213013],"type":"Point"},"placekey":"@7vy-v54-9cq","address":{"country_code":"EG","formatted_address":"4724243, Egypt","postcode":"4724243","region":"محافظة القاهرة‬"}},"labels":["community","sport"],"duration":3600,"start_local":"2024-05-22T22:00:00","end":"2024-05-22T20:00:00Z","end_local":"2024-05-22T23:00:00","updated":"2024-06-05T01:59:27Z"},{"title":"Windoorex+Glass & Aluminium Middle East","description":"Sourced from predicthq.com - Windoorex+Glass & Aluminium Middle East is a prominent expo event showcasing the latest advancements and innovative products in the glass and aluminium industry. It brings together manufacturers, suppliers, and professionals to explore business opportunities and exchange knowledge in this thriving sector.","category":"expos","start":"2024-05-21T21:00:00Z","geo":{"geometry":{"coordinates":[31.3840314,30.0145172],"type":"Point"},"placekey":"@7vy-v5y-vpv","address":{"country_code":"EG","formatted_address":"El-Moshir Tantawy Axis, 4440510, Egypt","postcode":"4440510","region":"Cairo Governorate"}},"labels":["construction","expo","technology"],"duration":259199,"start_local":"2024-05-22T00:00:00","end":"2024-05-24T20:59:59Z","end_local":"2024-05-24T23:59:59","updated":"2024-06-04T22:23:24Z"},{"title":"The Design Show Egypt","description":"Sourced from predicthq.com","category":"expos","start":"2024-05-21T21:00:00Z","geo":{"geometry":{"coordinates":[31.309635,30.0647523],"type":"Point"},"placekey":"@7vy-she-7bk","address":{"country_code":"EG","formatted_address":"2 El-Nasr Rd, Al Estad, Qesm Than Madinet Nasr, Cairo Governorate 4436001, Egypt","postcode":"4436001","region":"Cairo Governorate"}},"labels":["expo"],"duration":259199,"start_local":"2024-05-22T00:00:00","end":"2024-05-24T20:59:59Z","end_local":"2024-05-24T23:59:59","updated":"2024-05-31T22:56:11Z"},{"title":"Pedia Egypt Conference","description":"Sourced from predicthq.com","category":"conferences","start":"2024-05-21T21:00:00Z","geo":{"geometry":{"coordinates":[31.347921,30.072455],"type":"Point"},"placekey":"@7vy-shw-p5f","address":{"country_code":"EG","formatted_address":"38CX+X5 Nasr City, Egypt","region":"Cairo Governorate"}},"labels":["conference"],"duration":259199,"start_local":"2024-05-22T00:00:00","end":"2024-05-24T20:59:59Z","end_local":"2024-05-24T23:59:59","updated":"2024-06-01T02:24:42Z"},{"title":"Premier League - Ceramica Cleopatra vs National Bank of Egypt","description":"Sourced from predicthq.com","category":"sports","start":"2024-05-21T16:00:00Z","geo":{"geometry":{"coordinates":[31.2969817,30.0511433],"type":"Point"},"placekey":"@7vy-ssf-q2k","address":{"country_code":"EG","formatted_address":"372X+W52, Al Abageyah, El Khalifa, Cairo Governorate 4433013, Egypt","postcode":"4433013","region":"Cairo Governorate"}},"labels":["soccer","sport"],"duration":7085,"start_local":"2024-05-21T19:00:00","end":"2024-05-21T17:58:05Z","end_local":"2024-05-21T20:58:05","updated":"2024-06-05T03:58:13Z"},{"title":"Premier League - El Gouna vs El Geish","description":"Sourced from predicthq.com","category":"sports","start":"2024-05-21T16:00:00Z","geo":{"geometry":{"coordinates":[33.65985095500946,27.360219177250688],"type":"Point"},"placekey":"@7vn-gjh-835","address":{"country_code":"EG","formatted_address":"El-Gouna, Egypt","locality":"El-Gouna"}},"labels":["soccer","sport"],"duration":7314,"start_local":"2024-05-21T19:00:00","end":"2024-05-21T18:01:54Z","end_local":"2024-05-21T21:01:54","updated":"2024-06-05T21:58:08Z"},{"title":"Premier League - Baladiyyat Al Mehalla vs El Dakhleya","description":"Sourced from predicthq.com","category":"sports","start":"2024-05-21T13:00:00Z","geo":{"geometry":{"coordinates":[31.1728907,30.9607834],"type":"Point"},"placekey":"@7vz-xyc-yy9","address":{"country_code":"EG","formatted_address":"El Mehalla Clock, شركة مصر للغزل والنسيح، Al Mahalah Al Kubra (Part 2), El Mahalla El Kubra 2, Gharbia Governorate 6746116،, Egypt","postcode":"6746116،","region":"Gharbia Governorate"}},"labels":["soccer","sport"],"duration":7331,"start_local":"2024-05-21T16:00:00","end":"2024-05-21T15:02:11Z","end_local":"2024-05-21T18:02:11","updated":"2024-06-04T23:40:34Z"},{"title":"Premier League - ZED vs Al Ittihad","description":"Sourced from predicthq.com","category":"sports","start":"2024-05-20T16:00:00Z","geo":{"geometry":{"coordinates":[31.3122579,30.0691131],"type":"Point"},"placekey":"@7vy-she-8d9","address":{"country_code":"EG","formatted_address":"Mamdouh Salem، Street، Al Estad, Nasr City, Egypt","locality":"Nasr City","region":"Cairo Governorate"}},"labels":["soccer","sport"],"duration":7566,"start_local":"2024-05-20T19:00:00","end":"2024-05-20T18:06:06Z","end_local":"2024-05-20T21:06:06","updated":"2024-05-27T14:36:18Z"},{"title":"Premier League - Al Mokawloon vs Pharco","description":"Sourced from predicthq.com","category":"sports","start":"2024-05-20T16:00:00Z","geo":{"geometry":{"coordinates":[31.2969817,30.0511433],"type":"Point"},"placekey":"@7vy-ssf-q2k","address":{"country_code":"EG","formatted_address":"372X+W52, Al Abageyah, El Khalifa, Cairo Governorate 4433013, Egypt","postcode":"4433013","region":"Cairo Governorate"}},"labels":["soccer","sport"],"duration":7313,"start_local":"2024-05-20T19:00:00","end":"2024-05-20T18:01:53Z","end_local":"2024-05-20T21:01:53","updated":"2024-06-05T06:23:30Z"},{"title":"Premier League - Al Masry vs ENPPI","description":"Sourced from predicthq.com","category":"sports","start":"2024-05-20T13:00:00Z","geo":{"geometry":{"coordinates":[29.7293881,30.9995782],"type":"Point"},"placekey":"@7yg-6gh-45f","address":{"country_code":"EG","formatted_address":"Cairo - Borg El-Arab Desert Road, Alexandria, 5247007, Egypt","postcode":"5247007","locality":"Alexandria","region":"Alexandria Governorate"}},"labels":["soccer","sport"],"duration":7321,"start_local":"2024-05-20T16:00:00","end":"2024-05-20T15:02:01Z","end_local":"2024-05-20T18:02:01","updated":"2024-05-28T02:05:21Z"},{"title":"Solar & Storage Live MENA","description":"Sourced from predicthq.com - Solar & Storage Live MENA is a premier exhibition event showcasing the latest advancements in solar energy and storage solutions. It brings together leading industry experts, innovators, and policymakers from across the region to explore and promote sustainable and efficient energy practices.","category":"expos","start":"2024-05-19T21:00:00Z","geo":{"geometry":{"coordinates":[31.3840314,30.0145172],"type":"Point"},"placekey":"@7vy-v5y-vpv","address":{"country_code":"EG","formatted_address":"El-Moshir Tantawy Axis, 4440510, Egypt","postcode":"4440510","region":"Cairo Governorate"}},"labels":["environment","expo","industrial"],"duration":172799,"start_local":"2024-05-20T00:00:00","end":"2024-05-21T20:59:59Z","end_local":"2024-05-21T23:59:59","updated":"2024-06-04T21:51:48Z"},{"title":"CAF Confederation Cup - Final - Zamalek vs RSB Berkane","description":"Sourced from predicthq.com","category":"sports","start":"2024-05-19T17:00:00Z","geo":{"geometry":{"coordinates":[31.3122579,30.0691131],"type":"Point"},"placekey":"@7vy-she-8d9","address":{"country_code":"EG","formatted_address":"Mamdouh Salem، Street، Al Estad, Nasr City, Egypt","locality":"Nasr City","region":"Cairo Governorate"}},"labels":["soccer","sport"],"duration":7722,"start_local":"2024-05-19T20:00:00","end":"2024-05-19T19:08:42Z","end_local":"2024-05-19T22:08:42","updated":"2024-05-27T14:17:57Z"},{"title":"Premier League - Ismaily vs Pyramids","description":"Sourced from predicthq.com","category":"sports","start":"2024-05-19T15:00:00Z","geo":{"geometry":{"coordinates":[32.27381944656372,30.60098964027036],"type":"Point"},"placekey":"@7vy-3zq-rc5","address":{"country_code":"EG","formatted_address":"Reda Street, Shebeen, Ismailia, Egypt","locality":"Ismailia"}},"labels":["soccer","sport"],"duration":7223,"start_local":"2024-05-19T18:00:00","end":"2024-05-19T17:00:23Z","end_local":"2024-05-19T20:00:23","updated":"2024-06-05T00:31:53Z"},{"title":"Egypt Cybersecurity & Data Integration Systems Conference and Expo","description":"Sourced from predicthq.com","category":"expos","start":"2024-05-18T21:00:00Z","geo":{"geometry":{"coordinates":[31.3850444,30.0143021],"type":"Point"},"placekey":"@7vy-v5z-grk","address":{"country_code":"EG","formatted_address":"297P+H3G, Al Hay Al Asher, Nasr City, Cairo Governorate 4440510, Egypt","postcode":"4440510","region":"Cairo Governorate"}},"labels":["expo"],"duration":259199,"start_local":"2024-05-19T00:00:00","end":"2024-05-21T20:59:59Z","end_local":"2024-05-21T23:59:59","updated":"2024-05-31T22:56:48Z"},{"title":"WinDoorEX Middle East","description":"Sourced from predicthq.com","category":"expos","start":"2024-05-16T21:00:00Z","geo":{"geometry":{"coordinates":[31.3850444,30.0143021],"type":"Point"},"placekey":"@7vy-v5z-grk","address":{"country_code":"EG","formatted_address":"297P+H3G, Al Hay Al Asher, Nasr City, Cairo Governorate 4440510, Egypt","postcode":"4440510","region":"Cairo Governorate"}},"labels":["expo"],"duration":345599,"start_local":"2024-05-17T00:00:00","end":"2024-05-20T20:59:59Z","end_local":"2024-05-20T23:59:59","updated":"2024-06-05T01:50:39Z"},{"title":"Egypt Projects","description":"Sourced from predicthq.com - Egypt Projects is one of the leading shows in the building industry in Africa. The event offers products and solutions suited to the construction market in Egypt and the Middle East. This event is the perfect place for decision-makers and contractors to choose their partners and find products/services for future buildings.","category":"expos","start":"2024-05-16T21:00:00Z","geo":{"geometry":{"coordinates":[31.3850444,30.0143021],"type":"Point"},"placekey":"@7vy-v5z-grk","address":{"country_code":"EG","formatted_address":"297P+H3G, Al Hay Al Asher, Nasr City, Cairo Governorate 4440510, Egypt","postcode":"4440510","region":"Cairo Governorate"}},"labels":["business","construction","expo","industrial","technology"],"duration":345599,"start_local":"2024-05-17T00:00:00","end":"2024-05-20T20:59:59Z","end_local":"2024-05-20T23:59:59","updated":"2024-06-05T06:29:44Z"},{"title":"Premier League - ENPPI vs Modern","description":"Sourced from predicthq.com","category":"sports","start":"2024-05-16T16:00:00Z","geo":{"geometry":{"coordinates":[31.4461625,30.0247007],"type":"Point"},"placekey":"@7vy-v4x-cyv","address":{"country_code":"EG","formatted_address":"2CFW+WRF, New Cairo 1, Cairo Governorate 4730301, Egypt","postcode":"4730301","region":"Cairo Governorate"}},"labels":["soccer","sport"],"duration":6846,"start_local":"2024-05-16T19:00:00","end":"2024-05-16T17:54:06Z","end_local":"2024-05-16T20:54:06","updated":"2024-07-02T18:08:10Z"},{"title":"Premier League - National Bank of Egypt vs Al Masry","description":"Sourced from predicthq.com","category":"sports","start":"2024-05-16T16:00:00Z","geo":{"geometry":{"coordinates":[29.7293881,30.9995782],"type":"Point"},"placekey":"@7yg-6gh-45f","address":{"country_code":"EG","formatted_address":"Cairo - Borg El-Arab Desert Road, Alexandria, 5247007, Egypt","postcode":"5247007","locality":"Alexandria","region":"Alexandria Governorate"}},"labels":["soccer","sport"],"duration":7328,"start_local":"2024-05-16T19:00:00","end":"2024-05-16T18:02:08Z","end_local":"2024-05-16T21:02:08","updated":"2024-05-28T05:45:16Z"},{"title":"Sandbox Festival","description":"Sourced from predicthq.com","category":"festivals","start":"2024-05-15T21:00:00Z","geo":{"geometry":{"coordinates":[33.6547017,27.4399494],"type":"Point"},"placekey":"@7vn-g6n-94v","address":{"country_code":"EG","formatted_address":"1982802, Hurghada, Red Sea Governorate 1982802, Egypt","postcode":"1982802","region":"Red Sea Governorate"}},"labels":["festival","music"],"duration":259199,"start_local":"2024-05-16T00:00:00","end":"2024-05-18T20:59:59Z","end_local":"2024-05-18T23:59:59","updated":"2024-06-05T02:06:15Z"},{"title":"Squash League","description":"Sourced from predicthq.com - Level up your game !\n\nJoin the game !","category":"community","start":"2024-05-15T19:00:00Z","geo":{"geometry":{"coordinates":[31.4651587,30.0213013],"type":"Point"},"placekey":"@7vy-v54-9cq","address":{"country_code":"EG","formatted_address":"4724243, Egypt","postcode":"4724243","region":"محافظة القاهرة‬"}},"labels":["community","sport"],"duration":3600,"start_local":"2024-05-15T22:00:00","end":"2024-05-15T20:00:00Z","end_local":"2024-05-15T23:00:00","updated":"2024-06-05T14:47:39Z"},{"title":"Premier League - Pyramids vs Ceramica Cleopatra","description":"Sourced from predicthq.com","category":"sports","start":"2024-05-15T16:00:00Z","geo":{"geometry":{"coordinates":[31.3737559,30.0199086],"type":"Point"},"placekey":"@7vy-v5z-ysq","address":{"country_code":"EG","formatted_address":"299F+XGQ, Al Hay Al Asher, Nasr City, Cairo Governorate 4440510, Egypt","postcode":"4440510","region":"Cairo Governorate"}},"labels":["soccer","sport"],"duration":7332,"start_local":"2024-05-15T19:00:00","end":"2024-05-15T18:02:12Z","end_local":"2024-05-15T21:02:12","updated":"2024-06-05T03:13:33Z"},{"title":"Premier League - Pharco vs Baladiyyat Al Mehalla","description":"Sourced from predicthq.com","category":"sports","start":"2024-05-15T16:00:00Z","geo":{"geometry":{"coordinates":[29.848415851593018,31.150954572123393],"type":"Point"},"placekey":"@7yg-6f8-tjv","address":{"country_code":"EG","formatted_address":"Al-Maks Street, Al-Maks, Al-Iskandarîah (Alexandria), Egypt","locality":"Al-Iskandarîah (Alexandria)"}},"labels":["soccer","sport"],"duration":7134,"start_local":"2024-05-15T19:00:00","end":"2024-05-15T17:58:54Z","end_local":"2024-05-15T20:58:54","updated":"2024-06-05T00:55:09Z"},{"title":"Premier League - El Dakhleya vs El Gouna","description":"Sourced from predicthq.com","category":"sports","start":"2024-05-15T13:00:00Z","geo":{"geometry":{"coordinates":[31.4461625,30.0247007],"type":"Point"},"placekey":"@7vy-v4x-cyv","address":{"country_code":"EG","formatted_address":"2CFW+WRF, New Cairo 1, Cairo Governorate 4730301, Egypt","postcode":"4730301","region":"Cairo Governorate"}},"labels":["soccer","sport"],"duration":7016,"start_local":"2024-05-15T16:00:00","end":"2024-05-15T14:56:56Z","end_local":"2024-05-15T17:56:56","updated":"2024-06-05T05:57:14Z"},{"title":"EGlobExpo","description":"Sourced from predicthq.com","category":"expos","start":"2024-05-15T06:00:00Z","geo":{"geometry":{"coordinates":[31.72321,30.006233],"type":"Point"},"placekey":"@7vy-tf5-9zz","address":{"country_code":"EG","formatted_address":"New Administrative Capital\nCairo Suez road، Cairo Governorate Desert\nCairo Governorate\nEgypt","locality":"Madinaty"}},"labels":["expo"],"duration":118800,"start_local":"2024-05-15T09:00:00","end":"2024-05-16T15:00:00Z","end_local":"2024-05-16T18:00:00","updated":"2024-06-14T15:27:46Z"},{"title":"Premier League - El Geish vs Ismaily","description":"Sourced from predicthq.com","category":"sports","start":"2024-05-14T16:00:00Z","geo":{"geometry":{"coordinates":[31.30351980674596,30.08114886560622],"type":"Point"},"placekey":"@7vy-sj2-psq","address":{"country_code":"EG","formatted_address":"Al Shahid Al Mokadem Ahmed, al-Qāhirah (Cairo), Egypt","locality":"al-Qāhirah (Cairo)"}},"labels":["soccer","sport"],"duration":6939,"start_local":"2024-05-14T19:00:00","end":"2024-05-14T17:55:39Z","end_local":"2024-05-14T20:55:39","updated":"2024-06-05T15:27:17Z"},{"title":"Premier League - Al Ittihad vs Smouha","description":"Sourced from predicthq.com","category":"sports","start":"2024-05-14T13:00:00Z","geo":{"geometry":{"coordinates":[29.9136971,31.1972747],"type":"Point"},"placekey":"@7yg-6dd-p7q","address":{"country_code":"EG","formatted_address":"5WX7+39Q, Bab Sharqi WA Wabour Al Meyah, Bab Sharqi, Alexandria Governorate 5422001, Egypt","postcode":"5422001","region":"Alexandria Governorate"}},"labels":["soccer","sport"],"duration":7263,"start_local":"2024-05-14T16:00:00","end":"2024-05-14T15:01:03Z","end_local":"2024-05-14T18:01:03","updated":"2024-06-05T08:00:17Z"},{"title":"HVAC-R Egypt Expo - ASHRAE","description":"Sourced from predicthq.com","category":"expos","start":"2024-05-12T21:00:00Z","geo":{"geometry":{"coordinates":[31.3850444,30.0143021],"type":"Point"},"placekey":"@7vy-v5z-grk","address":{"country_code":"EG","formatted_address":"297P+H3G, Al Hay Al Asher, Nasr City, Cairo Governorate 4440510, Egypt","postcode":"4440510","region":"Cairo Governorate"}},"labels":["expo"],"duration":259199,"start_local":"2024-05-13T00:00:00","end":"2024-05-15T20:59:59Z","end_local":"2024-05-15T23:59:59","updated":"2024-06-01T08:25:39Z"},{"title":"Premier League - Baladiyyat Al Mehalla vs Al Ahly","description":"Sourced from predicthq.com","category":"sports","start":"2024-05-11T16:00:00Z","geo":{"geometry":{"coordinates":[31.1728907,30.9607834],"type":"Point"},"placekey":"@7vz-xyc-yy9","address":{"country_code":"EG","formatted_address":"El Mehalla Clock, شركة مصر للغزل والنسيح، Al Mahalah Al Kubra (Part 2), El Mahalla El Kubra 2, Gharbia Governorate 6746116،, Egypt","postcode":"6746116،","region":"Gharbia Governorate"}},"labels":["soccer","sport"],"duration":7903,"start_local":"2024-05-11T19:00:00","end":"2024-05-11T18:11:43Z","end_local":"2024-05-11T21:11:43","updated":"2024-06-05T06:33:50Z"},{"title":"Premier League - Al Masry vs Pyramids","description":"Sourced from predicthq.com","category":"sports","start":"2024-05-11T16:00:00Z","geo":{"geometry":{"coordinates":[29.7293881,30.9995782],"type":"Point"},"placekey":"@7yg-6gh-45f","address":{"country_code":"EG","formatted_address":"Cairo - Borg El-Arab Desert Road, Alexandria, 5247007, Egypt","postcode":"5247007","locality":"Alexandria","region":"Alexandria Governorate"}},"labels":["soccer","sport"],"duration":7396,"start_local":"2024-05-11T19:00:00","end":"2024-05-11T18:03:16Z","end_local":"2024-05-11T21:03:16","updated":"2024-05-27T23:37:30Z"},{"title":"Premier League - Al Mokawloon vs Al Ittihad","description":"Sourced from predicthq.com","category":"sports","start":"2024-05-11T13:00:00Z","geo":{"geometry":{"coordinates":[31.2969817,30.0511433],"type":"Point"},"placekey":"@7vy-ssf-q2k","address":{"country_code":"EG","formatted_address":"372X+W52, Al Abageyah, El Khalifa, Cairo Governorate 4433013, Egypt","postcode":"4433013","region":"Cairo Governorate"}},"labels":["soccer","sport"],"duration":7531,"start_local":"2024-05-11T16:00:00","end":"2024-05-11T15:05:31Z","end_local":"2024-05-11T18:05:31","updated":"2024-06-05T11:51:10Z"},{"title":"International Conference on Environment and Natural Science","description":"Sourced from predicthq.com","category":"conferences","start":"2024-05-10T21:00:00Z","geo":{"geometry":{"coordinates":[31.232169,30.050423],"type":"Point"},"placekey":"@7vy-ssq-jn5","address":{"country_code":"EG","formatted_address":"1115 Nile Corniche\nSharkas\nCairo\nCairo Governorate 12344\nEgypt","locality":"Cairo"}},"labels":["conference"],"duration":172799,"start_local":"2024-05-11T00:00:00","end":"2024-05-12T20:59:59Z","end_local":"2024-05-12T23:59:59","updated":"2024-06-05T19:57:38Z"},{"title":"EgyBeautyExpo","description":"Sourced from predicthq.com - EgyBeautyExpo is a highly anticipated expo event in the beauty industry, showcasing the latest trends, products, and services. With a wide range of exhibitors and interactive displays, it offers an engaging platform for professionals and beauty enthusiasts alike.","category":"expos","start":"2024-05-10T21:00:00Z","geo":{"geometry":{"coordinates":[31.3850444,30.0143021],"type":"Point"},"placekey":"@7vy-v5z-grk","address":{"country_code":"EG","formatted_address":"297P+H3G, Al Hay Al Asher, Nasr City, Cairo Governorate 4440510, Egypt","postcode":"4440510","region":"Cairo Governorate"}},"labels":["expo"],"duration":259199,"start_local":"2024-05-11T00:00:00","end":"2024-05-13T20:59:59Z","end_local":"2024-05-13T23:59:59","updated":"2024-05-31T23:04:26Z"},{"title":"Egy Beauty Africa 2024","description":"Sourced from predicthq.com","category":"expos","start":"2024-05-10T21:00:00Z","geo":{"geometry":{"coordinates":[31.3840314,30.0145172],"type":"Point"},"placekey":"@7vy-v5y-vpv","address":{"country_code":"EG","formatted_address":"El-Moshir Tantawy Axis, 4440301, Egypt","postcode":"4440301","region":"Cairo Governorate"}},"labels":["expo","industrial","packaging","product","technology"],"duration":259199,"start_local":"2024-05-11T00:00:00","end":"2024-05-13T20:59:59Z","end_local":"2024-05-13T23:59:59","updated":"2024-06-05T00:34:02Z"},{"title":"Premier League - Modern vs National Bank of Egypt","description":"Sourced from predicthq.com","category":"sports","start":"2024-05-10T16:00:00Z","geo":{"geometry":{"coordinates":[31.3122579,30.0691131],"type":"Point"},"placekey":"@7vy-she-8d9","address":{"country_code":"EG","formatted_address":"Mamdouh Salem، Street، Al Estad, Nasr City, Egypt","locality":"Nasr City","region":"Cairo Governorate"}},"labels":["soccer","sport"],"duration":7555,"start_local":"2024-05-10T19:00:00","end":"2024-05-10T18:05:55Z","end_local":"2024-05-10T21:05:55","updated":"2024-07-02T18:02:16Z"},{"title":"Valentin Huedo","description":"Sourced from predicthq.com","category":"concerts","start":"2024-05-10T16:00:00Z","geo":{"geometry":{"coordinates":[31.3006095,30.119936],"type":"Point"},"placekey":"@7vy-skj-ht9","address":{"country_code":"EG","formatted_address":"Moursy Matrouh, Al Izab, Cairo Governorate, Cairo, Egypt","locality":"Cairo"}},"labels":["concert","music"],"duration":0,"start_local":"2024-05-10T19:00:00","end":"2024-05-10T16:00:00Z","end_local":"2024-05-10T19:00:00","updated":"2024-06-12T11:12:02Z"},{"title":"Premier League - El Gouna vs Pharco","description":"Sourced from predicthq.com","category":"sports","start":"2024-05-10T16:00:00Z","geo":{"geometry":{"coordinates":[33.65985095500946,27.360219177250688],"type":"Point"},"placekey":"@7vn-gjh-835","address":{"country_code":"EG","formatted_address":"El-Gouna, Egypt","locality":"El-Gouna"}},"labels":["soccer","sport"],"duration":7447,"start_local":"2024-05-10T19:00:00","end":"2024-05-10T18:04:07Z","end_local":"2024-05-10T21:04:07","updated":"2024-06-05T08:30:40Z"},{"title":"Premier League - Ceramica Cleopatra vs El Geish","description":"Sourced from predicthq.com","category":"sports","start":"2024-05-10T13:00:00Z","geo":{"geometry":{"coordinates":[31.2969817,30.0511433],"type":"Point"},"placekey":"@7vy-ssf-q2k","address":{"country_code":"EG","formatted_address":"372X+W52, Al Abageyah, El Khalifa, Cairo Governorate 4433013, Egypt","postcode":"4433013","region":"Cairo Governorate"}},"labels":["soccer","sport"],"duration":7309,"start_local":"2024-05-10T16:00:00","end":"2024-05-10T15:01:49Z","end_local":"2024-05-10T18:01:49","updated":"2024-06-05T01:40:22Z"},{"title":"Premier League - Smouha vs ZED","description":"Sourced from predicthq.com","category":"sports","start":"2024-05-09T16:00:00Z","geo":{"geometry":{"coordinates":[29.9136971,31.1972747],"type":"Point"},"placekey":"@7yg-6dd-p7q","address":{"country_code":"EG","formatted_address":"5WX7+39Q, Bab Sharqi WA Wabour Al Meyah, Bab Sharqi, Alexandria Governorate 5422001, Egypt","postcode":"5422001","region":"Alexandria Governorate"}},"labels":["soccer","sport"],"duration":7303,"start_local":"2024-05-09T19:00:00","end":"2024-05-09T18:01:43Z","end_local":"2024-05-09T21:01:43","updated":"2024-06-04T21:36:40Z"},{"title":"Premier League - Ismaily vs El Dakhleya","description":"Sourced from predicthq.com","category":"sports","start":"2024-05-09T13:30:00Z","geo":{"geometry":{"coordinates":[32.27381944656372,30.60098964027036],"type":"Point"},"placekey":"@7vy-3zq-rc5","address":{"country_code":"EG","formatted_address":"Reda Street, Shebeen, Ismailia, Egypt","locality":"Ismailia"}},"labels":["soccer","sport"],"duration":7580,"start_local":"2024-05-09T16:30:00","end":"2024-05-09T15:36:20Z","end_local":"2024-05-09T18:36:20","updated":"2024-06-05T05:57:07Z"},{"title":"Squash League","description":"Sourced from predicthq.com - Level up your game !\n\nJoin the game !","category":"community","start":"2024-05-08T19:00:00Z","geo":{"geometry":{"coordinates":[31.4651587,30.0213013],"type":"Point"},"placekey":"@7vy-v54-9cq","address":{"country_code":"EG","formatted_address":"4724243, Egypt","postcode":"4724243","region":"محافظة القاهرة‬"}},"labels":["community","sport"],"duration":3600,"start_local":"2024-05-08T22:00:00","end":"2024-05-08T20:00:00Z","end_local":"2024-05-08T23:00:00","updated":"2024-06-05T15:02:55Z"},{"title":"Premier League - Al Ahly vs Al Ittihad","description":"Sourced from predicthq.com","category":"sports","start":"2024-05-07T16:00:00Z","geo":{"geometry":{"coordinates":[31.3122579,30.0691131],"type":"Point"},"placekey":"@7vy-she-8d9","address":{"country_code":"EG","formatted_address":"Mamdouh Salem، Street، Al Estad, Nasr City, Egypt","locality":"Nasr City","region":"Cairo Governorate"}},"labels":["soccer","sport"],"duration":7431,"start_local":"2024-05-07T19:00:00","end":"2024-05-07T18:03:51Z","end_local":"2024-05-07T21:03:51","updated":"2024-06-11T22:26:40Z"},{"title":"Premier League - El Geish vs Al Masry","description":"Sourced from predicthq.com","category":"sports","start":"2024-05-06T16:00:00Z","geo":{"geometry":{"coordinates":[29.7293881,30.9995782],"type":"Point"},"placekey":"@7yg-6gh-45f","address":{"country_code":"EG","formatted_address":"Cairo - Borg El-Arab Desert Road, Alexandria, 5247007, Egypt","postcode":"5247007","locality":"Alexandria","region":"Alexandria Governorate"}},"labels":["soccer","sport"],"duration":7014,"start_local":"2024-05-06T19:00:00","end":"2024-05-06T17:56:54Z","end_local":"2024-05-06T20:56:54","updated":"2024-05-28T01:00:55Z"},{"title":"Premier League - Pyramids vs Modern","description":"Sourced from predicthq.com","category":"sports","start":"2024-05-06T16:00:00Z","geo":{"geometry":{"coordinates":[31.3737559,30.0199086],"type":"Point"},"placekey":"@7vy-v5z-ysq","address":{"country_code":"EG","formatted_address":"299F+XGQ, Al Hay Al Asher, Nasr City, Cairo Governorate 4440510, Egypt","postcode":"4440510","region":"Cairo Governorate"}},"labels":["soccer","sport"],"duration":7468,"start_local":"2024-05-06T19:00:00","end":"2024-05-06T18:04:28Z","end_local":"2024-05-06T21:04:28","updated":"2024-07-02T14:45:47Z"},{"title":"Premier League - National Bank of Egypt vs ENPPI","description":"Sourced from predicthq.com","category":"sports","start":"2024-05-05T16:00:00Z","geo":{"geometry":{"coordinates":[31.3122579,30.0691131],"type":"Point"},"placekey":"@7vy-she-8d9","address":{"country_code":"EG","formatted_address":"Mamdouh Salem، Street، Al Estad, Nasr City, Egypt","locality":"Nasr City","region":"Cairo Governorate"}},"labels":["soccer","sport"],"duration":7646,"start_local":"2024-05-05T19:00:00","end":"2024-05-05T18:07:26Z","end_local":"2024-05-05T21:07:26","updated":"2024-05-27T19:19:31Z"},{"title":"Premier League - Smouha vs Zamalek","description":"Sourced from predicthq.com","category":"sports","start":"2024-05-05T16:00:00Z","geo":{"geometry":{"coordinates":[29.7293881,30.9995782],"type":"Point"},"placekey":"@7yg-6gh-45f","address":{"country_code":"EG","formatted_address":"Cairo - Borg El-Arab Desert Road, Alexandria, 5247007, Egypt","postcode":"5247007","locality":"Alexandria","region":"Alexandria Governorate"}},"labels":["soccer","sport"],"duration":7233,"start_local":"2024-05-05T19:00:00","end":"2024-05-05T18:00:33Z","end_local":"2024-05-05T21:00:33","updated":"2024-05-28T01:08:29Z"},{"title":"Premier League - Al Ahly vs El Gouna","description":"Sourced from predicthq.com","category":"sports","start":"2024-05-04T16:00:00Z","geo":{"geometry":{"coordinates":[31.3122579,30.0691131],"type":"Point"},"placekey":"@7vy-she-8d9","address":{"country_code":"EG","formatted_address":"Mamdouh Salem، Street، Al Estad, Nasr City, Egypt","locality":"Nasr City","region":"Cairo Governorate"}},"labels":["soccer","sport"],"duration":7101,"start_local":"2024-05-04T19:00:00","end":"2024-05-04T17:58:21Z","end_local":"2024-05-04T20:58:21","updated":"2024-05-27T10:24:38Z"},{"title":"Premier League - El Dakhleya vs Ceramica Cleopatra","description":"Sourced from predicthq.com","category":"sports","start":"2024-05-04T16:00:00Z","geo":{"geometry":{"coordinates":[31.4461625,30.0247007],"type":"Point"},"placekey":"@7vy-v4x-cyv","address":{"country_code":"EG","formatted_address":"2CFW+WRF, New Cairo 1, Cairo Governorate 4730301, Egypt","postcode":"4730301","region":"Cairo Governorate"}},"labels":["soccer","sport"],"duration":7208,"start_local":"2024-05-04T19:00:00","end":"2024-05-04T18:00:08Z","end_local":"2024-05-04T21:00:08","updated":"2024-06-05T03:19:03Z"},{"title":"Yalla StartUp","description":"Sourced from predicthq.com - Yalla StartUp is the ultimate gathering for aspiring entrepreneurs to kickstart their dreams and connect with like-minded go-getters!","category":"conferences","start":"2024-05-04T15:00:00Z","geo":{"geometry":{"coordinates":[31.4754562,30.04246299999999],"type":"Point"},"placekey":"@7vy-v56-yy9","address":{"country_code":"EG","formatted_address":"4740211, Egypt","postcode":"4740211","region":"Cairo Governorate"}},"labels":["business","conference"],"duration":7200,"start_local":"2024-05-04T18:00:00","end":"2024-05-04T17:00:00Z","end_local":"2024-05-04T20:00:00","updated":"2024-06-05T04:03:31Z"},{"title":"Premier League - Pharco vs Ismaily","description":"Sourced from predicthq.com","category":"sports","start":"2024-05-04T13:00:00Z","geo":{"geometry":{"coordinates":[29.7293881,30.9995782],"type":"Point"},"placekey":"@7yg-6gh-45f","address":{"country_code":"EG","formatted_address":"Cairo - Borg El-Arab Desert Road, Alexandria, 5247007, Egypt","postcode":"5247007","locality":"Alexandria","region":"Alexandria Governorate"}},"labels":["soccer","sport"],"duration":7549,"start_local":"2024-05-04T16:00:00","end":"2024-05-04T15:05:49Z","end_local":"2024-05-04T18:05:49","updated":"2024-05-28T02:06:44Z"},{"title":"Premier League - Al Ittihad vs Baladiyyat Al Mehalla","description":"Sourced from predicthq.com","category":"sports","start":"2024-05-03T16:00:00Z","geo":{"geometry":{"coordinates":[29.9136971,31.1972747],"type":"Point"},"placekey":"@7yg-6dd-p7q","address":{"country_code":"EG","formatted_address":"5WX7+39Q, Bab Sharqi WA Wabour Al Meyah, Bab Sharqi, Alexandria Governorate 5422001, Egypt","postcode":"5422001","region":"Alexandria Governorate"}},"labels":["soccer","sport"],"duration":7762,"start_local":"2024-05-03T19:00:00","end":"2024-05-03T18:09:22Z","end_local":"2024-05-03T21:09:22","updated":"2024-06-05T15:32:34Z"},{"title":"Premier League - ZED vs Al Mokawloon","description":"Sourced from predicthq.com","category":"sports","start":"2024-05-03T16:00:00Z","geo":{"geometry":{"coordinates":[31.3122579,30.0691131],"type":"Point"},"placekey":"@7vy-she-8d9","address":{"country_code":"EG","formatted_address":"Mamdouh Salem، Street، Al Estad, Nasr City, Egypt","locality":"Nasr City","region":"Cairo Governorate"}},"labels":["soccer","sport"],"duration":7647,"start_local":"2024-05-03T19:00:00","end":"2024-05-03T18:07:27Z","end_local":"2024-05-03T21:07:27","updated":"2024-05-27T10:16:38Z"},{"title":"B Jones","description":"Sourced from predicthq.com","category":"concerts","start":"2024-05-02T19:30:00Z","geo":{"geometry":{"coordinates":[34.4313209,28.0382086],"type":"Point"},"placekey":"@7w2-z96-y9z","address":{"country_code":"EG","formatted_address":"Nabq Bay EGYPT, Second Sharm Al Shiekh, South Sinai Governorate 46628, Egypt","postcode":"46628","region":"South Sinai Governorate"}},"labels":["concert","music"],"duration":0,"start_local":"2024-05-02T22:30:00","end":"2024-05-02T19:30:00Z","end_local":"2024-05-02T22:30:00","updated":"2024-06-12T04:06:59Z"},{"title":"Premier League - Zamalek vs National Bank of Egypt","description":"Sourced from predicthq.com","category":"sports","start":"2024-05-02T16:00:00Z","geo":{"geometry":{"coordinates":[31.3122579,30.0691131],"type":"Point"},"placekey":"@7vy-she-8d9","address":{"country_code":"EG","formatted_address":"Mamdouh Salem، Street، Al Estad, Nasr City, Egypt","locality":"Nasr City","region":"Cairo Governorate"}},"labels":["soccer","sport"],"duration":7290,"start_local":"2024-05-02T19:00:00","end":"2024-05-02T18:01:30Z","end_local":"2024-05-02T21:01:30","updated":"2024-05-27T18:28:50Z"},{"title":"Premier League - Modern vs El Geish","description":"Sourced from predicthq.com","category":"sports","start":"2024-05-02T16:00:00Z","geo":{"geometry":{"coordinates":[31.43519420000007,30.1744268],"type":"Point"},"placekey":"@7vy-sk7-mzf","address":{"country_code":"EG","formatted_address":"Cairo, Cairo Governorate, Egypt","locality":"Cairo","region":"Cairo Governorate"}},"labels":["soccer","sport"],"duration":7206,"start_local":"2024-05-02T19:00:00","end":"2024-05-02T18:00:06Z","end_local":"2024-05-02T21:00:06","updated":"2024-07-02T14:16:39Z"},{"title":"B Jones","description":"Sourced from predicthq.com","category":"concerts","start":"2024-05-01T19:30:00Z","geo":{"geometry":{"coordinates":[34.3611554,27.9426367],"type":"Point"},"placekey":"@7w2-yvw-bx5","address":{"country_code":"EG","formatted_address":"El-Salam, Sharm Al Shiekh, South Sinai Governorate 8764001, Egypt","postcode":"8764001","region":"South Sinai Governorate"}},"labels":["concert","music"],"duration":0,"start_local":"2024-05-01T22:30:00","end":"2024-05-01T19:30:00Z","end_local":"2024-05-01T22:30:00","updated":"2024-06-11T22:29:12Z"},{"title":"Squash League","description":"Sourced from predicthq.com - Level up your game !\n\nJoin the game !","category":"community","start":"2024-05-01T19:00:00Z","geo":{"geometry":{"coordinates":[31.4651587,30.0213013],"type":"Point"},"placekey":"@7vy-v54-9cq","address":{"country_code":"EG","formatted_address":"4724243, Egypt","postcode":"4724243","region":"محافظة القاهرة‬"}},"labels":["community","sport"],"duration":3600,"start_local":"2024-05-01T22:00:00","end":"2024-05-01T20:00:00Z","end_local":"2024-05-01T23:00:00","updated":"2024-06-05T16:58:32Z"},{"title":"Premier League - Ismaily vs Al Ahly","description":"Sourced from predicthq.com","category":"sports","start":"2024-05-01T16:00:00Z","geo":{"geometry":{"coordinates":[29.7293881,30.9995782],"type":"Point"},"placekey":"@7yg-6gh-45f","address":{"country_code":"EG","formatted_address":"Cairo - Borg El-Arab Desert Road, Alexandria, 5247007, Egypt","postcode":"5247007","locality":"Alexandria","region":"Alexandria Governorate"}},"labels":["soccer","sport"],"duration":7244,"start_local":"2024-05-01T19:00:00","end":"2024-05-01T18:00:44Z","end_local":"2024-05-01T21:00:44","updated":"2024-05-28T00:13:27Z"},{"title":"Premier League - ENPPI vs Pyramids","description":"Sourced from predicthq.com","category":"sports","start":"2024-05-01T16:00:00Z","geo":{"geometry":{"coordinates":[31.4461625,30.0247007],"type":"Point"},"placekey":"@7vy-v4x-cyv","address":{"country_code":"EG","formatted_address":"2CFW+WRF, New Cairo 1, Cairo Governorate 4730301, Egypt","postcode":"4730301","region":"Cairo Governorate"}},"labels":["soccer","sport"],"duration":6961,"start_local":"2024-05-01T19:00:00","end":"2024-05-01T17:56:01Z","end_local":"2024-05-01T20:56:01","updated":"2024-06-05T18:24:57Z"},{"title":"Premier League - Ceramica Cleopatra vs Pharco","description":"Sourced from predicthq.com","category":"sports","start":"2024-04-29T16:00:00Z","geo":{"geometry":{"coordinates":[31.2969817,30.0511433],"type":"Point"},"placekey":"@7vy-ssf-q2k","address":{"country_code":"EG","formatted_address":"372X+W52, Al Abageyah, El Khalifa, Cairo Governorate 4433013, Egypt","postcode":"4433013","region":"Cairo Governorate"}},"labels":["soccer","sport"],"duration":8129,"start_local":"2024-04-29T19:00:00","end":"2024-04-29T18:15:29Z","end_local":"2024-04-29T21:15:29","updated":"2024-06-05T06:45:50Z"},{"title":"Premier League - Al Mokawloon vs Smouha","description":"Sourced from predicthq.com","category":"sports","start":"2024-04-28T16:00:00Z","geo":{"geometry":{"coordinates":[31.2969817,30.0511433],"type":"Point"},"placekey":"@7vy-ssf-q2k","address":{"country_code":"EG","formatted_address":"372X+W52, Al Abageyah, El Khalifa, Cairo Governorate 4433013, Egypt","postcode":"4433013","region":"Cairo Governorate"}},"labels":["soccer","sport"],"duration":7634,"start_local":"2024-04-28T19:00:00","end":"2024-04-28T18:07:14Z","end_local":"2024-04-28T21:07:14","updated":"2024-06-05T18:00:30Z"},{"title":"Premier League - Al Masry vs El Dakhleya","description":"Sourced from predicthq.com","category":"sports","start":"2024-04-28T13:00:00Z","geo":{"geometry":{"coordinates":[29.7293881,30.9995782],"type":"Point"},"placekey":"@7yg-6gh-45f","address":{"country_code":"EG","formatted_address":"Cairo - Borg El-Arab Desert Road, Alexandria, 5247007, Egypt","postcode":"5247007","locality":"Alexandria","region":"Alexandria Governorate"}},"labels":["soccer","sport"],"duration":7440,"start_local":"2024-04-28T16:00:00","end":"2024-04-28T15:04:00Z","end_local":"2024-04-28T18:04:00","updated":"2024-05-28T03:38:50Z"},{"title":"Ramadan","description":"Sourced from predicthq.com - Celebrate Ramadan with us, a time of reflection, prayer, and community gatherings to break fast together!","category":"festivals","start":"2024-04-28T12:00:00Z","geo":{"geometry":{"coordinates":[29.9972945,31.2304541],"type":"Point"},"placekey":"@7yf-jxb-hnq","address":{"country_code":"EG","formatted_address":"5514050, Egypt","postcode":"5514050","region":"Alexandria Governorate"}},"labels":["festival","religion"],"duration":21600,"start_local":"2024-04-28T15:00:00","end":"2024-04-28T18:00:00Z","end_local":"2024-04-28T21:00:00","updated":"2024-06-05T06:39:37Z"},{"title":"International Pool Spa & Landscape Expo","description":"Sourced from predicthq.com","category":"expos","start":"2024-04-27T21:00:00Z","geo":{"geometry":{"coordinates":[31.3850444,30.0143021],"type":"Point"},"placekey":"@7vy-v5z-grk","address":{"country_code":"EG","formatted_address":"297P+H3G, Al Hay Al Asher, Nasr City, Cairo Governorate 4440510, Egypt","postcode":"4440510","region":"Cairo Governorate"}},"labels":["expo"],"duration":259199,"start_local":"2024-04-28T00:00:00","end":"2024-04-30T20:59:59Z","end_local":"2024-04-30T23:59:59","updated":"2024-06-05T01:46:33Z"},{"title":"WATREX Expo 2024 - Exhibition and Conference for Water and Wastewater Technologies","description":"Sourced from predicthq.com","category":"expos","start":"2024-04-27T21:00:00Z","geo":{"geometry":{"coordinates":[31.3840314,30.0145172],"type":"Point"},"placekey":"@7vy-v5y-vpv","address":{"country_code":"EG","formatted_address":"El-Moshir Tantawy Axis, 4440301, Egypt","postcode":"4440301","region":"Cairo Governorate"}},"labels":["construction","environment","expo","industrial","technology"],"duration":259199,"start_local":"2024-04-28T00:00:00","end":"2024-04-30T20:59:59Z","end_local":"2024-04-30T23:59:59","updated":"2024-06-05T20:20:56Z"},{"title":"Basketball Africa League - Group Stage - Al Ahly vs Bangui","description":"Sourced from predicthq.com","category":"sports","start":"2024-04-27T17:00:00Z","geo":{"geometry":{"coordinates":[30.916967,29.953885],"type":"Point"},"placekey":"@7vy-vyf-n3q","address":{"country_code":"EG","formatted_address":"Cairo, Egypt","locality":"Cairo"}},"labels":["basketball","sport"],"duration":0,"start_local":"2024-04-27T20:00:00","end":"2024-04-27T17:00:00Z","end_local":"2024-04-27T20:00:00","updated":"2024-06-12T04:32:45Z"},{"title":"Premier League - El Gouna vs Al Ittihad","description":"Sourced from predicthq.com","category":"sports","start":"2024-04-27T16:00:00Z","geo":{"geometry":{"coordinates":[33.65985095500946,27.360219177250688],"type":"Point"},"placekey":"@7vn-gjh-835","address":{"country_code":"EG","formatted_address":"El-Gouna, Egypt","locality":"El-Gouna"}},"labels":["soccer","sport"],"duration":7064,"start_local":"2024-04-27T19:00:00","end":"2024-04-27T17:57:44Z","end_local":"2024-04-27T20:57:44","updated":"2024-06-04T21:39:15Z"},{"title":"Basketball Africa League - Group Stage - Al-Ahly Benghazi vs City Oilers","description":"Sourced from predicthq.com","category":"sports","start":"2024-04-27T14:00:00Z","geo":{"geometry":{"coordinates":[30.916967,29.953885],"type":"Point"},"placekey":"@7vy-vyf-n3q","address":{"country_code":"EG","formatted_address":"Cairo, Egypt","locality":"Cairo"}},"labels":["basketball","sport"],"duration":0,"start_local":"2024-04-27T17:00:00","end":"2024-04-27T14:00:00Z","end_local":"2024-04-27T17:00:00","updated":"2024-06-12T03:30:23Z"},{"title":"Premier League - Baladiyyat Al Mehalla vs ZED","description":"Sourced from predicthq.com","category":"sports","start":"2024-04-27T13:00:00Z","geo":{"geometry":{"coordinates":[31.1728907,30.9607834],"type":"Point"},"placekey":"@7vz-xyc-yy9","address":{"country_code":"EG","formatted_address":"El Mehalla Clock, شركة مصر للغزل والنسيح، Al Mahalah Al Kubra (Part 2), El Mahalla El Kubra 2, Gharbia Governorate 6746116،, Egypt","postcode":"6746116،","region":"Gharbia Governorate"}},"labels":["soccer","sport"],"duration":7459,"start_local":"2024-04-27T16:00:00","end":"2024-04-27T15:04:19Z","end_local":"2024-04-27T18:04:19","updated":"2024-06-05T07:26:04Z"},{"title":"CAF Champions League - Semi-finals - Al Ahly vs TP Mazembe","description":"Sourced from predicthq.com","category":"sports","start":"2024-04-26T19:00:00Z","geo":{"geometry":{"coordinates":[31.3122579,30.0691131],"type":"Point"},"placekey":"@7vy-she-8d9","address":{"country_code":"EG","formatted_address":"Mamdouh Salem، Street، Al Estad, Nasr City, Egypt","locality":"Nasr City","region":"Cairo Governorate"}},"labels":["soccer","sport"],"duration":7559,"start_local":"2024-04-26T22:00:00","end":"2024-04-26T21:05:59Z","end_local":"2024-04-27T00:05:59","updated":"2024-05-27T11:52:08Z"},{"title":"Basketball Africa League - Group Stage - Al-Ahly Benghazi vs Al Ahly","description":"Sourced from predicthq.com","category":"sports","start":"2024-04-26T17:00:00Z","geo":{"geometry":{"coordinates":[30.916967,29.953885],"type":"Point"},"placekey":"@7vy-vyf-n3q","address":{"country_code":"EG","formatted_address":"Cairo, Egypt","locality":"Cairo"}},"labels":["basketball","sport"],"duration":0,"start_local":"2024-04-26T20:00:00","end":"2024-04-26T17:00:00Z","end_local":"2024-04-26T20:00:00","updated":"2024-06-12T08:05:35Z"},{"title":"Basketball Africa League - Group Stage - City Oilers vs Bangui","description":"Sourced from predicthq.com","category":"sports","start":"2024-04-26T14:00:00Z","geo":{"geometry":{"coordinates":[30.916967,29.953885],"type":"Point"},"placekey":"@7vy-vyf-n3q","address":{"country_code":"EG","formatted_address":"Cairo, Egypt","locality":"Cairo"}},"labels":["basketball","sport"],"duration":0,"start_local":"2024-04-26T17:00:00","end":"2024-04-26T14:00:00Z","end_local":"2024-04-26T17:00:00","updated":"2024-06-12T07:51:32Z"},{"title":"Squash League","description":"Sourced from predicthq.com - Level up your game !\n\nJoin the game !","category":"community","start":"2024-04-24T20:00:00Z","geo":{"geometry":{"coordinates":[31.4651587,30.0213013],"type":"Point"},"placekey":"@7vy-v54-9cq","address":{"country_code":"EG","formatted_address":"4724243, Egypt","postcode":"4724243","region":"محافظة القاهرة‬"}},"labels":["community","sport"],"duration":3600,"start_local":"2024-04-24T22:00:00","end":"2024-04-24T21:00:00Z","end_local":"2024-04-24T23:00:00","updated":"2024-06-05T12:23:44Z"},{"title":"Basketball Africa League - Group Stage - City Oilers vs Al Ahly","description":"Sourced from predicthq.com","category":"sports","start":"2024-04-24T18:00:00Z","geo":{"geometry":{"coordinates":[30.916967,29.953885],"type":"Point"},"placekey":"@7vy-vyf-n3q","address":{"country_code":"EG","formatted_address":"Cairo, Egypt","locality":"Cairo"}},"labels":["basketball","sport"],"duration":0,"start_local":"2024-04-24T20:00:00","end":"2024-04-24T18:00:00Z","end_local":"2024-04-24T20:00:00","updated":"2024-06-12T06:29:49Z"},{"title":"Premier League - Pyramids vs National Bank of Egypt","description":"Sourced from predicthq.com","category":"sports","start":"2024-04-24T17:00:00Z","geo":{"geometry":{"coordinates":[31.3737559,30.0199086],"type":"Point"},"placekey":"@7vy-v5z-ysq","address":{"country_code":"EG","formatted_address":"299F+XGQ, Al Hay Al Asher, Nasr City, Cairo Governorate 4440510, Egypt","postcode":"4440510","region":"Cairo Governorate"}},"labels":["soccer","sport"],"duration":7454,"start_local":"2024-04-24T19:00:00","end":"2024-04-24T19:04:14Z","end_local":"2024-04-24T21:04:14","updated":"2024-06-05T17:44:31Z"},{"title":"Basketball Africa League - Group Stage - Bangui vs Al-Ahly Benghazi","description":"Sourced from predicthq.com","category":"sports","start":"2024-04-24T15:00:00Z","geo":{"geometry":{"coordinates":[30.916967,29.953885],"type":"Point"},"placekey":"@7vy-vyf-n3q","address":{"country_code":"EG","formatted_address":"Cairo, Egypt","locality":"Cairo"}},"labels":["basketball","sport"],"duration":0,"start_local":"2024-04-24T17:00:00","end":"2024-04-24T15:00:00Z","end_local":"2024-04-24T17:00:00","updated":"2024-06-12T11:19:55Z"},{"title":"Premier League - El Geish vs ENPPI","description":"Sourced from predicthq.com","category":"sports","start":"2024-04-24T14:30:00Z","geo":{"geometry":{"coordinates":[31.30351980674596,30.08114886560622],"type":"Point"},"placekey":"@7vy-sj2-psq","address":{"country_code":"EG","formatted_address":"Al Shahid Al Mokadem Ahmed, al-Qāhirah (Cairo), Egypt","locality":"al-Qāhirah (Cairo)"}},"labels":["soccer","sport"],"duration":7398,"start_local":"2024-04-24T16:30:00","end":"2024-04-24T16:33:18Z","end_local":"2024-04-24T18:33:18","updated":"2024-06-05T03:00:26Z"},{"title":"Premier League - Pharco vs Al Masry","description":"Sourced from predicthq.com","category":"sports","start":"2024-04-23T17:00:00Z","geo":{"geometry":{"coordinates":[29.7293881,30.9995782],"type":"Point"},"placekey":"@7yg-6gh-45f","address":{"country_code":"EG","formatted_address":"Cairo - Borg El-Arab Desert Road, Alexandria, 5247007, Egypt","postcode":"5247007","locality":"Alexandria","region":"Alexandria Governorate"}},"labels":["soccer","sport"],"duration":7245,"start_local":"2024-04-23T19:00:00","end":"2024-04-23T19:00:45Z","end_local":"2024-04-23T21:00:45","updated":"2024-05-28T01:22:17Z"},{"title":"Premier League - Smouha vs Baladiyyat Al Mehalla","description":"Sourced from predicthq.com","category":"sports","start":"2024-04-23T14:30:00Z","geo":{"geometry":{"coordinates":[29.9136971,31.1972747],"type":"Point"},"placekey":"@7yg-6dd-p7q","address":{"country_code":"EG","formatted_address":"5WX7+39Q, Bab Sharqi WA Wabour Al Meyah, Bab Sharqi, Alexandria Governorate 5422001, Egypt","postcode":"5422001","region":"Alexandria Governorate"}},"labels":["soccer","sport"],"duration":7081,"start_local":"2024-04-23T16:30:00","end":"2024-04-23T16:28:01Z","end_local":"2024-04-23T18:28:01","updated":"2024-06-05T04:57:16Z"},{"title":"Basketball Africa League - Group Stage - Bangui vs Al Ahly","description":"Sourced from predicthq.com","category":"sports","start":"2024-04-22T18:00:00Z","geo":{"geometry":{"coordinates":[30.916967,29.953885],"type":"Point"},"placekey":"@7vy-vyf-n3q","address":{"country_code":"EG","formatted_address":"Cairo, Egypt","locality":"Cairo"}},"labels":["basketball","sport"],"duration":0,"start_local":"2024-04-22T20:00:00","end":"2024-04-22T18:00:00Z","end_local":"2024-04-22T20:00:00","updated":"2024-06-12T17:22:44Z"},{"title":"Premier League - Al Ittihad vs Ismaily","description":"Sourced from predicthq.com","category":"sports","start":"2024-04-22T17:00:00Z","geo":{"geometry":{"coordinates":[29.7293881,30.9995782],"type":"Point"},"placekey":"@7yg-6gh-45f","address":{"country_code":"EG","formatted_address":"Cairo - Borg El-Arab Desert Road, Alexandria, 5247007, Egypt","postcode":"5247007","locality":"Alexandria","region":"Alexandria Governorate"}},"labels":["soccer","sport"],"duration":7116,"start_local":"2024-04-22T19:00:00","end":"2024-04-22T18:58:36Z","end_local":"2024-04-22T20:58:36","updated":"2024-05-27T23:40:52Z"},{"title":"Premier League - El Dakhleya vs Modern","description":"Sourced from predicthq.com","category":"sports","start":"2024-04-22T17:00:00Z","geo":{"geometry":{"coordinates":[31.4461625,30.0247007],"type":"Point"},"placekey":"@7vy-v4x-cyv","address":{"country_code":"EG","formatted_address":"2CFW+WRF, New Cairo 1, Cairo Governorate 4730301, Egypt","postcode":"4730301","region":"Cairo Governorate"}},"labels":["soccer","sport"],"duration":6760,"start_local":"2024-04-22T19:00:00","end":"2024-04-22T18:52:40Z","end_local":"2024-04-22T20:52:40","updated":"2024-07-02T15:19:26Z"},{"title":"Basketball Africa League - Group Stage - City Oilers vs Al-Ahly Benghazi","description":"Sourced from predicthq.com","category":"sports","start":"2024-04-22T15:00:00Z","geo":{"geometry":{"coordinates":[30.916967,29.953885],"type":"Point"},"placekey":"@7vy-vyf-n3q","address":{"country_code":"EG","formatted_address":"Cairo, Egypt","locality":"Cairo"}},"labels":["basketball","sport"],"duration":0,"start_local":"2024-04-22T17:00:00","end":"2024-04-22T15:00:00Z","end_local":"2024-04-22T17:00:00","updated":"2024-06-12T03:43:47Z"},{"title":"Premier League - ZED vs El Gouna","description":"Sourced from predicthq.com","category":"sports","start":"2024-04-22T14:00:00Z","geo":{"geometry":{"coordinates":[31.3122579,30.0691131],"type":"Point"},"placekey":"@7vy-she-8d9","address":{"country_code":"EG","formatted_address":"Mamdouh Salem، Street، Al Estad, Nasr City, Egypt","locality":"Nasr City","region":"Cairo Governorate"}},"labels":["soccer","sport"],"duration":6928,"start_local":"2024-04-22T16:00:00","end":"2024-04-22T15:55:28Z","end_local":"2024-04-22T17:55:28","updated":"2024-05-27T22:40:19Z"},{"title":"International Conference on Artificial Intelligence, Robotics and Control","description":"Sourced from predicthq.com","category":"conferences","start":"2024-04-22T07:00:00Z","geo":{"geometry":{"coordinates":[31.610616,30.118676],"type":"Point"},"placekey":"@7vy-twn-9fz","address":{"country_code":"EG","formatted_address":"Suez Rd\nEL SHEROUK CITY، Cairo Governorate 11837\nEgypt","locality":"El Shorouk"}},"labels":["conference"],"duration":205200,"start_local":"2024-04-22T09:00:00","end":"2024-04-24T16:00:00Z","end_local":"2024-04-24T18:00:00","updated":"2024-07-02T14:03:07Z"},{"title":"CAF Confederation Cup - Semi-finals - Zamalek vs Dreams","description":"Sourced from predicthq.com","category":"sports","start":"2024-04-21T16:00:00Z","geo":{"geometry":{"coordinates":[31.3122579,30.0691131],"type":"Point"},"placekey":"@7vy-she-8d9","address":{"country_code":"EG","formatted_address":"Mamdouh Salem، Street، Al Estad, Nasr City, Egypt","locality":"Nasr City","region":"Cairo Governorate"}},"labels":["soccer","sport"],"duration":7360,"start_local":"2024-04-21T18:00:00","end":"2024-04-21T18:02:40Z","end_local":"2024-04-21T20:02:40","updated":"2024-05-27T08:01:41Z"},{"title":"Basketball Africa League - Group Stage - Al Ahly vs Al-Ahly Benghazi","description":"Sourced from predicthq.com","category":"sports","start":"2024-04-20T17:00:00Z","geo":{"geometry":{"coordinates":[30.916967,29.953885],"type":"Point"},"placekey":"@7vy-vyf-n3q","address":{"country_code":"EG","formatted_address":"Cairo, Egypt","locality":"Cairo"}},"labels":["basketball","sport"],"duration":0,"start_local":"2024-04-20T19:00:00","end":"2024-04-20T17:00:00Z","end_local":"2024-04-20T19:00:00","updated":"2024-06-11T21:29:50Z"},{"title":"Basketball Africa League - Group Stage - Bangui vs City Oilers","description":"Sourced from predicthq.com","category":"sports","start":"2024-04-20T14:00:00Z","geo":{"geometry":{"coordinates":[30.916967,29.953885],"type":"Point"},"placekey":"@7vy-vyf-n3q","address":{"country_code":"EG","formatted_address":"Cairo, Egypt","locality":"Cairo"}},"labels":["basketball","sport"],"duration":0,"start_local":"2024-04-20T16:00:00","end":"2024-04-20T14:00:00Z","end_local":"2024-04-20T16:00:00","updated":"2024-06-12T06:58:15Z"},{"title":"Girl Up's STEAM for Social Good Bootcamp, Egypt","description":"Sourced from predicthq.com - Join Girl Up's STEAM for Social Good Bootcamp in Egypt to learn how to use technology for positive change in a fun and interactive way!","category":"conferences","start":"2024-04-20T08:00:00Z","geo":{"geometry":{"coordinates":[31.252972,29.959042],"type":"Point"},"placekey":"@7vy-sqs-zvf","address":{"country_code":"EG","formatted_address":"4211123, Egypt","postcode":"4211123","region":"Cairo Governorate"}},"labels":["conference","science","technology"],"duration":25200,"start_local":"2024-04-20T10:00:00","end":"2024-04-20T15:00:00Z","end_local":"2024-04-20T17:00:00","updated":"2024-06-05T00:48:03Z"},{"title":"Basketball Africa League - Group Stage - Al Ahly vs City Oilers","description":"Sourced from predicthq.com","category":"sports","start":"2024-04-19T17:00:00Z","geo":{"geometry":{"coordinates":[30.916967,29.953885],"type":"Point"},"placekey":"@7vy-vyf-n3q","address":{"country_code":"EG","formatted_address":"Cairo, Egypt","locality":"Cairo"}},"labels":["basketball","sport"],"duration":0,"start_local":"2024-04-19T19:00:00","end":"2024-04-19T17:00:00Z","end_local":"2024-04-19T19:00:00","updated":"2024-06-12T02:19:53Z"},{"title":"Basketball Africa League - Group Stage - Al-Ahly Benghazi vs Bangui","description":"Sourced from predicthq.com","category":"sports","start":"2024-04-19T14:00:00Z","geo":{"geometry":{"coordinates":[30.916967,29.953885],"type":"Point"},"placekey":"@7vy-vyf-n3q","address":{"country_code":"EG","formatted_address":"Cairo, Egypt","locality":"Cairo"}},"labels":["basketball","sport"],"duration":0,"start_local":"2024-04-19T16:00:00","end":"2024-04-19T14:00:00Z","end_local":"2024-04-19T16:00:00","updated":"2024-06-12T05:06:48Z"},{"title":"Premier League - Baladiyyat Al Mehalla vs Al Mokawloon","description":"Sourced from predicthq.com","category":"sports","start":"2024-04-19T14:00:00Z","geo":{"geometry":{"coordinates":[31.1728907,30.9607834],"type":"Point"},"placekey":"@7vz-xyc-yy9","address":{"country_code":"EG","formatted_address":"El Mehalla Clock, شركة مصر للغزل والنسيح، Al Mahalah Al Kubra (Part 2), El Mahalla El Kubra 2, Gharbia Governorate 6746116،, Egypt","postcode":"6746116،","region":"Gharbia Governorate"}},"labels":["soccer","sport"],"duration":7662,"start_local":"2024-04-19T16:00:00","end":"2024-04-19T16:07:42Z","end_local":"2024-04-19T18:07:42","updated":"2024-06-05T07:08:19Z"},{"title":"Premier League - Modern vs Pharco","description":"Sourced from predicthq.com","category":"sports","start":"2024-04-18T17:00:00Z","geo":{"geometry":{"coordinates":[31.3122579,30.0691131],"type":"Point"},"placekey":"@7vy-she-8d9","address":{"country_code":"EG","formatted_address":"Mamdouh Salem، Street، Al Estad, Nasr City, Egypt","locality":"Nasr City","region":"Cairo Governorate"}},"labels":["soccer","sport"],"duration":7262,"start_local":"2024-04-18T19:00:00","end":"2024-04-18T19:01:02Z","end_local":"2024-04-18T21:01:02","updated":"2024-07-02T12:14:31Z"},{"title":"Premier League - Ismaily vs ZED","description":"Sourced from predicthq.com","category":"sports","start":"2024-04-18T17:00:00Z","geo":{"geometry":{"coordinates":[32.27381944656372,30.60098964027036],"type":"Point"},"placekey":"@7vy-3zq-rc5","address":{"country_code":"EG","formatted_address":"Reda Street, Shebeen, Ismailia, Egypt","locality":"Ismailia"}},"labels":["soccer","sport"],"duration":7198,"start_local":"2024-04-18T19:00:00","end":"2024-04-18T18:59:58Z","end_local":"2024-04-18T20:59:58","updated":"2024-06-05T10:28:44Z"},{"title":"Premier League - Ceramica Cleopatra vs Al Ittihad","description":"Sourced from predicthq.com","category":"sports","start":"2024-04-18T14:00:00Z","geo":{"geometry":{"coordinates":[31.2969817,30.0511433],"type":"Point"},"placekey":"@7vy-ssf-q2k","address":{"country_code":"EG","formatted_address":"372X+W52, Al Abageyah, El Khalifa, Cairo Governorate 4433013, Egypt","postcode":"4433013","region":"Cairo Governorate"}},"labels":["soccer","sport"],"duration":7071,"start_local":"2024-04-18T16:00:00","end":"2024-04-18T15:57:51Z","end_local":"2024-04-18T17:57:51","updated":"2024-06-05T18:22:54Z"},{"title":"CAFEX","description":"Sourced from predicthq.com","category":"expos","start":"2024-04-17T22:00:00Z","geo":{"geometry":{"coordinates":[31.3850444,30.0143021],"type":"Point"},"placekey":"@7vy-v5z-grk","address":{"country_code":"EG","formatted_address":"297P+H3G, Al Hay Al Asher, Nasr City, Cairo Governorate 4440510, Egypt","postcode":"4440510","region":"Cairo Governorate"}},"labels":["expo"],"duration":259199,"start_local":"2024-04-18T00:00:00","end":"2024-04-20T21:59:59Z","end_local":"2024-04-20T23:59:59","updated":"2024-05-31T22:46:31Z"},{"title":"Squash League","description":"Sourced from predicthq.com - Level up your game !\n\nJoin the game !","category":"community","start":"2024-04-17T20:00:00Z","geo":{"geometry":{"coordinates":[31.4651587,30.0213013],"type":"Point"},"placekey":"@7vy-v54-9cq","address":{"country_code":"EG","formatted_address":"4724243, Egypt","postcode":"4724243","region":"محافظة القاهرة‬"}},"labels":["community","sport"],"duration":3600,"start_local":"2024-04-17T22:00:00","end":"2024-04-17T21:00:00Z","end_local":"2024-04-17T23:00:00","updated":"2024-06-05T03:19:05Z"},{"title":"Premier League - National Bank of Egypt vs El Geish","description":"Sourced from predicthq.com","category":"sports","start":"2024-04-17T17:00:00Z","geo":{"geometry":{"coordinates":[31.3122579,30.0691131],"type":"Point"},"placekey":"@7vy-she-8d9","address":{"country_code":"EG","formatted_address":"Mamdouh Salem، Street، Al Estad, Nasr City, Egypt","locality":"Nasr City","region":"Cairo Governorate"}},"labels":["soccer","sport"],"duration":7480,"start_local":"2024-04-17T19:00:00","end":"2024-04-17T19:04:40Z","end_local":"2024-04-17T21:04:40","updated":"2024-05-27T11:23:59Z"},{"title":"Premier League - ENPPI vs El Dakhleya","description":"Sourced from predicthq.com","category":"sports","start":"2024-04-17T17:00:00Z","geo":{"geometry":{"coordinates":[31.4461625,30.0247007],"type":"Point"},"placekey":"@7vy-v4x-cyv","address":{"country_code":"EG","formatted_address":"2CFW+WRF, New Cairo 1, Cairo Governorate 4730301, Egypt","postcode":"4730301","region":"Cairo Governorate"}},"labels":["soccer","sport"],"duration":7369,"start_local":"2024-04-17T19:00:00","end":"2024-04-17T19:02:49Z","end_local":"2024-04-17T21:02:49","updated":"2024-06-05T02:25:29Z"},{"title":"Premier League - El Gouna vs Smouha","description":"Sourced from predicthq.com","category":"sports","start":"2024-04-17T14:00:00Z","geo":{"geometry":{"coordinates":[33.65985095500946,27.360219177250688],"type":"Point"},"placekey":"@7vn-gjh-835","address":{"country_code":"EG","formatted_address":"El-Gouna, Egypt","locality":"El-Gouna"}},"labels":["soccer","sport"],"duration":6992,"start_local":"2024-04-17T16:00:00","end":"2024-04-17T15:56:32Z","end_local":"2024-04-17T17:56:32","updated":"2024-06-05T06:07:34Z"},{"title":"Premier League - Zamalek vs Al Ahly","description":"Sourced from predicthq.com","category":"sports","start":"2024-04-15T17:00:00Z","geo":{"geometry":{"coordinates":[31.3122579,30.0691131],"type":"Point"},"placekey":"@7vy-she-8d9","address":{"country_code":"EG","formatted_address":"Mamdouh Salem، Street، Al Estad, Nasr City, Egypt","locality":"Nasr City","region":"Cairo Governorate"}},"labels":["soccer","sport"],"duration":7282,"start_local":"2024-04-15T19:00:00","end":"2024-04-15T19:01:22Z","end_local":"2024-04-15T21:01:22","updated":"2024-06-12T02:46:13Z"},{"title":"Premier League - Al Mokawloon vs Pyramids","description":"Sourced from predicthq.com","category":"sports","start":"2024-04-15T14:00:00Z","geo":{"geometry":{"coordinates":[31.2969817,30.0511433],"type":"Point"},"placekey":"@7vy-ssf-q2k","address":{"country_code":"EG","formatted_address":"372X+W52, Al Abageyah, El Khalifa, Cairo Governorate 4433013, Egypt","postcode":"4433013","region":"Cairo Governorate"}},"labels":["soccer","sport"],"duration":7067,"start_local":"2024-04-15T16:00:00","end":"2024-04-15T15:57:47Z","end_local":"2024-04-15T17:57:47","updated":"2024-06-12T10:21:53Z"},{"title":"Premier League - Ismaily vs Modern","description":"Sourced from predicthq.com","category":"sports","start":"2024-04-14T17:00:00Z","geo":{"geometry":{"coordinates":[32.27381944656372,30.60098964027036],"type":"Point"},"placekey":"@7vy-3zq-rc5","address":{"country_code":"EG","formatted_address":"Reda Street, Shebeen, Ismailia, Egypt","locality":"Ismailia"}},"labels":["soccer","sport"],"duration":7553,"start_local":"2024-04-14T19:00:00","end":"2024-04-14T19:05:53Z","end_local":"2024-04-14T21:05:53","updated":"2024-07-02T11:48:45Z"},{"title":"Premier League - Ceramica Cleopatra vs Al Masry","description":"Sourced from predicthq.com","category":"sports","start":"2024-04-14T14:00:00Z","geo":{"geometry":{"coordinates":[29.7293881,30.9995782],"type":"Point"},"placekey":"@7yg-6gh-45f","address":{"country_code":"EG","formatted_address":"Cairo - Borg El-Arab Desert Road, Alexandria, 5247007, Egypt","postcode":"5247007","locality":"Alexandria","region":"Alexandria Governorate"}},"labels":["soccer","sport"],"duration":7256,"start_local":"2024-04-14T16:00:00","end":"2024-04-14T16:00:56Z","end_local":"2024-04-14T18:00:56","updated":"2024-06-12T03:47:36Z"},{"title":"B Jones","description":"Sourced from predicthq.com","category":"concerts","start":"2024-04-11T20:00:00Z","geo":{"geometry":{"coordinates":[34.4313209,28.0382086],"type":"Point"},"placekey":"@7w2-z96-y9z","address":{"country_code":"EG","formatted_address":"Nabq Bay EGYPT, Second Sharm Al Shiekh, South Sinai Governorate 46628, Egypt","postcode":"46628","region":"South Sinai Governorate"}},"labels":["concert","music"],"duration":0,"start_local":"2024-04-11T22:00:00","end":"2024-04-11T20:00:00Z","end_local":"2024-04-11T22:00:00","updated":"2024-06-11T23:06:01Z"},{"title":"Premier League - ZED vs Al Ahly","description":"Sourced from predicthq.com","category":"sports","start":"2024-04-11T17:00:00Z","geo":{"geometry":{"coordinates":[31.43519420000007,30.1744268],"type":"Point"},"placekey":"@7vy-sk7-mzf","address":{"country_code":"EG","formatted_address":"Cairo, Cairo Governorate, Egypt","locality":"Cairo","region":"Cairo Governorate"}},"labels":["soccer","sport"],"duration":6891,"start_local":"2024-04-11T19:00:00","end":"2024-04-11T18:54:51Z","end_local":"2024-04-11T20:54:51","updated":"2024-06-12T16:39:32Z"},{"title":"Premier League - Zamalek vs Al Ittihad","description":"Sourced from predicthq.com","category":"sports","start":"2024-04-11T17:00:00Z","geo":{"geometry":{"coordinates":[31.3122579,30.0691131],"type":"Point"},"placekey":"@7vy-she-8d9","address":{"country_code":"EG","formatted_address":"Mamdouh Salem، Street، Al Estad, Nasr City, Egypt","locality":"Nasr City","region":"Cairo Governorate"}},"labels":["soccer","sport"],"duration":6842,"start_local":"2024-04-11T19:00:00","end":"2024-04-11T18:54:02Z","end_local":"2024-04-11T20:54:02","updated":"2024-06-12T02:18:59Z"},{"title":"Premier League - Al Masry vs Modern","description":"Sourced from predicthq.com","category":"sports","start":"2024-04-11T14:00:00Z","geo":{"geometry":{"coordinates":[29.7293881,30.9995782],"type":"Point"},"placekey":"@7yg-6gh-45f","address":{"country_code":"EG","formatted_address":"Cairo - Borg El-Arab Desert Road, Alexandria, 5247007, Egypt","postcode":"5247007","locality":"Alexandria","region":"Alexandria Governorate"}},"labels":["soccer","sport"],"duration":7494,"start_local":"2024-04-11T16:00:00","end":"2024-04-11T16:04:54Z","end_local":"2024-04-11T18:04:54","updated":"2024-07-02T16:54:07Z"},{"title":"B Jones","description":"Sourced from predicthq.com","category":"concerts","start":"2024-04-10T21:30:00Z","geo":{"geometry":{"coordinates":[34.3611554,27.9426367],"type":"Point"},"placekey":"@7w2-yvw-bx5","address":{"country_code":"EG","formatted_address":"El-Salam, Sharm Al Shiekh, South Sinai Governorate 8764001, Egypt","postcode":"8764001","region":"South Sinai Governorate"}},"labels":["concert","music"],"duration":0,"start_local":"2024-04-10T23:30:00","end":"2024-04-10T21:30:00Z","end_local":"2024-04-10T23:30:00","updated":"2024-06-12T00:20:51Z"},{"title":"Squash League","description":"Sourced from predicthq.com - Level up your game !\n\nJoin the game !","category":"community","start":"2024-04-10T20:00:00Z","geo":{"geometry":{"coordinates":[31.4651587,30.0213013],"type":"Point"},"placekey":"@7vy-v54-9cq","address":{"country_code":"EG","formatted_address":"4724243, Egypt","postcode":"4724243","region":"محافظة القاهرة‬"}},"labels":["community","sport"],"duration":3600,"start_local":"2024-04-10T22:00:00","end":"2024-04-10T21:00:00Z","end_local":"2024-04-10T23:00:00","updated":"2024-06-04T21:49:21Z"},{"title":"Premier League - El Gouna vs Pyramids","description":"Sourced from predicthq.com","category":"sports","start":"2024-04-09T20:00:00Z","geo":{"geometry":{"coordinates":[33.65985095500946,27.360219177250688],"type":"Point"},"placekey":"@7vn-gjh-835","address":{"country_code":"EG","formatted_address":"El-Gouna, Egypt","locality":"El-Gouna"}},"labels":["soccer","sport"],"duration":7015,"start_local":"2024-04-09T22:00:00","end":"2024-04-09T21:56:55Z","end_local":"2024-04-09T23:56:55","updated":"2024-06-12T11:54:42Z"},{"title":"Premier League - Al Ahly vs ENPPI","description":"Sourced from predicthq.com","category":"sports","start":"2024-04-08T20:00:00Z","geo":{"geometry":{"coordinates":[31.3122579,30.0691131],"type":"Point"},"placekey":"@7vy-she-8d9","address":{"country_code":"EG","formatted_address":"Mamdouh Salem، Street، Al Estad, Nasr City, Egypt","locality":"Nasr City","region":"Cairo Governorate"}},"labels":["soccer","sport"],"duration":7242,"start_local":"2024-04-08T22:00:00","end":"2024-04-08T22:00:42Z","end_local":"2024-04-09T00:00:42","updated":"2024-06-11T22:00:50Z"},{"title":"CAF Confederation Cup - Quarter-finals - Zamalek vs Modern","description":"Sourced from predicthq.com","category":"sports","start":"2024-04-07T20:00:00Z","geo":{"geometry":{"coordinates":[31.3122579,30.0691131],"type":"Point"},"placekey":"@7vy-she-8d9","address":{"country_code":"EG","formatted_address":"Mamdouh Salem، Street، Al Estad, Nasr City, Egypt","locality":"Nasr City","region":"Cairo Governorate"}},"labels":["soccer","sport"],"duration":7667,"start_local":"2024-04-07T22:00:00","end":"2024-04-07T22:07:47Z","end_local":"2024-04-08T00:07:47","updated":"2024-07-02T20:22:23Z"},{"title":"Premier League - National Bank of Egypt vs El Dakhleya","description":"Sourced from predicthq.com","category":"sports","start":"2024-04-04T20:00:00Z","geo":{"geometry":{"coordinates":[31.3122579,30.0691131],"type":"Point"},"placekey":"@7vy-she-8d9","address":{"country_code":"EG","formatted_address":"Mamdouh Salem، Street، Al Estad, Nasr City, Egypt","locality":"Nasr City","region":"Cairo Governorate"}},"labels":["soccer","sport"],"duration":486559,"start_local":"2024-04-04T22:00:00","end":"2024-04-10T11:09:19Z","end_local":"2024-04-10T13:09:19","updated":"2024-06-12T16:32:15Z"},{"title":"Premier League - El Gouna vs Al Mokawloon","description":"Sourced from predicthq.com","category":"sports","start":"2024-04-03T20:00:00Z","geo":{"geometry":{"coordinates":[33.65985095500946,27.360219177250688],"type":"Point"},"placekey":"@7vn-gjh-835","address":{"country_code":"EG","formatted_address":"El-Gouna, Egypt","locality":"El-Gouna"}},"labels":["soccer","sport"],"duration":574030,"start_local":"2024-04-03T22:00:00","end":"2024-04-10T11:27:10Z","end_local":"2024-04-10T13:27:10","updated":"2024-06-05T12:21:11Z"}]