[{"title":"East Africa International Arbitration Conference","description":"Sourced from predicthq.com","category":"conferences","start":"2024-09-19T06:00:00Z","geo":{"geometry":{"coordinates":[38.759872,9.020431],"type":"Point"},"placekey":"@9qg-nff-7h5","address":{"country_code":"ET","formatted_address":"2QC5+6W9, Taitu St, Addis Ababa, Ethiopia","locality":"Addis Ababa","region":"Addis Ababa"}},"labels":["conference"],"duration":118800,"start_local":"2024-09-19T09:00:00","end":"2024-09-20T15:00:00Z","end_local":"2024-09-20T18:00:00","updated":"2024-06-16T06:25:25Z"},{"title":"International Conference on Primary Health Care","description":"Sourced from predicthq.com","category":"conferences","start":"2024-09-05T06:00:00Z","geo":{"geometry":{"coordinates":[38.790407,8.987675],"type":"Point"},"placekey":"@9qg-psp-rp9","address":{"country_code":"ET","formatted_address":"Airport Road, Addis Ababa 1755, Ethiopia","postcode":"1755","locality":"Addis Ababa","region":"Addis Ababa"}},"labels":["conference"],"duration":205200,"start_local":"2024-09-05T09:00:00","end":"2024-09-07T15:00:00Z","end_local":"2024-09-07T18:00:00","updated":"2024-06-16T04:36:58Z"},{"title":"Future Tech 2024","description":"Sourced from predicthq.com - Join us at Future Tech 2024 for a glimpse into the exciting world of upcoming technologies and innovations!","category":"conferences","start":"2024-08-16T05:00:00Z","geo":{"geometry":{"coordinates":[38.78915829999999,8.9872085],"type":"Point"},"placekey":"@9qg-psp-qs5","address":{"country_code":"ET","formatted_address":"አዲስ አበባ, Ethiopia","locality":"አዲስ አበባ","region":"አዲስ አበባ"}},"labels":["conference","science","technology"],"duration":205200,"start_local":"2024-08-16T08:00:00","end":"2024-08-18T14:00:00Z","end_local":"2024-08-18T17:00:00","updated":"2024-06-13T00:35:47Z"},{"title":"Connected Banking Ethiopia","description":"Sourced from predicthq.com - 15th Edition Connected Banking Summit – Innovation and Excellence Awards 2024; Ethiopia","category":"conferences","start":"2024-08-14T05:00:00Z","geo":{"geometry":{"coordinates":[38.7524635,9.0191936],"type":"Point"},"placekey":"@9qg-nff-hqz","address":{"country_code":"ET","formatted_address":"Churchill Avenue, Addis Ababa, Ethiopia","locality":"Addis Ababa","region":"Addis Ababa"}},"labels":["business","conference"],"duration":36000,"start_local":"2024-08-14T08:00:00","end":"2024-08-14T15:00:00Z","end_local":"2024-08-14T18:00:00","updated":"2024-06-11T00:51:18Z"},{"title":"Connected Banking Summit - Ethiopia","description":"Sourced from predicthq.com","category":"conferences","start":"2024-08-13T21:00:00Z","geo":{"geometry":{"coordinates":[38.759872,9.020431],"type":"Point"},"placekey":"@9qg-nff-7h5","address":{"country_code":"ET","formatted_address":"2QC5+6W9, Taitu St, Addis Ababa, Ethiopia","locality":"Addis Ababa","region":"Addis Ababa"}},"labels":["conference"],"duration":86399,"start_local":"2024-08-14T00:00:00","end":"2024-08-14T20:59:59Z","end_local":"2024-08-14T23:59:59","updated":"2024-06-16T02:06:45Z"},{"title":"5th International Interest-Free Banking & Takaful Forum","description":"Sourced from predicthq.com - Hey there! Join us at the 5th International Interest-Free Banking & Takaful Forum to learn about the latest developments in Islamic finance","category":"conferences","start":"2024-07-25T06:00:00Z","geo":{"geometry":{"coordinates":[38.7524635,9.0191936],"type":"Point"},"placekey":"@9qg-nff-hqz","address":{"country_code":"ET","formatted_address":"Churchill Avenue, Addis Ababa, Ethiopia","locality":"Addis Ababa","region":"Addis Ababa"}},"labels":["business","conference"],"duration":28800,"start_local":"2024-07-25T09:00:00","end":"2024-07-25T14:00:00Z","end_local":"2024-07-25T17:00:00","updated":"2024-06-20T09:47:09Z"},{"title":"Hour Of  STEM","description":"Sourced from predicthq.com - Join us for a FREE, fun-filled adventure with Yenetta Code! Kids and parents can dive into coding, robotics, 3D modeling and abacus games.","category":"festivals","start":"2024-06-29T07:00:00Z","geo":{"geometry":{"coordinates":[38.769854,9.0140541],"type":"Point"},"placekey":"@9qg-nfh-2zf","address":{"country_code":"ET","formatted_address":"Guinea Conakry Street, Addis Ababa, Ethiopia","locality":"Addis Ababa","region":"Addis Ababa"}},"labels":["education","family","festival"],"duration":28800,"start_local":"2024-06-29T10:00:00","end":"2024-06-29T15:00:00Z","end_local":"2024-06-29T18:00:00","updated":"2024-06-27T02:30:17Z"},{"title":"Furniture, Interior & Finishing Expo","description":"Sourced from predicthq.com","category":"expos","start":"2024-06-04T21:00:00Z","geo":{"geometry":{"coordinates":[38.789436,8.990156],"type":"Point"},"placekey":"@9qg-psp-v9f","address":{"country_code":"ET","formatted_address":"XQRQ+4R7, Addis Ababa, Ethiopia","locality":"Addis Ababa","region":"Addis Ababa"}},"labels":["expo"],"duration":345599,"start_local":"2024-06-05T00:00:00","end":"2024-06-08T20:59:59Z","end_local":"2024-06-08T23:59:59","updated":"2024-05-31T23:03:02Z"},{"title":"Big 5 Construct Ethiopia","description":"Sourced from predicthq.com - Int. Construction, Construction Equipments and Technologies Exhibition","category":"expos","start":"2024-05-29T21:00:00Z","geo":{"geometry":{"coordinates":[38.7895542,8.9902942],"type":"Point"},"placekey":"@9qg-psp-v9f","address":{"country_code":"ET","formatted_address":"Addis Ababa, Ethiopia","locality":"Addis Ababa","region":"Addis Ababa"}},"labels":["construction","expo","technology"],"duration":259199,"start_local":"2024-05-30T00:00:00","end":"2024-06-01T20:59:59Z","end_local":"2024-06-01T23:59:59","updated":"2024-06-14T21:01:25Z"},{"title":"6th MATEX-ETHIOPIA","description":"Sourced from predicthq.com","category":"expos","start":"2024-05-22T21:00:00Z","geo":{"geometry":{"coordinates":[38.762177,9.0092272],"type":"Point"},"placekey":"@9qg-nfd-z2k","address":{"country_code":"ET","formatted_address":"Addis Ababa, Ethiopia","locality":"Addis Ababa","region":"Addis Ababa"}},"labels":["agriculture","construction","expo","food","furniture","industrial","technology"],"duration":431999,"start_local":"2024-05-23T00:00:00","end":"2024-05-27T20:59:59Z","end_local":"2024-05-27T23:59:59","updated":"2024-06-05T16:11:14Z"},{"title":"Annual Conference of the College of Humanities, Language Studies, Journalism and Communication","description":"Sourced from predicthq.com","category":"conferences","start":"2024-05-22T06:00:00Z","geo":{"geometry":{"coordinates":[38.763682,9.033506],"type":"Point"},"placekey":"@9qg-nfp-zzz","address":{"country_code":"ET","formatted_address":"King George VI Street, 1000 Addis Ababa, Ethiopia","locality":"Addis Ababa","postcode":"1000","region":"Addis Ababa"}},"labels":["conference"],"duration":205200,"start_local":"2024-05-22T09:00:00","end":"2024-05-24T15:00:00Z","end_local":"2024-05-24T18:00:00","updated":"2024-05-27T04:56:21Z"},{"title":"Africa Security Symposium","description":"Sourced from predicthq.com","category":"conferences","start":"2024-05-22T06:00:00Z","geo":{"geometry":{"coordinates":[38.790407,8.987675],"type":"Point"},"placekey":"@9qg-psp-rp9","address":{"country_code":"ET","formatted_address":"Airport Road, Addis Ababa 1755, Ethiopia","postcode":"1755","locality":"Addis Ababa","region":"Addis Ababa"}},"labels":["conference"],"duration":118800,"start_local":"2024-05-22T09:00:00","end":"2024-05-23T15:00:00Z","end_local":"2024-05-23T18:00:00","updated":"2024-06-05T02:18:57Z"},{"title":"Ethio Telecom Great Bokoji Run","description":"Sourced from predicthq.com","category":"sports","start":"2024-05-18T21:00:00Z","geo":{"geometry":{"coordinates":[38.7721541,8.9754484],"type":"Point"},"placekey":"@fct-3wt-fcq","address":{"country_code":"ET","formatted_address":"Addis Ababa, Ethiopia","locality":"Addis Ababa","region":"Addis Ababa"}},"labels":["outdoor-sports","running","sport"],"duration":86399,"start_local":"2024-05-19T00:00:00","end":"2024-05-19T20:59:59Z","end_local":"2024-05-19T23:59:59","updated":"2024-06-05T18:16:33Z"},{"title":"agrofood & plastprintpack Ethiopia","description":"Sourced from predicthq.com - Both fairs attract a wide range of exhibitors and visitors, including manufacturers, distributors, suppliers, and industry professionals from Ethiopia and beyond. The events feature conferences, seminars, and workshops, providing valuable insights into industry trends, challenges, and opportunities. By combining these two fairs, the organizers create a synergistic platform where professionals from interconnected industries can collaborate, innovate, and drive growth in Ethiopia's agrofood and packaging sectors.","category":"expos","start":"2024-05-15T21:00:00Z","geo":{"geometry":{"coordinates":[38.7895542,8.9902942],"type":"Point"},"placekey":"@9qg-psp-v9f","address":{"country_code":"ET","formatted_address":"Addis Ababa, Ethiopia","locality":"Addis Ababa","region":"Addis Ababa"}},"labels":["agriculture","expo","industrial","packaging"],"duration":259199,"start_local":"2024-05-16T00:00:00","end":"2024-05-18T20:59:59Z","end_local":"2024-05-18T23:59:59","updated":"2024-07-03T00:23:45Z"},{"title":"IndabaX Ethiopia: Deep Learning IndabaX Ethiopia","description":"Sourced from predicthq.com","category":"expos","start":"2024-05-09T06:00:00Z","geo":{"geometry":{"coordinates":[38.498969,7.05724],"type":"Point"},"placekey":"@fct-nbs-92k","address":{"country_code":"ET","formatted_address":"Hawassa, Southern Nations, Nationalities and Peoples, Ethiopia","locality":"Hawassa","region":"Southern Nations, Nationalities and Peoples"}},"labels":["expo"],"duration":118800,"start_local":"2024-05-09T09:00:00","end":"2024-05-10T15:00:00Z","end_local":"2024-05-10T18:00:00","updated":"2024-05-31T22:48:56Z"},{"title":"በቴክኖሎጂ ድጋፍ የሚቃጡ ፆታን መሰረት ያደረጉ ጥቃቶች እና ትንኮሳዎችን መከላከል","description":"Sourced from predicthq.com - Combating Technology-Facilitated Gender-Based Violence in Ethiopia","category":"conferences","start":"2024-05-09T05:30:00Z","geo":{"geometry":{"coordinates":[38.75114529999999,9.030423899999999],"type":"Point"},"placekey":"@9qg-nfn-26k","address":{"country_code":"ET","formatted_address":"Addis Ababa, Ethiopia","locality":"Addis Ababa","region":"Addis Ababa"}},"labels":["conference","fundraiser"],"duration":23400,"start_local":"2024-05-09T08:30:00","end":"2024-05-09T12:00:00Z","end_local":"2024-05-09T15:00:00","updated":"2024-06-05T03:23:58Z"},{"title":"EVa","description":"Sourced from predicthq.com - charity","category":"conferences","start":"2024-05-08T07:00:00Z","geo":{"geometry":{"coordinates":[38.7524635,9.0191936],"type":"Point"},"placekey":"@9qg-nff-hqz","address":{"country_code":"ET","formatted_address":"Churchill Avenue, Addis Ababa, Ethiopia","locality":"Addis Ababa","region":"Addis Ababa"}},"labels":["conference"],"duration":7200,"start_local":"2024-05-08T10:00:00","end":"2024-05-08T09:00:00Z","end_local":"2024-05-08T12:00:00","updated":"2024-06-11T23:44:18Z"},{"title":"MRO Africa","description":"Sourced from predicthq.com","category":"expos","start":"2024-04-23T06:00:00Z","geo":{"geometry":{"coordinates":[38.790407,8.987675],"type":"Point"},"placekey":"@9qg-psp-rp9","address":{"country_code":"ET","formatted_address":"Airport Road, Addis Ababa 1755, Ethiopia","postcode":"1755","locality":"Addis Ababa","region":"Addis Ababa"}},"labels":["expo"],"duration":205200,"start_local":"2024-04-23T09:00:00","end":"2024-04-25T15:00:00Z","end_local":"2024-04-25T18:00:00","updated":"2024-06-02T17:00:07Z"}]