[{"title":"National Football League - Suva vs Nadi","description":"Sourced from predicthq.com","category":"sports","start":"2024-09-29T03:00:00Z","geo":{"geometry":{"coordinates":[178.4491705,-18.1496236],"type":"Point"},"placekey":"@jbg-qxk-bkz","address":{"country_code":"FJ","formatted_address":"220 Laucala Bay Rd, Suva, Fiji","locality":"Suva","region":"Central Division"}},"labels":["soccer","sport"],"duration":0,"start_local":"2024-09-29T15:00:00","end":"2024-09-29T03:00:00Z","end_local":"2024-09-29T15:00:00","updated":"2024-06-11T06:58:31Z"},{"title":"National Football League - Ba vs Rewa","description":"Sourced from predicthq.com","category":"sports","start":"2024-09-29T03:00:00Z","geo":{"geometry":{"coordinates":[177.6695174,-17.5350415],"type":"Point"},"placekey":"@jbk-s6n-ygk","address":{"country_code":"FJ","formatted_address":"FM79+XRJ Govind Park Ba, Ba, Fiji","locality":"Ba","region":"Western Division"}},"labels":["soccer","sport"],"duration":0,"start_local":"2024-09-29T15:00:00","end":"2024-09-29T03:00:00Z","end_local":"2024-09-29T15:00:00","updated":"2024-06-11T05:01:46Z"},{"title":"National Football League - Nasinu vs Nadroga","description":"Sourced from predicthq.com","category":"sports","start":"2024-09-29T01:00:00Z","geo":{"geometry":{"coordinates":[178.4491705,-18.1496236],"type":"Point"},"placekey":"@jbg-qxk-bkz","address":{"country_code":"FJ","formatted_address":"220 Laucala Bay Rd, Suva, Fiji","locality":"Suva","region":"Central Division"}},"labels":["soccer","sport"],"duration":0,"start_local":"2024-09-29T13:00:00","end":"2024-09-29T01:00:00Z","end_local":"2024-09-29T13:00:00","updated":"2024-06-11T00:55:59Z"},{"title":"National Football League - Tailevu Naitasiri vs Lautoka","description":"Sourced from predicthq.com","category":"sports","start":"2024-09-29T01:00:00Z","geo":{"geometry":{"coordinates":[178.5353967,-18.0311807],"type":"Point"},"placekey":"@jbg-qgb-qcq","address":{"country_code":"FJ","formatted_address":"XG9P+G5C Ratu Cakobau Park, Nausori, Fiji","locality":"Nausori","region":"Central Division"}},"labels":["soccer","sport"],"duration":0,"start_local":"2024-09-29T13:00:00","end":"2024-09-29T01:00:00Z","end_local":"2024-09-29T13:00:00","updated":"2024-06-11T00:56:04Z"},{"title":"DJ Noiz, Kennyon Brown, Bina Butta, and 4 others","description":"Sourced from predicthq.com","category":"concerts","start":"2024-09-28T04:00:00Z","geo":{"geometry":{"coordinates":[177.4282639,-17.7645408],"type":"Point"},"placekey":"@jbw-bf9-ht9","address":{"country_code":"FJ","formatted_address":"19 Wasawasa Rd, Wailoaloa Beach, Nadi, Fiji","locality":"Nadi","region":"Western Division"}},"labels":["concert","music"],"duration":0,"start_local":"2024-09-28T16:00:00","end":"2024-09-28T04:00:00Z","end_local":"2024-09-28T16:00:00","updated":"2024-06-11T06:36:46Z"},{"title":"National Football League - Labasa vs Navua","description":"Sourced from predicthq.com","category":"sports","start":"2024-09-28T01:30:00Z","geo":{"geometry":{"coordinates":[179.37432646751404,-16.42734327299996],"type":"Point"},"placekey":"@jbr-jct-x89","address":{"country_code":"FJ","formatted_address":"Park Street, Labasa, Vanua Levu, Fiji","locality":"Labasa, Vanua Levu"}},"labels":["soccer","sport"],"duration":0,"start_local":"2024-09-28T13:30:00","end":"2024-09-28T01:30:00Z","end_local":"2024-09-28T13:30:00","updated":"2024-06-11T00:00:26Z"},{"title":"INSPIRE Fiji 2024","description":"Sourced from predicthq.com - No matter your nationality, your age or  financial status...\nthere is a place for you in the INSPIRE Global Sisterhood. Join us!","category":"conferences","start":"2024-09-25T21:00:00Z","geo":{"geometry":{"coordinates":[177.415702,-17.7703552],"type":"Point"},"placekey":"@jbw-bfk-975","address":{"country_code":"FJ","formatted_address":"Nadi, Fiji","locality":"Nadi"}},"labels":["conference","religion"],"duration":198000,"start_local":"2024-09-26T09:00:00","end":"2024-09-28T04:00:00Z","end_local":"2024-09-28T16:00:00","updated":"2024-06-04T05:49:13Z"},{"title":"National Football League - Ba vs Labasa","description":"Sourced from predicthq.com","category":"sports","start":"2024-09-22T03:00:00Z","geo":{"geometry":{"coordinates":[177.66975581645966,-17.53673390867451],"type":"Point"},"placekey":"@jbk-s6n-y35","address":{"country_code":"FJ","formatted_address":"FM7C+93J, Ba, Fiji","locality":"Ba","region":"Western Division"}},"labels":["soccer","sport"],"duration":0,"start_local":"2024-09-22T15:00:00","end":"2024-09-22T03:00:00Z","end_local":"2024-09-22T15:00:00","updated":"2024-06-11T04:30:52Z"},{"title":"National Football League - Lautoka vs Suva","description":"Sourced from predicthq.com","category":"sports","start":"2024-09-22T03:00:00Z","geo":{"geometry":{"coordinates":[177.4526564,-17.6070433],"type":"Point"},"placekey":"@jbk-stv-t35","address":{"country_code":"FJ","formatted_address":"Churchill Park, Yawini St, Lautoka, Fiji","locality":"Lautoka","region":"Western Division"}},"labels":["soccer","sport"],"duration":0,"start_local":"2024-09-22T15:00:00","end":"2024-09-22T03:00:00Z","end_local":"2024-09-22T15:00:00","updated":"2024-06-11T02:54:20Z"},{"title":"National Football League - Nadroga vs Tailevu Naitasiri","description":"Sourced from predicthq.com","category":"sports","start":"2024-09-22T03:00:00Z","geo":{"geometry":{"coordinates":[177.5020125,-18.1422372],"type":"Point"},"placekey":"@jbw-g6b-wkz","address":{"country_code":"FJ","formatted_address":"VG52+4R2 Lawaqa Park, Sigatoka, Fiji","locality":"Sigatoka","region":"Western Division"}},"labels":["soccer","sport"],"duration":0,"start_local":"2024-09-22T15:00:00","end":"2024-09-22T03:00:00Z","end_local":"2024-09-22T15:00:00","updated":"2024-06-11T05:19:57Z"},{"title":"National Football League - Navua vs Nasinu","description":"Sourced from predicthq.com","category":"sports","start":"2024-09-22T03:00:00Z","geo":{"geometry":{"coordinates":[178.0830209606163,-18.24803270074323],"type":"Point"},"placekey":"@jbw-3nr-zxq","address":{"country_code":"FJ","formatted_address":"Lot 1 Beach Rd, Pacific Harbour, Fiji","locality":"Pacific Harbour","region":"Central Division"}},"labels":["soccer","sport"],"duration":0,"start_local":"2024-09-22T15:00:00","end":"2024-09-22T03:00:00Z","end_local":"2024-09-22T15:00:00","updated":"2024-06-11T08:48:46Z"},{"title":"National Football League - Nadi vs Rewa","description":"Sourced from predicthq.com","category":"sports","start":"2024-09-22T03:00:00Z","geo":{"geometry":{"coordinates":[177.4201492,-17.8022888],"type":"Point"},"placekey":"@jbw-b59-r6k","address":{"country_code":"FJ","formatted_address":"Nadi, BA, Fiji","locality":"Nadi","region":"BA"}},"labels":["soccer","sport"],"duration":0,"start_local":"2024-09-22T15:00:00","end":"2024-09-22T03:00:00Z","end_local":"2024-09-22T15:00:00","updated":"2024-06-11T01:29:32Z"},{"title":"National Football League - Suva vs Nadroga","description":"Sourced from predicthq.com","category":"sports","start":"2024-09-15T03:00:00Z","geo":{"geometry":{"coordinates":[178.4491705,-18.1496236],"type":"Point"},"placekey":"@jbg-qxk-bkz","address":{"country_code":"FJ","formatted_address":"220 Laucala Bay Rd, Suva, Fiji","locality":"Suva","region":"Central Division"}},"labels":["soccer","sport"],"duration":0,"start_local":"2024-09-15T15:00:00","end":"2024-09-15T03:00:00Z","end_local":"2024-09-15T15:00:00","updated":"2024-06-10T23:59:53Z"},{"title":"National Football League - Ba vs Nadi","description":"Sourced from predicthq.com","category":"sports","start":"2024-09-15T03:00:00Z","geo":{"geometry":{"coordinates":[177.66975581645966,-17.53673390867451],"type":"Point"},"placekey":"@jbk-s6n-y35","address":{"country_code":"FJ","formatted_address":"FM7C+93J, Ba, Fiji","locality":"Ba","region":"Western Division"}},"labels":["soccer","sport"],"duration":0,"start_local":"2024-09-15T15:00:00","end":"2024-09-15T03:00:00Z","end_local":"2024-09-15T15:00:00","updated":"2024-06-11T04:24:42Z"},{"title":"National Football League - Rewa vs Lautoka","description":"Sourced from predicthq.com","category":"sports","start":"2024-09-15T03:00:00Z","geo":{"geometry":{"coordinates":[178.5353967,-18.0311807],"type":"Point"},"placekey":"@jbg-qgb-qcq","address":{"country_code":"FJ","formatted_address":"XG9P+G5C Ratu Cakobau Park, Nausori, Fiji","locality":"Nausori","region":"Central Division"}},"labels":["soccer","sport"],"duration":0,"start_local":"2024-09-15T15:00:00","end":"2024-09-15T03:00:00Z","end_local":"2024-09-15T15:00:00","updated":"2024-06-11T05:43:30Z"},{"title":"National Football League - Tailevu Naitasiri vs Navua","description":"Sourced from predicthq.com","category":"sports","start":"2024-09-15T01:00:00Z","geo":{"geometry":{"coordinates":[178.5353967,-18.0311807],"type":"Point"},"placekey":"@jbg-qgb-qcq","address":{"country_code":"FJ","formatted_address":"XG9P+G5C Ratu Cakobau Park, Nausori, Fiji","locality":"Nausori","region":"Central Division"}},"labels":["soccer","sport"],"duration":0,"start_local":"2024-09-15T13:00:00","end":"2024-09-15T01:00:00Z","end_local":"2024-09-15T13:00:00","updated":"2024-06-11T09:22:11Z"},{"title":"National Football League - Labasa vs Nasinu","description":"Sourced from predicthq.com","category":"sports","start":"2024-09-14T01:30:00Z","geo":{"geometry":{"coordinates":[179.37432646751404,-16.42734327299996],"type":"Point"},"placekey":"@jbr-jct-x89","address":{"country_code":"FJ","formatted_address":"Park Street, Labasa, Vanua Levu, Fiji","locality":"Labasa, Vanua Levu"}},"labels":["soccer","sport"],"duration":0,"start_local":"2024-09-14T13:30:00","end":"2024-09-14T01:30:00Z","end_local":"2024-09-14T13:30:00","updated":"2024-06-11T10:04:32Z"},{"title":"Jersey Flegg Cup - Silktails U21 vs Wests Tigers U21","description":"Sourced from predicthq.com","category":"sports","start":"2024-08-31T01:00:00Z","geo":{"geometry":{"coordinates":[177.4526564,-17.6070433],"type":"Point"},"placekey":"@jbk-stv-t35","address":{"country_code":"FJ","formatted_address":"Churchill Park, Yawini St, Lautoka, Fiji","locality":"Lautoka","region":"Western Division"}},"labels":["rugby","sport"],"duration":0,"start_local":"2024-08-31T13:00:00","end":"2024-08-31T01:00:00Z","end_local":"2024-08-31T13:00:00","updated":"2024-06-11T07:03:31Z"},{"title":"National Football League - Nadroga vs Rewa","description":"Sourced from predicthq.com","category":"sports","start":"2024-08-25T03:00:00Z","geo":{"geometry":{"coordinates":[177.5020125,-18.1422372],"type":"Point"},"placekey":"@jbw-g6b-wkz","address":{"country_code":"FJ","formatted_address":"VG52+4R2 Lawaqa Park, Sigatoka, Fiji","locality":"Sigatoka","region":"Western Division"}},"labels":["soccer","sport"],"duration":0,"start_local":"2024-08-25T15:00:00","end":"2024-08-25T03:00:00Z","end_local":"2024-08-25T15:00:00","updated":"2024-06-11T04:13:08Z"},{"title":"National Football League - Lautoka vs Ba","description":"Sourced from predicthq.com","category":"sports","start":"2024-08-25T03:00:00Z","geo":{"geometry":{"coordinates":[177.4526564,-17.6070433],"type":"Point"},"placekey":"@jbk-stv-t35","address":{"country_code":"FJ","formatted_address":"Churchill Park, Yawini St, Lautoka, Fiji","locality":"Lautoka","region":"Western Division"}},"labels":["soccer","sport"],"duration":0,"start_local":"2024-08-25T15:00:00","end":"2024-08-25T03:00:00Z","end_local":"2024-08-25T15:00:00","updated":"2024-06-11T05:53:18Z"},{"title":"National Football League - Navua vs Suva","description":"Sourced from predicthq.com","category":"sports","start":"2024-08-25T03:00:00Z","geo":{"geometry":{"coordinates":[178.0830209606163,-18.24803270074323],"type":"Point"},"placekey":"@jbw-3nr-zxq","address":{"country_code":"FJ","formatted_address":"Lot 1 Beach Rd, Pacific Harbour, Fiji","locality":"Pacific Harbour","region":"Central Division"}},"labels":["soccer","sport"],"duration":0,"start_local":"2024-08-25T15:00:00","end":"2024-08-25T03:00:00Z","end_local":"2024-08-25T15:00:00","updated":"2024-06-11T00:17:27Z"},{"title":"National Football League - Nadi vs Labasa","description":"Sourced from predicthq.com","category":"sports","start":"2024-08-25T03:00:00Z","geo":{"geometry":{"coordinates":[177.4201492,-17.8022888],"type":"Point"},"placekey":"@jbw-b59-r6k","address":{"country_code":"FJ","formatted_address":"Nadi, BA, Fiji","locality":"Nadi","region":"BA"}},"labels":["soccer","sport"],"duration":0,"start_local":"2024-08-25T15:00:00","end":"2024-08-25T03:00:00Z","end_local":"2024-08-25T15:00:00","updated":"2024-06-11T00:06:39Z"},{"title":"National Football League - Nasinu vs Tailevu Naitasiri","description":"Sourced from predicthq.com","category":"sports","start":"2024-08-25T03:00:00Z","geo":{"geometry":{"coordinates":[178.4491705,-18.1496236],"type":"Point"},"placekey":"@jbg-qxk-bkz","address":{"country_code":"FJ","formatted_address":"220 Laucala Bay Rd, Suva, Fiji","locality":"Suva","region":"Central Division"}},"labels":["soccer","sport"],"duration":0,"start_local":"2024-08-25T15:00:00","end":"2024-08-25T03:00:00Z","end_local":"2024-08-25T15:00:00","updated":"2024-06-11T04:48:27Z"},{"title":"National Football League - Nadi vs Lautoka","description":"Sourced from predicthq.com","category":"sports","start":"2024-08-18T03:00:00Z","geo":{"geometry":{"coordinates":[177.4201492,-17.8022888],"type":"Point"},"placekey":"@jbw-b59-r6k","address":{"country_code":"FJ","formatted_address":"Nadi, BA, Fiji","locality":"Nadi","region":"BA"}},"labels":["soccer","sport"],"duration":0,"start_local":"2024-08-18T15:00:00","end":"2024-08-18T03:00:00Z","end_local":"2024-08-18T15:00:00","updated":"2024-06-11T01:03:29Z"},{"title":"National Football League - Ba vs Nadroga","description":"Sourced from predicthq.com","category":"sports","start":"2024-08-18T03:00:00Z","geo":{"geometry":{"coordinates":[177.66975581645966,-17.53673390867451],"type":"Point"},"placekey":"@jbk-s6n-y35","address":{"country_code":"FJ","formatted_address":"FM7C+93J, Ba, Fiji","locality":"Ba","region":"Western Division"}},"labels":["soccer","sport"],"duration":0,"start_local":"2024-08-18T15:00:00","end":"2024-08-18T03:00:00Z","end_local":"2024-08-18T15:00:00","updated":"2024-06-10T23:57:29Z"},{"title":"National Football League - Rewa vs Navua","description":"Sourced from predicthq.com","category":"sports","start":"2024-08-18T03:00:00Z","geo":{"geometry":{"coordinates":[178.5353967,-18.0311807],"type":"Point"},"placekey":"@jbg-qgb-qcq","address":{"country_code":"FJ","formatted_address":"XG9P+G5C Ratu Cakobau Park, Nausori, Fiji","locality":"Nausori","region":"Central Division"}},"labels":["soccer","sport"],"duration":0,"start_local":"2024-08-18T15:00:00","end":"2024-08-18T03:00:00Z","end_local":"2024-08-18T15:00:00","updated":"2024-06-11T04:27:32Z"},{"title":"National Football League - Suva vs Nasinu","description":"Sourced from predicthq.com","category":"sports","start":"2024-08-18T03:00:00Z","geo":{"geometry":{"coordinates":[178.4491705,-18.1496236],"type":"Point"},"placekey":"@jbg-qxk-bkz","address":{"country_code":"FJ","formatted_address":"220 Laucala Bay Rd, Suva, Fiji","locality":"Suva","region":"Central Division"}},"labels":["soccer","sport"],"duration":0,"start_local":"2024-08-18T15:00:00","end":"2024-08-18T03:00:00Z","end_local":"2024-08-18T15:00:00","updated":"2024-06-11T00:16:30Z"},{"title":"National Football League - Labasa vs Tailevu Naitasiri","description":"Sourced from predicthq.com","category":"sports","start":"2024-08-17T01:30:00Z","geo":{"geometry":{"coordinates":[179.37432646751404,-16.42734327299996],"type":"Point"},"placekey":"@jbr-jct-x89","address":{"country_code":"FJ","formatted_address":"Park Street, Labasa, Vanua Levu, Fiji","locality":"Labasa, Vanua Levu"}},"labels":["soccer","sport"],"duration":0,"start_local":"2024-08-17T13:30:00","end":"2024-08-17T01:30:00Z","end_local":"2024-08-17T13:30:00","updated":"2024-06-11T06:43:38Z"},{"title":"Hand surgeons conference","description":"Sourced from predicthq.com","category":"conferences","start":"2024-08-13T21:00:00Z","geo":{"geometry":{"coordinates":[177.422974,-18.142202],"type":"Point"},"placekey":"@jbw-g5f-2tv","address":{"country_code":"FJ","formatted_address":"Voua, Western Division, Fiji","locality":"Voua","region":"Western Division"}},"labels":["conference"],"duration":205200,"start_local":"2024-08-14T09:00:00","end":"2024-08-16T06:00:00Z","end_local":"2024-08-16T18:00:00","updated":"2024-05-21T21:06:24Z"},{"title":"National Football League - Lautoka vs Labasa","description":"Sourced from predicthq.com","category":"sports","start":"2024-08-11T03:00:00Z","geo":{"geometry":{"coordinates":[177.4526564,-17.6070433],"type":"Point"},"placekey":"@jbk-stv-t35","address":{"country_code":"FJ","formatted_address":"Churchill Park, Yawini St, Lautoka, Fiji","locality":"Lautoka","region":"Western Division"}},"labels":["soccer","sport"],"duration":0,"start_local":"2024-08-11T15:00:00","end":"2024-08-11T03:00:00Z","end_local":"2024-08-11T15:00:00","updated":"2024-06-11T02:51:29Z"},{"title":"National Football League - Suva vs Tailevu Naitasiri","description":"Sourced from predicthq.com","category":"sports","start":"2024-08-11T03:00:00Z","geo":{"geometry":{"coordinates":[178.4491705,-18.1496236],"type":"Point"},"placekey":"@jbg-qxk-bkz","address":{"country_code":"FJ","formatted_address":"220 Laucala Bay Rd, Suva, Fiji","locality":"Suva","region":"Central Division"}},"labels":["soccer","sport"],"duration":0,"start_local":"2024-08-11T15:00:00","end":"2024-08-11T03:00:00Z","end_local":"2024-08-11T15:00:00","updated":"2024-06-11T05:02:10Z"},{"title":"National Football League - Nadroga vs Nadi","description":"Sourced from predicthq.com","category":"sports","start":"2024-08-11T03:00:00Z","geo":{"geometry":{"coordinates":[177.5020125,-18.1422372],"type":"Point"},"placekey":"@jbw-g6b-wkz","address":{"country_code":"FJ","formatted_address":"VG52+4R2 Lawaqa Park, Sigatoka, Fiji","locality":"Sigatoka","region":"Western Division"}},"labels":["soccer","sport"],"duration":0,"start_local":"2024-08-11T15:00:00","end":"2024-08-11T03:00:00Z","end_local":"2024-08-11T15:00:00","updated":"2024-06-11T05:23:52Z"},{"title":"National Football League - Navua vs Ba","description":"Sourced from predicthq.com","category":"sports","start":"2024-08-11T03:00:00Z","geo":{"geometry":{"coordinates":[178.0830209606163,-18.24803270074323],"type":"Point"},"placekey":"@jbw-3nr-zxq","address":{"country_code":"FJ","formatted_address":"Lot 1 Beach Rd, Pacific Harbour, Fiji","locality":"Pacific Harbour","region":"Central Division"}},"labels":["soccer","sport"],"duration":0,"start_local":"2024-08-11T15:00:00","end":"2024-08-11T03:00:00Z","end_local":"2024-08-11T15:00:00","updated":"2024-06-10T23:58:09Z"},{"title":"National Football League - Nasinu vs Rewa","description":"Sourced from predicthq.com","category":"sports","start":"2024-08-11T01:00:00Z","geo":{"geometry":{"coordinates":[178.4491705,-18.1496236],"type":"Point"},"placekey":"@jbg-qxk-bkz","address":{"country_code":"FJ","formatted_address":"220 Laucala Bay Rd, Suva, Fiji","locality":"Suva","region":"Central Division"}},"labels":["soccer","sport"],"duration":0,"start_local":"2024-08-11T13:00:00","end":"2024-08-11T01:00:00Z","end_local":"2024-08-11T13:00:00","updated":"2024-06-11T04:48:05Z"},{"title":"Jersey Flegg Cup - Silktails U21 vs Sea Eagles U21","description":"Sourced from predicthq.com","category":"sports","start":"2024-08-03T01:00:00Z","geo":{"geometry":{"coordinates":[177.4526564,-17.6070433],"type":"Point"},"placekey":"@jbk-stv-t35","address":{"country_code":"FJ","formatted_address":"Churchill Park, Yawini St, Lautoka, Fiji","locality":"Lautoka","region":"Western Division"}},"labels":["rugby","sport"],"duration":0,"start_local":"2024-08-03T13:00:00","end":"2024-08-03T01:00:00Z","end_local":"2024-08-03T13:00:00","updated":"2024-06-11T05:32:46Z"},{"title":"National Football League - Nadi vs Navua","description":"Sourced from predicthq.com","category":"sports","start":"2024-07-14T03:00:00Z","geo":{"geometry":{"coordinates":[177.4201492,-17.8022888],"type":"Point"},"placekey":"@jbw-b59-r6k","address":{"country_code":"FJ","formatted_address":"Nadi, BA, Fiji","locality":"Nadi","region":"BA"}},"labels":["soccer","sport"],"duration":0,"start_local":"2024-07-14T15:00:00","end":"2024-07-14T03:00:00Z","end_local":"2024-07-14T15:00:00","updated":"2024-06-19T23:37:57Z"},{"title":"National Football League - Lautoka vs Nadroga","description":"Sourced from predicthq.com","category":"sports","start":"2024-07-14T03:00:00Z","geo":{"geometry":{"coordinates":[177.4526564,-17.6070433],"type":"Point"},"placekey":"@jbk-stv-t35","address":{"country_code":"FJ","formatted_address":"Churchill Park, Yawini St, Lautoka, Fiji","locality":"Lautoka","region":"Western Division"}},"labels":["soccer","sport"],"duration":0,"start_local":"2024-07-14T15:00:00","end":"2024-07-14T03:00:00Z","end_local":"2024-07-14T15:00:00","updated":"2024-06-19T18:10:53Z"},{"title":"National Football League - Ba vs Nasinu","description":"Sourced from predicthq.com","category":"sports","start":"2024-07-14T03:00:00Z","geo":{"geometry":{"coordinates":[177.66975581645966,-17.53673390867451],"type":"Point"},"placekey":"@jbk-s6n-y35","address":{"country_code":"FJ","formatted_address":"FM7C+93J, Ba, Fiji","locality":"Ba","region":"Western Division"}},"labels":["soccer","sport"],"duration":0,"start_local":"2024-07-14T15:00:00","end":"2024-07-14T03:00:00Z","end_local":"2024-07-14T15:00:00","updated":"2024-06-19T20:26:38Z"},{"title":"National Football League - Rewa vs Tailevu Naitasiri","description":"Sourced from predicthq.com","category":"sports","start":"2024-07-14T03:00:00Z","geo":{"geometry":{"coordinates":[178.5353967,-18.0311807],"type":"Point"},"placekey":"@jbg-qgb-qcq","address":{"country_code":"FJ","formatted_address":"XG9P+G5C Ratu Cakobau Park, Nausori, Fiji","locality":"Nausori","region":"Central Division"}},"labels":["soccer","sport"],"duration":0,"start_local":"2024-07-14T15:00:00","end":"2024-07-14T03:00:00Z","end_local":"2024-07-14T15:00:00","updated":"2024-06-19T18:52:24Z"},{"title":"National Football League - Labasa vs Suva","description":"Sourced from predicthq.com","category":"sports","start":"2024-07-13T01:30:00Z","geo":{"geometry":{"coordinates":[179.37432646751404,-16.42734327299996],"type":"Point"},"placekey":"@jbr-jct-x89","address":{"country_code":"FJ","formatted_address":"Park Street, Labasa, Vanua Levu, Fiji","locality":"Labasa, Vanua Levu"}},"labels":["soccer","sport"],"duration":0,"start_local":"2024-07-13T13:30:00","end":"2024-07-13T01:30:00Z","end_local":"2024-07-13T13:30:00","updated":"2024-06-19T17:35:58Z"},{"title":"Jersey Flegg Cup - Silktails U21 vs Dragons U21","description":"Sourced from predicthq.com","category":"sports","start":"2024-07-13T00:00:00Z","geo":{"geometry":{"coordinates":[177.4526564,-17.6070433],"type":"Point"},"placekey":"@jbk-stv-t35","address":{"country_code":"FJ","formatted_address":"Churchill Park, Yawini St, Lautoka, Fiji","locality":"Lautoka","region":"Western Division"}},"labels":["rugby","sport"],"duration":0,"start_local":"2024-07-13T12:00:00","end":"2024-07-13T00:00:00Z","end_local":"2024-07-13T12:00:00","updated":"2024-06-25T23:27:05Z"},{"title":"CT - Acute Medical & Surgical Interpretation Essentials","description":"Sourced from predicthq.com","category":"expos","start":"2024-07-07T12:00:00Z","geo":{"geometry":{"coordinates":[177.37756,-17.768351],"type":"Point"},"placekey":"@jbw-b5n-2c5","address":{"country_code":"FJ","formatted_address":"Denarau Island, Western Division, Fiji","locality":"Denarau Island","region":"Western Division"}},"labels":["expo"],"duration":345599,"start_local":"2024-07-08T00:00:00","end":"2024-07-11T11:59:59Z","end_local":"2024-07-11T23:59:59","updated":"2024-06-01T10:41:23Z"},{"title":"National Football League - Nasinu vs Nadi","description":"Sourced from predicthq.com","category":"sports","start":"2024-07-07T03:00:00Z","geo":{"geometry":{"coordinates":[178.456309021,-18.130805958],"type":"Point"},"placekey":"@jbg-qvw-rp9","address":{"country_code":"FJ","formatted_address":"VFC4+3JF, Taramati St, Suva, Fiji","locality":"Suva","region":"Central Division"}},"labels":["soccer","sport"],"duration":0,"start_local":"2024-07-07T15:00:00","end":"2024-07-07T03:00:00Z","end_local":"2024-07-07T15:00:00","updated":"2024-07-01T03:58:44Z"},{"title":"National Football League - Navua vs Lautoka","description":"Sourced from predicthq.com","category":"sports","start":"2024-07-07T03:00:00Z","geo":{"geometry":{"coordinates":[178.0830209606163,-18.24803270074323],"type":"Point"},"placekey":"@jbw-3nr-zxq","address":{"country_code":"FJ","formatted_address":"Lot 1 Beach Rd, Pacific Harbour, Fiji","locality":"Pacific Harbour","region":"Central Division"}},"labels":["soccer","sport"],"duration":0,"start_local":"2024-07-07T15:00:00","end":"2024-07-07T03:00:00Z","end_local":"2024-07-07T15:00:00","updated":"2024-06-11T07:30:28Z"},{"title":"National Football League - Rewa vs Suva","description":"Sourced from predicthq.com","category":"sports","start":"2024-07-07T03:00:00Z","geo":{"geometry":{"coordinates":[178.5353967,-18.0311807],"type":"Point"},"placekey":"@jbg-qgb-qcq","address":{"country_code":"FJ","formatted_address":"XG9P+G5C Ratu Cakobau Park, Nausori, Fiji","locality":"Nausori","region":"Central Division"}},"labels":["soccer","sport"],"duration":0,"start_local":"2024-07-07T15:00:00","end":"2024-07-07T03:00:00Z","end_local":"2024-07-07T15:00:00","updated":"2024-07-01T04:09:03Z"},{"title":"National Football League - Tailevu Naitasiri vs Ba","description":"Sourced from predicthq.com","category":"sports","start":"2024-07-07T01:00:00Z","geo":{"geometry":{"coordinates":[178.456309021,-18.130805958],"type":"Point"},"placekey":"@jbg-qvw-rp9","address":{"country_code":"FJ","formatted_address":"VFC4+3JF, Taramati St, Suva, Fiji","locality":"Suva","region":"Central Division"}},"labels":["soccer","sport"],"duration":0,"start_local":"2024-07-07T13:00:00","end":"2024-07-07T01:00:00Z","end_local":"2024-07-07T13:00:00","updated":"2024-07-01T04:03:34Z"},{"title":"National Football League - Labasa vs Nadroga","description":"Sourced from predicthq.com","category":"sports","start":"2024-07-06T01:30:00Z","geo":{"geometry":{"coordinates":[179.37432646751404,-16.42734327299996],"type":"Point"},"placekey":"@jbr-jct-x89","address":{"country_code":"FJ","formatted_address":"Park Street, Labasa, Vanua Levu, Fiji","locality":"Labasa, Vanua Levu"}},"labels":["soccer","sport"],"duration":0,"start_local":"2024-07-06T13:30:00","end":"2024-07-06T01:30:00Z","end_local":"2024-07-06T13:30:00","updated":"2024-06-19T23:37:22Z"},{"title":"Fiji Untold Show 2024","description":"Sourced from predicthq.com - This is the story of \"Lagi the Brave\" as she journeys to the realm of mystical giant women, an octopus GOD, and a shape shifting iguana.","category":"performing-arts","start":"2024-07-04T06:30:00Z","geo":{"geometry":{"coordinates":[177.388302,-17.7963252],"type":"Point"},"placekey":"@jbw-b5y-8sq","address":{"country_code":"FJ","formatted_address":"Sikituru Village, Western Division, Fiji","locality":"Sikituru Village","region":"Western Division"}},"labels":["concert","music","performing-arts"],"duration":10800,"start_local":"2024-07-04T18:30:00","end":"2024-07-04T09:30:00Z","end_local":"2024-07-04T21:30:00","updated":"2024-07-04T08:48:22Z"},{"title":"Island Adventurers Kids Show 2024","description":"Sourced from predicthq.com - Join the Island Adventurers on a mission over rivers, through the forest, and even into mysterious caves!","category":"performing-arts","start":"2024-07-04T03:00:00Z","geo":{"geometry":{"coordinates":[177.388302,-17.7963252],"type":"Point"},"placekey":"@jbw-b5y-8sq","address":{"country_code":"FJ","formatted_address":"Sikituru Village, Western Division, Fiji","locality":"Sikituru Village","region":"Western Division"}},"labels":["concert","music","performing-arts"],"duration":5400,"start_local":"2024-07-04T15:00:00","end":"2024-07-04T04:30:00Z","end_local":"2024-07-04T16:30:00","updated":"2024-07-04T05:10:07Z"},{"title":"Pacific International Media Conference","description":"Sourced from predicthq.com","category":"conferences","start":"2024-07-03T21:00:00Z","geo":{"geometry":{"coordinates":[178.447397,-18.148913],"type":"Point"},"placekey":"@jbg-qxk-6kz","address":{"country_code":"FJ","formatted_address":"Laucala Campus, Suva, Fiji","locality":"Suva","region":"Central Division"}},"labels":["conference"],"duration":205200,"start_local":"2024-07-04T09:00:00","end":"2024-07-06T06:00:00Z","end_local":"2024-07-06T18:00:00","updated":"2024-06-16T01:47:53Z"},{"title":"10,000 Toes at the Nadi Job Fair","description":"Sourced from predicthq.com - Come join us at the Nadi Job Fair for 10,000 Toes - a fun-filled event celebrating our community's hardworking individuals!","category":"expos","start":"2024-07-03T21:00:00Z","geo":{"geometry":{"coordinates":[177.4168373,-17.8051305],"type":"Point"},"placekey":"@jbw-b5b-ghq","address":{"country_code":"FJ","formatted_address":"Nadi, Western Division, Fiji","locality":"Nadi","region":"Western Division"}},"labels":["career","education","expo"],"duration":25200,"start_local":"2024-07-04T09:00:00","end":"2024-07-04T04:00:00Z","end_local":"2024-07-04T16:00:00","updated":"2024-06-27T08:18:07Z"},{"title":"IDMC Conference Ba, Fiji 2024: Redefining Success","description":"Sourced from predicthq.com - True discipleship challenges us to radically redefine success in ministry – not by “how many”, but rather, by “what kind”.","category":"conferences","start":"2024-06-28T21:00:00Z","geo":{"geometry":{"coordinates":[177.6946049,-17.5391287],"type":"Point"},"placekey":"@jbk-swj-4sq","address":{"country_code":"FJ","formatted_address":"Ba, Western Division, Fiji","locality":"Ba","region":"Western Division"}},"labels":["conference","religion"],"duration":25200,"start_local":"2024-06-29T09:00:00","end":"2024-06-29T04:00:00Z","end_local":"2024-06-29T16:00:00","updated":"2024-06-04T05:19:52Z"},{"title":"Fiji Untold Show 2024","description":"Sourced from predicthq.com - This is the story of \"Lagi the Brave\" as she journeys to the realm of mystical giant women, an octopus GOD, and a shape shifting iguana.","category":"performing-arts","start":"2024-06-27T06:30:00Z","geo":{"geometry":{"coordinates":[177.388302,-17.7963252],"type":"Point"},"placekey":"@jbw-b5y-8sq","address":{"country_code":"FJ","formatted_address":"Sikituru Village, Western Division, Fiji","locality":"Sikituru Village","region":"Western Division"}},"labels":["concert","music","performing-arts"],"duration":10800,"start_local":"2024-06-27T18:30:00","end":"2024-06-27T09:30:00Z","end_local":"2024-06-27T21:30:00","updated":"2024-06-27T12:37:28Z"},{"title":"Island Adventurers Kids Show 2024","description":"Sourced from predicthq.com - Join the Island Adventurers on a mission over rivers, through the forest, and even into mysterious caves!","category":"performing-arts","start":"2024-06-27T03:00:00Z","geo":{"geometry":{"coordinates":[177.388302,-17.7963252],"type":"Point"},"placekey":"@jbw-b5y-8sq","address":{"country_code":"FJ","formatted_address":"Sikituru Village, Western Division, Fiji","locality":"Sikituru Village","region":"Western Division"}},"labels":["concert","music","performing-arts"],"duration":5400,"start_local":"2024-06-27T15:00:00","end":"2024-06-27T04:30:00Z","end_local":"2024-06-27T16:30:00","updated":"2024-06-27T09:11:29Z"},{"title":"Church Growth - Inside and Out","description":"Sourced from predicthq.com - Explore keys to church growth, discover leadership roles in ministry, and navigate challenges in our empowering sessions.","category":"conferences","start":"2024-06-24T20:00:00Z","geo":{"geometry":{"coordinates":[177.423437,-17.80318],"type":"Point"},"placekey":"@jbw-b59-gzf","address":{"country_code":"FJ","formatted_address":"Kavula Street, Nadi, Fiji","locality":"Nadi","region":"Western Division"}},"labels":["conference","religion"],"duration":221400,"start_local":"2024-06-25T08:00:00","end":"2024-06-27T09:30:00Z","end_local":"2024-06-27T21:30:00","updated":"2024-05-25T20:06:03Z"},{"title":"Island Adventurers Kids Show 2024","description":"Sourced from predicthq.com - Join the Island Adventurers on a mission over rivers, through the forest, and even into mysterious caves!","category":"performing-arts","start":"2024-06-23T03:00:00Z","geo":{"geometry":{"coordinates":[177.388302,-17.7963252],"type":"Point"},"placekey":"@jbw-b5y-8sq","address":{"country_code":"FJ","formatted_address":"Sikituru Village, Western Division, Fiji","locality":"Sikituru Village","region":"Western Division"}},"labels":["concert","music","performing-arts"],"duration":5400,"start_local":"2024-06-23T15:00:00","end":"2024-06-23T04:30:00Z","end_local":"2024-06-23T16:30:00","updated":"2024-06-21T15:00:37Z"},{"title":"Jersey Flegg Cup - Silktails U21 vs Storm U21","description":"Sourced from predicthq.com","category":"sports","start":"2024-06-21T23:00:00Z","geo":{"geometry":{"coordinates":[177.4201492,-17.8022888],"type":"Point"},"placekey":"@jbw-b59-r6k","address":{"country_code":"FJ","formatted_address":"Nadi, BA, Fiji","locality":"Nadi","region":"BA"}},"labels":["rugby","sport"],"duration":0,"start_local":"2024-06-22T11:00:00","end":"2024-06-21T23:00:00Z","end_local":"2024-06-22T11:00:00","updated":"2024-06-11T02:19:45Z"},{"title":"Fiji Untold Show 2024","description":"Sourced from predicthq.com - This is the story of \"Lagi the Brave\" as she journeys to the realm of mystical giant women, an octopus GOD, and a shape shifting iguana.","category":"performing-arts","start":"2024-06-20T06:30:00Z","geo":{"geometry":{"coordinates":[177.388302,-17.7963252],"type":"Point"},"placekey":"@jbw-b5y-8sq","address":{"country_code":"FJ","formatted_address":"Sikituru Village, Western Division, Fiji","locality":"Sikituru Village","region":"Western Division"}},"labels":["concert","music","performing-arts"],"duration":10800,"start_local":"2024-06-20T18:30:00","end":"2024-06-20T09:30:00Z","end_local":"2024-06-20T21:30:00","updated":"2024-06-20T09:37:58Z"},{"title":"Rugby Union Women's Internationals - Friendlies 3 - Fiji vs Japan","description":"Sourced from predicthq.com","category":"sports","start":"2024-06-20T06:00:00Z","geo":{"geometry":{"coordinates":[177.4526564,-17.6070433],"type":"Point"},"placekey":"@jbk-stv-t35","address":{"country_code":"FJ","formatted_address":"Churchill Park, Yawini St, Lautoka, Fiji","locality":"Lautoka","region":"Western Division"}},"labels":["rugby","sport"],"duration":0,"start_local":"2024-06-20T18:00:00","end":"2024-06-20T06:00:00Z","end_local":"2024-06-20T18:00:00","updated":"2024-06-11T10:15:19Z"},{"title":"National Football League - Suva vs Ba","description":"Sourced from predicthq.com","category":"sports","start":"2024-06-16T02:00:00Z","geo":{"geometry":{"coordinates":[178.456309021,-18.130805958],"type":"Point"},"placekey":"@jbg-qvw-rp9","address":{"country_code":"FJ","formatted_address":"VFC4+3JF, Taramati St, Suva, Fiji","locality":"Suva","region":"Central Division"}},"labels":["soccer","sport"],"duration":0,"start_local":"2024-06-16T14:00:00","end":"2024-06-16T02:00:00Z","end_local":"2024-06-16T14:00:00","updated":"2024-07-01T02:37:05Z"},{"title":"National Football League - Lautoka vs Nasinu","description":"Sourced from predicthq.com","category":"sports","start":"2024-06-16T01:00:00Z","geo":{"geometry":{"coordinates":[177.4526564,-17.6070433],"type":"Point"},"placekey":"@jbk-stv-t35","address":{"country_code":"FJ","formatted_address":"Churchill Park, Yawini St, Lautoka, Fiji","locality":"Lautoka","region":"Western Division"}},"labels":["soccer","sport"],"duration":0,"start_local":"2024-06-16T13:00:00","end":"2024-06-16T01:00:00Z","end_local":"2024-06-16T13:00:00","updated":"2024-06-12T19:26:49Z"},{"title":"National Football League - Nadroga vs Navua","description":"Sourced from predicthq.com","category":"sports","start":"2024-06-16T01:00:00Z","geo":{"geometry":{"coordinates":[177.5020125,-18.1422372],"type":"Point"},"placekey":"@jbw-g6b-wkz","address":{"country_code":"FJ","formatted_address":"VG52+4R2 Lawaqa Park, Sigatoka, Fiji","locality":"Sigatoka","region":"Western Division"}},"labels":["soccer","sport"],"duration":0,"start_local":"2024-06-16T13:00:00","end":"2024-06-16T01:00:00Z","end_local":"2024-06-16T13:00:00","updated":"2024-06-12T20:08:20Z"},{"title":"National Football League - Tailevu Naitasiri vs Nadi","description":"Sourced from predicthq.com","category":"sports","start":"2024-06-16T00:00:00Z","geo":{"geometry":{"coordinates":[178.456309021,-18.130805958],"type":"Point"},"placekey":"@jbg-qvw-rp9","address":{"country_code":"FJ","formatted_address":"VFC4+3JF, Taramati St, Suva, Fiji","locality":"Suva","region":"Central Division"}},"labels":["soccer","sport"],"duration":0,"start_local":"2024-06-16T12:00:00","end":"2024-06-16T00:00:00Z","end_local":"2024-06-16T12:00:00","updated":"2024-07-01T02:45:21Z"},{"title":"National Football League - Labasa vs Rewa","description":"Sourced from predicthq.com","category":"sports","start":"2024-06-15T01:30:00Z","geo":{"geometry":{"coordinates":[179.37432646751404,-16.42734327299996],"type":"Point"},"placekey":"@jbr-jct-x89","address":{"country_code":"FJ","formatted_address":"Park Street, Labasa, Vanua Levu, Fiji","locality":"Labasa, Vanua Levu"}},"labels":["soccer","sport"],"duration":0,"start_local":"2024-06-15T13:30:00","end":"2024-06-15T01:30:00Z","end_local":"2024-06-15T13:30:00","updated":"2024-06-11T00:48:03Z"},{"title":"Jersey Flegg Cup - Silktails U21 vs Bulldogs U21","description":"Sourced from predicthq.com","category":"sports","start":"2024-06-15T00:00:00Z","geo":{"geometry":{"coordinates":[177.4526564,-17.6070433],"type":"Point"},"placekey":"@jbk-stv-t35","address":{"country_code":"FJ","formatted_address":"Churchill Park, Yawini St, Lautoka, Fiji","locality":"Lautoka","region":"Western Division"}},"labels":["rugby","sport"],"duration":0,"start_local":"2024-06-15T12:00:00","end":"2024-06-15T00:00:00Z","end_local":"2024-06-15T12:00:00","updated":"2024-06-11T06:12:28Z"},{"title":"Rugby Union Women's Internationals - Friendlies 3 - Fiji vs Japan","description":"Sourced from predicthq.com","category":"sports","start":"2024-06-14T06:00:00Z","geo":{"geometry":{"coordinates":[178.4491705,-18.1496236],"type":"Point"},"placekey":"@jbg-qxk-bkz","address":{"country_code":"FJ","formatted_address":"220 Laucala Bay Rd, Suva, Fiji","locality":"Suva","region":"Central Division"}},"labels":["rugby","sport"],"duration":0,"start_local":"2024-06-14T18:00:00","end":"2024-06-14T06:00:00Z","end_local":"2024-06-14T18:00:00","updated":"2024-06-11T05:52:42Z"},{"title":"Fiji Untold Show 2024","description":"Sourced from predicthq.com - This is the story of \"Lagi the Brave\" as she journeys to the realm of mystical giant women, an octopus GOD, and a shape shifting iguana.","category":"performing-arts","start":"2024-06-13T06:30:00Z","geo":{"geometry":{"coordinates":[177.388302,-17.7963252],"type":"Point"},"placekey":"@jbw-b5y-8sq","address":{"country_code":"FJ","formatted_address":"Sikituru Village, Western Division, Fiji","locality":"Sikituru Village","region":"Western Division"}},"labels":["concert","music","performing-arts"],"duration":10800,"start_local":"2024-06-13T18:30:00","end":"2024-06-13T09:30:00Z","end_local":"2024-06-13T21:30:00","updated":"2024-06-13T01:21:57Z"},{"title":"Island Adventurers Kids Show 2024","description":"Sourced from predicthq.com - Join the Island Adventurers on a mission over rivers, through the forest, and even into mysterious caves!","category":"performing-arts","start":"2024-06-13T03:00:00Z","geo":{"geometry":{"coordinates":[177.388302,-17.7963252],"type":"Point"},"placekey":"@jbw-b5y-8sq","address":{"country_code":"FJ","formatted_address":"Sikituru Village, Western Division, Fiji","locality":"Sikituru Village","region":"Western Division"}},"labels":["concert","music","performing-arts"],"duration":5400,"start_local":"2024-06-13T15:00:00","end":"2024-06-13T04:30:00Z","end_local":"2024-06-13T16:30:00","updated":"2024-06-13T15:26:42Z"},{"title":"Jersey Flegg Cup - Silktails U21 vs Warriors U21","description":"Sourced from predicthq.com","category":"sports","start":"2024-06-08T00:00:00Z","geo":{"geometry":{"coordinates":[177.4526564,-17.6070433],"type":"Point"},"placekey":"@jbk-stv-t35","address":{"country_code":"FJ","formatted_address":"Churchill Park, Yawini St, Lautoka, Fiji","locality":"Lautoka","region":"Western Division"}},"labels":["rugby","sport"],"duration":0,"start_local":"2024-06-08T12:00:00","end":"2024-06-08T00:00:00Z","end_local":"2024-06-08T12:00:00","updated":"2024-06-11T22:23:32Z"},{"title":"Fiji Untold Show 2024","description":"Sourced from predicthq.com - This is the story of \"Lagi the Brave\" as she journeys to the realm of mystical giant women, an octopus GOD, and a shape shifting iguana.","category":"performing-arts","start":"2024-06-06T06:30:00Z","geo":{"geometry":{"coordinates":[177.388302,-17.7963252],"type":"Point"},"placekey":"@jbw-b5y-8sq","address":{"country_code":"FJ","formatted_address":"Sikituru Village, Western Division, Fiji","locality":"Sikituru Village","region":"Western Division"}},"labels":["concert","music","performing-arts"],"duration":10800,"start_local":"2024-06-06T18:30:00","end":"2024-06-06T09:30:00Z","end_local":"2024-06-06T21:30:00","updated":"2024-06-06T01:12:54Z"},{"title":"Island Adventurers Kids Show 2024","description":"Sourced from predicthq.com - Join the Island Adventurers on a mission over rivers, through the forest, and even into mysterious caves!","category":"performing-arts","start":"2024-06-06T03:00:00Z","geo":{"geometry":{"coordinates":[177.388302,-17.7963252],"type":"Point"},"placekey":"@jbw-b5y-8sq","address":{"country_code":"FJ","formatted_address":"Sikituru Village, Western Division, Fiji","locality":"Sikituru Village","region":"Western Division"}},"labels":["concert","music","performing-arts"],"duration":5400,"start_local":"2024-06-06T15:00:00","end":"2024-06-06T04:30:00Z","end_local":"2024-06-06T16:30:00","updated":"2024-06-06T01:24:59Z"},{"title":"Super Rugby Pacific - Fijian Drua vs Melbourne Rebels","description":"Sourced from predicthq.com","category":"sports","start":"2024-06-01T02:05:00Z","geo":{"geometry":{"coordinates":[177.4526564,-17.6070433],"type":"Point"},"placekey":"@jbk-stv-t35","address":{"country_code":"FJ","formatted_address":"Churchill Park, Yawini St, Lautoka, Fiji","locality":"Lautoka","region":"Western Division"}},"labels":["rugby","sport"],"duration":0,"start_local":"2024-06-01T14:05:00","end":"2024-06-01T02:05:00Z","end_local":"2024-06-01T14:05:00","updated":"2024-06-11T23:59:48Z"},{"title":"Fiji Untold Show 2024","description":"Sourced from predicthq.com - This is the story of \"Lagi the Brave\" as she journeys to the realm of mystical giant women, an octopus GOD, and a shape shifting iguana.","category":"performing-arts","start":"2024-05-30T06:30:00Z","geo":{"geometry":{"coordinates":[177.388302,-17.7963252],"type":"Point"},"placekey":"@jbw-b5y-8sq","address":{"country_code":"FJ","formatted_address":"Sikituru Village, Western Division, Fiji","locality":"Sikituru Village","region":"Western Division"}},"labels":["concert","music","performing-arts"],"duration":10800,"start_local":"2024-05-30T18:30:00","end":"2024-05-30T09:30:00Z","end_local":"2024-05-30T21:30:00","updated":"2024-05-30T03:10:59Z"},{"title":"Island Adventurers Kids Show 2024","description":"Sourced from predicthq.com - Join the Island Adventurers on a mission over rivers, through the forest, and even into mysterious caves!","category":"performing-arts","start":"2024-05-30T03:00:00Z","geo":{"geometry":{"coordinates":[177.388302,-17.7963252],"type":"Point"},"placekey":"@jbw-b5y-8sq","address":{"country_code":"FJ","formatted_address":"Sikituru Village, Western Division, Fiji","locality":"Sikituru Village","region":"Western Division"}},"labels":["concert","music","performing-arts"],"duration":5400,"start_local":"2024-05-30T15:00:00","end":"2024-05-30T04:30:00Z","end_local":"2024-05-30T16:30:00","updated":"2024-05-30T03:10:54Z"},{"title":"Fiji Untold Show 2024","description":"Sourced from predicthq.com - This is the story of \"Lagi the Brave\" as she journeys to the realm of mystical giant women, an octopus GOD, and a shape shifting iguana.","category":"performing-arts","start":"2024-05-23T06:30:00Z","geo":{"geometry":{"coordinates":[177.388302,-17.7963252],"type":"Point"},"placekey":"@jbw-b5y-8sq","address":{"country_code":"FJ","formatted_address":"Sikituru Village, Western Division, Fiji","locality":"Sikituru Village","region":"Western Division"}},"labels":["concert","music","performing-arts"],"duration":10800,"start_local":"2024-05-23T18:30:00","end":"2024-05-23T09:30:00Z","end_local":"2024-05-23T21:30:00","updated":"2024-05-23T01:47:56Z"},{"title":"Island Adventurers Kids Show 2024","description":"Sourced from predicthq.com - Join the Island Adventurers on a mission over rivers, through the forest, and even into mysterious caves!","category":"performing-arts","start":"2024-05-23T03:00:00Z","geo":{"geometry":{"coordinates":[177.388302,-17.7963252],"type":"Point"},"placekey":"@jbw-b5y-8sq","address":{"country_code":"FJ","formatted_address":"Sikituru Village, Western Division, Fiji","locality":"Sikituru Village","region":"Western Division"}},"labels":["concert","music","performing-arts"],"duration":5400,"start_local":"2024-05-23T15:00:00","end":"2024-05-23T04:30:00Z","end_local":"2024-05-23T16:30:00","updated":"2024-05-23T01:51:47Z"},{"title":"Inaugural Southern Cross Expedition and Wilderness Medicine Meeting (SCEWM)","description":"Sourced from predicthq.com - Please join us in Fiji for the Inaugural Southern Cross Expedition and Wilderness Medicine Meeting.","category":"conferences","start":"2024-05-19T21:00:00Z","geo":{"geometry":{"coordinates":[177.5074315,-18.1416372],"type":"Point"},"placekey":"@jbw-g6c-7qz","address":{"country_code":"FJ","formatted_address":"Sigatoka, Western Division, Fiji","locality":"Sigatoka","region":"Western Division"}},"labels":["business","conference"],"duration":205200,"start_local":"2024-05-20T09:00:00","end":"2024-05-22T06:00:00Z","end_local":"2024-05-22T18:00:00","updated":"2024-06-12T10:21:52Z"},{"title":"Inaugural Southern Cross Expedition and Wilderness Medicine Meeting","description":"Sourced from predicthq.com","category":"conferences","start":"2024-05-19T21:00:00Z","geo":{"geometry":{"coordinates":[177.5528361679,-18.1792695179],"type":"Point"},"placekey":"@jbv-zdn-r49","address":{"country_code":"FJ","formatted_address":"Singatoka, Fiji","locality":"Singatoka"}},"labels":["conference"],"duration":205200,"start_local":"2024-05-20T09:00:00","end":"2024-05-22T06:00:00Z","end_local":"2024-05-22T18:00:00","updated":"2024-05-28T09:56:35Z"},{"title":"Super Rugby Pacific - Fijian Drua vs Queensland Reds","description":"Sourced from predicthq.com","category":"sports","start":"2024-05-18T02:05:00Z","geo":{"geometry":{"coordinates":[178.4491705,-18.1496236],"type":"Point"},"placekey":"@jbg-qxk-bkz","address":{"country_code":"FJ","formatted_address":"220 Laucala Bay Rd, Suva, Fiji","locality":"Suva","region":"Central Division"}},"labels":["rugby","sport"],"duration":0,"start_local":"2024-05-18T14:05:00","end":"2024-05-18T02:05:00Z","end_local":"2024-05-18T14:05:00","updated":"2024-06-12T02:37:02Z"},{"title":"Fiji Untold Show 2024","description":"Sourced from predicthq.com - This is the story of \"Lagi the Brave\" as she journeys to the realm of mystical giant women, an octopus GOD, and a shape shifting iguana.","category":"performing-arts","start":"2024-05-16T06:30:00Z","geo":{"geometry":{"coordinates":[177.388302,-17.7963252],"type":"Point"},"placekey":"@jbw-b5y-8sq","address":{"country_code":"FJ","formatted_address":"Sikituru Village, Western Division, Fiji","locality":"Sikituru Village","region":"Western Division"}},"labels":["concert","music","performing-arts"],"duration":10800,"start_local":"2024-05-16T18:30:00","end":"2024-05-16T09:30:00Z","end_local":"2024-05-16T21:30:00","updated":"2024-05-30T06:30:35Z"},{"title":"Island Adventurers Kids Show 2024","description":"Sourced from predicthq.com - Join the Island Adventurers on a mission over rivers, through the forest, and even into mysterious caves!","category":"performing-arts","start":"2024-05-16T03:00:00Z","geo":{"geometry":{"coordinates":[177.388302,-17.7963252],"type":"Point"},"placekey":"@jbw-b5y-8sq","address":{"country_code":"FJ","formatted_address":"Sikituru Village, Western Division, Fiji","locality":"Sikituru Village","region":"Western Division"}},"labels":["concert","music","performing-arts"],"duration":5400,"start_local":"2024-05-16T15:00:00","end":"2024-05-16T04:30:00Z","end_local":"2024-05-16T16:30:00","updated":"2024-05-30T03:02:53Z"},{"title":"Eat The Beat FIJI Festival","description":"Sourced from predicthq.com - Unleash a new level of experience!","category":"festivals","start":"2024-05-15T22:00:00Z","geo":{"geometry":{"coordinates":[177.25536,-17.653952],"type":"Point"},"placekey":"@jbw-c2v-psq","address":{"country_code":"FJ","formatted_address":"Fiji"}},"labels":["festival","music"],"duration":304200,"start_local":"2024-05-16T10:00:00","end":"2024-05-19T10:30:00Z","end_local":"2024-05-19T22:30:00","updated":"2024-06-05T14:08:11Z"},{"title":"Jersey Flegg Cup - Silktails U21 vs Raiders U21","description":"Sourced from predicthq.com","category":"sports","start":"2024-05-11T00:00:00Z","geo":{"geometry":{"coordinates":[177.4201492,-17.8022888],"type":"Point"},"placekey":"@jbw-b59-r6k","address":{"country_code":"FJ","formatted_address":"Nadi, BA, Fiji","locality":"Nadi","region":"BA"}},"labels":["rugby","sport"],"duration":0,"start_local":"2024-05-11T12:00:00","end":"2024-05-11T00:00:00Z","end_local":"2024-05-11T12:00:00","updated":"2024-06-12T10:10:09Z"},{"title":"Fiji Untold Show 2024","description":"Sourced from predicthq.com - This is the story of \"Lagi the Brave\" as she journeys to the realm of mystical giant women, an octopus GOD, and a shape shifting iguana.","category":"performing-arts","start":"2024-05-09T06:30:00Z","geo":{"geometry":{"coordinates":[177.388302,-17.7963252],"type":"Point"},"placekey":"@jbw-b5y-8sq","address":{"country_code":"FJ","formatted_address":"Sikituru Village, Western Division, Fiji","locality":"Sikituru Village","region":"Western Division"}},"labels":["concert","music","performing-arts"],"duration":10800,"start_local":"2024-05-09T18:30:00","end":"2024-05-09T09:30:00Z","end_local":"2024-05-09T21:30:00","updated":"2024-05-23T06:37:48Z"},{"title":"Island Adventurers Kids Show 2024","description":"Sourced from predicthq.com - Join the Island Adventurers on a mission over rivers, through the forest, and even into mysterious caves!","category":"performing-arts","start":"2024-05-09T03:00:00Z","geo":{"geometry":{"coordinates":[177.388302,-17.7963252],"type":"Point"},"placekey":"@jbw-b5y-8sq","address":{"country_code":"FJ","formatted_address":"Sikituru Village, Western Division, Fiji","locality":"Sikituru Village","region":"Western Division"}},"labels":["concert","music","performing-arts"],"duration":5400,"start_local":"2024-05-09T15:00:00","end":"2024-05-09T04:30:00Z","end_local":"2024-05-09T16:30:00","updated":"2024-05-23T03:02:25Z"},{"title":"Fiji Untold Show 2024","description":"Sourced from predicthq.com - This is the story of \"Lagi the Brave\" as she journeys to the realm of mystical giant women, an octopus GOD, and a shape shifting iguana.","category":"performing-arts","start":"2024-05-05T06:30:00Z","geo":{"geometry":{"coordinates":[177.388302,-17.7963252],"type":"Point"},"placekey":"@jbw-b5y-8sq","address":{"country_code":"FJ","formatted_address":"Sikituru Village, Western Division, Fiji","locality":"Sikituru Village","region":"Western Division"}},"labels":["concert","music","performing-arts"],"duration":10800,"start_local":"2024-05-05T18:30:00","end":"2024-05-05T09:30:00Z","end_local":"2024-05-05T21:30:00","updated":"2024-06-05T06:05:22Z"},{"title":"National Football League - Navua vs Labasa","description":"Sourced from predicthq.com","category":"sports","start":"2024-05-05T03:00:00Z","geo":{"geometry":{"coordinates":[178.0830209606163,-18.24803270074323],"type":"Point"},"placekey":"@jbw-3nr-zxq","address":{"country_code":"FJ","formatted_address":"Lot 1 Beach Rd, Pacific Harbour, Fiji","locality":"Pacific Harbour","region":"Central Division"}},"labels":["soccer","sport"],"duration":0,"start_local":"2024-05-05T15:00:00","end":"2024-05-05T03:00:00Z","end_local":"2024-05-05T15:00:00","updated":"2024-06-12T11:12:40Z"},{"title":"Island Adventurers Kids Show 2024","description":"Sourced from predicthq.com - Join the Island Adventurers on a mission over rivers, through the forest, and even into mysterious caves!","category":"performing-arts","start":"2024-05-05T03:00:00Z","geo":{"geometry":{"coordinates":[177.388302,-17.7963252],"type":"Point"},"placekey":"@jbw-b5y-8sq","address":{"country_code":"FJ","formatted_address":"Sikituru Village, Western Division, Fiji","locality":"Sikituru Village","region":"Western Division"}},"labels":["concert","music","performing-arts"],"duration":5400,"start_local":"2024-05-05T15:00:00","end":"2024-05-05T04:30:00Z","end_local":"2024-05-05T16:30:00","updated":"2024-06-05T19:55:23Z"},{"title":"National Football League - Rewa vs Ba","description":"Sourced from predicthq.com","category":"sports","start":"2024-05-05T03:00:00Z","geo":{"geometry":{"coordinates":[178.5353967,-18.0311807],"type":"Point"},"placekey":"@jbg-qgb-qcq","address":{"country_code":"FJ","formatted_address":"XG9P+G5C Ratu Cakobau Park, Nausori, Fiji","locality":"Nausori","region":"Central Division"}},"labels":["soccer","sport"],"duration":0,"start_local":"2024-05-05T15:00:00","end":"2024-05-05T03:00:00Z","end_local":"2024-05-05T15:00:00","updated":"2024-06-12T02:58:04Z"},{"title":"National Football League - Lautoka vs Tailevu Naitasiri","description":"Sourced from predicthq.com","category":"sports","start":"2024-05-05T02:00:00Z","geo":{"geometry":{"coordinates":[177.4526564,-17.6070433],"type":"Point"},"placekey":"@jbk-stv-t35","address":{"country_code":"FJ","formatted_address":"Churchill Park, Yawini St, Lautoka, Fiji","locality":"Lautoka","region":"Western Division"}},"labels":["soccer","sport"],"duration":0,"start_local":"2024-05-05T14:00:00","end":"2024-05-05T02:00:00Z","end_local":"2024-05-05T14:00:00","updated":"2024-06-12T10:28:11Z"},{"title":"National Football League - Nadi vs Suva","description":"Sourced from predicthq.com","category":"sports","start":"2024-05-05T02:00:00Z","geo":{"geometry":{"coordinates":[177.4201492,-17.8022888],"type":"Point"},"placekey":"@jbw-b59-r6k","address":{"country_code":"FJ","formatted_address":"Nadi, BA, Fiji","locality":"Nadi","region":"BA"}},"labels":["soccer","sport"],"duration":0,"start_local":"2024-05-05T14:00:00","end":"2024-05-05T02:00:00Z","end_local":"2024-05-05T14:00:00","updated":"2024-06-12T13:54:02Z"},{"title":"National Football League - Nadroga vs Nasinu","description":"Sourced from predicthq.com","category":"sports","start":"2024-05-05T02:00:00Z","geo":{"geometry":{"coordinates":[177.5020125,-18.1422372],"type":"Point"},"placekey":"@jbw-g6b-wkz","address":{"country_code":"FJ","formatted_address":"VG52+4R2 Lawaqa Park, Sigatoka, Fiji","locality":"Sigatoka","region":"Western Division"}},"labels":["soccer","sport"],"duration":0,"start_local":"2024-05-05T14:00:00","end":"2024-05-05T02:00:00Z","end_local":"2024-05-05T14:00:00","updated":"2024-06-12T10:21:14Z"},{"title":"Jersey Flegg Cup - Silktails U21 vs Eels U21","description":"Sourced from predicthq.com","category":"sports","start":"2024-05-04T00:00:00Z","geo":{"geometry":{"coordinates":[177.4526564,-17.6070433],"type":"Point"},"placekey":"@jbk-stv-t35","address":{"country_code":"FJ","formatted_address":"Churchill Park, Yawini St, Lautoka, Fiji","locality":"Lautoka","region":"Western Division"}},"labels":["rugby","sport"],"duration":0,"start_local":"2024-05-04T12:00:00","end":"2024-05-04T00:00:00Z","end_local":"2024-05-04T12:00:00","updated":"2024-06-12T18:27:13Z"},{"title":"National Football League - Nasinu vs Navua","description":"Sourced from predicthq.com","category":"sports","start":"2024-04-28T03:00:00Z","geo":{"geometry":{"coordinates":[178.456309021,-18.130805958],"type":"Point"},"placekey":"@jbg-qvw-rp9","address":{"country_code":"FJ","formatted_address":"VFC4+3JF, Taramati St, Suva, Fiji","locality":"Suva","region":"Central Division"}},"labels":["soccer","sport"],"duration":0,"start_local":"2024-04-28T15:00:00","end":"2024-04-28T03:00:00Z","end_local":"2024-04-28T15:00:00","updated":"2024-06-11T23:32:00Z"},{"title":"National Football League - Suva vs Lautoka","description":"Sourced from predicthq.com","category":"sports","start":"2024-04-28T01:00:00Z","geo":{"geometry":{"coordinates":[178.456309021,-18.130805958],"type":"Point"},"placekey":"@jbg-qvw-rp9","address":{"country_code":"FJ","formatted_address":"VFC4+3JF, Taramati St, Suva, Fiji","locality":"Suva","region":"Central Division"}},"labels":["soccer","sport"],"duration":0,"start_local":"2024-04-28T13:00:00","end":"2024-04-28T01:00:00Z","end_local":"2024-04-28T13:00:00","updated":"2024-06-12T15:58:43Z"},{"title":"National Football League - Tailevu Naitasiri vs Nadroga","description":"Sourced from predicthq.com","category":"sports","start":"2024-04-28T01:00:00Z","geo":{"geometry":{"coordinates":[178.5353967,-18.0311807],"type":"Point"},"placekey":"@jbg-qgb-qcq","address":{"country_code":"FJ","formatted_address":"XG9P+G5C Ratu Cakobau Park, Nausori, Fiji","locality":"Nausori","region":"Central Division"}},"labels":["soccer","sport"],"duration":0,"start_local":"2024-04-28T13:00:00","end":"2024-04-28T01:00:00Z","end_local":"2024-04-28T13:00:00","updated":"2024-06-12T08:54:35Z"},{"title":"National Football League - Rewa vs Nadi","description":"Sourced from predicthq.com","category":"sports","start":"2024-04-27T07:00:00Z","geo":{"geometry":{"coordinates":[178.4491705,-18.1496236],"type":"Point"},"placekey":"@jbg-qxk-bkz","address":{"country_code":"FJ","formatted_address":"220 Laucala Bay Rd, Suva, Fiji","locality":"Suva","region":"Central Division"}},"labels":["soccer","sport"],"duration":0,"start_local":"2024-04-27T19:00:00","end":"2024-04-27T07:00:00Z","end_local":"2024-04-27T19:00:00","updated":"2024-06-11T23:27:57Z"},{"title":"Super Rugby Pacific - Fijian Drua vs Moana Pasifika","description":"Sourced from predicthq.com","category":"sports","start":"2024-04-27T02:05:00Z","geo":{"geometry":{"coordinates":[177.4526564,-17.6070433],"type":"Point"},"placekey":"@jbk-stv-t35","address":{"country_code":"FJ","formatted_address":"Churchill Park, Yawini St, Lautoka, Fiji","locality":"Lautoka","region":"Western Division"}},"labels":["rugby","sport"],"duration":0,"start_local":"2024-04-27T14:05:00","end":"2024-04-27T02:05:00Z","end_local":"2024-04-27T14:05:00","updated":"2024-06-12T16:35:56Z"},{"title":"National Football League - Labasa vs Ba","description":"Sourced from predicthq.com","category":"sports","start":"2024-04-27T01:00:00Z","geo":{"geometry":{"coordinates":[179.37432646751404,-16.42734327299996],"type":"Point"},"placekey":"@jbr-jct-x89","address":{"country_code":"FJ","formatted_address":"Park Street, Labasa, Vanua Levu, Fiji","locality":"Labasa, Vanua Levu"}},"labels":["soccer","sport"],"duration":0,"start_local":"2024-04-27T13:00:00","end":"2024-04-27T01:00:00Z","end_local":"2024-04-27T13:00:00","updated":"2024-06-12T01:01:32Z"},{"title":"Australasian College of Phlebology Conference","description":"Sourced from predicthq.com","category":"conferences","start":"2024-04-25T21:00:00Z","geo":{"geometry":{"coordinates":[177.373581,-17.769068],"type":"Point"},"placekey":"@jbw-b5m-yy9","address":{"country_code":"FJ","formatted_address":"Beachfront, Denarau Island, Fiji","locality":"Denarau Island","region":"Western Division"}},"labels":["conference"],"duration":291600,"start_local":"2024-04-26T09:00:00","end":"2024-04-29T06:00:00Z","end_local":"2024-04-29T18:00:00","updated":"2024-05-31T23:03:15Z"},{"title":"National Football League - Nadi vs Ba","description":"Sourced from predicthq.com","category":"sports","start":"2024-04-21T03:00:00Z","geo":{"geometry":{"coordinates":[177.4201492,-17.8022888],"type":"Point"},"placekey":"@jbw-b59-r6k","address":{"country_code":"FJ","formatted_address":"Nadi, BA, Fiji","locality":"Nadi","region":"BA"}},"labels":["soccer","sport"],"duration":0,"start_local":"2024-04-21T15:00:00","end":"2024-04-21T03:00:00Z","end_local":"2024-04-21T15:00:00","updated":"2024-06-12T19:38:38Z"},{"title":"National Football League - Navua vs Tailevu Naitasiri","description":"Sourced from predicthq.com","category":"sports","start":"2024-04-21T03:00:00Z","geo":{"geometry":{"coordinates":[178.0830209606163,-18.24803270074323],"type":"Point"},"placekey":"@jbw-3nr-zxq","address":{"country_code":"FJ","formatted_address":"Lot 1 Beach Rd, Pacific Harbour, Fiji","locality":"Pacific Harbour","region":"Central Division"}},"labels":["soccer","sport"],"duration":0,"start_local":"2024-04-21T15:00:00","end":"2024-04-21T03:00:00Z","end_local":"2024-04-21T15:00:00","updated":"2024-06-12T11:58:23Z"},{"title":"National Football League - Nasinu vs Labasa","description":"Sourced from predicthq.com","category":"sports","start":"2024-04-21T01:30:00Z","geo":{"geometry":{"coordinates":[178.456309021,-18.130805958],"type":"Point"},"placekey":"@jbg-qvw-rp9","address":{"country_code":"FJ","formatted_address":"VFC4+3JF, Taramati St, Suva, Fiji","locality":"Suva","region":"Central Division"}},"labels":["soccer","sport"],"duration":0,"start_local":"2024-04-21T13:30:00","end":"2024-04-21T01:30:00Z","end_local":"2024-04-21T13:30:00","updated":"2024-06-12T10:14:56Z"},{"title":"National Football League - Nadroga vs Suva","description":"Sourced from predicthq.com","category":"sports","start":"2024-04-21T01:00:00Z","geo":{"geometry":{"coordinates":[177.5020125,-18.1422372],"type":"Point"},"placekey":"@jbw-g6b-wkz","address":{"country_code":"FJ","formatted_address":"VG52+4R2 Lawaqa Park, Sigatoka, Fiji","locality":"Sigatoka","region":"Western Division"}},"labels":["soccer","sport"],"duration":0,"start_local":"2024-04-21T13:00:00","end":"2024-04-21T01:00:00Z","end_local":"2024-04-21T13:00:00","updated":"2024-06-12T03:48:08Z"},{"title":"HPS Conference","description":"Sourced from predicthq.com","category":"conferences","start":"2024-04-20T21:00:00Z","geo":{"geometry":{"coordinates":[177.373581,-17.769068],"type":"Point"},"placekey":"@jbw-b5m-yy9","address":{"country_code":"FJ","formatted_address":"Beachfront, Denarau Island, Fiji","locality":"Denarau Island","region":"Western Division"}},"labels":["conference"],"duration":464400,"start_local":"2024-04-21T09:00:00","end":"2024-04-26T06:00:00Z","end_local":"2024-04-26T18:00:00","updated":"2024-06-04T22:53:46Z"},{"title":"National Football League - Lautoka vs Rewa","description":"Sourced from predicthq.com","category":"sports","start":"2024-04-20T07:00:00Z","geo":{"geometry":{"coordinates":[177.4526564,-17.6070433],"type":"Point"},"placekey":"@jbk-stv-t35","address":{"country_code":"FJ","formatted_address":"Churchill Park, Yawini St, Lautoka, Fiji","locality":"Lautoka","region":"Western Division"}},"labels":["soccer","sport"],"duration":0,"start_local":"2024-04-20T19:00:00","end":"2024-04-20T07:00:00Z","end_local":"2024-04-20T19:00:00","updated":"2024-06-12T01:54:02Z"},{"title":"Super Rugby Pacific - Fijian Drua vs Hurricanes","description":"Sourced from predicthq.com","category":"sports","start":"2024-04-19T07:05:00Z","geo":{"geometry":{"coordinates":[178.4491705,-18.1496236],"type":"Point"},"placekey":"@jbg-qxk-bkz","address":{"country_code":"FJ","formatted_address":"220 Laucala Bay Rd, Suva, Fiji","locality":"Suva","region":"Central Division"}},"labels":["rugby","sport"],"duration":0,"start_local":"2024-04-19T19:05:00","end":"2024-04-19T07:05:00Z","end_local":"2024-04-19T19:05:00","updated":"2024-06-11T22:40:54Z"},{"title":"Super Rugby Women's - Semi-finals - Fijiana vs Western Force","description":"Sourced from predicthq.com","category":"sports","start":"2024-04-19T04:35:00Z","geo":{"geometry":{"coordinates":[178.4491705,-18.1496236],"type":"Point"},"placekey":"@jbg-qxk-bkz","address":{"country_code":"FJ","formatted_address":"220 Laucala Bay Rd, Suva, Fiji","locality":"Suva","region":"Central Division"}},"labels":["rugby","sport"],"duration":0,"start_local":"2024-04-19T16:35:00","end":"2024-04-19T04:35:00Z","end_local":"2024-04-19T16:35:00","updated":"2024-06-12T06:04:30Z"},{"title":"Fiji Untold Show 2024","description":"Sourced from predicthq.com - This is the story of \"Lagi the Brave\" as she journeys to the realm of mystical giant women, an octopus GOD, and a shape shifting iguana.","category":"performing-arts","start":"2024-04-18T06:30:00Z","geo":{"geometry":{"coordinates":[177.388302,-17.7963252],"type":"Point"},"placekey":"@jbw-b5y-8sq","address":{"country_code":"FJ","formatted_address":"Sikituru Village, Western Division, Fiji","locality":"Sikituru Village","region":"Western Division"}},"labels":["concert","music","performing-arts"],"duration":10800,"start_local":"2024-04-18T18:30:00","end":"2024-04-18T09:30:00Z","end_local":"2024-04-18T21:30:00","updated":"2024-06-05T16:19:33Z"},{"title":"Island Adventurers Kids Show 2024","description":"Sourced from predicthq.com - Join the Island Adventurers on a mission over rivers, through the forest, and even into mysterious caves!","category":"performing-arts","start":"2024-04-18T03:00:00Z","geo":{"geometry":{"coordinates":[177.388302,-17.7963252],"type":"Point"},"placekey":"@jbw-b5y-8sq","address":{"country_code":"FJ","formatted_address":"Sikituru Village, Western Division, Fiji","locality":"Sikituru Village","region":"Western Division"}},"labels":["concert","music","performing-arts"],"duration":5400,"start_local":"2024-04-18T15:00:00","end":"2024-04-18T04:30:00Z","end_local":"2024-04-18T16:30:00","updated":"2024-06-05T12:34:49Z"},{"title":"National Football League - Tailevu Naitasiri vs Nasinu","description":"Sourced from predicthq.com","category":"sports","start":"2024-04-14T03:00:00Z","geo":{"geometry":{"coordinates":[178.5353967,-18.0311807],"type":"Point"},"placekey":"@jbg-qgb-qcq","address":{"country_code":"FJ","formatted_address":"XG9P+G5C Ratu Cakobau Park, Nausori, Fiji","locality":"Nausori","region":"Central Division"}},"labels":["soccer","sport"],"duration":0,"start_local":"2024-04-14T15:00:00","end":"2024-04-14T03:00:00Z","end_local":"2024-04-14T15:00:00","updated":"2024-06-12T08:25:31Z"},{"title":"National Football League - Suva vs Navua","description":"Sourced from predicthq.com","category":"sports","start":"2024-04-14T03:00:00Z","geo":{"geometry":{"coordinates":[178.4491705,-18.1496236],"type":"Point"},"placekey":"@jbg-qxk-bkz","address":{"country_code":"FJ","formatted_address":"220 Laucala Bay Rd, Suva, Fiji","locality":"Suva","region":"Central Division"}},"labels":["soccer","sport"],"duration":0,"start_local":"2024-04-14T15:00:00","end":"2024-04-14T03:00:00Z","end_local":"2024-04-14T15:00:00","updated":"2024-06-12T10:35:04Z"},{"title":"National Football League - Rewa vs Nadroga","description":"Sourced from predicthq.com","category":"sports","start":"2024-04-14T01:00:00Z","geo":{"geometry":{"coordinates":[178.5353967,-18.0311807],"type":"Point"},"placekey":"@jbg-qgb-qcq","address":{"country_code":"FJ","formatted_address":"XG9P+G5C Ratu Cakobau Park, Nausori, Fiji","locality":"Nausori","region":"Central Division"}},"labels":["soccer","sport"],"duration":0,"start_local":"2024-04-14T13:00:00","end":"2024-04-14T01:00:00Z","end_local":"2024-04-14T13:00:00","updated":"2024-06-12T07:57:05Z"},{"title":"National Football League - Ba vs Lautoka","description":"Sourced from predicthq.com","category":"sports","start":"2024-04-14T01:00:00Z","geo":{"geometry":{"coordinates":[177.66975581645966,-17.53673390867451],"type":"Point"},"placekey":"@jbk-s6n-y35","address":{"country_code":"FJ","formatted_address":"FM7C+93J, Ba, Fiji","locality":"Ba","region":"Western Division"}},"labels":["soccer","sport"],"duration":0,"start_local":"2024-04-14T13:00:00","end":"2024-04-14T01:00:00Z","end_local":"2024-04-14T13:00:00","updated":"2024-06-12T03:03:44Z"},{"title":"Jersey Flegg Cup - Silktails U21 vs Panthers U21","description":"Sourced from predicthq.com","category":"sports","start":"2024-04-13T04:00:00Z","geo":{"geometry":{"coordinates":[177.4526564,-17.6070433],"type":"Point"},"placekey":"@jbk-stv-t35","address":{"country_code":"FJ","formatted_address":"Churchill Park, Yawini St, Lautoka, Fiji","locality":"Lautoka","region":"Western Division"}},"labels":["rugby","sport"],"duration":0,"start_local":"2024-04-13T16:00:00","end":"2024-04-13T04:00:00Z","end_local":"2024-04-13T16:00:00","updated":"2024-06-12T20:20:40Z"},{"title":"National Football League - Labasa vs Nadi","description":"Sourced from predicthq.com","category":"sports","start":"2024-04-13T03:30:00Z","geo":{"geometry":{"coordinates":[179.37432646751404,-16.42734327299996],"type":"Point"},"placekey":"@jbr-jct-x89","address":{"country_code":"FJ","formatted_address":"Park Street, Labasa, Vanua Levu, Fiji","locality":"Labasa, Vanua Levu"}},"labels":["soccer","sport"],"duration":0,"start_local":"2024-04-13T15:30:00","end":"2024-04-13T03:30:00Z","end_local":"2024-04-13T15:30:00","updated":"2024-06-12T16:14:20Z"},{"title":"Fiji Untold Show 2024","description":"Sourced from predicthq.com - This is the story of \"Lagi the Brave\" as she journeys to the realm of mystical giant women, an octopus GOD, and a shape shifting iguana.","category":"performing-arts","start":"2024-04-11T06:30:00Z","geo":{"geometry":{"coordinates":[177.388302,-17.7963252],"type":"Point"},"placekey":"@jbw-b5y-8sq","address":{"country_code":"FJ","formatted_address":"Sikituru Village, Western Division, Fiji","locality":"Sikituru Village","region":"Western Division"}},"labels":["concert","music","performing-arts"],"duration":10800,"start_local":"2024-04-11T18:30:00","end":"2024-04-11T09:30:00Z","end_local":"2024-04-11T21:30:00","updated":"2024-06-05T14:41:18Z"},{"title":"Island Adventurers Kids Show 2024","description":"Sourced from predicthq.com - Join the Island Adventurers on a mission over rivers, through the forest, and even into mysterious caves!","category":"performing-arts","start":"2024-04-11T03:00:00Z","geo":{"geometry":{"coordinates":[177.388302,-17.7963252],"type":"Point"},"placekey":"@jbw-b5y-8sq","address":{"country_code":"FJ","formatted_address":"Sikituru Village, Western Division, Fiji","locality":"Sikituru Village","region":"Western Division"}},"labels":["concert","music","performing-arts"],"duration":5400,"start_local":"2024-04-11T15:00:00","end":"2024-04-11T04:30:00Z","end_local":"2024-04-11T16:30:00","updated":"2024-06-05T10:52:01Z"},{"title":"Fiji Untold Show 2024","description":"Sourced from predicthq.com - This is the story of \"Lagi the Brave\" as she journeys to the realm of mystical giant women, an octopus GOD, and a shape shifting iguana.","category":"performing-arts","start":"2024-04-07T06:30:00Z","geo":{"geometry":{"coordinates":[177.388302,-17.7963252],"type":"Point"},"placekey":"@jbw-b5y-8sq","address":{"country_code":"FJ","formatted_address":"Sikituru Village, Western Division, Fiji","locality":"Sikituru Village","region":"Western Division"}},"labels":["concert","music","performing-arts"],"duration":10800,"start_local":"2024-04-07T18:30:00","end":"2024-04-07T09:30:00Z","end_local":"2024-04-07T21:30:00","updated":"2024-06-05T14:24:07Z"},{"title":"National Football League - Nasinu vs Suva","description":"Sourced from predicthq.com","category":"sports","start":"2024-04-07T03:00:00Z","geo":{"geometry":{"coordinates":[178.456309021,-18.130805958],"type":"Point"},"placekey":"@jbg-qvw-rp9","address":{"country_code":"FJ","formatted_address":"VFC4+3JF, Taramati St, Suva, Fiji","locality":"Suva","region":"Central Division"}},"labels":["soccer","sport"],"duration":0,"start_local":"2024-04-07T15:00:00","end":"2024-04-07T03:00:00Z","end_local":"2024-04-07T15:00:00","updated":"2024-06-12T01:29:58Z"},{"title":"National Football League - Navua vs Rewa","description":"Sourced from predicthq.com","category":"sports","start":"2024-04-07T02:00:00Z","geo":{"geometry":{"coordinates":[178.0830209606163,-18.24803270074323],"type":"Point"},"placekey":"@jbw-3nr-zxq","address":{"country_code":"FJ","formatted_address":"Lot 1 Beach Rd, Pacific Harbour, Fiji","locality":"Pacific Harbour","region":"Central Division"}},"labels":["soccer","sport"],"duration":0,"start_local":"2024-04-07T14:00:00","end":"2024-04-07T02:00:00Z","end_local":"2024-04-07T14:00:00","updated":"2024-06-12T09:45:53Z"},{"title":"National Football League - Tailevu Naitasiri vs Labasa","description":"Sourced from predicthq.com","category":"sports","start":"2024-04-07T02:00:00Z","geo":{"geometry":{"coordinates":[178.5353967,-18.0311807],"type":"Point"},"placekey":"@jbg-qgb-qcq","address":{"country_code":"FJ","formatted_address":"XG9P+G5C Ratu Cakobau Park, Nausori, Fiji","locality":"Nausori","region":"Central Division"}},"labels":["soccer","sport"],"duration":0,"start_local":"2024-04-07T14:00:00","end":"2024-04-07T02:00:00Z","end_local":"2024-04-07T14:00:00","updated":"2024-06-11T21:31:12Z"},{"title":"National Football League - Lautoka vs Nadi","description":"Sourced from predicthq.com","category":"sports","start":"2024-04-07T02:00:00Z","geo":{"geometry":{"coordinates":[177.4526564,-17.6070433],"type":"Point"},"placekey":"@jbk-stv-t35","address":{"country_code":"FJ","formatted_address":"Churchill Park, Yawini St, Lautoka, Fiji","locality":"Lautoka","region":"Western Division"}},"labels":["soccer","sport"],"duration":0,"start_local":"2024-04-07T14:00:00","end":"2024-04-07T02:00:00Z","end_local":"2024-04-07T14:00:00","updated":"2024-06-11T21:19:58Z"},{"title":"National Football League - Nadroga vs Ba","description":"Sourced from predicthq.com","category":"sports","start":"2024-04-07T01:00:00Z","geo":{"geometry":{"coordinates":[177.5020125,-18.1422372],"type":"Point"},"placekey":"@jbw-g6b-wkz","address":{"country_code":"FJ","formatted_address":"VG52+4R2 Lawaqa Park, Sigatoka, Fiji","locality":"Sigatoka","region":"Western Division"}},"labels":["soccer","sport"],"duration":0,"start_local":"2024-04-07T13:00:00","end":"2024-04-07T01:00:00Z","end_local":"2024-04-07T13:00:00","updated":"2024-06-11T22:10:38Z"}]