[{"title":"UEFA Nations League - League C - Faroe Islands vs North Macedonia","description":"Sourced from predicthq.com","category":"sports","start":"2024-09-07T13:00:00Z","geo":{"geometry":{"coordinates":[-6.7782181,62.0189757],"type":"Point"},"placekey":"@4h5-sgc-wff","address":{"country_code":"FO","formatted_address":"Gundadalur, 100 Tórshavn, Faroe Islands","postcode":"100","locality":"Tórshavn","region":"Streymoy"}},"labels":["soccer","sport"],"duration":0,"start_local":"2024-09-07T14:00:00","end":"2024-09-07T13:00:00Z","end_local":"2024-09-07T14:00:00","updated":"2024-06-11T05:51:32Z"},{"title":"UEFA Conference League - 1st Qualifying Round - Víkingur vs Liepāja","description":"Sourced from predicthq.com","category":"sports","start":"2024-07-18T18:00:00Z","geo":{"geometry":{"coordinates":[-6.580154,62.224654],"type":"Point"},"placekey":"@4h5-yqh-wp9","address":{"country_code":"FO","formatted_address":"Gerigota, Klaksvík, Borðoy, Faroe Islands","locality":"Klaksvík, Borðoy"}},"labels":["soccer","sport"],"duration":0,"start_local":"2024-07-18T19:00:00","end":"2024-07-18T18:00:00Z","end_local":"2024-07-18T19:00:00","updated":"2024-06-24T17:54:28Z"},{"title":"G! Festival","description":"Sourced from predicthq.com","category":"festivals","start":"2024-07-17T23:00:00Z","geo":{"geometry":{"coordinates":[-6.7393898,62.19746],"type":"Point"},"placekey":"@4h5-ypn-rp9","address":{"country_code":"FO","formatted_address":"trondargøta, Gøta, Faroe Islands","locality":"Gøta"}},"labels":["festival","music"],"duration":259199,"start_local":"2024-07-18T00:00:00","end":"2024-07-20T22:59:59Z","end_local":"2024-07-20T23:59:59","updated":"2024-06-12T05:43:37Z"},{"title":"UEFA Conference League - 1st Qualifying Round - B36 vs Auda","description":"Sourced from predicthq.com","category":"sports","start":"2024-07-17T17:00:00Z","geo":{"geometry":{"coordinates":[-6.7782181,62.0189757],"type":"Point"},"placekey":"@4h5-sgc-wff","address":{"country_code":"FO","formatted_address":"Gundadalur, 100 Tórshavn, Faroe Islands","postcode":"100","locality":"Tórshavn","region":"Streymoy"}},"labels":["soccer","sport"],"duration":0,"start_local":"2024-07-17T18:00:00","end":"2024-07-17T17:00:00Z","end_local":"2024-07-17T18:00:00","updated":"2024-06-28T18:13:26Z"},{"title":"UEFA Champions League - 1st Qualifying Round - KÍ vs Differdange 03","description":"Sourced from predicthq.com","category":"sports","start":"2024-07-10T18:00:00Z","geo":{"geometry":{"coordinates":[-6.580154,62.224654],"type":"Point"},"placekey":"@4h5-yqh-wp9","address":{"country_code":"FO","formatted_address":"Gerigota, Klaksvík, Borðoy, Faroe Islands","locality":"Klaksvík, Borðoy"}},"labels":["soccer","sport"],"duration":0,"start_local":"2024-07-10T19:00:00","end":"2024-07-10T18:00:00Z","end_local":"2024-07-10T19:00:00","updated":"2024-06-24T17:16:43Z"},{"title":"Nick Carter","description":"Sourced from predicthq.com","category":"concerts","start":"2024-06-29T18:00:00Z","geo":{"geometry":{"coordinates":[-6.7726213,62.0097051],"type":"Point"},"placekey":"@4h5-sg6-qfz","address":{"country_code":"FO","formatted_address":"Trappan, Bryggjubakki Tórshavn, Tórshavn 100, Faroe Islands","postcode":"100","locality":"Tórshavn","region":"Streymoyar"}},"labels":["concert","music"],"duration":0,"start_local":"2024-06-29T19:00:00","end":"2024-06-29T18:00:00Z","end_local":"2024-06-29T19:00:00","updated":"2024-07-05T13:45:57Z"},{"title":"Seagriculture EU 2024. LIMITED EDITION","description":"Sourced from predicthq.com - Embark on a journey that is truly one of a kind! Seagriculture EU 2024 is not just a conference, it is a unique experience!","category":"conferences","start":"2024-06-18T08:00:00Z","geo":{"geometry":{"coordinates":[-6.784673000000001,62.02206],"type":"Point"},"placekey":"@4h5-sgc-vxq","address":{"country_code":"FO","formatted_address":"Norðari Ringvegur, 100 Tórshavn, Faroe Islands","locality":"Tórshavn","postcode":"100","region":"Streymoyar"}},"labels":["business","conference"],"duration":205200,"start_local":"2024-06-18T09:00:00","end":"2024-06-20T17:00:00Z","end_local":"2024-06-20T18:00:00","updated":"2024-06-04T01:42:36Z"},{"title":"Tórshavn Marathon","description":"Sourced from predicthq.com","category":"sports","start":"2024-06-08T23:00:00Z","geo":{"geometry":{"coordinates":[-6.7740852,62.0107248],"type":"Point"},"placekey":"@4h5-sg6-qcq","address":{"country_code":"FO","formatted_address":"Tórsgøta, 100 Tórshavn, Faroe Islands","locality":"Tórshavn","postcode":"100","region":"Streymoy"}},"labels":["marathon","outdoor-sports","running","sport"],"duration":86399,"start_local":"2024-06-09T00:00:00","end":"2024-06-09T22:59:59Z","end_local":"2024-06-09T23:59:59","updated":"2024-06-01T23:08:25Z"},{"title":"Marius Ziska and Siv Jakobsen","description":"Sourced from predicthq.com","category":"concerts","start":"2024-04-20T18:00:00Z","geo":{"geometry":{"coordinates":[-6.776188,62.012961],"type":"Point"},"placekey":"@4h5-sg6-q4v","address":{"country_code":"FO","formatted_address":"34 Niels Finsens gøta, 100 Tórshavn, Faroe Islands","postcode":"100","locality":"Tórshavn","region":"Streymoy"}},"labels":["concert","music"],"duration":0,"start_local":"2024-04-20T19:00:00","end":"2024-04-20T18:00:00Z","end_local":"2024-04-20T19:00:00","updated":"2024-06-12T05:08:12Z"},{"title":"Marius Ziska and Siv Jakobsen","description":"Sourced from predicthq.com","category":"concerts","start":"2024-04-19T18:00:00Z","geo":{"geometry":{"coordinates":[-6.776188,62.012961],"type":"Point"},"placekey":"@4h5-sg6-q4v","address":{"country_code":"FO","formatted_address":"34 Niels Finsens gøta, 100 Tórshavn, Faroe Islands","postcode":"100","locality":"Tórshavn","region":"Streymoy"}},"labels":["concert","music"],"duration":0,"start_local":"2024-04-19T19:00:00","end":"2024-04-19T18:00:00Z","end_local":"2024-04-19T19:00:00","updated":"2024-06-12T05:24:44Z"},{"title":"Siv Jakobsen and Lyon Hansen","description":"Sourced from predicthq.com","category":"concerts","start":"2024-04-18T18:30:00Z","geo":{"geometry":{"coordinates":[-6.7697024,62.0089826],"type":"Point"},"placekey":"@4h5-sfc-vzz","address":{"country_code":"FO","formatted_address":"Gummaldagøta 370, Miðvágur, Faroe Islands","locality":"Miðvágur"}},"labels":["concert","music"],"duration":0,"start_local":"2024-04-18T19:30:00","end":"2024-04-18T18:30:00Z","end_local":"2024-04-18T19:30:00","updated":"2024-06-12T10:22:26Z"}]