[{"title":"SOMMET APOSTOLIQUE ET PROPHETIQUE","description":"Sourced from predicthq.com - Le Centre Apostolique pour la Réforme organise, du 18 au 20 juillet 2024, le Sommet Apostolique et Prophétique à Libreville, au Gabon.","category":"conferences","start":"2024-07-18T08:00:00Z","geo":{"geometry":{"coordinates":[9.440283299999999,0.4077972],"type":"Point"},"placekey":"@g4j-wk9-575","address":{"country_code":"GA","formatted_address":"Libreville, Estuaire, Gabon","locality":"Libreville","region":"Estuaire"}},"labels":["conference","religion"],"duration":39600,"start_local":"2024-07-18T09:00:00","end":"2024-07-18T19:00:00Z","end_local":"2024-07-18T20:00:00","updated":"2024-06-23T05:10:24Z"},{"title":"10 km de Port-Gentil","description":"Sourced from predicthq.com","category":"sports","start":"2024-06-23T07:00:00Z","geo":{"geometry":{"coordinates":[8.7591311,-0.7351026],"type":"Point"},"placekey":"@g2f-g2m-qfz","address":{"country_code":"GA","formatted_address":"Port-Gentil, Ogooué-Maritime, Gabon","locality":"Port-Gentil","region":"Ogooué-Maritime"}},"labels":["outdoor-sports","running","sport"],"duration":0,"start_local":"2024-06-23T08:00:00","end":"2024-06-23T07:00:00Z","end_local":"2024-06-23T08:00:00","updated":"2024-06-04T06:18:34Z"},{"title":"Odoo Roadshow - Libreville","description":"Sourced from predicthq.com - Découvrez la nouvelle version de Odoo avec nos experts & partenaires!","category":"conferences","start":"2024-04-25T17:00:00Z","geo":{"geometry":{"coordinates":[9.420168199999999,0.4299302],"type":"Point"},"placekey":"@g4j-vvk-9pv","address":{"country_code":"GA","formatted_address":"Libreville, Estuaire, Gabon","locality":"Libreville","region":"Estuaire"}},"labels":["business","conference"],"duration":10800,"start_local":"2024-04-25T18:00:00","end":"2024-04-25T20:00:00Z","end_local":"2024-04-25T21:00:00","updated":"2024-06-05T03:17:52Z"}]