[{"title":"Sun Sea And Soca","description":"Sourced from predicthq.com - Prepare for an EPIC Spicemas weekend with SUN ☀️ SEA  AND SOCA , the ultimate beach party on Carnival Saturday!","category":"festivals","start":"2024-08-09T19:00:00Z","geo":{"geometry":{"coordinates":[-61.76666669999999,12.0166667],"type":"Point"},"placekey":"@bsh-jnr-x5z","address":{"country_code":"GD","formatted_address":"Morne Rouge, Saint George, Grenada","locality":"Morne Rouge","region":"Saint George"}},"labels":["festival","music"],"duration":18000,"start_local":"2024-08-09T15:00:00","end":"2024-08-10T00:00:00Z","end_local":"2024-08-09T20:00:00","updated":"2024-06-06T00:44:25Z"},{"title":"LALA LAND CARNIVAL EDITION","description":"Sourced from predicthq.com - Global Entertainment is bringing La La Land the Drunch! We are ushering the next unique social event for 2024. Bringing you the crème de la","category":"festivals","start":"2024-08-08T20:00:00Z","geo":{"geometry":{"coordinates":[-61.7556086,12.0273597],"type":"Point"},"placekey":"@bsh-jq5-3t9","address":{"country_code":"GD","formatted_address":"The Lime, Saint George, Grenada","locality":"The Lime","region":"Saint George"}},"labels":["community","festival"],"duration":27000,"start_local":"2024-08-08T16:00:00","end":"2024-08-09T03:30:00Z","end_local":"2024-08-08T23:30:00","updated":"2024-06-13T01:47:57Z"},{"title":"AWOL GND 2024","description":"Sourced from predicthq.com - Your Carnival Thursday Morning Booze Cruise","category":"community","start":"2024-08-08T13:00:00Z","geo":{"geometry":{"coordinates":[-61.7526114,12.0494502],"type":"Point"},"placekey":"@bsh-jpx-5s5","address":{"country_code":"GD","formatted_address":"The Carenage, Saint George's, Grenada","locality":"Saint George's","region":"Saint George"}},"labels":["community","outdoor","sport"],"duration":18000,"start_local":"2024-08-08T09:00:00","end":"2024-08-08T18:00:00Z","end_local":"2024-08-08T14:00:00","updated":"2024-06-20T02:00:32Z"},{"title":"Moss Live","description":"Sourced from predicthq.com - Come experience Moss International Live in concert as they celebrate their 50 year anniversary!","category":"performing-arts","start":"2024-07-14T00:00:00Z","geo":{"geometry":{"coordinates":[-61.75268930000001,12.0715303],"type":"Point"},"placekey":"@bsh-jq3-n89","address":{"country_code":"GD","formatted_address":"Western Main Road, Grand Mal, Grenada","locality":"Grand Mal"}},"labels":["concert","music","performing-arts"],"duration":25200,"start_local":"2024-07-13T20:00:00","end":"2024-07-14T07:00:00Z","end_local":"2024-07-14T03:00:00","updated":"2024-05-30T01:49:31Z"},{"title":"Friendlies - Friendlies 3 - Grenada vs St. Vincent / Grenadines","description":"Sourced from predicthq.com","category":"sports","start":"2024-05-26T20:00:00Z","geo":{"geometry":{"coordinates":[-61.474241894,12.475036072],"type":"Point"},"placekey":"@bsg-jpd-7t9","address":{"country_code":"GD","formatted_address":"Argyle, Carriacou, Grenada","locality":"Carriacou"}},"labels":["soccer","sport"],"duration":0,"start_local":"2024-05-26T16:00:00","end":"2024-05-26T20:00:00Z","end_local":"2024-05-26T16:00:00","updated":"2024-06-12T04:05:31Z"},{"title":"Any Given Sunday May 2024","description":"Sourced from predicthq.com - C4 Promotions Gd regains control for may's edition of Any Given Sunday! So of course there are going to be some surprises!","category":"concerts","start":"2024-05-19T19:00:00Z","geo":{"geometry":{"coordinates":[-61.76666669999999,12.0166667],"type":"Point"},"placekey":"@bsh-jnr-x5z","address":{"country_code":"GD","formatted_address":"Morne Rouge, Saint George, Grenada","locality":"Morne Rouge","region":"Saint George"}},"labels":["concert","music","sport"],"duration":18000,"start_local":"2024-05-19T15:00:00","end":"2024-05-20T00:00:00Z","end_local":"2024-05-19T20:00:00","updated":"2024-06-03T20:14:15Z"},{"title":"V28: Elevate","description":"Sourced from predicthq.com - Get ready to go on a musical journery at V28: Elevate, on April 27th, 2024!","category":"concerts","start":"2024-04-28T00:00:00Z","geo":{"geometry":{"coordinates":[-61.7556086,12.0273597],"type":"Point"},"placekey":"@bsh-jq5-3t9","address":{"country_code":"GD","formatted_address":"The Lime, Saint George, Grenada","locality":"The Lime","region":"Saint George"}},"labels":["concert","music"],"duration":21600,"start_local":"2024-04-27T20:00:00","end":"2024-04-28T06:00:00Z","end_local":"2024-04-28T02:00:00","updated":"2024-06-05T20:35:09Z"}]