[{"title":"Estas Tonne, Ben Aylon, and Conrado Molina","description":"Sourced from predicthq.com","category":"concerts","start":"2024-09-24T16:00:00Z","geo":{"geometry":{"coordinates":[44.79938,41.69453],"type":"Point"},"placekey":"@67k-spq-ndv","address":{"country_code":"GE","formatted_address":"2/4 Shota Rustaveli Ave, T'bilisi, Georgia","locality":"T'bilisi","region":"Tbilisi"}},"labels":["concert","music"],"duration":0,"start_local":"2024-09-24T20:00:00","end":"2024-09-24T16:00:00Z","end_local":"2024-09-24T20:00:00","updated":"2024-06-21T13:30:54Z"},{"title":"BreakBulk CASPIAN Conference","description":"Sourced from predicthq.com","category":"conferences","start":"2024-09-23T05:00:00Z","geo":{"geometry":{"coordinates":[44.793885,41.703827],"type":"Point"},"placekey":"@67k-spq-ct9","address":{"country_code":"GE","formatted_address":"1 Rose Revolution Square, T'bilisi 0108, Georgia","postcode":"0108","locality":"T'bilisi","region":"Tbilisi"}},"labels":["conference"],"duration":118800,"start_local":"2024-09-23T09:00:00","end":"2024-09-24T14:00:00Z","end_local":"2024-09-24T18:00:00","updated":"2024-05-28T06:26:25Z"},{"title":"CoqWS: Coq Workshop","description":"Sourced from predicthq.com","category":"expos","start":"2024-09-13T05:00:00Z","geo":{"geometry":{"coordinates":[44.777999,41.709982],"type":"Point"},"placekey":"@67k-srb-cwk","address":{"country_code":"GE","formatted_address":"1 Ilia Chavchavadze Avenue, T'bilisi 0179, Georgia","postcode":"0179","locality":"T'bilisi","region":"Tbilisi"}},"labels":["expo"],"duration":32400,"start_local":"2024-09-13T09:00:00","end":"2024-09-13T14:00:00Z","end_local":"2024-09-13T18:00:00","updated":"2024-05-31T23:03:22Z"},{"title":"UEFA Nations League - League B - Georgia vs Czechia","description":"Sourced from predicthq.com","category":"sports","start":"2024-09-07T16:00:00Z","geo":{"geometry":{"coordinates":[44.745447,41.7095799],"type":"Point"},"placekey":"@67k-sr5-yvz","address":{"country_code":"GE","formatted_address":"74 Ilia Chavchavadze Avenue, T'bilisi, Georgia","locality":"T'bilisi","region":"Tbilisi"}},"labels":["soccer","sport"],"duration":0,"start_local":"2024-09-07T20:00:00","end":"2024-09-07T16:00:00Z","end_local":"2024-09-07T20:00:00","updated":"2024-06-23T11:02:46Z"},{"title":"International Conference of the Georgian Mathematical Union","description":"Sourced from predicthq.com","category":"conferences","start":"2024-09-01T20:00:00Z","geo":{"geometry":{"coordinates":[41.626779,41.649945],"type":"Point"},"placekey":"@67h-bh8-35z","address":{"country_code":"GE","formatted_address":"Shota Rustaveli State University, 35 Ninoshvili St, Batumi, Georgia","locality":"Batumi","region":"Adjara"}},"labels":["conference"],"duration":518399,"start_local":"2024-09-02T00:00:00","end":"2024-09-07T19:59:59Z","end_local":"2024-09-07T23:59:59","updated":"2024-06-04T05:26:31Z"},{"title":"Batumi Startup Fest","description":"Sourced from predicthq.com - Hey there! Batumi Startup Fest is the ultimate gathering for all startup enthusiasts in Batumi to network, learn, and celebrate innovation!","category":"conferences","start":"2024-08-20T11:00:00Z","geo":{"geometry":{"coordinates":[41.64049,41.6460978],"type":"Point"},"placekey":"@67h-bh7-mkz","address":{"country_code":"GE","formatted_address":"Batumi, Adjara, Georgia","locality":"Batumi","region":"Adjara"}},"labels":["business","conference"],"duration":28800,"start_local":"2024-08-20T15:00:00","end":"2024-08-20T19:00:00Z","end_local":"2024-08-20T23:00:00","updated":"2024-07-04T00:36:23Z"},{"title":"Jungle","description":"Sourced from predicthq.com","category":"concerts","start":"2024-08-18T14:00:00Z","geo":{"geometry":{"coordinates":[41.76753,41.92706],"type":"Point"},"placekey":"@67h-55h-t35","address":{"country_code":"GE","formatted_address":"Shekvetili, Batumi, Georgia","locality":"Batumi"}},"labels":["concert","music"],"duration":0,"start_local":"2024-08-18T18:00:00","end":"2024-08-18T14:00:00Z","end_local":"2024-08-18T18:00:00","updated":"2024-06-28T05:32:12Z"},{"title":"European Championship Qualifiers (W) - Group Stage - Georgia vs Portugal","description":"Sourced from predicthq.com","category":"sports","start":"2024-08-17T15:00:00Z","geo":{"geometry":{"coordinates":[44.779457,41.7197249],"type":"Point"},"placekey":"@67k-sr6-wff","address":{"country_code":"GE","formatted_address":"1-26 ოცდაექვსი მაისის მოედანი, T'bilisi, Georgia","locality":"T'bilisi","region":"Tbilisi"}},"labels":["sport","volleyball"],"duration":0,"start_local":"2024-08-17T19:00:00","end":"2024-08-17T15:00:00Z","end_local":"2024-08-17T19:00:00","updated":"2024-06-04T08:37:31Z"},{"title":"European Championship Qualifiers - Group Stage - Georgia vs North Macedonia","description":"Sourced from predicthq.com","category":"sports","start":"2024-08-17T12:00:00Z","geo":{"geometry":{"coordinates":[44.779457,41.7197249],"type":"Point"},"placekey":"@67k-sr6-wff","address":{"country_code":"GE","formatted_address":"1-26 ოცდაექვსი მაისის მოედანი, T'bilisi, Georgia","locality":"T'bilisi","region":"Tbilisi"}},"labels":["sport","volleyball"],"duration":0,"start_local":"2024-08-17T16:00:00","end":"2024-08-17T12:00:00Z","end_local":"2024-08-17T16:00:00","updated":"2024-06-04T07:34:43Z"},{"title":"Kazbegi Mountain Marathon","description":"Sourced from predicthq.com","category":"sports","start":"2024-08-11T06:00:00Z","geo":{"geometry":{"coordinates":[44.6265868082,42.6667789964],"type":"Point"},"placekey":"@67k-4q3-f2k","address":{"country_code":"GE","formatted_address":"Gergeti, Mtskheta-Mtianeti, Georgia","locality":"Gergeti","region":"Mtskheta-Mtianeti"}},"labels":["marathon","outdoor-sports","running","sport"],"duration":0,"start_local":"2024-08-11T10:00:00","end":"2024-08-11T06:00:00Z","end_local":"2024-08-11T10:00:00","updated":"2024-06-04T00:08:29Z"},{"title":"UEFA Conference League - 1st Qualifying Round - Dinamo Tbilisi vs Mornar","description":"Sourced from predicthq.com","category":"sports","start":"2024-07-18T17:00:00Z","geo":{"geometry":{"coordinates":[44.745447,41.7095799],"type":"Point"},"placekey":"@67k-sr5-yvz","address":{"country_code":"GE","formatted_address":"74 Ilia Chavchavadze Avenue, T'bilisi, Georgia","locality":"T'bilisi","region":"Tbilisi"}},"labels":["soccer","sport"],"duration":0,"start_local":"2024-07-18T21:00:00","end":"2024-07-18T17:00:00Z","end_local":"2024-07-18T21:00:00","updated":"2024-06-24T19:21:49Z"},{"title":"UEFA Champions League - 1st Qualifying Round - Dinamo Batumi vs Ludogorets","description":"Sourced from predicthq.com","category":"sports","start":"2024-07-17T17:00:00Z","geo":{"geometry":{"coordinates":[41.62199210473553,41.63573998784164],"type":"Point"},"placekey":"@67h-bgn-66k","address":{"country_code":"GE","formatted_address":"12 Gudiashvili St, Batumi 6100, Georgia","postcode":"6100","locality":"Batumi","region":"Adjara"}},"labels":["soccer","sport"],"duration":0,"start_local":"2024-07-17T21:00:00","end":"2024-07-17T17:00:00Z","end_local":"2024-07-17T21:00:00","updated":"2024-06-24T19:02:08Z"},{"title":"Uada","description":"Sourced from predicthq.com","category":"concerts","start":"2024-07-17T15:00:00Z","geo":{"geometry":{"coordinates":[44.84997,41.67669],"type":"Point"},"placekey":"@67k-spm-jqf","address":{"country_code":"GE","formatted_address":"2 Beri Gabriel Salosi I Turn, T'bilisi 0113, Georgia","postcode":"0113","locality":"T'bilisi","region":"Tbilisi"}},"labels":["concert","music"],"duration":0,"start_local":"2024-07-17T19:00:00","end":"2024-07-17T15:00:00Z","end_local":"2024-07-17T19:00:00","updated":"2024-06-11T02:20:10Z"},{"title":"Mgzavrebi","description":"Sourced from predicthq.com","category":"concerts","start":"2024-07-13T17:00:00Z","geo":{"geometry":{"coordinates":[41.630925,41.654117],"type":"Point"},"placekey":"@67h-bh7-2c5","address":{"country_code":"GE","formatted_address":"MJ3J+J9V, Seafront Promenade, Batumi, Georgia","locality":"Batumi","region":"Adjara"}},"labels":["concert","music"],"duration":0,"start_local":"2024-07-13T21:00:00","end":"2024-07-13T17:00:00Z","end_local":"2024-07-13T21:00:00","updated":"2024-07-04T22:36:16Z"},{"title":"UEFA Conference League - 1st Qualifying Round - Torpedo Kutaisi vs Tirana","description":"Sourced from predicthq.com","category":"sports","start":"2024-07-11T17:00:00Z","geo":{"geometry":{"coordinates":[42.68308639526367,42.25501425471215],"type":"Point"},"placekey":"@67m-8wv-kpv","address":{"country_code":"GE","formatted_address":"3 Khorava St, Kutaisi, Georgia","locality":"Kutaisi","region":"Imereti"}},"labels":["soccer","sport"],"duration":0,"start_local":"2024-07-11T21:00:00","end":"2024-07-11T17:00:00Z","end_local":"2024-07-11T21:00:00","updated":"2024-06-24T17:43:28Z"},{"title":"Black Eyed Peas","description":"Sourced from predicthq.com","category":"concerts","start":"2024-07-07T14:00:00Z","geo":{"geometry":{"coordinates":[44.789376,41.7221261],"type":"Point"},"placekey":"@67k-snw-zxq","address":{"country_code":"GE","formatted_address":"2 Akaki Tsereteli Avenue, 0112 Tbilisi, Georgia","postcode":"0112","locality":"Tbilisi","region":"Tbilisi"}},"labels":["concert","music"],"duration":0,"start_local":"2024-07-07T18:00:00","end":"2024-07-07T14:00:00Z","end_local":"2024-07-07T18:00:00","updated":"2024-06-11T04:01:00Z"},{"title":"Circular Economy and Sustainability : the Past, the Present and the Future","description":"Sourced from predicthq.com - Dear Colleagues, in this year Paata Gugushvili Institute of Economics celebrate the 80th anniversary. Institute was founded in 1944...","category":"conferences","start":"2024-07-06T06:00:00Z","geo":{"geometry":{"coordinates":[44.777999,41.709982],"type":"Point"},"placekey":"@67k-srb-cwk","address":{"country_code":"GE","formatted_address":"1 Ilia Chavchavadze Avenue, T'bilisi 0179, Georgia","postcode":"0179","locality":"T'bilisi","region":"Tbilisi"}},"labels":["conference","science","technology"],"duration":27000,"start_local":"2024-07-06T10:00:00","end":"2024-07-06T13:30:00Z","end_local":"2024-07-06T17:30:00","updated":"2024-06-04T02:42:40Z"},{"title":"Georgia vs Fiji","description":"Sourced from predicthq.com","category":"sports","start":"2024-07-05T16:00:00Z","geo":{"geometry":{"coordinates":[44.789761,41.723008],"type":"Point"},"placekey":"@67k-snw-w49","address":{"country_code":"GE","formatted_address":"2 Akaki Tsereteli Ave, T'bilisi 0112, Georgia","postcode":"0112","locality":"T'bilisi","region":"Tbilisi"}},"labels":["rugby","sport"],"duration":0,"start_local":"2024-07-05T20:00:00","end":"2024-07-05T16:00:00Z","end_local":"2024-07-05T20:00:00","updated":"2024-07-04T06:12:45Z"},{"title":"Rugby Union Internationals - Friendlies 2 - Georgia vs Fiji","description":"Sourced from predicthq.com","category":"sports","start":"2024-07-05T16:00:00Z","geo":{"geometry":{"coordinates":[41.62199210473553,41.63573998784164],"type":"Point"},"placekey":"@67h-bgn-66k","address":{"country_code":"GE","formatted_address":"12 Gudiashvili St, Batumi 6100, Georgia","postcode":"6100","locality":"Batumi","region":"Adjara"}},"labels":["rugby","sport"],"duration":0,"start_local":"2024-07-05T20:00:00","end":"2024-07-05T16:00:00Z","end_local":"2024-07-05T20:00:00","updated":"2024-06-11T10:17:01Z"},{"title":"International Caucasian Congress on Plastic Surgery and Dermatology Kolkhida","description":"Sourced from predicthq.com","category":"conferences","start":"2024-07-05T05:00:00Z","geo":{"geometry":{"coordinates":[44.793885,41.703827],"type":"Point"},"placekey":"@67k-spq-ct9","address":{"country_code":"GE","formatted_address":"1 Rose Revolution Square, T'bilisi 0108, Georgia","postcode":"0108","locality":"T'bilisi","region":"Tbilisi"}},"labels":["conference"],"duration":205200,"start_local":"2024-07-05T09:00:00","end":"2024-07-07T14:00:00Z","end_local":"2024-07-07T18:00:00","updated":"2024-05-28T03:48:57Z"},{"title":"English StandUp Open Mic","description":"Sourced from predicthq.com - One of the best English StandUp Comedy Open Mics in Tbilisi, Georgia.","category":"performing-arts","start":"2024-06-30T16:00:00Z","geo":{"geometry":{"coordinates":[44.80178939999999,41.6917736],"type":"Point"},"placekey":"@67k-spq-qfz","address":{"country_code":"GE","formatted_address":"Shalva Dadiani Street, T'bilisi, Georgia","locality":"T'bilisi","region":"Tbilisi"}},"labels":["concert","entertainment","music","performing-arts"],"duration":9000,"start_local":"2024-06-30T20:00:00","end":"2024-06-30T18:30:00Z","end_local":"2024-06-30T22:30:00","updated":"2024-06-27T03:33:17Z"},{"title":"Lecomte de Brégeot","description":"Sourced from predicthq.com","category":"concerts","start":"2024-06-29T15:00:00Z","geo":{"geometry":{"coordinates":[44.8023712,41.6937447],"type":"Point"},"placekey":"@67k-spq-qpv","address":{"country_code":"GE","formatted_address":"5-7 Aleksandr Pushkin St, T'bilisi, Georgia","locality":"T'bilisi","region":"Tbilisi"}},"labels":["concert","music"],"duration":0,"start_local":"2024-06-29T19:00:00","end":"2024-06-29T15:00:00Z","end_local":"2024-06-29T19:00:00","updated":"2024-06-15T19:37:54Z"},{"title":"Vendex, In Verruf, Cassie Raptor, and 2 others","description":"Sourced from predicthq.com","category":"concerts","start":"2024-06-28T19:00:00Z","geo":{"geometry":{"coordinates":[44.781181,41.725065],"type":"Point"},"placekey":"@67k-sr6-k9f","address":{"country_code":"GE","formatted_address":"President Heydar Aliyev Embankment, T'bilisi 0101, Georgia","postcode":"0101","locality":"T'bilisi","region":"Tbilisi"}},"labels":["concert","music"],"duration":0,"start_local":"2024-06-28T23:00:00","end":"2024-06-28T19:00:00Z","end_local":"2024-06-28T23:00:00","updated":"2024-06-14T19:09:10Z"},{"title":"Siksa and Квалиа","description":"Sourced from predicthq.com","category":"concerts","start":"2024-06-26T16:00:00Z","geo":{"geometry":{"coordinates":[41.62252,41.64364],"type":"Point"},"placekey":"@67h-bgm-sqz","address":{"country_code":"GE","formatted_address":"3rd floor, 91 Zurab Gorgiladze St, Batumi, Georgia","locality":"Batumi","region":"Adjara"}},"labels":["concert","music"],"duration":0,"start_local":"2024-06-26T20:00:00","end":"2024-06-26T16:00:00Z","end_local":"2024-06-26T20:00:00","updated":"2024-06-19T21:08:20Z"},{"title":"The Premier iGaming & Sports Betting Conference for Georgia and Surrounding Regions","description":"Sourced from predicthq.com","category":"conferences","start":"2024-06-24T20:00:00Z","geo":{"geometry":{"coordinates":[44.823146,41.688825],"type":"Point"},"placekey":"@67k-sph-rrk","address":{"country_code":"GE","formatted_address":"20 Telavi St, T'bilisi 0103, Georgia","postcode":"0103","locality":"T'bilisi","region":"Tbilisi"}},"labels":["conference"],"duration":172799,"start_local":"2024-06-25T00:00:00","end":"2024-06-26T19:59:59Z","end_local":"2024-06-26T23:59:59","updated":"2024-05-27T19:40:05Z"},{"title":"Volker Strifler","description":"Sourced from predicthq.com","category":"concerts","start":"2024-06-22T16:00:00Z","geo":{"geometry":{"coordinates":[44.7908325,41.7249985],"type":"Point"},"placekey":"@67k-snw-wc5","address":{"country_code":"GE","formatted_address":"Egnate And Vakhtang Fifia Street, T'bilisi, Georgia","locality":"T'bilisi","region":"Tbilisi"}},"labels":["concert","music"],"duration":0,"start_local":"2024-06-22T20:00:00","end":"2024-06-22T16:00:00Z","end_local":"2024-06-22T20:00:00","updated":"2024-06-11T06:45:09Z"},{"title":"Sexy Bicycle","description":"Sourced from predicthq.com","category":"concerts","start":"2024-06-22T14:00:00Z","geo":{"geometry":{"coordinates":[44.783333,41.716667],"type":"Point"},"placekey":"@67k-sr6-xh5","address":{"country_code":"GE","formatted_address":"PPX6+4F9, Tbilisi, Georgia","locality":"Tbilisi","region":"Mtskheta-Mtianeti"}},"labels":["concert","music"],"duration":0,"start_local":"2024-06-22T18:00:00","end":"2024-06-22T14:00:00Z","end_local":"2024-06-22T18:00:00","updated":"2024-06-11T04:10:41Z"},{"title":"DegameFi Web3 Conference","description":"Sourced from predicthq.com","category":"conferences","start":"2024-06-21T20:00:00Z","geo":{"geometry":{"coordinates":[44.75601,41.711757],"type":"Point"},"placekey":"@67k-sr4-v75","address":{"country_code":"GE","formatted_address":"Ilia Chavchavadze Avenue, 0179 T'bilisi, Georgia","locality":"T'bilisi","postcode":"0179","region":"Tbilisi"}},"labels":["conference"],"duration":172799,"start_local":"2024-06-22T00:00:00","end":"2024-06-23T19:59:59Z","end_local":"2024-06-23T23:59:59","updated":"2024-06-01T22:34:26Z"},{"title":"PARAJANOV hosts GIGER:     A Chilling Experience of Entropy","description":"Sourced from predicthq.com - Тhis happens for the first time in the world in the endless light labyrinths of the Holoseum with the help of AI and 63 video projectors!","category":"performing-arts","start":"2024-06-21T15:00:00Z","geo":{"geometry":{"coordinates":[44.80618630000001,41.6897092],"type":"Point"},"placekey":"@67k-spp-wrk","address":{"country_code":"GE","formatted_address":"Betlemi Street, T'bilisi, Georgia","locality":"T'bilisi","region":"Tbilisi"}},"labels":["concert","music","performing-arts"],"duration":9000,"start_local":"2024-06-21T19:00:00","end":"2024-06-21T17:30:00Z","end_local":"2024-06-21T21:30:00","updated":"2024-06-12T17:04:46Z"},{"title":"Tbilisi Open Air","description":"Sourced from predicthq.com","category":"festivals","start":"2024-06-20T20:00:00Z","geo":{"geometry":{"coordinates":[44.71904,41.74421],"type":"Point"},"placekey":"@67k-t6p-n3q","address":{"country_code":"GE","formatted_address":"PPX6+298, ბერიტაშვილის ქუჩა, T'bilisi, Georgia","locality":"T'bilisi","region":"Mtskheta-Mtianeti"}},"labels":["festival","music"],"duration":259199,"start_local":"2024-06-21T00:00:00","end":"2024-06-23T19:59:59Z","end_local":"2024-06-23T23:59:59","updated":"2024-06-04T09:34:21Z"},{"title":"Volker Strifler","description":"Sourced from predicthq.com","category":"concerts","start":"2024-06-20T16:00:00Z","geo":{"geometry":{"coordinates":[44.7908325,41.7249985],"type":"Point"},"placekey":"@67k-snw-wc5","address":{"country_code":"GE","formatted_address":"Egnate And Vakhtang Fifia Street, T'bilisi, Georgia","locality":"T'bilisi","region":"Tbilisi"}},"labels":["concert","music"],"duration":0,"start_local":"2024-06-20T20:00:00","end":"2024-06-20T16:00:00Z","end_local":"2024-06-20T20:00:00","updated":"2024-06-11T01:48:40Z"},{"title":"Volker Strifler","description":"Sourced from predicthq.com","category":"concerts","start":"2024-06-19T16:00:00Z","geo":{"geometry":{"coordinates":[44.7908325,41.7249985],"type":"Point"},"placekey":"@67k-snw-wc5","address":{"country_code":"GE","formatted_address":"Egnate And Vakhtang Fifia Street, T'bilisi, Georgia","locality":"T'bilisi","region":"Tbilisi"}},"labels":["concert","music"],"duration":0,"start_local":"2024-06-19T20:00:00","end":"2024-06-19T16:00:00Z","end_local":"2024-06-19T20:00:00","updated":"2024-06-11T00:06:54Z"},{"title":"Volker Strifler","description":"Sourced from predicthq.com","category":"concerts","start":"2024-06-18T15:30:00Z","geo":{"geometry":{"coordinates":[44.7908325,41.7249985],"type":"Point"},"placekey":"@67k-snw-wc5","address":{"country_code":"GE","formatted_address":"Egnate And Vakhtang Fifia Street, T'bilisi, Georgia","locality":"T'bilisi","region":"Tbilisi"}},"labels":["concert","music"],"duration":0,"start_local":"2024-06-18T19:30:00","end":"2024-06-18T15:30:00Z","end_local":"2024-06-18T19:30:00","updated":"2024-07-05T15:31:37Z"},{"title":"The Casualties","description":"Sourced from predicthq.com","category":"concerts","start":"2024-06-18T15:00:00Z","geo":{"geometry":{"coordinates":[44.84997,41.67669],"type":"Point"},"placekey":"@67k-spm-jqf","address":{"country_code":"GE","formatted_address":"2 Beri Gabriel Salosi I Turn, T'bilisi 0113, Georgia","postcode":"0113","locality":"T'bilisi","region":"Tbilisi"}},"labels":["concert","music"],"duration":0,"start_local":"2024-06-18T19:00:00","end":"2024-06-18T15:00:00Z","end_local":"2024-06-18T19:00:00","updated":"2024-07-02T17:28:52Z"},{"title":"Volker Strifler","description":"Sourced from predicthq.com","category":"concerts","start":"2024-06-17T16:00:00Z","geo":{"geometry":{"coordinates":[44.7908325,41.7249985],"type":"Point"},"placekey":"@67k-snw-wc5","address":{"country_code":"GE","formatted_address":"Egnate And Vakhtang Fifia Street, T'bilisi, Georgia","locality":"T'bilisi","region":"Tbilisi"}},"labels":["concert","music"],"duration":0,"start_local":"2024-06-17T20:00:00","end":"2024-06-17T16:00:00Z","end_local":"2024-06-17T20:00:00","updated":"2024-07-04T16:33:53Z"},{"title":"English StandUp Open Mic","description":"Sourced from predicthq.com - One of the best English StandUp Comedy Open Mics in Tbilisi, Georgia.","category":"performing-arts","start":"2024-06-16T16:00:00Z","geo":{"geometry":{"coordinates":[44.80178939999999,41.6917736],"type":"Point"},"placekey":"@67k-spq-qfz","address":{"country_code":"GE","formatted_address":"Shalva Dadiani Street, T'bilisi, Georgia","locality":"T'bilisi","region":"Tbilisi"}},"labels":["concert","entertainment","music","performing-arts"],"duration":9000,"start_local":"2024-06-16T20:00:00","end":"2024-06-16T18:30:00Z","end_local":"2024-06-16T22:30:00","updated":"2024-06-13T03:29:28Z"},{"title":"Opening Doors - Tbilisi","description":"Sourced from predicthq.com - გახსენი თბილისის კარიბჭეს და გაუზის კარებს ერთად, გაართულე და გაუმრავლე შედეგები.","category":"conferences","start":"2024-06-16T06:00:00Z","geo":{"geometry":{"coordinates":[44.75613759999999,41.7117285],"type":"Point"},"placekey":"@67k-sr4-v75","address":{"country_code":"GE","formatted_address":"Ilia Chavchavadze Avenue, T'bilisi, Georgia","locality":"T'bilisi","region":"Tbilisi"}},"labels":["community","conference"],"duration":7200,"start_local":"2024-06-16T10:00:00","end":"2024-06-16T08:00:00Z","end_local":"2024-06-16T12:00:00","updated":"2024-06-10T14:08:55Z"},{"title":"Lisi Trail Festival","description":"Sourced from predicthq.com","category":"sports","start":"2024-06-16T01:00:00Z","geo":{"geometry":{"coordinates":[44.8015168,41.6938026],"type":"Point"},"placekey":"@67k-spq-qmk","address":{"country_code":"GE","formatted_address":"T'bilisi, Tbilisi, Georgia","locality":"T'bilisi","region":"Tbilisi"}},"labels":["festival","marathon","outdoor-sports","running","sport"],"duration":0,"start_local":"2024-06-16T05:00:00","end":"2024-06-16T01:00:00Z","end_local":"2024-06-16T05:00:00","updated":"2024-06-04T00:52:11Z"},{"title":"\"Hunt on Democracies: Unmasking Radicalization and Navigating the New World Order\"","description":"Sourced from predicthq.com - Let's dive into the complexities of radicalization and global politics at our event \"Hunt on Democracies\" - it's gonna be eye-opening!","category":"conferences","start":"2024-06-13T05:30:00Z","geo":{"geometry":{"coordinates":[44.75613759999999,41.7117285],"type":"Point"},"placekey":"@67k-sr4-v75","address":{"country_code":"GE","formatted_address":"Ilia Chavchavadze Avenue, T'bilisi, Georgia","locality":"T'bilisi","region":"Tbilisi"}},"labels":["conference"],"duration":108000,"start_local":"2024-06-13T09:30:00","end":"2024-06-14T11:30:00Z","end_local":"2024-06-14T15:30:00","updated":"2024-06-11T02:12:48Z"},{"title":"Rugby Union Youth Internationals - Friendlies - Georgia U20 vs England U20","description":"Sourced from predicthq.com","category":"sports","start":"2024-06-12T14:00:00Z","geo":{"geometry":{"coordinates":[44.8003742,41.7990454],"type":"Point"},"placekey":"@67k-sqx-jjv","address":{"country_code":"GE","formatted_address":"QRX2+J49, Tbilisi, Georgia","locality":"Tbilisi","region":"Tbilisi"}},"labels":["rugby","sport"],"duration":0,"start_local":"2024-06-12T18:00:00","end":"2024-06-12T14:00:00Z","end_local":"2024-06-12T18:00:00","updated":"2024-06-11T03:31:45Z"},{"title":"The Blaze","description":"Sourced from predicthq.com","category":"concerts","start":"2024-06-07T19:30:00Z","geo":{"geometry":{"coordinates":[44.75423,41.70054],"type":"Point"},"placekey":"@67k-sr5-975","address":{"country_code":"GE","formatted_address":"Tbilisi, Georgia","locality":"Tbilisi","region":"Tbilisi"}},"labels":["concert","music"],"duration":0,"start_local":"2024-06-07T23:30:00","end":"2024-06-07T19:30:00Z","end_local":"2024-06-07T23:30:00","updated":"2024-06-21T19:31:43Z"},{"title":"Rugby Union Youth Internationals - Friendlies - Georgia U20 vs England U20","description":"Sourced from predicthq.com","category":"sports","start":"2024-06-07T14:00:00Z","geo":{"geometry":{"coordinates":[44.8003742,41.7990454],"type":"Point"},"placekey":"@67k-sqx-jjv","address":{"country_code":"GE","formatted_address":"QRX2+J49, Tbilisi, Georgia","locality":"Tbilisi","region":"Tbilisi"}},"labels":["rugby","sport"],"duration":0,"start_local":"2024-06-07T18:00:00","end":"2024-06-07T14:00:00Z","end_local":"2024-06-07T18:00:00","updated":"2024-06-11T22:06:26Z"},{"title":"English StandUp Open Mic","description":"Sourced from predicthq.com - One of the best English StandUp Comedy Open Mics in Tbilisi, Georgia.","category":"performing-arts","start":"2024-06-02T16:00:00Z","geo":{"geometry":{"coordinates":[44.80178939999999,41.6917736],"type":"Point"},"placekey":"@67k-spq-qfz","address":{"country_code":"GE","formatted_address":"Shalva Dadiani Street, T'bilisi, Georgia","locality":"T'bilisi","region":"Tbilisi"}},"labels":["concert","entertainment","music","performing-arts"],"duration":9000,"start_local":"2024-06-02T20:00:00","end":"2024-06-02T18:30:00Z","end_local":"2024-06-02T22:30:00","updated":"2024-05-30T03:37:18Z"},{"title":"CEV European Silver League (W) - Group Stage - Georgia vs Iceland","description":"Sourced from predicthq.com","category":"sports","start":"2024-06-02T16:00:00Z","geo":{"geometry":{"coordinates":[44.779457,41.7197249],"type":"Point"},"placekey":"@67k-sr6-wff","address":{"country_code":"GE","formatted_address":"1-26 ოცდაექვსი მაისის მოედანი, T'bilisi, Georgia","locality":"T'bilisi","region":"Tbilisi"}},"labels":["sport","volleyball"],"duration":0,"start_local":"2024-06-02T20:00:00","end":"2024-06-02T16:00:00Z","end_local":"2024-06-02T20:00:00","updated":"2024-06-04T00:04:05Z"},{"title":"ABADDON, UMBRI, ENFORCEMENT","description":"Sourced from predicthq.com","category":"concerts","start":"2024-06-02T15:00:00Z","geo":{"geometry":{"coordinates":[44.84997,41.67669],"type":"Point"},"placekey":"@67k-spm-jqf","address":{"country_code":"GE","formatted_address":"2 Beri Gabriel Salosi I Turn, T'bilisi 0113, Georgia","postcode":"0113","locality":"T'bilisi","region":"Tbilisi"}},"labels":["concert","music"],"duration":0,"start_local":"2024-06-02T19:00:00","end":"2024-06-02T15:00:00Z","end_local":"2024-06-02T19:00:00","updated":"2024-06-16T15:02:11Z"},{"title":"Ногу Свело!","description":"Sourced from predicthq.com","category":"concerts","start":"2024-06-02T15:00:00Z","geo":{"geometry":{"coordinates":[41.63724,41.64989],"type":"Point"},"placekey":"@67h-bh7-kmk","address":{"country_code":"GE","formatted_address":"39 Nikoloz Baratashvili Street, Batumi, Georgia","locality":"Batumi","region":"Adjara"}},"labels":["concert","music"],"duration":0,"start_local":"2024-06-02T19:00:00","end":"2024-06-02T15:00:00Z","end_local":"2024-06-02T19:00:00","updated":"2024-06-16T15:02:11Z"},{"title":"CEV European Silver League (W) - Group Stage - Iceland vs Luxembourg","description":"Sourced from predicthq.com","category":"sports","start":"2024-06-01T16:00:00Z","geo":{"geometry":{"coordinates":[44.779457,41.7197249],"type":"Point"},"placekey":"@67k-sr6-wff","address":{"country_code":"GE","formatted_address":"1-26 ოცდაექვსი მაისის მოედანი, T'bilisi, Georgia","locality":"T'bilisi","region":"Tbilisi"}},"labels":["sport","volleyball"],"duration":0,"start_local":"2024-06-01T20:00:00","end":"2024-06-01T16:00:00Z","end_local":"2024-06-01T20:00:00","updated":"2024-06-04T01:41:02Z"},{"title":"Perc","description":"Sourced from predicthq.com","category":"concerts","start":"2024-05-31T19:30:00Z","geo":{"geometry":{"coordinates":[44.7869924,41.7234919],"type":"Point"},"placekey":"@67k-snw-yqf","address":{"country_code":"GE","formatted_address":"2, Akaki Tsereteli Ave, T'bilisi, Georgia","locality":"T'bilisi","region":"Tbilisi"}},"labels":["concert","music"],"duration":0,"start_local":"2024-05-31T23:30:00","end":"2024-05-31T19:30:00Z","end_local":"2024-05-31T23:30:00","updated":"2024-06-14T19:31:29Z"},{"title":"Parrish Smith","description":"Sourced from predicthq.com","category":"concerts","start":"2024-05-31T19:00:00Z","geo":{"geometry":{"coordinates":[44.7869924,41.7234919],"type":"Point"},"placekey":"@67k-snw-yqf","address":{"country_code":"GE","formatted_address":"2, Akaki Tsereteli Ave, T'bilisi, Georgia","locality":"T'bilisi","region":"Tbilisi"}},"labels":["concert","music"],"duration":0,"start_local":"2024-05-31T23:00:00","end":"2024-05-31T19:00:00Z","end_local":"2024-05-31T23:00:00","updated":"2024-06-14T19:03:37Z"},{"title":"CEV European Silver League (W) - Group Stage - Luxembourg vs Georgia","description":"Sourced from predicthq.com","category":"sports","start":"2024-05-31T16:00:00Z","geo":{"geometry":{"coordinates":[44.779457,41.7197249],"type":"Point"},"placekey":"@67k-sr6-wff","address":{"country_code":"GE","formatted_address":"1-26 ოცდაექვსი მაისის მოედანი, T'bilisi, Georgia","locality":"T'bilisi","region":"Tbilisi"}},"labels":["sport","volleyball"],"duration":0,"start_local":"2024-05-31T20:00:00","end":"2024-05-31T16:00:00Z","end_local":"2024-05-31T20:00:00","updated":"2024-06-05T02:29:37Z"},{"title":"Scorpions","description":"Sourced from predicthq.com","category":"concerts","start":"2024-05-31T15:00:00Z","geo":{"geometry":{"coordinates":[41.76753,41.92706],"type":"Point"},"placekey":"@67h-55h-t35","address":{"country_code":"GE","formatted_address":"Shekvetili, Batumi, Georgia","locality":"Batumi"}},"labels":["concert","music"],"duration":0,"start_local":"2024-05-31T19:00:00","end":"2024-05-31T15:00:00Z","end_local":"2024-05-31T19:00:00","updated":"2024-06-24T04:58:32Z"},{"title":"XRESISTENCIAX | PHOBOPHILE | BLEAH | UGROZA","description":"Sourced from predicthq.com","category":"concerts","start":"2024-05-31T15:00:00Z","geo":{"geometry":{"coordinates":[44.84997,41.67669],"type":"Point"},"placekey":"@67k-spm-jqf","address":{"country_code":"GE","formatted_address":"2 Beri Gabriel Salosi I Turn, T'bilisi 0113, Georgia","postcode":"0113","locality":"T'bilisi","region":"Tbilisi"}},"labels":["concert","music"],"duration":0,"start_local":"2024-05-31T19:00:00","end":"2024-05-31T15:00:00Z","end_local":"2024-05-31T19:00:00","updated":"2024-06-14T15:08:26Z"},{"title":"Superleague - Final - Kavkasia vs Kutaisi","description":"Sourced from predicthq.com","category":"sports","start":"2024-05-27T15:00:00Z","geo":{"geometry":{"coordinates":[44.728555,41.718152],"type":"Point"},"placekey":"@67k-srb-td9","address":{"country_code":"GE","formatted_address":"15ა University St, T'bilisi 0186, Georgia","postcode":"0186","locality":"T'bilisi","region":"Tbilisi"}},"labels":["basketball","sport"],"duration":0,"start_local":"2024-05-27T19:00:00","end":"2024-05-27T15:00:00Z","end_local":"2024-05-27T19:00:00","updated":"2024-06-12T15:17:40Z"},{"title":"Superleague - Final - Kavkasia vs Kutaisi","description":"Sourced from predicthq.com","category":"sports","start":"2024-05-26T15:00:00Z","geo":{"geometry":{"coordinates":[44.728555,41.718152],"type":"Point"},"placekey":"@67k-srb-td9","address":{"country_code":"GE","formatted_address":"15ა University St, T'bilisi 0186, Georgia","postcode":"0186","locality":"T'bilisi","region":"Tbilisi"}},"labels":["basketball","sport"],"duration":0,"start_local":"2024-05-26T19:00:00","end":"2024-05-26T15:00:00Z","end_local":"2024-05-26T19:00:00","updated":"2024-06-11T21:32:02Z"},{"title":"Angélique Kidjo","description":"Sourced from predicthq.com","category":"concerts","start":"2024-05-25T16:00:00Z","geo":{"geometry":{"coordinates":[44.7947332,41.7142304],"type":"Point"},"placekey":"@67k-snx-bkz","address":{"country_code":"GE","formatted_address":"123a Davit Aghmashenebeli Ave, T'bilisi, Georgia","locality":"T'bilisi","region":"Tbilisi"}},"labels":["concert","music"],"duration":0,"start_local":"2024-05-25T20:00:00","end":"2024-05-25T16:00:00Z","end_local":"2024-05-25T20:00:00","updated":"2024-06-28T17:49:05Z"},{"title":"STUTTTER | TIME PARADOX | BARK TO US","description":"Sourced from predicthq.com","category":"concerts","start":"2024-05-25T15:00:00Z","geo":{"geometry":{"coordinates":[44.84997,41.67669],"type":"Point"},"placekey":"@67k-spm-jqf","address":{"country_code":"GE","formatted_address":"2 Beri Gabriel Salosi I Turn, T'bilisi 0113, Georgia","postcode":"0113","locality":"T'bilisi","region":"Tbilisi"}},"labels":["concert","music"],"duration":0,"start_local":"2024-05-25T19:00:00","end":"2024-05-25T15:00:00Z","end_local":"2024-05-25T19:00:00","updated":"2024-06-12T16:14:50Z"},{"title":"Kittin","description":"Sourced from predicthq.com","category":"concerts","start":"2024-05-23T22:00:00Z","geo":{"geometry":{"coordinates":[44.7941133,41.7752454],"type":"Point"},"placekey":"@67k-sr2-y9z","address":{"country_code":"GE","formatted_address":"84 David Guramishvili Ave, T'bilisi, Georgia","locality":"T'bilisi","region":"Tbilisi"}},"labels":["concert","music"],"duration":0,"start_local":"2024-05-24T02:00:00","end":"2024-05-23T22:00:00Z","end_local":"2024-05-24T02:00:00","updated":"2024-06-12T04:51:46Z"},{"title":"Superleague - 3rd Place Final - Gurjaani Delta vs GAU","description":"Sourced from predicthq.com","category":"sports","start":"2024-05-23T15:00:00Z","geo":{"geometry":{"coordinates":[45.796608651804576,41.75515625016401],"type":"Point"},"placekey":"@67k-yr8-4qf","address":{"country_code":"GE","formatted_address":"QQ4W+3GM, Gurjaani, Georgia","locality":"Gurjaani","region":"Kakheti"}},"labels":["basketball","sport"],"duration":0,"start_local":"2024-05-23T19:00:00","end":"2024-05-23T15:00:00Z","end_local":"2024-05-23T19:00:00","updated":"2024-06-11T21:28:09Z"},{"title":"Nispacee Conference","description":"Sourced from predicthq.com","category":"conferences","start":"2024-05-23T05:00:00Z","geo":{"geometry":{"coordinates":[44.710391,41.719844],"type":"Point"},"placekey":"@67k-src-nbk","address":{"country_code":"GE","formatted_address":"10, 10 Ana Politkovskaia St, T'bilisi, Georgia","locality":"T'bilisi","region":"Tbilisi"}},"labels":["conference"],"duration":205200,"start_local":"2024-05-23T09:00:00","end":"2024-05-25T14:00:00Z","end_local":"2024-05-25T18:00:00","updated":"2024-05-27T07:54:52Z"},{"title":"Bituroad Conference","description":"Sourced from predicthq.com","category":"conferences","start":"2024-05-22T20:00:00Z","geo":{"geometry":{"coordinates":[44.793885,41.703827],"type":"Point"},"placekey":"@67k-spq-ct9","address":{"country_code":"GE","formatted_address":"1 Rose Revolution Square, T'bilisi 0108, Georgia","postcode":"0108","locality":"T'bilisi","region":"Tbilisi"}},"labels":["conference"],"duration":172799,"start_local":"2024-05-23T00:00:00","end":"2024-05-24T19:59:59Z","end_local":"2024-05-24T23:59:59","updated":"2024-05-28T03:22:41Z"},{"title":"Superleague - Final - Kutaisi vs Kavkasia","description":"Sourced from predicthq.com","category":"sports","start":"2024-05-22T15:00:00Z","geo":{"geometry":{"coordinates":[42.711327,42.235183],"type":"Point"},"placekey":"@67m-8wx-yjv","address":{"country_code":"GE","formatted_address":"121 Tbilisi - Senaki - Leselidze Hwy, Kutaisi 4600, Georgia","postcode":"4600","locality":"Kutaisi","region":"Imereti"}},"labels":["basketball","sport"],"duration":0,"start_local":"2024-05-22T19:00:00","end":"2024-05-22T15:00:00Z","end_local":"2024-05-22T19:00:00","updated":"2024-06-12T00:55:44Z"},{"title":"AMS Annual Conference: Academy of Marketing Science Annual Conference","description":"Sourced from predicthq.com","category":"conferences","start":"2024-05-22T05:00:00Z","geo":{"geometry":{"coordinates":[44.794368,41.702145],"type":"Point"},"placekey":"@67k-spq-cnq","address":{"country_code":"GE","formatted_address":"29 Shota Rustaveli Ave, T'bilisi 0108, Georgia","postcode":"0108","locality":"T'bilisi","region":"Tbilisi"}},"labels":["conference"],"duration":205200,"start_local":"2024-05-22T09:00:00","end":"2024-05-24T14:00:00Z","end_local":"2024-05-24T18:00:00","updated":"2024-06-02T23:31:42Z"},{"title":"Superleague - Final - Kutaisi vs Kavkasia","description":"Sourced from predicthq.com","category":"sports","start":"2024-05-21T15:00:00Z","geo":{"geometry":{"coordinates":[42.711327,42.235183],"type":"Point"},"placekey":"@67m-8wx-yjv","address":{"country_code":"GE","formatted_address":"121 Tbilisi - Senaki - Leselidze Hwy, Kutaisi 4600, Georgia","postcode":"4600","locality":"Kutaisi","region":"Imereti"}},"labels":["basketball","sport"],"duration":0,"start_local":"2024-05-21T19:00:00","end":"2024-05-21T15:00:00Z","end_local":"2024-05-21T19:00:00","updated":"2024-06-12T18:45:55Z"},{"title":"Ди Курцман and The Dartz","description":"Sourced from predicthq.com","category":"concerts","start":"2024-05-19T15:00:00Z","geo":{"geometry":{"coordinates":[44.79042,41.70508],"type":"Point"},"placekey":"@67k-sr9-jsq","address":{"country_code":"GE","formatted_address":"6 Giorgi Akhvlediani St, T'bilisi 0108, Georgia","postcode":"0108","locality":"T'bilisi","region":"Tbilisi"}},"labels":["concert","music"],"duration":0,"start_local":"2024-05-19T19:00:00","end":"2024-05-19T15:00:00Z","end_local":"2024-05-19T19:00:00","updated":"2024-06-12T02:34:19Z"},{"title":"†CIRCUS MADNESS†","description":"Sourced from predicthq.com","category":"concerts","start":"2024-05-18T18:00:00Z","geo":{"geometry":{"coordinates":[44.84997,41.67669],"type":"Point"},"placekey":"@67k-spm-jqf","address":{"country_code":"GE","formatted_address":"2 Beri Gabriel Salosi I Turn, T'bilisi 0113, Georgia","postcode":"0113","locality":"T'bilisi","region":"Tbilisi"}},"labels":["concert","music"],"duration":0,"start_local":"2024-05-18T22:00:00","end":"2024-05-18T18:00:00Z","end_local":"2024-05-18T22:00:00","updated":"2024-06-12T12:49:38Z"},{"title":"Ди Курцман and The Dartz","description":"Sourced from predicthq.com","category":"concerts","start":"2024-05-18T14:00:00Z","geo":{"geometry":{"coordinates":[41.61697,41.64337],"type":"Point"},"placekey":"@67h-bgn-hdv","address":{"country_code":"GE","formatted_address":"4 Sherif Khimshiashvili St, Batumi 6000, Georgia","postcode":"6000","locality":"Batumi","region":"Adjara"}},"labels":["concert","music"],"duration":0,"start_local":"2024-05-18T18:00:00","end":"2024-05-18T14:00:00Z","end_local":"2024-05-18T18:00:00","updated":"2024-06-12T04:13:54Z"},{"title":"Jon Roniger and The Good For Nothin' Band","description":"Sourced from predicthq.com","category":"concerts","start":"2024-05-17T16:00:00Z","geo":{"geometry":{"coordinates":[44.7908325,41.7249985],"type":"Point"},"placekey":"@67k-snw-wc5","address":{"country_code":"GE","formatted_address":"Egnate And Vakhtang Fifia Street, T'bilisi, Georgia","locality":"T'bilisi","region":"Tbilisi"}},"labels":["concert","music"],"duration":0,"start_local":"2024-05-17T20:00:00","end":"2024-05-17T16:00:00Z","end_local":"2024-05-17T20:00:00","updated":"2024-06-12T13:16:25Z"},{"title":"Louna","description":"Sourced from predicthq.com","category":"concerts","start":"2024-05-16T16:00:00Z","geo":{"geometry":{"coordinates":[44.79926,41.82828],"type":"Point"},"placekey":"@67k-sfr-pgk","address":{"country_code":"GE","formatted_address":"3 Giorgi Leonidze St, T'bilisi, Georgia","locality":"T'bilisi","region":"Mtskheta-Mtianeti"}},"labels":["concert","music"],"duration":0,"start_local":"2024-05-16T20:00:00","end":"2024-05-16T16:00:00Z","end_local":"2024-05-16T20:00:00","updated":"2024-06-11T22:19:29Z"},{"title":"Superleague - Semi-finals - GAU vs Kutaisi","description":"Sourced from predicthq.com","category":"sports","start":"2024-05-15T15:00:00Z","geo":{"geometry":{"coordinates":[44.728555,41.718152],"type":"Point"},"placekey":"@67k-srb-td9","address":{"country_code":"GE","formatted_address":"15ა University St, T'bilisi 0186, Georgia","postcode":"0186","locality":"T'bilisi","region":"Tbilisi"}},"labels":["basketball","sport"],"duration":0,"start_local":"2024-05-15T19:00:00","end":"2024-05-15T15:00:00Z","end_local":"2024-05-15T19:00:00","updated":"2024-06-12T01:44:04Z"},{"title":"Superleague - Semi-finals - Kavkasia vs Gurjaani Delta","description":"Sourced from predicthq.com","category":"sports","start":"2024-05-15T12:30:00Z","geo":{"geometry":{"coordinates":[44.728555,41.718152],"type":"Point"},"placekey":"@67k-srb-td9","address":{"country_code":"GE","formatted_address":"15ა University St, T'bilisi 0186, Georgia","postcode":"0186","locality":"T'bilisi","region":"Tbilisi"}},"labels":["basketball","sport"],"duration":0,"start_local":"2024-05-15T16:30:00","end":"2024-05-15T12:30:00Z","end_local":"2024-05-15T16:30:00","updated":"2024-06-12T04:45:14Z"},{"title":"European Science Engagement Conference","description":"Sourced from predicthq.com","category":"conferences","start":"2024-05-15T05:00:00Z","geo":{"geometry":{"coordinates":[44.771389,41.708507],"type":"Point"},"placekey":"@67k-srb-2rk","address":{"country_code":"GE","formatted_address":"Ilia Chavchavadze Avenue, 0179 T'bilisi, Georgia","locality":"T'bilisi","postcode":"0179","region":"Tbilisi"}},"labels":["conference"],"duration":118800,"start_local":"2024-05-15T09:00:00","end":"2024-05-16T14:00:00Z","end_local":"2024-05-16T18:00:00","updated":"2024-05-28T17:10:49Z"},{"title":"Superleague - Semi-finals - GAU vs Kutaisi","description":"Sourced from predicthq.com","category":"sports","start":"2024-05-14T15:00:00Z","geo":{"geometry":{"coordinates":[44.728555,41.718152],"type":"Point"},"placekey":"@67k-srb-td9","address":{"country_code":"GE","formatted_address":"15ა University St, T'bilisi 0186, Georgia","postcode":"0186","locality":"T'bilisi","region":"Tbilisi"}},"labels":["basketball","sport"],"duration":0,"start_local":"2024-05-14T19:00:00","end":"2024-05-14T15:00:00Z","end_local":"2024-05-14T19:00:00","updated":"2024-06-12T02:15:08Z"},{"title":"Superleague - Semi-finals - Kavkasia vs Gurjaani Delta","description":"Sourced from predicthq.com","category":"sports","start":"2024-05-14T12:30:00Z","geo":{"geometry":{"coordinates":[44.728555,41.718152],"type":"Point"},"placekey":"@67k-srb-td9","address":{"country_code":"GE","formatted_address":"15ა University St, T'bilisi 0186, Georgia","postcode":"0186","locality":"T'bilisi","region":"Tbilisi"}},"labels":["basketball","sport"],"duration":0,"start_local":"2024-05-14T16:30:00","end":"2024-05-14T12:30:00Z","end_local":"2024-05-14T16:30:00","updated":"2024-06-12T04:32:42Z"},{"title":"European Network on International Student Mobility Connecting Research and Practice Conference","description":"Sourced from predicthq.com","category":"conferences","start":"2024-05-13T05:00:00Z","geo":{"geometry":{"coordinates":[44.738667,41.70657],"type":"Point"},"placekey":"@67k-sr6-2ff","address":{"country_code":"GE","formatted_address":"Ilia Chavchavadze Avenue, 0179 T'bilisi, Georgia","locality":"T'bilisi","postcode":"0179","region":"Tbilisi"}},"labels":["conference"],"duration":205200,"start_local":"2024-05-13T09:00:00","end":"2024-05-15T14:00:00Z","end_local":"2024-05-15T18:00:00","updated":"2024-05-28T13:48:38Z"},{"title":"Incognito","description":"Sourced from predicthq.com","category":"concerts","start":"2024-05-11T17:00:00Z","geo":{"geometry":{"coordinates":[44.79187,41.70376],"type":"Point"},"placekey":"@67k-sr9-jn5","address":{"country_code":"GE","formatted_address":"6 Rose Revolution Square, T'bilisi 0108, Georgia","postcode":"0108","locality":"T'bilisi","region":"Tbilisi"}},"labels":["concert","music"],"duration":0,"start_local":"2024-05-11T21:00:00","end":"2024-05-11T17:00:00Z","end_local":"2024-05-11T21:00:00","updated":"2024-06-12T16:59:06Z"},{"title":"Armia Tbilisi vs Artsivebi","description":"Sourced from predicthq.com","category":"sports","start":"2024-05-11T13:00:00Z","geo":{"geometry":{"coordinates":[44.8003742,41.7990454],"type":"Point"},"placekey":"@67k-sqx-jjv","address":{"country_code":"GE","formatted_address":"QRX2+J49, Tbilisi, Georgia","locality":"Tbilisi","region":"Tbilisi"}},"labels":["rugby","sport"],"duration":0,"start_local":"2024-05-11T17:00:00","end":"2024-05-11T13:00:00Z","end_local":"2024-05-11T17:00:00","updated":"2024-06-15T12:53:50Z"},{"title":"Superleague - Semi-finals - Kutaisi vs GAU","description":"Sourced from predicthq.com","category":"sports","start":"2024-05-10T15:00:00Z","geo":{"geometry":{"coordinates":[42.711327,42.235183],"type":"Point"},"placekey":"@67m-8wx-yjv","address":{"country_code":"GE","formatted_address":"121 Tbilisi - Senaki - Leselidze Hwy, Kutaisi 4600, Georgia","postcode":"4600","locality":"Kutaisi","region":"Imereti"}},"labels":["basketball","sport"],"duration":0,"start_local":"2024-05-10T19:00:00","end":"2024-05-10T15:00:00Z","end_local":"2024-05-10T19:00:00","updated":"2024-06-11T22:26:08Z"},{"title":"Superleague - Semi-finals - Gurjaani Delta vs Kavkasia","description":"Sourced from predicthq.com","category":"sports","start":"2024-05-10T13:00:00Z","geo":{"geometry":{"coordinates":[45.796608651804576,41.75515625016401],"type":"Point"},"placekey":"@67k-yr8-4qf","address":{"country_code":"GE","formatted_address":"QQ4W+3GM, Gurjaani, Georgia","locality":"Gurjaani","region":"Kakheti"}},"labels":["basketball","sport"],"duration":0,"start_local":"2024-05-10T17:00:00","end":"2024-05-10T13:00:00Z","end_local":"2024-05-10T17:00:00","updated":"2024-06-12T03:19:17Z"},{"title":"Superleague - Semi-finals - Kutaisi vs GAU","description":"Sourced from predicthq.com","category":"sports","start":"2024-05-09T15:00:00Z","geo":{"geometry":{"coordinates":[42.711327,42.235183],"type":"Point"},"placekey":"@67m-8wx-yjv","address":{"country_code":"GE","formatted_address":"121 Tbilisi - Senaki - Leselidze Hwy, Kutaisi 4600, Georgia","postcode":"4600","locality":"Kutaisi","region":"Imereti"}},"labels":["basketball","sport"],"duration":0,"start_local":"2024-05-09T19:00:00","end":"2024-05-09T15:00:00Z","end_local":"2024-05-09T19:00:00","updated":"2024-06-12T18:07:48Z"},{"title":"Superleague - Semi-finals - Gurjaani Delta vs Kavkasia","description":"Sourced from predicthq.com","category":"sports","start":"2024-05-09T13:00:00Z","geo":{"geometry":{"coordinates":[45.796608651804576,41.75515625016401],"type":"Point"},"placekey":"@67k-yr8-4qf","address":{"country_code":"GE","formatted_address":"QQ4W+3GM, Gurjaani, Georgia","locality":"Gurjaani","region":"Kakheti"}},"labels":["basketball","sport"],"duration":0,"start_local":"2024-05-09T17:00:00","end":"2024-05-09T13:00:00Z","end_local":"2024-05-09T17:00:00","updated":"2024-06-12T18:31:34Z"},{"title":"English StandUp Open Mic","description":"Sourced from predicthq.com - One of the best English StandUp Comedy Open Mics in Tbilisi, Georgia.","category":"performing-arts","start":"2024-05-05T16:00:00Z","geo":{"geometry":{"coordinates":[44.80178939999999,41.6917736],"type":"Point"},"placekey":"@67k-spq-qfz","address":{"country_code":"GE","formatted_address":"Shalva Dadiani Street, T'bilisi, Georgia","locality":"T'bilisi","region":"Tbilisi"}},"labels":["concert","entertainment","music","performing-arts"],"duration":9000,"start_local":"2024-05-05T20:00:00","end":"2024-05-05T18:30:00Z","end_local":"2024-05-05T22:30:00","updated":"2024-06-05T07:21:41Z"},{"title":"Superleague - Quarter-finals - Kutaisi vs Rashi","description":"Sourced from predicthq.com","category":"sports","start":"2024-05-01T15:00:00Z","geo":{"geometry":{"coordinates":[42.711327,42.235183],"type":"Point"},"placekey":"@67m-8wx-yjv","address":{"country_code":"GE","formatted_address":"121 Tbilisi - Senaki - Leselidze Hwy, Kutaisi 4600, Georgia","postcode":"4600","locality":"Kutaisi","region":"Imereti"}},"labels":["basketball","sport"],"duration":0,"start_local":"2024-05-01T19:00:00","end":"2024-05-01T15:00:00Z","end_local":"2024-05-01T19:00:00","updated":"2024-06-12T05:28:21Z"},{"title":"Superleague - Quarter-finals - GAU vs Arena Orbi","description":"Sourced from predicthq.com","category":"sports","start":"2024-04-30T12:30:00Z","geo":{"geometry":{"coordinates":[44.728555,41.718152],"type":"Point"},"placekey":"@67k-srb-td9","address":{"country_code":"GE","formatted_address":"15ა University St, T'bilisi 0186, Georgia","postcode":"0186","locality":"T'bilisi","region":"Tbilisi"}},"labels":["basketball","sport"],"duration":0,"start_local":"2024-04-30T16:30:00","end":"2024-04-30T12:30:00Z","end_local":"2024-04-30T16:30:00","updated":"2024-06-12T05:07:16Z"},{"title":"English StandUp Open Mic","description":"Sourced from predicthq.com - One of the best English StandUp Comedy Open Mics in Tbilisi, Georgia.","category":"performing-arts","start":"2024-04-28T16:00:00Z","geo":{"geometry":{"coordinates":[44.80178939999999,41.6917736],"type":"Point"},"placekey":"@67k-spq-qfz","address":{"country_code":"GE","formatted_address":"Shalva Dadiani Street, T'bilisi, Georgia","locality":"T'bilisi","region":"Tbilisi"}},"labels":["concert","entertainment","music","performing-arts"],"duration":9000,"start_local":"2024-04-28T20:00:00","end":"2024-04-28T18:30:00Z","end_local":"2024-04-28T22:30:00","updated":"2024-06-05T01:01:55Z"},{"title":"AIA Kutaisi vs Lelo","description":"Sourced from predicthq.com","category":"sports","start":"2024-04-28T14:00:00Z","geo":{"geometry":{"coordinates":[42.6843939,42.2413479],"type":"Point"},"placekey":"@67h-5rr-4jv","address":{"country_code":"GE","formatted_address":"K Gmasaghurdia Street, Kutaisi, Georgia","locality":"Kutaisi","region":"Imereti"}},"labels":["rugby","sport"],"duration":6373,"start_local":"2024-04-28T18:00:00","end":"2024-04-28T15:46:13Z","end_local":"2024-04-28T19:46:13","updated":"2024-06-05T00:59:30Z"},{"title":"Superleague - Quarter-finals - Rashi vs Kutaisi","description":"Sourced from predicthq.com","category":"sports","start":"2024-04-28T12:30:00Z","geo":{"geometry":{"coordinates":[44.728555,41.718152],"type":"Point"},"placekey":"@67k-srb-td9","address":{"country_code":"GE","formatted_address":"15ა University St, T'bilisi 0186, Georgia","postcode":"0186","locality":"T'bilisi","region":"Tbilisi"}},"labels":["basketball","sport"],"duration":0,"start_local":"2024-04-28T16:30:00","end":"2024-04-28T12:30:00Z","end_local":"2024-04-28T16:30:00","updated":"2024-06-12T06:42:10Z"},{"title":"Superleague - Quarter-finals - TSU Tbilisi vs Kavkasia","description":"Sourced from predicthq.com","category":"sports","start":"2024-04-28T10:00:00Z","geo":{"geometry":{"coordinates":[44.728555,41.718152],"type":"Point"},"placekey":"@67k-srb-td9","address":{"country_code":"GE","formatted_address":"15ა University St, T'bilisi 0186, Georgia","postcode":"0186","locality":"T'bilisi","region":"Tbilisi"}},"labels":["basketball","sport"],"duration":0,"start_local":"2024-04-28T14:00:00","end":"2024-04-28T10:00:00Z","end_local":"2024-04-28T14:00:00","updated":"2024-06-12T17:24:14Z"},{"title":"CamelPhat","description":"Sourced from predicthq.com","category":"concerts","start":"2024-04-27T15:00:00Z","geo":{"geometry":{"coordinates":[44.75423,41.70054],"type":"Point"},"placekey":"@67k-sr5-975","address":{"country_code":"GE","formatted_address":"Tbilisi, Georgia","locality":"Tbilisi","region":"Tbilisi"}},"labels":["concert","music"],"duration":0,"start_local":"2024-04-27T19:00:00","end":"2024-04-27T15:00:00Z","end_local":"2024-04-27T19:00:00","updated":"2024-06-11T21:25:03Z"},{"title":"Superleague - Quarter-finals - Arena Orbi vs GAU","description":"Sourced from predicthq.com","category":"sports","start":"2024-04-27T14:30:00Z","geo":{"geometry":{"coordinates":[42.99841258064811,42.34689289078732],"type":"Point"},"placekey":"@67m-84y-pjv","address":{"country_code":"GE","formatted_address":"8XWX+QC6, Tkibuli, Georgia","locality":"Tkibuli","region":"Imereti"}},"labels":["basketball","sport"],"duration":0,"start_local":"2024-04-27T18:30:00","end":"2024-04-27T14:30:00Z","end_local":"2024-04-27T18:30:00","updated":"2024-06-12T14:55:42Z"},{"title":"Superleague - Quarter-finals - Rashi vs Kutaisi","description":"Sourced from predicthq.com","category":"sports","start":"2024-04-27T12:00:00Z","geo":{"geometry":{"coordinates":[44.728555,41.718152],"type":"Point"},"placekey":"@67k-srb-td9","address":{"country_code":"GE","formatted_address":"15ა University St, T'bilisi 0186, Georgia","postcode":"0186","locality":"T'bilisi","region":"Tbilisi"}},"labels":["basketball","sport"],"duration":0,"start_local":"2024-04-27T16:00:00","end":"2024-04-27T12:00:00Z","end_local":"2024-04-27T16:00:00","updated":"2024-06-11T20:42:17Z"},{"title":"Superleague - Quarter-finals - Arena Orbi vs GAU","description":"Sourced from predicthq.com","category":"sports","start":"2024-04-26T14:30:00Z","geo":{"geometry":{"coordinates":[42.99841258064811,42.34689289078732],"type":"Point"},"placekey":"@67m-84y-pjv","address":{"country_code":"GE","formatted_address":"8XWX+QC6, Tkibuli, Georgia","locality":"Tkibuli","region":"Imereti"}},"labels":["basketball","sport"],"duration":0,"start_local":"2024-04-26T18:30:00","end":"2024-04-26T14:30:00Z","end_local":"2024-04-26T18:30:00","updated":"2024-06-12T04:59:29Z"},{"title":"Superleague - Quarter-finals - Iverion vs Gurjaani Delta","description":"Sourced from predicthq.com","category":"sports","start":"2024-04-25T16:00:00Z","geo":{"geometry":{"coordinates":[44.11834182119066,41.97350001375669],"type":"Point"},"placekey":"@67k-5qc-gff","address":{"country_code":"GE","formatted_address":"V/12a Tamar Mepe Street, Gori, Georgia","locality":"Gori","region":"Shida Kartli"}},"labels":["basketball","sport"],"duration":0,"start_local":"2024-04-25T20:00:00","end":"2024-04-25T16:00:00Z","end_local":"2024-04-25T20:00:00","updated":"2024-06-12T02:39:27Z"},{"title":"Play-offs 1/2 - Final - Sokhumi Georgia vs Mega Margveti","description":"Sourced from predicthq.com","category":"sports","start":"2024-04-25T12:00:00Z","geo":{"geometry":{"coordinates":[44.728555,41.718152],"type":"Point"},"placekey":"@67k-srb-td9","address":{"country_code":"GE","formatted_address":"15ა University St, T'bilisi 0186, Georgia","postcode":"0186","locality":"T'bilisi","region":"Tbilisi"}},"labels":["basketball","sport"],"duration":0,"start_local":"2024-04-25T16:00:00","end":"2024-04-25T12:00:00Z","end_local":"2024-04-25T16:00:00","updated":"2024-06-12T04:47:04Z"},{"title":"Superleague - Quarter-finals - Kavkasia vs TSU Tbilisi","description":"Sourced from predicthq.com","category":"sports","start":"2024-04-25T10:00:00Z","geo":{"geometry":{"coordinates":[44.728555,41.718152],"type":"Point"},"placekey":"@67k-srb-td9","address":{"country_code":"GE","formatted_address":"15ა University St, T'bilisi 0186, Georgia","postcode":"0186","locality":"T'bilisi","region":"Tbilisi"}},"labels":["basketball","sport"],"duration":0,"start_local":"2024-04-25T14:00:00","end":"2024-04-25T10:00:00Z","end_local":"2024-04-25T14:00:00","updated":"2024-06-12T05:36:18Z"},{"title":"Georgia Aviation:At the Crossroads of Europe and Asia","description":"Sourced from predicthq.com","category":"expos","start":"2024-04-25T05:00:00Z","geo":{"geometry":{"coordinates":[44.818571,41.690915],"type":"Point"},"placekey":"@67k-spq-5cq","address":{"country_code":"GE","formatted_address":"Ketevan Tsamebuli Avenue, T'bilisi, Georgia","locality":"T'bilisi","region":"Tbilisi"}},"labels":["expo"],"duration":32400,"start_local":"2024-04-25T09:00:00","end":"2024-04-25T14:00:00Z","end_local":"2024-04-25T18:00:00","updated":"2024-05-21T04:15:24Z"},{"title":"Superleague - Quarter-finals - Iverion vs Gurjaani Delta","description":"Sourced from predicthq.com","category":"sports","start":"2024-04-24T16:00:00Z","geo":{"geometry":{"coordinates":[44.11834182119066,41.97350001375669],"type":"Point"},"placekey":"@67k-5qc-gff","address":{"country_code":"GE","formatted_address":"V/12a Tamar Mepe Street, Gori, Georgia","locality":"Gori","region":"Shida Kartli"}},"labels":["basketball","sport"],"duration":0,"start_local":"2024-04-24T20:00:00","end":"2024-04-24T16:00:00Z","end_local":"2024-04-24T20:00:00","updated":"2024-06-12T03:38:50Z"},{"title":"Superleague - Quarter-finals - Kutaisi vs Rashi","description":"Sourced from predicthq.com","category":"sports","start":"2024-04-24T12:30:00Z","geo":{"geometry":{"coordinates":[42.711327,42.235183],"type":"Point"},"placekey":"@67m-8wx-yjv","address":{"country_code":"GE","formatted_address":"121 Tbilisi - Senaki - Leselidze Hwy, Kutaisi 4600, Georgia","postcode":"4600","locality":"Kutaisi","region":"Imereti"}},"labels":["basketball","sport"],"duration":0,"start_local":"2024-04-24T16:30:00","end":"2024-04-24T12:30:00Z","end_local":"2024-04-24T16:30:00","updated":"2024-06-12T02:54:13Z"},{"title":"Superleague - Quarter-finals - Kavkasia vs TSU Tbilisi","description":"Sourced from predicthq.com","category":"sports","start":"2024-04-24T10:00:00Z","geo":{"geometry":{"coordinates":[44.728555,41.718152],"type":"Point"},"placekey":"@67k-srb-td9","address":{"country_code":"GE","formatted_address":"15ა University St, T'bilisi 0186, Georgia","postcode":"0186","locality":"T'bilisi","region":"Tbilisi"}},"labels":["basketball","sport"],"duration":0,"start_local":"2024-04-24T14:00:00","end":"2024-04-24T10:00:00Z","end_local":"2024-04-24T14:00:00","updated":"2024-06-12T14:36:32Z"},{"title":"Superleague - Quarter-finals - Kutaisi vs Rashi","description":"Sourced from predicthq.com","category":"sports","start":"2024-04-23T15:00:00Z","geo":{"geometry":{"coordinates":[42.711327,42.235183],"type":"Point"},"placekey":"@67m-8wx-yjv","address":{"country_code":"GE","formatted_address":"121 Tbilisi - Senaki - Leselidze Hwy, Kutaisi 4600, Georgia","postcode":"4600","locality":"Kutaisi","region":"Imereti"}},"labels":["basketball","sport"],"duration":0,"start_local":"2024-04-23T19:00:00","end":"2024-04-23T15:00:00Z","end_local":"2024-04-23T19:00:00","updated":"2024-06-12T00:17:30Z"},{"title":"Superleague - Quarter-finals - GAU vs Arena Orbi","description":"Sourced from predicthq.com","category":"sports","start":"2024-04-22T14:30:00Z","geo":{"geometry":{"coordinates":[44.728555,41.718152],"type":"Point"},"placekey":"@67k-srb-td9","address":{"country_code":"GE","formatted_address":"15ა University St, T'bilisi 0186, Georgia","postcode":"0186","locality":"T'bilisi","region":"Tbilisi"}},"labels":["basketball","sport"],"duration":0,"start_local":"2024-04-22T18:30:00","end":"2024-04-22T14:30:00Z","end_local":"2024-04-22T18:30:00","updated":"2024-06-11T21:50:05Z"},{"title":"Play-offs 1/2 - Final - Mega Margveti vs Sokhumi Georgia","description":"Sourced from predicthq.com","category":"sports","start":"2024-04-22T12:00:00Z","geo":{"geometry":{"coordinates":[43.03243872325373,42.10368871115013],"type":"Point"},"placekey":"@67m-vrj-6kz","address":{"country_code":"GE","formatted_address":"ზესტაფონი, იმერეთის მხარე, Georgia","locality":"ზესტაფონი","region":"იმერეთის მხარე"}},"labels":["basketball","sport"],"duration":0,"start_local":"2024-04-22T16:00:00","end":"2024-04-22T12:00:00Z","end_local":"2024-04-22T16:00:00","updated":"2024-06-12T05:01:22Z"},{"title":"kavabanga Depo kolibri","description":"Sourced from predicthq.com","category":"concerts","start":"2024-04-21T15:00:00Z","geo":{"geometry":{"coordinates":[44.84997,41.67669],"type":"Point"},"placekey":"@67k-spm-jqf","address":{"country_code":"GE","formatted_address":"2 Beri Gabriel Salosi I Turn, T'bilisi 0113, Georgia","postcode":"0113","locality":"T'bilisi","region":"Tbilisi"}},"labels":["concert","music"],"duration":0,"start_local":"2024-04-21T19:00:00","end":"2024-04-21T15:00:00Z","end_local":"2024-04-21T19:00:00","updated":"2024-06-11T21:47:52Z"},{"title":"Lelo vs Qochebi","description":"Sourced from predicthq.com","category":"sports","start":"2024-04-21T13:00:00Z","geo":{"geometry":{"coordinates":[44.8597553,41.6746426],"type":"Point"},"placekey":"@67k-sq6-gzf","address":{"country_code":"GE","formatted_address":"MVF5+VW2, Tbilisi, Georgia","locality":"Tbilisi","region":"Tbilisi"}},"labels":["rugby","sport"],"duration":0,"start_local":"2024-04-21T17:00:00","end":"2024-04-21T13:00:00Z","end_local":"2024-04-21T17:00:00","updated":"2024-06-12T01:49:39Z"},{"title":"Superleague - Quarter-finals - GAU vs Arena Orbi","description":"Sourced from predicthq.com","category":"sports","start":"2024-04-21T12:30:00Z","geo":{"geometry":{"coordinates":[44.728555,41.718152],"type":"Point"},"placekey":"@67k-srb-td9","address":{"country_code":"GE","formatted_address":"15ა University St, T'bilisi 0186, Georgia","postcode":"0186","locality":"T'bilisi","region":"Tbilisi"}},"labels":["basketball","sport"],"duration":0,"start_local":"2024-04-21T16:30:00","end":"2024-04-21T12:30:00Z","end_local":"2024-04-21T16:30:00","updated":"2024-06-11T21:35:56Z"},{"title":"Play-offs 1/2 - Final - Mega Margveti vs Sokhumi Georgia","description":"Sourced from predicthq.com","category":"sports","start":"2024-04-21T12:00:00Z","geo":{"geometry":{"coordinates":[43.03243872325373,42.10368871115013],"type":"Point"},"placekey":"@67m-vrj-6kz","address":{"country_code":"GE","formatted_address":"ზესტაფონი, იმერეთის მხარე, Georgia","locality":"ზესტაფონი","region":"იმერეთის მხარე"}},"labels":["basketball","sport"],"duration":0,"start_local":"2024-04-21T16:00:00","end":"2024-04-21T12:00:00Z","end_local":"2024-04-21T16:00:00","updated":"2024-06-12T00:50:05Z"},{"title":"Tbilisi Adventure Run","description":"Sourced from predicthq.com","category":"sports","start":"2024-04-21T06:00:00Z","geo":{"geometry":{"coordinates":[44.8015168,41.6938026],"type":"Point"},"placekey":"@67k-spq-qmk","address":{"country_code":"GE","formatted_address":"T'bilisi, Tbilisi, Georgia","locality":"T'bilisi","region":"Tbilisi"}},"labels":["outdoor-sports","running","sport"],"duration":0,"start_local":"2024-04-21T10:00:00","end":"2024-04-21T06:00:00Z","end_local":"2024-04-21T10:00:00","updated":"2024-06-05T15:23:44Z"},{"title":"Superleague - Quarter-finals - Gurjaani Delta vs Iverion","description":"Sourced from predicthq.com","category":"sports","start":"2024-04-20T15:00:00Z","geo":{"geometry":{"coordinates":[45.796608651804576,41.75515625016401],"type":"Point"},"placekey":"@67k-yr8-4qf","address":{"country_code":"GE","formatted_address":"QQ4W+3GM, Gurjaani, Georgia","locality":"Gurjaani","region":"Kakheti"}},"labels":["basketball","sport"],"duration":0,"start_local":"2024-04-20T19:00:00","end":"2024-04-20T15:00:00Z","end_local":"2024-04-20T19:00:00","updated":"2024-06-12T18:41:02Z"},{"title":"Samida","description":"Sourced from predicthq.com","category":"concerts","start":"2024-04-20T14:00:00Z","geo":{"geometry":{"coordinates":[44.79938,41.69453],"type":"Point"},"placekey":"@67k-spq-ndv","address":{"country_code":"GE","formatted_address":"2/4 Shota Rustaveli Ave, T'bilisi, Georgia","locality":"T'bilisi","region":"Tbilisi"}},"labels":["concert","music"],"duration":0,"start_local":"2024-04-20T18:00:00","end":"2024-04-20T14:00:00Z","end_local":"2024-04-20T18:00:00","updated":"2024-06-12T09:04:38Z"},{"title":"Sword Swallower Dan Meyer","description":"Sourced from predicthq.com","category":"concerts","start":"2024-04-20T10:00:00Z","geo":{"geometry":{"coordinates":[44.7113724,41.7242622],"type":"Point"},"placekey":"@67k-src-p5f","address":{"country_code":"GE","formatted_address":"Sandro Euli Street, T'bilisi, Georgia","locality":"T'bilisi","region":"Tbilisi"}},"labels":["concert","music"],"duration":0,"start_local":"2024-04-20T14:00:00","end":"2024-04-20T10:00:00Z","end_local":"2024-04-20T14:00:00","updated":"2024-06-12T01:48:59Z"},{"title":"Superleague - Quarter-finals - TSU Tbilisi vs Kavkasia","description":"Sourced from predicthq.com","category":"sports","start":"2024-04-20T10:00:00Z","geo":{"geometry":{"coordinates":[44.728555,41.718152],"type":"Point"},"placekey":"@67k-srb-td9","address":{"country_code":"GE","formatted_address":"15ა University St, T'bilisi 0186, Georgia","postcode":"0186","locality":"T'bilisi","region":"Tbilisi"}},"labels":["basketball","sport"],"duration":0,"start_local":"2024-04-20T14:00:00","end":"2024-04-20T10:00:00Z","end_local":"2024-04-20T14:00:00","updated":"2024-06-11T21:50:43Z"},{"title":"Superleague - Quarter-finals - Gurjaani Delta vs Iverion","description":"Sourced from predicthq.com","category":"sports","start":"2024-04-19T15:00:00Z","geo":{"geometry":{"coordinates":[45.796608651804576,41.75515625016401],"type":"Point"},"placekey":"@67k-yr8-4qf","address":{"country_code":"GE","formatted_address":"QQ4W+3GM, Gurjaani, Georgia","locality":"Gurjaani","region":"Kakheti"}},"labels":["basketball","sport"],"duration":0,"start_local":"2024-04-19T19:00:00","end":"2024-04-19T15:00:00Z","end_local":"2024-04-19T19:00:00","updated":"2024-06-12T14:42:59Z"},{"title":"Superleague - Quarter-finals - TSU Tbilisi vs Kavkasia","description":"Sourced from predicthq.com","category":"sports","start":"2024-04-19T10:00:00Z","geo":{"geometry":{"coordinates":[44.728555,41.718152],"type":"Point"},"placekey":"@67k-srb-td9","address":{"country_code":"GE","formatted_address":"15ა University St, T'bilisi 0186, Georgia","postcode":"0186","locality":"T'bilisi","region":"Tbilisi"}},"labels":["basketball","sport"],"duration":0,"start_local":"2024-04-19T14:00:00","end":"2024-04-19T10:00:00Z","end_local":"2024-04-19T14:00:00","updated":"2024-06-12T10:33:10Z"},{"title":"English StandUp Open Mic","description":"Sourced from predicthq.com - One of the best English StandUp Comedy Open Mics in Tbilisi, Georgia.","category":"performing-arts","start":"2024-04-14T16:00:00Z","geo":{"geometry":{"coordinates":[44.80178939999999,41.6917736],"type":"Point"},"placekey":"@67k-spq-qfz","address":{"country_code":"GE","formatted_address":"Shalva Dadiani Street, T'bilisi, Georgia","locality":"T'bilisi","region":"Tbilisi"}},"labels":["concert","entertainment","music","performing-arts"],"duration":9000,"start_local":"2024-04-14T20:00:00","end":"2024-04-14T18:30:00Z","end_local":"2024-04-14T22:30:00","updated":"2024-06-04T23:15:37Z"},{"title":"Superleague - Rashi vs Kutaisi","description":"Sourced from predicthq.com","category":"sports","start":"2024-04-14T14:00:00Z","geo":{"geometry":{"coordinates":[44.728555,41.718152],"type":"Point"},"placekey":"@67k-srb-td9","address":{"country_code":"GE","formatted_address":"15ა University St, T'bilisi 0186, Georgia","postcode":"0186","locality":"T'bilisi","region":"Tbilisi"}},"labels":["basketball","sport"],"duration":0,"start_local":"2024-04-14T18:00:00","end":"2024-04-14T14:00:00Z","end_local":"2024-04-14T18:00:00","updated":"2024-06-12T07:25:32Z"},{"title":"Superleague - TSU Tbilisi vs Batumi","description":"Sourced from predicthq.com","category":"sports","start":"2024-04-14T11:30:00Z","geo":{"geometry":{"coordinates":[44.728555,41.718152],"type":"Point"},"placekey":"@67k-srb-td9","address":{"country_code":"GE","formatted_address":"15ა University St, T'bilisi 0186, Georgia","postcode":"0186","locality":"T'bilisi","region":"Tbilisi"}},"labels":["basketball","sport"],"duration":0,"start_local":"2024-04-14T15:30:00","end":"2024-04-14T11:30:00Z","end_local":"2024-04-14T15:30:00","updated":"2024-06-12T14:35:24Z"},{"title":"RC Aresi vs Qochebi","description":"Sourced from predicthq.com","category":"sports","start":"2024-04-14T10:30:00Z","geo":{"geometry":{"coordinates":[42.6843939,42.2413479],"type":"Point"},"placekey":"@67h-5rr-4jv","address":{"country_code":"GE","formatted_address":"K Gmasaghurdia Street, Kutaisi, Georgia","locality":"Kutaisi","region":"Imereti"}},"labels":["rugby","sport"],"duration":6362,"start_local":"2024-04-14T14:30:00","end":"2024-04-14T12:16:02Z","end_local":"2024-04-14T16:16:02","updated":"2024-06-05T17:15:39Z"},{"title":"Superleague - GAU vs Kavkasia","description":"Sourced from predicthq.com","category":"sports","start":"2024-04-14T09:00:00Z","geo":{"geometry":{"coordinates":[44.728555,41.718152],"type":"Point"},"placekey":"@67k-srb-td9","address":{"country_code":"GE","formatted_address":"15ა University St, T'bilisi 0186, Georgia","postcode":"0186","locality":"T'bilisi","region":"Tbilisi"}},"labels":["basketball","sport"],"duration":0,"start_local":"2024-04-14T13:00:00","end":"2024-04-14T09:00:00Z","end_local":"2024-04-14T13:00:00","updated":"2024-06-12T05:36:29Z"},{"title":"Superleague - Rustavi vs Arena Orbi","description":"Sourced from predicthq.com","category":"sports","start":"2024-04-13T15:00:00Z","geo":{"geometry":{"coordinates":[44.99187178611354,41.572053858391925],"type":"Point"},"placekey":"@67k-p9y-m49","address":{"country_code":"GE","formatted_address":"Davit Aghmashenebeli Street, Rustavi, Georgia","locality":"Rustavi","region":"Kvemo Kartli"}},"labels":["basketball","sport"],"duration":0,"start_local":"2024-04-13T19:00:00","end":"2024-04-13T15:00:00Z","end_local":"2024-04-13T19:00:00","updated":"2024-06-11T23:56:12Z"},{"title":"Lelo vs AIA Kutaisi","description":"Sourced from predicthq.com","category":"sports","start":"2024-04-13T12:00:00Z","geo":{"geometry":{"coordinates":[44.8597553,41.6746426],"type":"Point"},"placekey":"@67k-sq6-gzf","address":{"country_code":"GE","formatted_address":"MVF5+VW2, Tbilisi, Georgia","locality":"Tbilisi","region":"Tbilisi"}},"labels":["rugby","sport"],"duration":7048,"start_local":"2024-04-13T16:00:00","end":"2024-04-13T13:57:28Z","end_local":"2024-04-13T17:57:28","updated":"2024-06-05T02:21:54Z"},{"title":"Superleague - Mega Margveti vs Iverion","description":"Sourced from predicthq.com","category":"sports","start":"2024-04-13T12:00:00Z","geo":{"geometry":{"coordinates":[43.03243872325373,42.10368871115013],"type":"Point"},"placekey":"@67m-vrj-6kz","address":{"country_code":"GE","formatted_address":"ზესტაფონი, იმერეთის მხარე, Georgia","locality":"ზესტაფონი","region":"იმერეთის მხარე"}},"labels":["basketball","sport"],"duration":0,"start_local":"2024-04-13T16:00:00","end":"2024-04-13T12:00:00Z","end_local":"2024-04-13T16:00:00","updated":"2024-06-12T10:00:54Z"},{"title":"Deluxe Travel Market","description":"Sourced from predicthq.com","category":"expos","start":"2024-04-12T05:00:00Z","geo":{"geometry":{"coordinates":[44.794368,41.702145],"type":"Point"},"placekey":"@67k-spq-cnq","address":{"country_code":"GE","formatted_address":"29 Shota Rustaveli Ave, T'bilisi 0108, Georgia","postcode":"0108","locality":"T'bilisi","region":"Tbilisi"}},"labels":["expo"],"duration":32400,"start_local":"2024-04-12T09:00:00","end":"2024-04-12T14:00:00Z","end_local":"2024-04-12T18:00:00","updated":"2024-06-03T18:32:59Z"},{"title":"Art Fair","description":"Sourced from predicthq.com","category":"expos","start":"2024-04-10T20:00:00Z","geo":{"geometry":{"coordinates":[44.779263,41.741545],"type":"Point"},"placekey":"@67k-snt-dd9","address":{"country_code":"GE","formatted_address":"Akaki Tsereteli Avenue, T'bilisi, Georgia","locality":"T'bilisi","region":"Tbilisi"}},"labels":["expo"],"duration":345599,"start_local":"2024-04-11T00:00:00","end":"2024-04-14T19:59:59Z","end_local":"2024-04-14T23:59:59","updated":"2024-06-05T11:58:02Z"},{"title":"Cup - Final - TSU Tbilisi vs Iverion","description":"Sourced from predicthq.com","category":"sports","start":"2024-04-10T15:00:00Z","geo":{"geometry":{"coordinates":[44.728555,41.718152],"type":"Point"},"placekey":"@67k-srb-td9","address":{"country_code":"GE","formatted_address":"15ა University St, T'bilisi 0186, Georgia","postcode":"0186","locality":"T'bilisi","region":"Tbilisi"}},"labels":["basketball","sport"],"duration":0,"start_local":"2024-04-10T19:00:00","end":"2024-04-10T15:00:00Z","end_local":"2024-04-10T19:00:00","updated":"2024-06-12T13:31:33Z"},{"title":"Cup - Semi-finals - TSU Tbilisi vs Batumi","description":"Sourced from predicthq.com","category":"sports","start":"2024-04-09T13:30:00Z","geo":{"geometry":{"coordinates":[44.728555,41.718152],"type":"Point"},"placekey":"@67k-srb-td9","address":{"country_code":"GE","formatted_address":"15ა University St, T'bilisi 0186, Georgia","postcode":"0186","locality":"T'bilisi","region":"Tbilisi"}},"labels":["basketball","sport"],"duration":0,"start_local":"2024-04-09T17:30:00","end":"2024-04-09T13:30:00Z","end_local":"2024-04-09T17:30:00","updated":"2024-06-11T23:55:43Z"},{"title":"Cup - Semi-finals - Kutaisi vs Iverion","description":"Sourced from predicthq.com","category":"sports","start":"2024-04-09T11:00:00Z","geo":{"geometry":{"coordinates":[44.728555,41.718152],"type":"Point"},"placekey":"@67k-srb-td9","address":{"country_code":"GE","formatted_address":"15ა University St, T'bilisi 0186, Georgia","postcode":"0186","locality":"T'bilisi","region":"Tbilisi"}},"labels":["basketball","sport"],"duration":0,"start_local":"2024-04-09T15:00:00","end":"2024-04-09T11:00:00Z","end_local":"2024-04-09T15:00:00","updated":"2024-06-12T13:23:44Z"},{"title":"International Conference on Physics of Light-Matter Coupling in Nanostructures","description":"Sourced from predicthq.com","category":"conferences","start":"2024-04-09T05:00:00Z","geo":{"geometry":{"coordinates":[44.777068,41.724626],"type":"Point"},"placekey":"@67k-sr6-d9z","address":{"country_code":"GE","formatted_address":"Merab Kostava Street, T'bilisi, Georgia","locality":"T'bilisi","region":"Tbilisi"}},"labels":["conference"],"duration":378000,"start_local":"2024-04-09T09:00:00","end":"2024-04-13T14:00:00Z","end_local":"2024-04-13T18:00:00","updated":"2024-06-03T20:52:07Z"},{"title":"A League - Final - Sokhumi Georgia vs Victor Sanikidze Academy","description":"Sourced from predicthq.com","category":"sports","start":"2024-04-08T12:30:00Z","geo":{"geometry":{"coordinates":[44.728555,41.718152],"type":"Point"},"placekey":"@67k-srb-td9","address":{"country_code":"GE","formatted_address":"15ა University St, T'bilisi 0186, Georgia","postcode":"0186","locality":"T'bilisi","region":"Tbilisi"}},"labels":["basketball","sport"],"duration":0,"start_local":"2024-04-08T16:30:00","end":"2024-04-08T12:30:00Z","end_local":"2024-04-08T16:30:00","updated":"2024-06-11T23:34:41Z"},{"title":"DySoN-MultIChem Conference","description":"Sourced from predicthq.com","category":"conferences","start":"2024-04-08T05:00:00Z","geo":{"geometry":{"coordinates":[44.777999,41.709982],"type":"Point"},"placekey":"@67k-srb-cwk","address":{"country_code":"GE","formatted_address":"1 Ilia Chavchavadze Avenue, T'bilisi 0179, Georgia","postcode":"0179","locality":"T'bilisi","region":"Tbilisi"}},"labels":["conference"],"duration":378000,"start_local":"2024-04-08T09:00:00","end":"2024-04-12T14:00:00Z","end_local":"2024-04-12T18:00:00","updated":"2024-06-01T17:36:35Z"},{"title":"RC Aresi vs Khvamli Tbilisi","description":"Sourced from predicthq.com","category":"sports","start":"2024-04-07T10:00:00Z","geo":{"geometry":{"coordinates":[42.6843939,42.2413479],"type":"Point"},"placekey":"@67h-5rr-4jv","address":{"country_code":"GE","formatted_address":"K Gmasaghurdia Street, Kutaisi, Georgia","locality":"Kutaisi","region":"Imereti"}},"labels":["rugby","sport"],"duration":6047,"start_local":"2024-04-07T14:00:00","end":"2024-04-07T11:40:47Z","end_local":"2024-04-07T15:40:47","updated":"2024-06-05T00:37:33Z"},{"title":"International Education Fair","description":"Sourced from predicthq.com","category":"expos","start":"2024-04-06T20:00:00Z","geo":{"geometry":{"coordinates":[44.800959,41.693272],"type":"Point"},"placekey":"@67k-spq-qmk","address":{"country_code":"GE","formatted_address":"4 Freedom Square, T'bilisi, Georgia","locality":"T'bilisi","region":"Tbilisi"}},"labels":["expo"],"duration":86399,"start_local":"2024-04-07T00:00:00","end":"2024-04-07T19:59:59Z","end_local":"2024-04-07T23:59:59","updated":"2024-06-11T21:41:20Z"},{"title":"Superleague - Arena Orbi vs Rashi","description":"Sourced from predicthq.com","category":"sports","start":"2024-04-06T14:00:00Z","geo":{"geometry":{"coordinates":[42.99841258064811,42.34689289078732],"type":"Point"},"placekey":"@67m-84y-pjv","address":{"country_code":"GE","formatted_address":"8XWX+QC6, Tkibuli, Georgia","locality":"Tkibuli","region":"Imereti"}},"labels":["basketball","sport"],"duration":0,"start_local":"2024-04-06T18:00:00","end":"2024-04-06T14:00:00Z","end_local":"2024-04-06T18:00:00","updated":"2024-06-11T23:39:50Z"},{"title":"A League - Final - Sokhumi Georgia vs Victor Sanikidze Academy","description":"Sourced from predicthq.com","category":"sports","start":"2024-04-06T12:30:00Z","geo":{"geometry":{"coordinates":[44.728555,41.718152],"type":"Point"},"placekey":"@67k-srb-td9","address":{"country_code":"GE","formatted_address":"15ა University St, T'bilisi 0186, Georgia","postcode":"0186","locality":"T'bilisi","region":"Tbilisi"}},"labels":["basketball","sport"],"duration":0,"start_local":"2024-04-06T16:30:00","end":"2024-04-06T12:30:00Z","end_local":"2024-04-06T16:30:00","updated":"2024-06-12T12:17:48Z"},{"title":"Batumi vs Qochebi","description":"Sourced from predicthq.com","category":"sports","start":"2024-04-06T10:00:00Z","geo":{"geometry":{"coordinates":[41.611944,41.620833],"type":"Point"},"placekey":"@67g-vqq-jqf","address":{"country_code":"GE","formatted_address":"JJP9+2HJ, გუდიაშვილის ქუჩა, Batumi, Georgia","locality":"Batumi","region":"Adjara"}},"labels":["rugby","sport"],"duration":6802,"start_local":"2024-04-06T14:00:00","end":"2024-04-06T11:53:22Z","end_local":"2024-04-06T15:53:22","updated":"2024-06-05T10:27:34Z"},{"title":"Superleague - Kavkasia vs Rustavi","description":"Sourced from predicthq.com","category":"sports","start":"2024-04-06T10:00:00Z","geo":{"geometry":{"coordinates":[44.728555,41.718152],"type":"Point"},"placekey":"@67k-srb-td9","address":{"country_code":"GE","formatted_address":"15ა University St, T'bilisi 0186, Georgia","postcode":"0186","locality":"T'bilisi","region":"Tbilisi"}},"labels":["basketball","sport"],"duration":0,"start_local":"2024-04-06T14:00:00","end":"2024-04-06T10:00:00Z","end_local":"2024-04-06T14:00:00","updated":"2024-06-12T17:03:22Z"}]