[{"title":"Jungle Reginanaise","description":"Sourced from predicthq.com","category":"sports","start":"2024-06-08T13:00:00Z","geo":{"geometry":{"coordinates":[-52.1296646,4.3136572],"type":"Point"},"placekey":"@bv8-h6h-yy9","address":{"country_code":"GF","formatted_address":"Rue Paquerette, 97390 Régina, France","locality":"Régina","postcode":"97390","region":"Arrondissement de Saint-Georges"}},"labels":["outdoor-sports","running","sport"],"duration":0,"start_local":"2024-06-08T10:00:00","end":"2024-06-08T13:00:00Z","end_local":"2024-06-08T10:00:00","updated":"2024-06-10T04:12:05Z"},{"title":"FriRoots Trio en concert","description":"Sourced from predicthq.com - Le trio Fri roots célèbre la sortie de son album live","category":"performing-arts","start":"2024-05-17T23:00:00Z","geo":{"geometry":{"coordinates":[-52.2753451,4.9034599],"type":"Point"},"placekey":"@bv7-hjd-dqf","address":{"country_code":"GF","formatted_address":"97354 Remire-Montjoly, France","locality":"Remire-Montjoly","postcode":"97354","region":"Arrondissement of Cayenne"}},"labels":["concert","music","performing-arts"],"duration":7200,"start_local":"2024-05-17T20:00:00","end":"2024-05-18T01:00:00Z","end_local":"2024-05-17T22:00:00","updated":"2024-06-12T12:47:37Z"},{"title":"Hervé Bissereth et les frères Cudjoe","description":"Sourced from predicthq.com - Hervé Bissereth et les frères Cudjoe resttituent leur residence de création","category":"concerts","start":"2024-05-15T22:00:00Z","geo":{"geometry":{"coordinates":[-52.2753451,4.9034599],"type":"Point"},"placekey":"@bv7-hjd-dqf","address":{"country_code":"GF","formatted_address":"97354 Remire-Montjoly, France","locality":"Remire-Montjoly","postcode":"97354","region":"Arrondissement of Cayenne"}},"labels":["concert","music"],"duration":5400,"start_local":"2024-05-15T19:00:00","end":"2024-05-15T23:30:00Z","end_local":"2024-05-15T20:30:00","updated":"2024-06-12T09:03:26Z"},{"title":"G'Trio en concert","description":"Sourced from predicthq.com - G'Trio un trio de musiciens unis par une fervente passion pour le Chôro, en concert exceptionnel à la MCMG vendredi 10 mai à 19h","category":"concerts","start":"2024-05-10T22:00:00Z","geo":{"geometry":{"coordinates":[-52.2753451,4.9034599],"type":"Point"},"placekey":"@bv7-hjd-dqf","address":{"country_code":"GF","formatted_address":"97354 Remire-Montjoly, France","locality":"Remire-Montjoly","postcode":"97354","region":"Arrondissement of Cayenne"}},"labels":["concert","music"],"duration":5400,"start_local":"2024-05-10T19:00:00","end":"2024-05-10T23:30:00Z","end_local":"2024-05-10T20:30:00","updated":"2024-06-11T23:36:03Z"},{"title":"Semi-marathon Tonnegrande-Montsinery","description":"Sourced from predicthq.com","category":"sports","start":"2024-05-01T09:30:00Z","geo":{"geometry":{"coordinates":[-52.3318445,4.8503574],"type":"Point"},"placekey":"@bv7-hkc-p7q","address":{"country_code":"GF","formatted_address":"97351 Matoury, France","locality":"Matoury","postcode":"97351","region":"Arrondissement of Cayenne"}},"labels":["marathon","outdoor-sports","running","sport"],"duration":0,"start_local":"2024-05-01T06:30:00","end":"2024-05-01T09:30:00Z","end_local":"2024-05-01T06:30:00","updated":"2024-06-12T12:55:37Z"},{"title":"Parlons skincare en toute intimité","description":"Sourced from predicthq.com - C'est mon premier événement en Guyane ! C'est l'occasion pour moi à travers ce temps de rencontre, de répondre à vos questions skincare","category":"conferences","start":"2024-04-21T13:00:00Z","geo":{"geometry":{"coordinates":[-52.3318445,4.8503574],"type":"Point"},"placekey":"@bv7-hkc-p7q","address":{"country_code":"GF","formatted_address":"97351 Matoury, France","locality":"Matoury","postcode":"97351","region":"Arrondissement of Cayenne"}},"labels":["conference","fashion"],"duration":7200,"start_local":"2024-04-21T10:00:00","end":"2024-04-21T15:00:00Z","end_local":"2024-04-21T12:00:00","updated":"2024-06-12T04:08:16Z"},{"title":"GOSPEL CELEBRATION TOTAL PRAISE MASS CHOIR","description":"Sourced from predicthq.com - Total Praise en Guyane! Un choeur qui a accompagné les géants du gospel américain aujourd'hui pour vous !plus de 70 sur scène! Sois au rdv !","category":"concerts","start":"2024-04-20T21:00:00Z","geo":{"geometry":{"coordinates":[-52.2884327,4.929951900000001],"type":"Point"},"placekey":"@bv7-hjf-t5f","address":{"country_code":"GF","formatted_address":"Route de Montabo, 97300 Cayenne, France","locality":"Cayenne","postcode":"97300","region":"Arrondissement de Cayenne"}},"labels":["concert","music"],"duration":9000,"start_local":"2024-04-20T18:00:00","end":"2024-04-20T23:30:00Z","end_local":"2024-04-20T20:30:00","updated":"2024-06-05T02:37:39Z"},{"title":"Concert gospel","description":"Sourced from predicthq.com - Venez vibrer au son du gospel ! Son Histoire est aussi riche que ses sonorités qui vous ferons voyager.","category":"concerts","start":"2024-04-13T22:00:00Z","geo":{"geometry":{"coordinates":[-52.2753404,4.903471400000001],"type":"Point"},"placekey":"@bv7-hjd-dqf","address":{"country_code":"GF","formatted_address":"97354 Remire-Montjoly, France","locality":"Remire-Montjoly","postcode":"97354","region":"Arrondissement of Cayenne"}},"labels":["concert","music"],"duration":4500,"start_local":"2024-04-13T19:00:00","end":"2024-04-13T23:15:00Z","end_local":"2024-04-13T20:15:00","updated":"2024-06-05T10:33:28Z"}]