[{"title":"Leadership Conference II","description":"Sourced from predicthq.com - An energising day of learning, discussion and focus that will elevate your people-leadership skills.","category":"conferences","start":"2024-10-02T07:30:00Z","geo":{"geometry":{"coordinates":[-2.5382724,49.46096319999999],"type":"Point"},"placekey":"@4f8-dnt-qfz","address":{"country_code":"GG","formatted_address":"Guernsey, Guernsey, Channel Islands","locality":"Guernsey"}},"labels":["business","conference"],"duration":27000,"start_local":"2024-10-02T08:30:00","end":"2024-10-02T15:00:00Z","end_local":"2024-10-02T16:00:00","updated":"2024-06-04T11:06:46Z"},{"title":"Omega Nebula :  hard hitting dub, high spirited reggae and powerful bass","description":"Sourced from predicthq.com - Electro Dub Night with Omega Nebula, Its Own Animal & Ark Sounds","category":"concerts","start":"2024-09-28T19:00:00Z","geo":{"geometry":{"coordinates":[-2.539170600000034,49.45667150000001],"type":"Point"},"placekey":"@4f8-dnt-xdv","address":{"country_code":"GG","formatted_address":"College Street, Guernsey GY1, Guernsey, Channel Islands","postcode":"GY1","locality":"Guernsey","region":"Saint Peter Port"}},"labels":["concert","music"],"duration":0,"start_local":"2024-09-28T20:00:00","end":"2024-09-28T19:00:00Z","end_local":"2024-09-28T20:00:00","updated":"2024-06-13T00:36:18Z"},{"title":"Spoonfest 3","description":"Sourced from predicthq.com - Not to be missed!","category":"festivals","start":"2024-09-21T18:00:00Z","geo":{"geometry":{"coordinates":[-2.539170600000034,49.45667150000001],"type":"Point"},"placekey":"@4f8-dnt-xdv","address":{"country_code":"GG","formatted_address":"College Street, Guernsey GY1, Guernsey, Channel Islands","postcode":"GY1","locality":"Guernsey","region":"Saint Peter Port"}},"labels":["concert","music"],"duration":0,"start_local":"2024-09-21T19:00:00","end":"2024-09-21T18:00:00Z","end_local":"2024-09-21T19:00:00","updated":"2024-06-04T11:04:01Z"},{"title":"Day Disco 90's Club Classics","description":"Sourced from predicthq.com - Its all about going out on a bit of a all-dayer that plays you favourite 90's dancefloor club classics and home in ya pjs early doors!!","category":"concerts","start":"2024-09-21T14:00:00Z","geo":{"geometry":{"coordinates":[-2.5353252,49.4584742],"type":"Point"},"placekey":"@4f8-dnt-yn5","address":{"country_code":"GG","formatted_address":"Le Truchot, Guernsey GY1 1WF, Guernsey, Channel Islands","locality":"Guernsey","postcode":"GY1 1WF","region":"Saint-Pierre-Port"}},"labels":["concert","music"],"duration":18000,"start_local":"2024-09-21T15:00:00","end":"2024-09-21T19:00:00Z","end_local":"2024-09-21T20:00:00","updated":"2024-06-08T02:42:23Z"},{"title":"Cybersecurity Fortress: Are You Protected?:","description":"Sourced from predicthq.com - A Tech Talk by Clarity","category":"conferences","start":"2024-09-18T09:00:00Z","geo":{"geometry":{"coordinates":[-2.539170600000034,49.45667150000001],"type":"Point"},"placekey":"@4f8-dnt-xdv","address":{"country_code":"GG","formatted_address":"College Street, Guernsey GY1, Guernsey, Channel Islands","postcode":"GY1","locality":"Guernsey","region":"Saint Peter Port"}},"labels":["conference","science","technology"],"duration":3600,"start_local":"2024-09-18T10:00:00","end":"2024-09-18T10:00:00Z","end_local":"2024-09-18T11:00:00","updated":"2024-06-04T00:30:39Z"},{"title":"Butterfield Half Marathon","description":"Sourced from predicthq.com","category":"sports","start":"2024-09-14T23:00:00Z","geo":{"geometry":{"coordinates":[-2.5368711,49.455443],"type":"Point"},"placekey":"@4f8-dnt-vzz","address":{"country_code":"GG","formatted_address":"Commercial Arcade, Guernsey GY1 1JX, Guernsey, Channel Islands","locality":"Guernsey","postcode":"GY1 1JX","region":"Saint Peter Port"}},"labels":["marathon","outdoor-sports","running","sport"],"duration":86399,"start_local":"2024-09-15T00:00:00","end":"2024-09-15T22:59:59Z","end_local":"2024-09-15T23:59:59","updated":"2024-06-04T04:35:22Z"},{"title":"Mirror Ball does Motown","description":"Sourced from predicthq.com - Get on that dancefloor!","category":"concerts","start":"2024-09-14T19:00:00Z","geo":{"geometry":{"coordinates":[-2.539170600000034,49.45667150000001],"type":"Point"},"placekey":"@4f8-dnt-xdv","address":{"country_code":"GG","formatted_address":"College Street, Guernsey GY1, Guernsey, Channel Islands","postcode":"GY1","locality":"Guernsey","region":"Saint Peter Port"}},"labels":["concert","music"],"duration":0,"start_local":"2024-09-14T20:00:00","end":"2024-09-14T19:00:00Z","end_local":"2024-09-14T20:00:00","updated":"2024-06-11T04:07:29Z"},{"title":"Le Jazz Accord Live in the Cafe","description":"Sourced from predicthq.com - Join us for a special evening of Jazz","category":"concerts","start":"2024-09-13T18:00:00Z","geo":{"geometry":{"coordinates":[-2.539170600000034,49.45667150000001],"type":"Point"},"placekey":"@4f8-dnt-xdv","address":{"country_code":"GG","formatted_address":"College Street, Guernsey GY1, Guernsey, Channel Islands","postcode":"GY1","locality":"Guernsey","region":"Saint Peter Port"}},"labels":["concert","music"],"duration":0,"start_local":"2024-09-13T19:00:00","end":"2024-09-13T18:00:00Z","end_local":"2024-09-13T19:00:00","updated":"2024-06-11T04:48:10Z"},{"title":"IWIRC London / IWIRC CI / INSOL sponsored by Teneo","description":"Sourced from predicthq.com - IWIRC branding is Be Connected, Be Informed and Be Inspired.","category":"conferences","start":"2024-09-12T08:30:00Z","geo":{"geometry":{"coordinates":[-2.535924,49.45745700000001],"type":"Point"},"placekey":"@4f8-dnt-w8v","address":{"country_code":"GG","formatted_address":"The Pollet, Guernsey GY1 1WH, Guernsey, Channel Islands","locality":"Guernsey","postcode":"GY1 1WH","region":"Saint Peter Port"}},"labels":["business","conference"],"duration":5400,"start_local":"2024-09-12T09:30:00","end":"2024-09-12T10:00:00Z","end_local":"2024-09-12T11:00:00","updated":"2024-06-06T01:24:37Z"},{"title":"The Annual Dementia Friendly Festival 2024","description":"Sourced from predicthq.com - The Annual  dementia friendly music festival will be taking place in National Trust Court Folk and Costume Courtyard  at Saumarez Park.","category":"festivals","start":"2024-09-07T11:00:00Z","geo":{"geometry":{"coordinates":[-2.5813169,49.4696492],"type":"Point"},"placekey":"@4f8-dns-3bk","address":{"country_code":"GG","formatted_address":"Route de Saumarez, Guernsey GY5 7UJ, Guernsey, Channel Islands","locality":"Guernsey","postcode":"GY5 7UJ","region":"Sainte-Marie-du-Câtel"}},"labels":["festival","fundraiser"],"duration":18000,"start_local":"2024-09-07T12:00:00","end":"2024-09-07T16:00:00Z","end_local":"2024-09-07T17:00:00","updated":"2024-06-29T02:47:32Z"},{"title":"EDABL Street Party - 25 August 2024","description":"Sourced from predicthq.com - The EDABL Street parties celebrate and promote all that’s grown, caught, reared, produced, or harvested within the Bailiwick.","category":"festivals","start":"2024-08-25T09:00:00Z","geo":{"geometry":{"coordinates":[-2.5482284,49.4544193],"type":"Point"},"placekey":"@4f8-dns-zpv","address":{"country_code":"GG","formatted_address":"Guernsey GY1 3PZ, Guernsey, Channel Islands","locality":"Guernsey","postcode":"GY1 3PZ","region":"Saint Peter Port"}},"labels":["festival","food"],"duration":25200,"start_local":"2024-08-25T10:00:00","end":"2024-08-25T16:00:00Z","end_local":"2024-08-25T17:00:00","updated":"2024-06-04T00:56:35Z"},{"title":"Big Mexican Fiesta with The Mariachis","description":"Sourced from predicthq.com - The Summer Party at the top of town is back!","category":"community","start":"2024-08-24T19:00:00Z","geo":{"geometry":{"coordinates":[-2.539170600000034,49.45667150000001],"type":"Point"},"placekey":"@4f8-dnt-xdv","address":{"country_code":"GG","formatted_address":"College Street, Guernsey GY1, Guernsey, Channel Islands","postcode":"GY1","locality":"Guernsey","region":"Saint Peter Port"}},"labels":["concert","music"],"duration":0,"start_local":"2024-08-24T20:00:00","end":"2024-08-24T19:00:00Z","end_local":"2024-08-24T20:00:00","updated":"2024-06-04T04:07:56Z"},{"title":"Jazz in the Cafe","description":"Sourced from predicthq.com - with the London Jazz Piano Collective","category":"concerts","start":"2024-08-23T18:00:00Z","geo":{"geometry":{"coordinates":[-2.539170600000034,49.45667150000001],"type":"Point"},"placekey":"@4f8-dnt-xdv","address":{"country_code":"GG","formatted_address":"College Street, Guernsey GY1, Guernsey, Channel Islands","postcode":"GY1","locality":"Guernsey","region":"Saint Peter Port"}},"labels":["concert","music"],"duration":0,"start_local":"2024-08-23T19:00:00","end":"2024-08-23T18:00:00Z","end_local":"2024-08-23T19:00:00","updated":"2024-06-11T02:35:37Z"},{"title":"Methodical Madness - Blurry Vision (Live)","description":"Sourced from predicthq.com - Guernsey band Methodical Madness are headlining their first event, live at Vale Church Hall! Come prepared for an all night party...","category":"community","start":"2024-08-17T18:00:00Z","geo":{"geometry":{"coordinates":[-2.5228291,49.4902087],"type":"Point"},"placekey":"@4f8-dqm-w49","address":{"country_code":"GG","formatted_address":"Guernsey GY3 5TD, Guernsey, Channel Islands","locality":"Guernsey","postcode":"GY3 5TD","region":"Vale"}},"labels":["concert","music"],"duration":10800,"start_local":"2024-08-17T19:00:00","end":"2024-08-17T21:00:00Z","end_local":"2024-08-17T22:00:00","updated":"2024-06-03T23:54:27Z"},{"title":"Donkey Drop Out '24","description":"Sourced from predicthq.com - Run a 4 .16 mile loop on the hour every hour until only one athlete is left","category":"community","start":"2024-08-10T08:00:00Z","geo":{"geometry":{"coordinates":[-2.6241841,49.4374088],"type":"Point"},"placekey":"@4f7-djx-6c5","address":{"country_code":"GG","formatted_address":"Guernsey GY8 0DS, Guernsey, Channel Islands","locality":"Guernsey","postcode":"GY8 0DS","region":"St Pierre Du Bois"}},"labels":["community","sport"],"duration":52200,"start_local":"2024-08-10T09:00:00","end":"2024-08-10T22:30:00Z","end_local":"2024-08-10T23:30:00","updated":"2024-06-04T00:06:13Z"},{"title":"Seminar series: A talk on Enforcement by Callum McVean Deputy Director GFSC","description":"Sourced from predicthq.com - Join us for a seminar series featuring a talk on Enforcement by Callum McVean, Deputy Director from the GFSC!","category":"conferences","start":"2024-08-01T16:30:00Z","geo":{"geometry":{"coordinates":[-2.5355627,49.4574584],"type":"Point"},"placekey":"@4f8-dnt-w8v","address":{"country_code":"GG","formatted_address":"Guernsey GY1 1WQ, Guernsey, Channel Islands","locality":"Guernsey","postcode":"GY1 1WQ","region":"Saint Peter Port"}},"labels":["business","conference"],"duration":10800,"start_local":"2024-08-01T17:30:00","end":"2024-08-01T19:30:00Z","end_local":"2024-08-01T20:30:00","updated":"2024-06-27T23:22:27Z"},{"title":"EDABL Street Party - 28 July 2024","description":"Sourced from predicthq.com - The EDABL Street parties celebrate and promote all that’s grown, caught, reared, produced, or harvested within the Bailiwick.","category":"festivals","start":"2024-07-28T09:00:00Z","geo":{"geometry":{"coordinates":[-2.5482284,49.4544193],"type":"Point"},"placekey":"@4f8-dns-zpv","address":{"country_code":"GG","formatted_address":"Guernsey GY1 3PZ, Guernsey, Channel Islands","locality":"Guernsey","postcode":"GY1 3PZ","region":"Saint Peter Port"}},"labels":["festival","food"],"duration":25200,"start_local":"2024-07-28T10:00:00","end":"2024-07-28T16:00:00Z","end_local":"2024-07-28T17:00:00","updated":"2024-06-04T02:21:38Z"},{"title":"Synthetic Sound Presents: SIMULA","description":"Sourced from predicthq.com - Synthetic Sound are back bringing you currently one of the biggest names in drum and bass","category":"concerts","start":"2024-07-27T21:00:00Z","geo":{"geometry":{"coordinates":[-2.5353252,49.4584742],"type":"Point"},"placekey":"@4f8-dnt-yn5","address":{"country_code":"GG","formatted_address":"Le Truchot, Guernsey GY1 1WF, Guernsey, Channel Islands","locality":"Guernsey","postcode":"GY1 1WF","region":"Saint-Pierre-Port"}},"labels":["concert","music"],"duration":14400,"start_local":"2024-07-27T22:00:00","end":"2024-07-28T01:00:00Z","end_local":"2024-07-28T02:00:00","updated":"2024-06-04T04:47:35Z"},{"title":"Belles de Nuit","description":"Sourced from predicthq.com - Swallow Recitals presents","category":"concerts","start":"2024-07-17T18:30:00Z","geo":{"geometry":{"coordinates":[-2.539170600000034,49.45667150000001],"type":"Point"},"placekey":"@4f8-dnt-xdv","address":{"country_code":"GG","formatted_address":"College Street, Guernsey GY1, Guernsey, Channel Islands","postcode":"GY1","locality":"Guernsey","region":"Saint Peter Port"}},"labels":["concert","music"],"duration":0,"start_local":"2024-07-17T19:30:00","end":"2024-07-17T18:30:00Z","end_local":"2024-07-17T19:30:00","updated":"2024-06-11T01:20:28Z"},{"title":"Document Management Revolution:","description":"Sourced from predicthq.com - A Tech Talk by Clarity","category":"conferences","start":"2024-07-17T09:00:00Z","geo":{"geometry":{"coordinates":[-2.539170600000034,49.45667150000001],"type":"Point"},"placekey":"@4f8-dnt-xdv","address":{"country_code":"GG","formatted_address":"College Street, Guernsey GY1, Guernsey, Channel Islands","postcode":"GY1","locality":"Guernsey","region":"Saint Peter Port"}},"labels":["conference","science","technology"],"duration":3600,"start_local":"2024-07-17T10:00:00","end":"2024-07-17T10:00:00Z","end_local":"2024-07-17T11:00:00","updated":"2024-06-04T00:21:33Z"},{"title":"It’s Time to Stop (Human Error)","description":"Sourced from predicthq.com - Hey guys, let's gather to discuss how we can put an end to human errors once and for all!","category":"conferences","start":"2024-07-17T07:00:00Z","geo":{"geometry":{"coordinates":[-2.5548221,49.4188406],"type":"Point"},"placekey":"@4f8-dpb-djv","address":{"country_code":"GG","formatted_address":"Guernsey, Guernsey, Channel Islands","locality":"Guernsey"}},"labels":["conference","health"],"duration":3600,"start_local":"2024-07-17T08:00:00","end":"2024-07-17T08:00:00Z","end_local":"2024-07-17T09:00:00","updated":"2024-06-27T10:36:33Z"},{"title":"The Allergies","description":"Sourced from predicthq.com","category":"concerts","start":"2024-07-13T18:00:00Z","geo":{"geometry":{"coordinates":[-2.539170600000034,49.45667150000001],"type":"Point"},"placekey":"@4f8-dnt-xdv","address":{"country_code":"GG","formatted_address":"College Street, Guernsey GY1, Guernsey, Channel Islands","postcode":"GY1","locality":"Guernsey","region":"Saint Peter Port"}},"labels":["concert","music"],"duration":0,"start_local":"2024-07-13T19:00:00","end":"2024-07-13T18:00:00Z","end_local":"2024-07-13T19:00:00","updated":"2024-06-11T04:15:43Z"},{"title":"Parish 13","description":"Sourced from predicthq.com","category":"concerts","start":"2024-07-13T13:00:00Z","geo":{"geometry":{"coordinates":[-2.4520581,49.4700203],"type":"Point"},"placekey":"@4f8-dn7-6hq","address":{"country_code":"GG","formatted_address":"Guernsey GY1 3HR, Guernsey, Channel Islands","locality":"Guernsey","postcode":"GY1 3HR","region":"Saint Peter Port"}},"labels":["concert","music"],"duration":0,"start_local":"2024-07-13T14:00:00","end":"2024-07-13T13:00:00Z","end_local":"2024-07-13T14:00:00","updated":"2024-06-10T23:54:48Z"},{"title":"Tomorrow's Warriors:  Christ-Stéphane Boizi","description":"Sourced from predicthq.com - part of The Global Collection","category":"concerts","start":"2024-07-12T18:00:00Z","geo":{"geometry":{"coordinates":[-2.539170600000034,49.45667150000001],"type":"Point"},"placekey":"@4f8-dnt-xdv","address":{"country_code":"GG","formatted_address":"College Street, Guernsey GY1, Guernsey, Channel Islands","postcode":"GY1","locality":"Guernsey","region":"Saint Peter Port"}},"labels":["concert","music"],"duration":0,"start_local":"2024-07-12T19:00:00","end":"2024-07-12T18:00:00Z","end_local":"2024-07-12T19:00:00","updated":"2024-06-11T02:31:48Z"},{"title":"CIPD Spring Forward Guernsey","description":"Sourced from predicthq.com - We are excited to bring CIPD Spring Forward event, our first face to face session of 2024 to Guernsey.","category":"conferences","start":"2024-07-11T11:00:00Z","geo":{"geometry":{"coordinates":[-2.5363176,49.45170119999999],"type":"Point"},"placekey":"@4f8-dnt-xt9","address":{"country_code":"GG","formatted_address":"Guernsey GY1 1AR, Guernsey, Channel Islands","locality":"Guernsey","postcode":"GY1 1AR","region":"Saint Peter Port"}},"labels":["business","conference"],"duration":7200,"start_local":"2024-07-11T12:00:00","end":"2024-07-11T13:00:00Z","end_local":"2024-07-11T14:00:00","updated":"2024-06-27T02:11:15Z"},{"title":"Rhyme Together","description":"Sourced from predicthq.com - Come along for a joy-filled session complete with bubble blowers and shakers!","category":"performing-arts","start":"2024-07-10T10:00:00Z","geo":{"geometry":{"coordinates":[-2.522333900000035,49.47799879999999],"type":"Point"},"placekey":"@4f8-dp2-xnq","address":{"country_code":"GG","formatted_address":"Grandes Maisons Rd, GY2 4JH St Sampsons, Guernsey","postcode":"GY2 4JH"}},"labels":["concert","music","performing-arts"],"duration":2700,"start_local":"2024-07-10T11:00:00","end":"2024-07-10T10:45:00Z","end_local":"2024-07-10T11:45:00","updated":"2024-06-27T01:38:19Z"},{"title":"unheard presents: Xeonz","description":"Sourced from predicthq.com - unheard is bringing Xeonz to The Fermain Tavern for his Guernsey debut!","category":"concerts","start":"2024-07-06T18:00:00Z","geo":{"geometry":{"coordinates":[-2.5427557,49.4384525],"type":"Point"},"placekey":"@4f8-dpj-d5f","address":{"country_code":"GG","formatted_address":"Fort Rd, Guernsey GY1 1ZW, Guernsey","postcode":"GY1 1ZW","locality":"Guernsey","region":"Saint Peter Port"}},"labels":["concert","music"],"duration":17940,"start_local":"2024-07-06T19:00:00","end":"2024-07-06T22:59:00Z","end_local":"2024-07-06T23:59:00","updated":"2024-06-04T10:18:34Z"},{"title":"Startup Academy Presentation Evening","description":"Sourced from predicthq.com - Join us to celebrate the businesses that have graduated from the 2024 Startup Academy!","category":"conferences","start":"2024-07-04T17:30:00Z","geo":{"geometry":{"coordinates":[-2.537131000000045,49.4549035],"type":"Point"},"placekey":"@4f8-dnt-vzz","address":{"country_code":"GG","formatted_address":"Market Street, Guernsey GY1 1HB, Guernsey, Channel Islands","locality":"Guernsey","postcode":"GY1 1HB","region":"Saint Peter Port"}},"labels":["business","conference"],"duration":9000,"start_local":"2024-07-04T18:30:00","end":"2024-07-04T20:00:00Z","end_local":"2024-07-04T21:00:00","updated":"2024-06-04T07:48:41Z"},{"title":"Gower Sunrise Walk of Hope","description":"Sourced from predicthq.com - The Gower Sunrise Walk of Hope aims to raise awareness around suicide and support Guernsey Mind's ongoing work regarding suicide.","category":"community","start":"2024-06-30T03:00:00Z","geo":{"geometry":{"coordinates":[-2.509098,49.4851111],"type":"Point"},"placekey":"@4f8-dn8-qmk","address":{"country_code":"GG","formatted_address":"Castle Road, GY3 Guernsey, Guernsey","postcode":"GY3","region":"Vale"}},"labels":["community","fundraiser","sport"],"duration":10800,"start_local":"2024-06-30T04:00:00","end":"2024-06-30T06:00:00Z","end_local":"2024-06-30T07:00:00","updated":"2024-06-29T03:11:44Z"},{"title":"Hautes Capelles Primary School PTA Colour Fun Run 2024","description":"Sourced from predicthq.com - Join us at the Hautes Capelles PTA Colour Fun Run 2024 for a day filled with vibrant colors, fun, and fitness! Food and drinks available.","category":"community","start":"2024-06-28T14:00:00Z","geo":{"geometry":{"coordinates":[-2.5532092,49.4804963],"type":"Point"},"placekey":"@4f8-dp2-c3q","address":{"country_code":"GG","formatted_address":"Guernsey GY2 4GL, Guernsey, Channel Islands","locality":"Guernsey","postcode":"GY2 4GL","region":"St Sampson"}},"labels":["community","fundraiser","sport"],"duration":9000,"start_local":"2024-06-28T15:00:00","end":"2024-06-28T16:30:00Z","end_local":"2024-06-28T17:30:00","updated":"2024-06-04T03:45:50Z"},{"title":"Chaos 19 Music and Motorcycle Festival","description":"Sourced from predicthq.com - A weekend of music, laughter, views, bikes, beer, fun & games, local traders, delicious food. Somewhere you can just be yourself.","category":"festivals","start":"2024-06-28T11:00:00Z","geo":{"geometry":{"coordinates":[-2.6713268,49.4317564],"type":"Point"},"placekey":"@4f7-djz-fmk","address":{"country_code":"GG","formatted_address":"Guernsey GY8, Guernsey, Channel Islands","locality":"Guernsey","postcode":"GY8","region":"Torteval"}},"labels":["community","concert","music"],"duration":208800,"start_local":"2024-06-28T12:00:00","end":"2024-06-30T21:00:00Z","end_local":"2024-06-30T22:00:00","updated":"2024-06-04T04:55:38Z"},{"title":"Rhyme Together","description":"Sourced from predicthq.com - Come along for a joy-filled session complete with bubble blowers and shakers!","category":"performing-arts","start":"2024-06-26T10:00:00Z","geo":{"geometry":{"coordinates":[-2.522333900000035,49.47799879999999],"type":"Point"},"placekey":"@4f8-dp2-xnq","address":{"country_code":"GG","formatted_address":"Grandes Maisons Rd, GY2 4JH St Sampsons, Guernsey","postcode":"GY2 4JH"}},"labels":["concert","music","performing-arts"],"duration":2700,"start_local":"2024-06-26T11:00:00","end":"2024-06-26T10:45:00Z","end_local":"2024-06-26T11:45:00","updated":"2024-06-04T11:47:41Z"},{"title":"Why Should We Go Paperless? (Postponed - New Date TBC)","description":"Sourced from predicthq.com - This is being postponed so that we can organise a larger event and get a member of the Laserfiche team over to join us.","category":"conferences","start":"2024-06-26T06:45:00Z","geo":{"geometry":{"coordinates":[-2.5373214,49.4547575],"type":"Point"},"placekey":"@4f8-dnt-y7q","address":{"country_code":"GG","formatted_address":"Market Street, Guernsey GY1 1HB, Guernsey, Channel Islands","locality":"Guernsey","postcode":"GY1 1HB","region":"Saint Peter Port"}},"labels":["business","conference"],"duration":4500,"start_local":"2024-06-26T07:45:00","end":"2024-06-26T08:00:00Z","end_local":"2024-06-26T09:00:00","updated":"2024-06-25T07:10:19Z"},{"title":"London Insurance: Past, Present and Future","description":"Sourced from predicthq.com - Learn about the history of the insurance industry over breakfast","category":"conferences","start":"2024-06-25T07:30:00Z","geo":{"geometry":{"coordinates":[-2.5573154,49.459848],"type":"Point"},"placekey":"@4f8-dnt-fj9","address":{"country_code":"GG","formatted_address":"Les Douze Maisons, Guernsey GY1, Guernsey, Channel Islands","locality":"Guernsey","postcode":"GY1","region":"Saint Peter Port"}},"labels":["business","conference"],"duration":4500,"start_local":"2024-06-25T08:30:00","end":"2024-06-25T08:45:00Z","end_local":"2024-06-25T09:45:00","updated":"2024-06-20T19:45:35Z"},{"title":"Blues At The Old Government House Hotel 2","description":"Sourced from predicthq.com - An Unbeatable Night Of Fine Dining & Music At Guernsey's Only 5 Star Hotel","category":"community","start":"2024-06-22T17:00:00Z","geo":{"geometry":{"coordinates":[-2.538768,49.4574179],"type":"Point"},"placekey":"@4f8-dnt-zxq","address":{"country_code":"GG","formatted_address":"Ann's Place, GY1 1JL, Guernsey, Channel Islands","postcode":"GY1 1JL","region":"Saint-Pierre-Port"}},"labels":["concert","music"],"duration":14400,"start_local":"2024-06-22T18:00:00","end":"2024-06-22T21:00:00Z","end_local":"2024-06-22T22:00:00","updated":"2024-05-27T16:42:19Z"},{"title":"The E-ID Revolution: Impacts for Regulated Businesses in Guernsey","description":"Sourced from predicthq.com - Find out how this technology is transforming regulatory processes internationally and what this means for Guernsey, from a panel of experts.","category":"conferences","start":"2024-06-20T07:30:00Z","geo":{"geometry":{"coordinates":[-2.5373214,49.4547575],"type":"Point"},"placekey":"@4f8-dnt-y7q","address":{"country_code":"GG","formatted_address":"Market Street, Guernsey GY1 1HB, Guernsey, Channel Islands","locality":"Guernsey","postcode":"GY1 1HB","region":"Saint Peter Port"}},"labels":["business","conference"],"duration":5400,"start_local":"2024-06-20T08:30:00","end":"2024-06-20T09:00:00Z","end_local":"2024-06-20T10:00:00","updated":"2024-06-11T06:08:29Z"},{"title":"Stomping at The Savoy Vol.2","description":"Sourced from predicthq.com - with Sarge Frampton and Pete de B","category":"conferences","start":"2024-06-19T18:00:00Z","geo":{"geometry":{"coordinates":[-2.539170600000034,49.45667150000001],"type":"Point"},"placekey":"@4f8-dnt-xdv","address":{"country_code":"GG","formatted_address":"College Street, Guernsey GY1, Guernsey, Channel Islands","postcode":"GY1","locality":"Guernsey","region":"Saint Peter Port"}},"labels":["conference","music"],"duration":10800,"start_local":"2024-06-19T19:00:00","end":"2024-06-19T21:00:00Z","end_local":"2024-06-19T22:00:00","updated":"2024-06-04T00:56:57Z"},{"title":"Sustainable Health and Care – Avoiding the tidal wave of health and care demand.","description":"Sourced from predicthq.com - Learn how to prevent the overwhelming surge in health and care needs by adopting sustainable practices at our event!","category":"conferences","start":"2024-06-18T07:00:00Z","geo":{"geometry":{"coordinates":[-2.5548221,49.4188406],"type":"Point"},"placekey":"@4f8-dpb-djv","address":{"country_code":"GG","formatted_address":"Guernsey, Guernsey, Channel Islands","locality":"Guernsey"}},"labels":["conference","health"],"duration":3600,"start_local":"2024-06-18T08:00:00","end":"2024-06-18T08:00:00Z","end_local":"2024-06-18T09:00:00","updated":"2024-05-30T06:08:04Z"},{"title":"EDABL Street Party - 16 June 2024","description":"Sourced from predicthq.com - The EDABL Street parties celebrate and promote all that’s grown, caught, reared, produced, or harvested within the Bailiwick.","category":"festivals","start":"2024-06-16T09:00:00Z","geo":{"geometry":{"coordinates":[-2.5482284,49.4544193],"type":"Point"},"placekey":"@4f8-dns-zpv","address":{"country_code":"GG","formatted_address":"Guernsey GY1 3PZ, Guernsey, Channel Islands","locality":"Guernsey","postcode":"GY1 3PZ","region":"Saint Peter Port"}},"labels":["festival","food"],"duration":25200,"start_local":"2024-06-16T10:00:00","end":"2024-06-16T16:00:00Z","end_local":"2024-06-16T17:00:00","updated":"2024-06-04T12:03:01Z"},{"title":"CANVAS Presents: A Little Sound","description":"Sourced from predicthq.com - A Little Sound is bringing her LIVE show to Guernsey, a mixture of big DNB sounds and beautiful vocals. This one's not to be missed!","category":"performing-arts","start":"2024-06-15T21:00:00Z","geo":{"geometry":{"coordinates":[-2.5358275,49.4575444],"type":"Point"},"placekey":"@4f8-dnt-w8v","address":{"country_code":"GG","formatted_address":"The Pollet, Guernsey GY1 1WJ, Guernsey, Channel Islands","locality":"Guernsey","postcode":"GY1 1WJ","region":"Saint Peter Port"}},"labels":["concert","music","performing-arts"],"duration":14400,"start_local":"2024-06-15T22:00:00","end":"2024-06-16T01:00:00Z","end_local":"2024-06-16T02:00:00","updated":"2024-06-29T21:02:31Z"},{"title":"STEP Guernsey Annual Conference  2024","description":"Sourced from predicthq.com - STEP Guernsey Branch Annual Conference 2024 - Wednesday 12th June","category":"conferences","start":"2024-06-12T07:15:00Z","geo":{"geometry":{"coordinates":[-2.5449225,49.4646072],"type":"Point"},"placekey":"@4f8-dnt-rc5","address":{"country_code":"GG","formatted_address":"Amherst, GY1 1AR Guernsey, Guernsey","postcode":"GY1 1AR","region":"Saint Peter Port"}},"labels":["business","conference"],"duration":29700,"start_local":"2024-06-12T08:15:00","end":"2024-06-12T15:30:00Z","end_local":"2024-06-12T16:30:00","updated":"2024-06-11T05:48:18Z"},{"title":"The Magic Numbers","description":"Sourced from predicthq.com - Mercury Prize-nominated, UK 4-piece","category":"concerts","start":"2024-06-08T18:00:00Z","geo":{"geometry":{"coordinates":[-2.539170600000034,49.45667150000001],"type":"Point"},"placekey":"@4f8-dnt-xdv","address":{"country_code":"GG","formatted_address":"College Street, Guernsey GY1, Guernsey, Channel Islands","postcode":"GY1","locality":"Guernsey","region":"Saint Peter Port"}},"labels":["concert","music"],"duration":0,"start_local":"2024-06-08T19:00:00","end":"2024-06-08T18:00:00Z","end_local":"2024-06-08T19:00:00","updated":"2024-06-22T18:06:51Z"},{"title":"Future Rewired 2024","description":"Sourced from predicthq.com - Future Rewired will return this June with a packed day of talks and workshops!","category":"conferences","start":"2024-06-08T09:00:00Z","geo":{"geometry":{"coordinates":[-2.537131000000045,49.4549035],"type":"Point"},"placekey":"@4f8-dnt-vzz","address":{"country_code":"GG","formatted_address":"Market Street, Guernsey GY1 1HB, Guernsey, Channel Islands","locality":"Guernsey","postcode":"GY1 1HB","region":"Saint Peter Port"}},"labels":["conference","science","technology"],"duration":27000,"start_local":"2024-06-08T10:00:00","end":"2024-06-08T16:30:00Z","end_local":"2024-06-08T17:30:00","updated":"2024-06-07T10:12:06Z"},{"title":"Jay Phelps","description":"Sourced from predicthq.com - part of The Global Collection","category":"concerts","start":"2024-06-07T18:00:00Z","geo":{"geometry":{"coordinates":[-2.539170600000034,49.45667150000001],"type":"Point"},"placekey":"@4f8-dnt-xdv","address":{"country_code":"GG","formatted_address":"College Street, Guernsey GY1, Guernsey, Channel Islands","postcode":"GY1","locality":"Guernsey","region":"Saint Peter Port"}},"labels":["concert","music"],"duration":0,"start_local":"2024-06-07T19:00:00","end":"2024-06-07T18:00:00Z","end_local":"2024-06-07T19:00:00","updated":"2024-06-21T18:10:43Z"},{"title":"The Sark 10","description":"Sourced from predicthq.com","category":"sports","start":"2024-06-01T10:00:00Z","geo":{"geometry":{"coordinates":[-2.3618931,49.4280135],"type":"Point"},"placekey":"@4f8-dq4-qxq","address":{"country_code":"GG","formatted_address":"Dixcart Lane, Guernsey GY10, Guernsey, Channel Islands","locality":"Guernsey","postcode":"GY10","region":"Sark"}},"labels":["outdoor-sports","running","sport"],"duration":0,"start_local":"2024-06-01T11:00:00","end":"2024-06-01T10:00:00Z","end_local":"2024-06-01T11:00:00","updated":"2024-06-11T21:26:38Z"},{"title":"Rendez-Vous Aux Jardins – discovering the senses in the Garden.","description":"Sourced from predicthq.com - Join Guernsey Arts for a multi-sensory look at Candie Gardens, and awaken your senses, discovering the secrets hidden in the gardens.","category":"festivals","start":"2024-05-31T11:00:00Z","geo":{"geometry":{"coordinates":[-2.5407016,49.4587229],"type":"Point"},"placekey":"@4f8-dnt-zvf","address":{"country_code":"GG","formatted_address":"Candie Gardens GY1 1DA, Guernsey, Channel Islands","locality":"Candie Gardens","postcode":"GY1 1DA","region":"Saint Peter Port"}},"labels":["festival","outdoor"],"duration":3600,"start_local":"2024-05-31T12:00:00","end":"2024-05-31T12:00:00Z","end_local":"2024-05-31T13:00:00","updated":"2024-06-05T04:49:40Z"},{"title":"Excavations on Longis Common, Alderney 2024 - talk by Philip de Jersey","description":"Sourced from predicthq.com - Find out about this season’s discoveries at the Iron Age and Roman site in Alderney.","category":"conferences","start":"2024-05-30T18:30:00Z","geo":{"geometry":{"coordinates":[-2.5403456,49.4590614],"type":"Point"},"placekey":"@4f8-dnt-zvf","address":{"country_code":"GG","formatted_address":"Candie Gardens GY1 1DA, Guernsey, Channel Islands","locality":"Candie Gardens","postcode":"GY1 1DA","region":"Saint Peter Port"}},"labels":["conference","science","technology"],"duration":3600,"start_local":"2024-05-30T19:30:00","end":"2024-05-30T19:30:00Z","end_local":"2024-05-30T20:30:00","updated":"2024-06-05T21:42:00Z"},{"title":"Gary Stringer (of Reef)","description":"Sourced from predicthq.com - an evening with Reef Frontman","category":"concerts","start":"2024-05-24T18:00:00Z","geo":{"geometry":{"coordinates":[-2.539170600000034,49.45667150000001],"type":"Point"},"placekey":"@4f8-dnt-xdv","address":{"country_code":"GG","formatted_address":"College Street, Guernsey GY1, Guernsey, Channel Islands","postcode":"GY1","locality":"Guernsey","region":"Saint Peter Port"}},"labels":["concert","music"],"duration":0,"start_local":"2024-05-24T19:00:00","end":"2024-05-24T18:00:00Z","end_local":"2024-05-24T19:00:00","updated":"2024-06-12T18:21:36Z"},{"title":"Flinty's Dragons' Den Success - back by popular demand!","description":"Sourced from predicthq.com - Come along to hear Guernsey's Flinty Bane tell us about her appearance on Dragons’ Den with 'SKIN', the award-winning discounted beauty app.","category":"conferences","start":"2024-05-22T17:00:00Z","geo":{"geometry":{"coordinates":[-2.538768,49.4574179],"type":"Point"},"placekey":"@4f8-dnt-zxq","address":{"country_code":"GG","formatted_address":"Ann's Place, GY1 1JL, Guernsey, Channel Islands","postcode":"GY1 1JL","region":"Saint-Pierre-Port"}},"labels":["business","conference"],"duration":5400,"start_local":"2024-05-22T18:00:00","end":"2024-05-22T18:30:00Z","end_local":"2024-05-22T19:30:00","updated":"2024-05-27T16:12:11Z"},{"title":"The History of Kidnap & Ransom Insurance & the role of the Response Consultant","description":"Sourced from predicthq.com - Join us to delve into the fascinating history of Kidnap & Ransom Insurance and learn about the crucial role of Response Consultants!","category":"conferences","start":"2024-05-22T15:00:00Z","geo":{"geometry":{"coordinates":[-2.533856,49.460563],"type":"Point"},"placekey":"@4f8-dmz-yqf","address":{"country_code":"GG","formatted_address":"Guernsey GY1 1BB, Guernsey, Channel Islands","locality":"Guernsey","postcode":"GY1 1BB","region":"Saint Peter Port"}},"labels":["business","conference"],"duration":7200,"start_local":"2024-05-22T16:00:00","end":"2024-05-22T17:00:00Z","end_local":"2024-05-22T18:00:00","updated":"2024-06-05T10:00:53Z"},{"title":"RPA: Your Office Efficiency Superhero:","description":"Sourced from predicthq.com - A Tech Talk by Clarity","category":"conferences","start":"2024-05-22T09:00:00Z","geo":{"geometry":{"coordinates":[-2.539170600000034,49.45667150000001],"type":"Point"},"placekey":"@4f8-dnt-xdv","address":{"country_code":"GG","formatted_address":"College Street, Guernsey GY1, Guernsey, Channel Islands","postcode":"GY1","locality":"Guernsey","region":"Saint Peter Port"}},"labels":["conference","science","technology"],"duration":3600,"start_local":"2024-05-22T10:00:00","end":"2024-05-22T10:00:00Z","end_local":"2024-05-22T11:00:00","updated":"2024-06-05T18:36:02Z"},{"title":"Leadership Conference","description":"Sourced from predicthq.com - An energising day of learning, discussion and focus that will elevate your people-leadership skills.","category":"conferences","start":"2024-05-22T07:30:00Z","geo":{"geometry":{"coordinates":[-2.5382724,49.46096319999999],"type":"Point"},"placekey":"@4f8-dnt-qfz","address":{"country_code":"GG","formatted_address":"Guernsey, Guernsey, Channel Islands","locality":"Guernsey"}},"labels":["business","conference"],"duration":27000,"start_local":"2024-05-22T08:30:00","end":"2024-05-22T15:00:00Z","end_local":"2024-05-22T16:00:00","updated":"2024-06-05T10:09:52Z"},{"title":"Guernsey Ultra","description":"Sourced from predicthq.com","category":"sports","start":"2024-05-19T06:00:00Z","geo":{"geometry":{"coordinates":[-2.5350793844,49.4501493237],"type":"Point"},"placekey":"@4f8-dpf-mx5","address":{"country_code":"GG","formatted_address":"La Valette, Guernsey GY1 1AX, Guernsey, Channel Islands","locality":"Guernsey","postcode":"GY1 1AX","region":"Saint-Pierre-Port"}},"labels":["outdoor-sports","running","sport"],"duration":0,"start_local":"2024-05-19T07:00:00","end":"2024-05-19T06:00:00Z","end_local":"2024-05-19T07:00:00","updated":"2024-06-05T04:04:38Z"},{"title":"GCOS - The Spirit of Rutter","description":"Sourced from predicthq.com - The Guernsey Choral & Orchestral Society presents","category":"concerts","start":"2024-05-18T18:30:00Z","geo":{"geometry":{"coordinates":[-2.539170600000034,49.45667150000001],"type":"Point"},"placekey":"@4f8-dnt-xdv","address":{"country_code":"GG","formatted_address":"College Street, Guernsey GY1, Guernsey, Channel Islands","postcode":"GY1","locality":"Guernsey","region":"Saint Peter Port"}},"labels":["concert","music"],"duration":0,"start_local":"2024-05-18T19:30:00","end":"2024-05-18T18:30:00Z","end_local":"2024-05-18T19:30:00","updated":"2024-06-12T11:15:31Z"},{"title":"Blues At Hathaway's - Island Of Sark","description":"Sourced from predicthq.com - Smash Hit Blues Show & Fine Dining In The Island of Sark's Leading Restaurant In The Award Winning Formal Gardens Of The Governor's Manor","category":"concerts","start":"2024-05-18T17:00:00Z","geo":{"geometry":{"coordinates":[-2.3617746,49.43814829999999],"type":"Point"},"placekey":"@4f8-dfg-ud9","address":{"country_code":"GG","formatted_address":"Guernsey, Guernsey, Channel Islands","locality":"Guernsey"}},"labels":["concert","music"],"duration":18000,"start_local":"2024-05-18T18:00:00","end":"2024-05-18T22:00:00Z","end_local":"2024-05-18T23:00:00","updated":"2024-06-01T17:05:22Z"},{"title":"Rhyme Together","description":"Sourced from predicthq.com - Come along for a joy-filled session complete with bubble blowers and shakers!","category":"performing-arts","start":"2024-05-15T10:00:00Z","geo":{"geometry":{"coordinates":[-2.522333900000035,49.47799879999999],"type":"Point"},"placekey":"@4f8-dp2-xnq","address":{"country_code":"GG","formatted_address":"Grandes Maisons Rd, GY2 4JH St Sampsons, Guernsey","postcode":"GY2 4JH"}},"labels":["concert","music","performing-arts"],"duration":2700,"start_local":"2024-05-15T11:00:00","end":"2024-05-15T10:45:00Z","end_local":"2024-05-15T11:45:00","updated":"2024-05-29T11:48:08Z"},{"title":"Guernsey Asian Hornet Talk by Francis Russell","description":"Sourced from predicthq.com - Five years on – how are Guernsey’s Asian hornet team managing the threat from this highly invasive species?","category":"conferences","start":"2024-05-11T09:30:00Z","geo":{"geometry":{"coordinates":[-2.5403456,49.4590614],"type":"Point"},"placekey":"@4f8-dnt-zvf","address":{"country_code":"GG","formatted_address":"Candie Gardens GY1 1DA, Guernsey, Channel Islands","locality":"Candie Gardens","postcode":"GY1 1DA","region":"Saint Peter Port"}},"labels":["conference","science","technology"],"duration":5400,"start_local":"2024-05-11T10:30:00","end":"2024-05-11T11:00:00Z","end_local":"2024-05-11T12:00:00","updated":"2024-06-05T08:22:43Z"},{"title":"CANVAS Presents: Liberation Night with Goddard.","description":"Sourced from predicthq.com - Canvas Presents: LIBERATION NIGHT with special guest Goddard.","category":"performing-arts","start":"2024-05-09T20:00:00Z","geo":{"geometry":{"coordinates":[-2.5358275,49.4575444],"type":"Point"},"placekey":"@4f8-dnt-w8v","address":{"country_code":"GG","formatted_address":"The Pollet, Guernsey GY1 1WJ, Guernsey, Channel Islands","locality":"Guernsey","postcode":"GY1 1WJ","region":"Saint Peter Port"}},"labels":["concert","music","performing-arts"],"duration":18000,"start_local":"2024-05-09T21:00:00","end":"2024-05-10T01:00:00Z","end_local":"2024-05-10T02:00:00","updated":"2024-06-12T08:50:42Z"},{"title":"Mirror Ball Night for Liberation Eve with Norman Jay","description":"Sourced from predicthq.com - Mr Good-Times Norman Jay is back for one heck of a mid-week Mirro Ball Night","category":"concerts","start":"2024-05-08T19:00:00Z","geo":{"geometry":{"coordinates":[-2.539170600000034,49.45667150000001],"type":"Point"},"placekey":"@4f8-dnt-xdv","address":{"country_code":"GG","formatted_address":"College Street, Guernsey GY1, Guernsey, Channel Islands","postcode":"GY1","locality":"Guernsey","region":"Saint Peter Port"}},"labels":["concert","music"],"duration":0,"start_local":"2024-05-08T20:00:00","end":"2024-05-08T19:00:00Z","end_local":"2024-05-08T20:00:00","updated":"2024-06-12T06:45:35Z"},{"title":"EDABL Street Party - 5 May 2024","description":"Sourced from predicthq.com - The EDABL Street parties celebrate and promote all that’s grown, caught, reared, produced, or harvested within the Bailiwick.","category":"festivals","start":"2024-05-05T09:00:00Z","geo":{"geometry":{"coordinates":[-2.5482284,49.4544193],"type":"Point"},"placekey":"@4f8-dns-zpv","address":{"country_code":"GG","formatted_address":"Guernsey GY1 3PZ, Guernsey, Channel Islands","locality":"Guernsey","postcode":"GY1 3PZ","region":"Saint Peter Port"}},"labels":["festival","food"],"duration":25200,"start_local":"2024-05-05T10:00:00","end":"2024-05-05T16:00:00Z","end_local":"2024-05-05T17:00:00","updated":"2024-06-04T22:07:17Z"},{"title":"An Evening of Wellbeing","description":"Sourced from predicthq.com - Introducing SOBER SUPER CLUB","category":"festivals","start":"2024-04-25T17:00:00Z","geo":{"geometry":{"coordinates":[-2.5385499,49.4574769],"type":"Point"},"placekey":"@4f8-dnt-zs5","address":{"country_code":"GG","formatted_address":"Ann's Place, GY1 2NU Guernsey, Guernsey","postcode":"GY1 2NU","region":"Saint-Pierre-Port"}},"labels":["festival","health"],"duration":10800,"start_local":"2024-04-25T18:00:00","end":"2024-04-25T20:00:00Z","end_local":"2024-04-25T21:00:00","updated":"2024-06-05T00:56:44Z"},{"title":"Non League Div One - Isthmian South Central - Guernsey vs Hartley Wintney","description":"Sourced from predicthq.com","category":"sports","start":"2024-04-24T18:45:00Z","geo":{"geometry":{"coordinates":[-2.562906,49.464624],"type":"Point"},"placekey":"@4f8-dnr-nwk","address":{"country_code":"GG","formatted_address":"Garenne Stand, Foote's Ln, Guernsey GY6, Guernsey","postcode":"GY6","locality":"Guernsey","region":"St Andrew"}},"labels":["soccer","sport"],"duration":0,"start_local":"2024-04-24T19:45:00","end":"2024-04-24T18:45:00Z","end_local":"2024-04-24T19:45:00","updated":"2024-06-12T14:16:01Z"},{"title":"Non League Div One - Isthmian South Central - Guernsey vs Northwood","description":"Sourced from predicthq.com","category":"sports","start":"2024-04-21T13:00:00Z","geo":{"geometry":{"coordinates":[-2.562906,49.464624],"type":"Point"},"placekey":"@4f8-dnr-nwk","address":{"country_code":"GG","formatted_address":"Garenne Stand, Foote's Ln, Guernsey GY6, Guernsey","postcode":"GY6","locality":"Guernsey","region":"St Andrew"}},"labels":["soccer","sport"],"duration":0,"start_local":"2024-04-21T14:00:00","end":"2024-04-21T13:00:00Z","end_local":"2024-04-21T14:00:00","updated":"2024-06-12T04:21:06Z"},{"title":"Bailiwick Cancer Screening Programmes Symposium","description":"Sourced from predicthq.com - \"The Benefits and Risks of Screening Explained\"","category":"conferences","start":"2024-04-20T08:00:00Z","geo":{"geometry":{"coordinates":[-2.5835447,49.4469787],"type":"Point"},"placekey":"@4f8-dnx-hkf","address":{"country_code":"GG","formatted_address":"Guernsey, Guernsey, Channel Islands","locality":"Guernsey"}},"labels":["conference","health"],"duration":14400,"start_local":"2024-04-20T09:00:00","end":"2024-04-20T12:00:00Z","end_local":"2024-04-20T13:00:00","updated":"2024-06-05T08:40:05Z"},{"title":"The Well Gardened Mind","description":"Sourced from predicthq.com - Get ready to nourish your soul and find tranquillity as we dive into the world of gardening and its positive impact on mental well-being.","category":"conferences","start":"2024-04-18T18:00:00Z","geo":{"geometry":{"coordinates":[-2.538355,49.4610154],"type":"Point"},"placekey":"@4f8-dnt-qfz","address":{"country_code":"GG","formatted_address":"Guernsey, Guernsey, Channel Islands","locality":"Guernsey"}},"labels":["conference"],"duration":3600,"start_local":"2024-04-18T19:00:00","end":"2024-04-18T19:00:00Z","end_local":"2024-04-18T20:00:00","updated":"2024-06-05T10:34:55Z"},{"title":"Come along to hear about Guernsey girl Flinty's Dragon Den experience","description":"Sourced from predicthq.com - Flinty Bane will be appearing on Dragon's Den this evening with her co-Founder Ben Barter of 'SKIN', the new beauty app!","category":"conferences","start":"2024-04-18T17:00:00Z","geo":{"geometry":{"coordinates":[-2.538768,49.4574179],"type":"Point"},"placekey":"@4f8-dnt-zxq","address":{"country_code":"GG","formatted_address":"Ann's Place, GY1 1JL, Guernsey, Channel Islands","postcode":"GY1 1JL","region":"Saint-Pierre-Port"}},"labels":["business","conference"],"duration":7200,"start_local":"2024-04-18T18:00:00","end":"2024-04-18T19:00:00Z","end_local":"2024-04-18T20:00:00","updated":"2024-05-27T19:43:58Z"},{"title":"Non League Div One - Isthmian South Central - Guernsey vs Southall","description":"Sourced from predicthq.com","category":"sports","start":"2024-04-17T18:45:00Z","geo":{"geometry":{"coordinates":[-2.562906,49.464624],"type":"Point"},"placekey":"@4f8-dnr-nwk","address":{"country_code":"GG","formatted_address":"Garenne Stand, Foote's Ln, Guernsey GY6, Guernsey","postcode":"GY6","locality":"Guernsey","region":"St Andrew"}},"labels":["soccer","sport"],"duration":0,"start_local":"2024-04-17T19:45:00","end":"2024-04-17T18:45:00Z","end_local":"2024-04-17T19:45:00","updated":"2024-06-12T14:33:03Z"},{"title":"AI for Good:  Unlocking the real potential","description":"Sourced from predicthq.com - Come join us as we explore how AI can be used for positive change and unlock its true potential!","category":"conferences","start":"2024-04-17T12:00:00Z","geo":{"geometry":{"coordinates":[-2.5368224,49.4608334],"type":"Point"},"placekey":"@4f8-dnt-q75","address":{"country_code":"GG","formatted_address":"Bruce Lane, Guernsey GY1 1YT, Guernsey, Channel Islands","locality":"Guernsey","postcode":"GY1 1YT","region":"Saint Peter Port"}},"labels":["conference","science","technology"],"duration":13500,"start_local":"2024-04-17T13:00:00","end":"2024-04-17T15:45:00Z","end_local":"2024-04-17T16:45:00","updated":"2024-06-04T22:44:40Z"},{"title":"Insolvency Practitioners and Immunity - to Bless or not to Bless?","description":"Sourced from predicthq.com - We will be discussing blessing applications in the Insolvency sphere.","category":"conferences","start":"2024-04-17T11:30:00Z","geo":{"geometry":{"coordinates":[-2.5359897,49.4589156],"type":"Point"},"placekey":"@4f8-dnt-yjv","address":{"country_code":"GG","formatted_address":"Guernsey GY1 1TG, Guernsey, Channel Islands","locality":"Guernsey","postcode":"GY1 1TG","region":"Saint Peter Port"}},"labels":["business","conference"],"duration":5400,"start_local":"2024-04-17T12:30:00","end":"2024-04-17T13:00:00Z","end_local":"2024-04-17T14:00:00","updated":"2024-06-05T10:38:24Z"},{"title":"Rhyme Together","description":"Sourced from predicthq.com - Come along for a joy-filled session complete with bubble blowers and shakers!","category":"performing-arts","start":"2024-04-17T10:00:00Z","geo":{"geometry":{"coordinates":[-2.522333900000035,49.47799879999999],"type":"Point"},"placekey":"@4f8-dp2-xnq","address":{"country_code":"GG","formatted_address":"Grandes Maisons Rd, GY2 4JH St Sampsons, Guernsey","postcode":"GY2 4JH"}},"labels":["concert","music","performing-arts"],"duration":2700,"start_local":"2024-04-17T11:00:00","end":"2024-04-17T10:45:00Z","end_local":"2024-04-17T11:45:00","updated":"2024-06-04T23:07:56Z"},{"title":"Guernsey Marathon","description":"Sourced from predicthq.com","category":"sports","start":"2024-04-13T23:00:00Z","geo":{"geometry":{"coordinates":[-2.533856,49.460563],"type":"Point"},"placekey":"@4f8-dmz-yqf","address":{"country_code":"GG","formatted_address":"Guernsey GY1 1BB, Guernsey, Channel Islands","locality":"Guernsey","postcode":"GY1 1BB","region":"Saint Peter Port"}},"labels":["marathon","outdoor-sports","running","sport"],"duration":86399,"start_local":"2024-04-14T00:00:00","end":"2024-04-14T22:59:59Z","end_local":"2024-04-14T23:59:59","updated":"2024-06-05T12:03:49Z"},{"title":"KIRTAN April Session","description":"Sourced from predicthq.com - Come join us for a soulful Kirtan session in April!","category":"concerts","start":"2024-04-13T14:30:00Z","geo":{"geometry":{"coordinates":[-2.5357201,49.45689480000001],"type":"Point"},"placekey":"@4f8-dnt-w8v","address":{"country_code":"GG","formatted_address":"North Plantation, Guernsey GY1 2LQ, Guernsey, Channel Islands","locality":"Guernsey","postcode":"GY1 2LQ","region":"Saint Peter Port"}},"labels":["concert","music","religion"],"duration":5400,"start_local":"2024-04-13T15:30:00","end":"2024-04-13T16:00:00Z","end_local":"2024-04-13T17:00:00","updated":"2024-06-05T01:20:21Z"},{"title":"Non League Div One - Isthmian South Central - Guernsey vs Binfield","description":"Sourced from predicthq.com","category":"sports","start":"2024-04-13T13:00:00Z","geo":{"geometry":{"coordinates":[-2.562906,49.464624],"type":"Point"},"placekey":"@4f8-dnr-nwk","address":{"country_code":"GG","formatted_address":"Garenne Stand, Foote's Ln, Guernsey GY6, Guernsey","postcode":"GY6","locality":"Guernsey","region":"St Andrew"}},"labels":["soccer","sport"],"duration":0,"start_local":"2024-04-13T14:00:00","end":"2024-04-13T13:00:00Z","end_local":"2024-04-13T14:00:00","updated":"2024-06-11T21:30:45Z"},{"title":"Electric Footprints","description":"Sourced from predicthq.com - a Global Collection events","category":"concerts","start":"2024-04-12T18:00:00Z","geo":{"geometry":{"coordinates":[-2.539170600000034,49.45667150000001],"type":"Point"},"placekey":"@4f8-dnt-xdv","address":{"country_code":"GG","formatted_address":"College Street, Guernsey GY1, Guernsey, Channel Islands","postcode":"GY1","locality":"Guernsey","region":"Saint Peter Port"}},"labels":["concert","music"],"duration":0,"start_local":"2024-04-12T19:00:00","end":"2024-04-12T18:00:00Z","end_local":"2024-04-12T19:00:00","updated":"2024-06-12T01:35:25Z"},{"title":"Blues At The Old Government House Hotel","description":"Sourced from predicthq.com - An Unbeatable Night Of Fine Dining & Music At Guernsey's Only 5 Star Hotel","category":"community","start":"2024-04-06T17:00:00Z","geo":{"geometry":{"coordinates":[-2.538768,49.4574179],"type":"Point"},"placekey":"@4f8-dnt-zxq","address":{"country_code":"GG","formatted_address":"Ann's Place, GY1 1JL, Guernsey, Channel Islands","postcode":"GY1 1JL","region":"Saint-Pierre-Port"}},"labels":["concert","music"],"duration":14400,"start_local":"2024-04-06T18:00:00","end":"2024-04-06T21:00:00Z","end_local":"2024-04-06T22:00:00","updated":"2024-05-27T18:00:38Z"}]