[{"title":"Mr Fantastik","description":"Sourced from predicthq.com","category":"concerts","start":"2024-10-01T20:00:00Z","geo":{"geometry":{"coordinates":[-1.6162709,6.6666002],"type":"Point"},"placekey":"@dvg-qbd-dvz","address":{"country_code":"GH","formatted_address":"Kumasi, Ashanti Region, Ghana","locality":"Kumasi","region":"Ashanti Region"}},"labels":["concert","music"],"duration":0,"start_local":"2024-10-01T20:00:00","end":"2024-10-01T20:00:00Z","end_local":"2024-10-01T20:00:00","updated":"2024-06-11T05:43:15Z"},{"title":"Mr Fantastik","description":"Sourced from predicthq.com","category":"concerts","start":"2024-09-30T20:00:00Z","geo":{"geometry":{"coordinates":[-0.1974306,5.5592847],"type":"Point"},"placekey":"@dw7-yzr-wx5","address":{"country_code":"GH","formatted_address":"Accra, Greater Accra Region, Ghana","locality":"Accra","region":"Greater Accra Region"}},"labels":["concert","music"],"duration":0,"start_local":"2024-09-30T20:00:00","end":"2024-09-30T20:00:00Z","end_local":"2024-09-30T20:00:00","updated":"2024-06-11T09:57:14Z"},{"title":"QS Undergraduate & Master's Fair, Accra","description":"Sourced from predicthq.com - Will you like to further your studies abroad? Come meet with International Reps of top Universities in US, UK, Canada, Australia and more.","category":"festivals","start":"2024-09-28T14:30:00Z","geo":{"geometry":{"coordinates":[-0.1766104,5.6049869],"type":"Point"},"placekey":"@dw7-z4f-wzf","address":{"country_code":"GH","formatted_address":"Airport Road, Accra, Ghana","locality":"Accra","region":"Greater Accra Region"}},"labels":["education","family","festival"],"duration":18000,"start_local":"2024-09-28T14:30:00","end":"2024-09-28T19:30:00Z","end_local":"2024-09-28T19:30:00","updated":"2024-06-27T18:22:38Z"},{"title":"\"Strengthening Women\" Sixth Annual SHEROES Retreat - GROW Day 4","description":"Sourced from predicthq.com - Come join us at the Sixth Annual SHEROES Work Retreat - GROW Day to empower and support each other as strong, amazing women!","category":"conferences","start":"2024-09-22T08:00:00Z","geo":{"geometry":{"coordinates":[-0.1974306,5.559284600000001],"type":"Point"},"placekey":"@dw7-yzr-wx5","address":{"country_code":"GH","formatted_address":"Accra, Greater Accra Region, Ghana","locality":"Accra","region":"Greater Accra Region"}},"labels":["community","conference"],"duration":28800,"start_local":"2024-09-22T08:00:00","end":"2024-09-22T16:00:00Z","end_local":"2024-09-22T16:00:00","updated":"2024-06-27T13:40:48Z"},{"title":"\"Strengthening Women\" Sixth Annual SHEROES Retreat - GLOW Day 3","description":"Sourced from predicthq.com - Come join us at the Sixth Annual SHEROES Work Retreat - Meet and Greet to empower and support each other as strong, amazing women!","category":"conferences","start":"2024-09-21T08:00:00Z","geo":{"geometry":{"coordinates":[-0.1974306,5.559284600000001],"type":"Point"},"placekey":"@dw7-yzr-wx5","address":{"country_code":"GH","formatted_address":"Accra, Greater Accra Region, Ghana","locality":"Accra","region":"Greater Accra Region"}},"labels":["community","conference"],"duration":28800,"start_local":"2024-09-21T08:00:00","end":"2024-09-21T16:00:00Z","end_local":"2024-09-21T16:00:00","updated":"2024-06-27T13:32:50Z"},{"title":"Mr Fantastik","description":"Sourced from predicthq.com","category":"concerts","start":"2024-09-20T21:00:00Z","geo":{"geometry":{"coordinates":[-0.6298922,5.3622293],"type":"Point"},"placekey":"@dw7-tt6-vfz","address":{"country_code":"GH","formatted_address":"Winneba, Central Region, Ghana","locality":"Winneba","region":"Central Region"}},"labels":["concert","music"],"duration":0,"start_local":"2024-09-20T21:00:00","end":"2024-09-20T21:00:00Z","end_local":"2024-09-20T21:00:00","updated":"2024-06-11T00:56:47Z"},{"title":"\"Strengthening Women\" Sixth Annual SHEROES Retreat - HEAL Day 2","description":"Sourced from predicthq.com - Come join us at the Sixth Annual SHEROES Work Retreat - Meet and Greet to empower and support each other as strong, amazing women!","category":"conferences","start":"2024-09-20T08:00:00Z","geo":{"geometry":{"coordinates":[-0.1974306,5.559284600000001],"type":"Point"},"placekey":"@dw7-yzr-wx5","address":{"country_code":"GH","formatted_address":"Accra, Greater Accra Region, Ghana","locality":"Accra","region":"Greater Accra Region"}},"labels":["community","conference"],"duration":28800,"start_local":"2024-09-20T08:00:00","end":"2024-09-20T16:00:00Z","end_local":"2024-09-20T16:00:00","updated":"2024-06-27T01:50:58Z"},{"title":"\"Strengthening Women\" Sixth Annual SHEROES Retreat - Meet and Greet","description":"Sourced from predicthq.com - Come join us at the Sixth Annual SHEROES Work Retreat - Meet and Greet to empower and support each other as strong, amazing women!","category":"conferences","start":"2024-09-19T18:00:00Z","geo":{"geometry":{"coordinates":[-0.1974306,5.559284600000001],"type":"Point"},"placekey":"@dw7-yzr-wx5","address":{"country_code":"GH","formatted_address":"Accra, Greater Accra Region, Ghana","locality":"Accra","region":"Greater Accra Region"}},"labels":["community","conference"],"duration":14400,"start_local":"2024-09-19T18:00:00","end":"2024-09-19T22:00:00Z","end_local":"2024-09-19T22:00:00","updated":"2024-06-28T08:53:55Z"},{"title":"Mr Fantastik","description":"Sourced from predicthq.com","category":"concerts","start":"2024-09-15T20:00:00Z","geo":{"geometry":{"coordinates":[-0.705779,5.5298166],"type":"Point"},"placekey":"@dw8-2r6-cwk","address":{"country_code":"GH","formatted_address":"Agona Swedru, Central Region, Ghana","locality":"Agona Swedru","region":"Central Region"}},"labels":["concert","music"],"duration":0,"start_local":"2024-09-15T20:00:00","end":"2024-09-15T20:00:00Z","end_local":"2024-09-15T20:00:00","updated":"2024-06-11T01:42:04Z"},{"title":"International Conference on Science, Technology and Management","description":"Sourced from predicthq.com - The International Conference on Science, Technology and Management gathers global experts, scholars, and professionals in an influential platform to explore the latest advancements and innovations in various fields. This conference fosters knowledge exchange, collaborative opportunities, and insightful discussions, making it an invaluable event for individuals passionate about driving scientific progress and economic growth.","category":"conferences","start":"2024-09-13T09:00:00Z","geo":{"geometry":{"coordinates":[-0.197776,5.554252],"type":"Point"},"placekey":"@dw7-yzq-s5z","address":{"country_code":"GH","formatted_address":"Ministries PMB, 66 Gamel Abdul Nasser Ave, Accra, Ghana","locality":"Accra","region":"Greater Accra Region"}},"labels":["conference"],"duration":118800,"start_local":"2024-09-13T09:00:00","end":"2024-09-14T18:00:00Z","end_local":"2024-09-14T18:00:00","updated":"2024-06-04T06:35:04Z"},{"title":"Inter Tourism Expo Accra","description":"Sourced from predicthq.com","category":"expos","start":"2024-09-11T00:00:00Z","geo":{"geometry":{"coordinates":[-0.175749,5.601183],"type":"Point"},"placekey":"@dw7-z4f-yvz","address":{"country_code":"GH","formatted_address":"Accra, Greater Accra Region, Ghana","locality":"Accra","region":"Greater Accra Region"}},"labels":["expo"],"duration":259199,"start_local":"2024-09-11T00:00:00","end":"2024-09-13T23:59:59Z","end_local":"2024-09-13T23:59:59","updated":"2024-06-14T08:28:39Z"},{"title":"Mr Fantastik","description":"Sourced from predicthq.com","category":"concerts","start":"2024-09-10T20:00:00Z","geo":{"geometry":{"coordinates":[0.0302354,5.7348118],"type":"Point"},"placekey":"@dvg-fn6-5j9","address":{"country_code":"GH","formatted_address":"Accra - Aflao Road, Tema, Ghana","locality":"Tema","region":"Greater Accra Region"}},"labels":["concert","music"],"duration":0,"start_local":"2024-09-10T20:00:00","end":"2024-09-10T20:00:00Z","end_local":"2024-09-10T20:00:00","updated":"2024-06-11T00:39:11Z"},{"title":"Millennium Marathon","description":"Sourced from predicthq.com","category":"sports","start":"2024-09-07T00:00:00Z","geo":{"geometry":{"coordinates":[-0.1869644,5.6037168],"type":"Point"},"placekey":"@dw7-z47-g8v","address":{"country_code":"GH","formatted_address":"Patrice Lumumba Street, Accra, Ghana","locality":"Accra","region":"Greater Accra Region"}},"labels":["marathon","outdoor-sports","running","sport"],"duration":86399,"start_local":"2024-09-07T00:00:00","end":"2024-09-07T23:59:59Z","end_local":"2024-09-07T23:59:59","updated":"2024-06-04T03:47:03Z"},{"title":"Mr Fantastik","description":"Sourced from predicthq.com","category":"concerts","start":"2024-09-05T21:00:00Z","geo":{"geometry":{"coordinates":[-0.1762717,5.5570307],"type":"Point"},"placekey":"@dw7-yzm-vxq","address":{"country_code":"GH","formatted_address":"Accra, Greater Accra Region, Ghana","locality":"Accra","region":"Greater Accra Region"}},"labels":["concert","music"],"duration":0,"start_local":"2024-09-05T21:00:00","end":"2024-09-05T21:00:00Z","end_local":"2024-09-05T21:00:00","updated":"2024-06-11T06:34:51Z"},{"title":"Ghana Oil and Gas Conference 2024","description":"Sourced from predicthq.com - The Ghana Oil and Gas Conference is a platform for stimulating ideas for petroleum operations which brings together nations","category":"conferences","start":"2024-09-04T09:00:00Z","geo":{"geometry":{"coordinates":[-0.176527,5.604956],"type":"Point"},"placekey":"@dw7-z4f-wzf","address":{"country_code":"GH","formatted_address":"Liberation Road, Accra, Ghana","locality":"Accra","region":"Greater Accra Region"}},"labels":["conference"],"duration":111600,"start_local":"2024-09-04T09:00:00","end":"2024-09-05T16:00:00Z","end_local":"2024-09-05T16:00:00","updated":"2024-06-20T09:15:14Z"},{"title":"WAE Summit 2024","description":"Sourced from predicthq.com - Driving Global Finance, Deal Origination and Local Content in the West African Energy Sector.","category":"conferences","start":"2024-09-03T09:00:00Z","geo":{"geometry":{"coordinates":[-0.1930416,5.5545602],"type":"Point"},"placekey":"@dw7-yzq-wkz","address":{"country_code":"GH","formatted_address":"Castle Rd, Accra, Ghana","locality":"Accra","region":"Greater Accra Region"}},"labels":["business","conference"],"duration":201600,"start_local":"2024-09-03T09:00:00","end":"2024-09-05T17:00:00Z","end_local":"2024-09-05T17:00:00","updated":"2024-06-04T00:03:49Z"},{"title":"Mr Fantastik","description":"Sourced from predicthq.com","category":"concerts","start":"2024-08-31T21:30:00Z","geo":{"geometry":{"coordinates":[-1.2689394,5.1230574],"type":"Point"},"placekey":"@dv6-n64-v75","address":{"country_code":"GH","formatted_address":"Jukwa Road, Cape Coast, Ghana","locality":"Cape Coast","region":"Central Region"}},"labels":["concert","music"],"duration":0,"start_local":"2024-08-31T21:30:00","end":"2024-08-31T21:30:00Z","end_local":"2024-08-31T21:30:00","updated":"2024-06-11T01:19:02Z"},{"title":"Business And Freelancer Fair 2024","description":"Sourced from predicthq.com - Trade, networking and partnerships","category":"expos","start":"2024-08-31T08:00:00Z","geo":{"geometry":{"coordinates":[-0.1928491,5.564167999999999],"type":"Point"},"placekey":"@dw7-yzy-bff","address":{"country_code":"GH","formatted_address":"Julius Nyerere Road, Accra, Ghana","locality":"Accra","region":"Greater Accra Region"}},"labels":["business","expo"],"duration":32400,"start_local":"2024-08-31T08:00:00","end":"2024-08-31T17:00:00Z","end_local":"2024-08-31T17:00:00","updated":"2024-06-06T00:45:11Z"},{"title":"Diaspora Africa Conference  Ghana 2024","description":"Sourced from predicthq.com - Get ready for an epic gathering of African diaspora in Ghana 2024! Let's celebrate our roots, share ideas, and build connections.","category":"conferences","start":"2024-08-30T10:00:00Z","geo":{"geometry":{"coordinates":[-0.1869644,5.6037168],"type":"Point"},"placekey":"@dw7-z47-g8v","address":{"country_code":"GH","formatted_address":"Patrice Lumumba Street, Accra, Ghana","locality":"Accra","region":"Greater Accra Region"}},"labels":["community","conference"],"duration":266400,"start_local":"2024-08-30T10:00:00","end":"2024-09-02T12:00:00Z","end_local":"2024-09-02T12:00:00","updated":"2024-06-04T06:22:11Z"},{"title":"IBBY Congress","description":"Sourced from predicthq.com","category":"conferences","start":"2024-08-30T09:00:00Z","geo":{"geometry":{"coordinates":[-0.1930416,5.5545602],"type":"Point"},"placekey":"@dw7-yzq-wkz","address":{"country_code":"GH","formatted_address":"Castle Rd, Accra, Ghana","locality":"Accra","region":"Greater Accra Region"}},"labels":["conference"],"duration":205200,"start_local":"2024-08-30T09:00:00","end":"2024-09-01T18:00:00Z","end_local":"2024-09-01T18:00:00","updated":"2024-05-31T22:58:16Z"},{"title":"Business and Freelancer Fair","description":"Sourced from predicthq.com","category":"expos","start":"2024-08-30T00:00:00Z","geo":{"geometry":{"coordinates":[-0.192849,5.564168],"type":"Point"},"placekey":"@dw7-yzy-bff","address":{"country_code":"GH","formatted_address":"Julius Nyerere Road, Accra, Ghana","locality":"Accra","region":"Greater Accra Region"}},"labels":["expo"],"duration":172799,"start_local":"2024-08-30T00:00:00","end":"2024-08-31T23:59:59Z","end_local":"2024-08-31T23:59:59","updated":"2024-06-04T09:12:12Z"},{"title":"International Defence Exhibition and Conference","description":"Sourced from predicthq.com","category":"expos","start":"2024-08-28T09:00:00Z","geo":{"geometry":{"coordinates":[-0.156299,5.586114],"type":"Point"},"placekey":"@dw7-z3g-gtv","address":{"country_code":"GH","formatted_address":"Accra, Greater Accra Region, Ghana","locality":"Accra","region":"Greater Accra Region"}},"labels":["expo"],"duration":118800,"start_local":"2024-08-28T09:00:00","end":"2024-08-29T18:00:00Z","end_local":"2024-08-29T18:00:00","updated":"2024-05-31T23:13:00Z"},{"title":"Agricultural Innovation For Africa Conference","description":"Sourced from predicthq.com","category":"conferences","start":"2024-08-28T09:00:00Z","geo":{"geometry":{"coordinates":[-0.165504,5.6618605],"type":"Point"},"placekey":"@dvg-fcx-8gk","address":{"country_code":"GH","formatted_address":"Business Incubation Center, Accra, Ghana","locality":"Accra","region":"Greater Accra"}},"labels":["conference"],"duration":118800,"start_local":"2024-08-28T09:00:00","end":"2024-08-29T18:00:00Z","end_local":"2024-08-29T18:00:00","updated":"2024-06-16T04:39:03Z"},{"title":"International Youth Diplomacy Conference","description":"Sourced from predicthq.com","category":"conferences","start":"2024-08-28T00:00:00Z","geo":{"geometry":{"coordinates":[-0.196224,5.650562],"type":"Point"},"placekey":"@dw7-yyn-3wk","address":{"country_code":"GH","formatted_address":"Legon Boundary, Accra, Ghana","locality":"Accra","region":"Greater Accra Region"}},"labels":["conference"],"duration":345599,"start_local":"2024-08-28T00:00:00","end":"2024-08-31T23:59:59Z","end_local":"2024-08-31T23:59:59","updated":"2024-06-05T21:39:26Z"},{"title":"Youth Leadership Summit 2024","description":"Sourced from predicthq.com - A biannual event designed to equip young individuals with the necessary skills and resources to become effective leaders and entrepreneurs.","category":"conferences","start":"2024-08-24T09:00:00Z","geo":{"geometry":{"coordinates":[-0.1844652,5.655328799999999],"type":"Point"},"placekey":"@dvg-fdm-w8v","address":{"country_code":"GH","formatted_address":"Accra, Greater Accra Region, Ghana","locality":"Accra","region":"Greater Accra Region"}},"labels":["business","conference"],"duration":18000,"start_local":"2024-08-24T09:00:00","end":"2024-08-24T14:00:00Z","end_local":"2024-08-24T14:00:00","updated":"2024-06-27T02:23:14Z"},{"title":"SEED Business School Festival - Study in the US & Canada - Accra","description":"Sourced from predicthq.com - Come join us at the SEED Business School Festival in Accra to learn about studying in the US & Canada!","category":"festivals","start":"2024-08-20T16:30:00Z","geo":{"geometry":{"coordinates":[-0.2026337,5.554409499999998],"type":"Point"},"placekey":"@dw7-yzr-68v","address":{"country_code":"GH","formatted_address":"Accra, Greater Accra Region, Ghana","locality":"Accra","region":"Greater Accra Region"}},"labels":["education","family","festival"],"duration":16200,"start_local":"2024-08-20T16:30:00","end":"2024-08-20T21:00:00Z","end_local":"2024-08-20T21:00:00","updated":"2024-07-04T21:26:13Z"},{"title":"Afro International Music festival","description":"Sourced from predicthq.com - Welcome to the Afro International Music Festival, where you'll experience a vibrant celebration of African and international music!","category":"festivals","start":"2024-08-09T06:00:00Z","geo":{"geometry":{"coordinates":[-0.1974306,5.559284600000001],"type":"Point"},"placekey":"@dw7-yzr-wx5","address":{"country_code":"GH","formatted_address":"Accra, Greater Accra Region, Ghana","locality":"Accra","region":"Greater Accra Region"}},"labels":["festival","music"],"duration":172800,"start_local":"2024-08-09T06:00:00","end":"2024-08-11T06:00:00Z","end_local":"2024-08-11T06:00:00","updated":"2024-06-20T13:37:03Z"},{"title":"Ghana International Book Fair","description":"Sourced from predicthq.com","category":"expos","start":"2024-08-08T09:00:00Z","geo":{"geometry":{"coordinates":[-0.1930416,5.5545602],"type":"Point"},"placekey":"@dw7-yzq-wkz","address":{"country_code":"GH","formatted_address":"Castle Rd, Accra, Ghana","locality":"Accra","region":"Greater Accra Region"}},"labels":["expo"],"duration":291600,"start_local":"2024-08-08T09:00:00","end":"2024-08-11T18:00:00Z","end_local":"2024-08-11T18:00:00","updated":"2024-06-16T02:17:56Z"},{"title":"Call for EXHIBITORS","description":"Sourced from predicthq.com - Hello , Come join Travel Fair GH to showcase your awesome Travel products and Services to hundreds of eager Travelers!.  Don't Miss OUT!!!","category":"expos","start":"2024-08-07T10:00:00Z","geo":{"geometry":{"coordinates":[-0.2052506,5.5726282],"type":"Point"},"placekey":"@dw7-z2r-xyv","address":{"country_code":"GH","formatted_address":"Ring Road Link, Accra, Ghana","locality":"Accra","region":"Greater Accra Region"}},"labels":["expo","outdoor"],"duration":25200,"start_local":"2024-08-07T10:00:00","end":"2024-08-07T17:00:00Z","end_local":"2024-08-07T17:00:00","updated":"2024-06-13T01:38:19Z"},{"title":"Family Fun Day","description":"Sourced from predicthq.com - Get ready for a day full of games, activities, and laughter for your family and friends at the Family Fun Day event!","category":"festivals","start":"2024-08-05T09:00:00Z","geo":{"geometry":{"coordinates":[-0.0767029,5.6405274],"type":"Point"},"placekey":"@dvg-ff7-bhq","address":{"country_code":"GH","formatted_address":"Road Leading to Spintex-Sakumono, Community Eighteen, Ghana","locality":"Community Eighteen","region":"Greater Accra Region"}},"labels":["education","family","festival"],"duration":25200,"start_local":"2024-08-05T09:00:00","end":"2024-08-05T16:00:00Z","end_local":"2024-08-05T16:00:00","updated":"2024-07-05T00:57:26Z"},{"title":"Accra Inter-City Marathon","description":"Sourced from predicthq.com","category":"sports","start":"2024-08-03T05:30:00Z","geo":{"geometry":{"coordinates":[-0.1869644,5.6037168],"type":"Point"},"placekey":"@dw7-z47-g8v","address":{"country_code":"GH","formatted_address":"Patrice Lumumba Street, Accra, Ghana","locality":"Accra","region":"Greater Accra Region"}},"labels":["marathon","outdoor-sports","running","sport"],"duration":0,"start_local":"2024-08-03T05:30:00","end":"2024-08-03T05:30:00Z","end_local":"2024-08-03T05:30:00","updated":"2024-06-08T00:21:10Z"},{"title":"WACCBIP Research Conference","description":"Sourced from predicthq.com","category":"conferences","start":"2024-07-29T09:00:00Z","geo":{"geometry":{"coordinates":[-0.196224,5.650562],"type":"Point"},"placekey":"@dw7-yyn-3wk","address":{"country_code":"GH","formatted_address":"Legon Boundary, Accra, Ghana","locality":"Accra","region":"Greater Accra Region"}},"labels":["conference"],"duration":378000,"start_local":"2024-07-29T09:00:00","end":"2024-08-02T18:00:00Z","end_local":"2024-08-02T18:00:00","updated":"2024-06-14T08:23:04Z"},{"title":"Ghana Food Festival 2024","description":"Sourced from predicthq.com - For Free Tickets visit: https://allevents.in/accra/ghana-food-festival-2024/10000875941523677","category":"festivals","start":"2024-07-27T09:00:00Z","geo":{"geometry":{"coordinates":[-0.1789251,5.6533233],"type":"Point"},"placekey":"@dvg-fdm-vzz","address":{"country_code":"GH","formatted_address":"Accra, Greater Accra Region, Ghana","locality":"Accra","region":"Greater Accra Region"}},"labels":["festival","food"],"duration":50400,"start_local":"2024-07-27T09:00:00","end":"2024-07-27T23:00:00Z","end_local":"2024-07-27T23:00:00","updated":"2024-06-11T01:17:00Z"},{"title":"DUBAI BUSINESS SET-UP FORUM","description":"Sourced from predicthq.com - Get all the info and tips you need to set up your business in Dubai at our DUBAI BUSINESS SET-UP FORUM!","category":"conferences","start":"2024-07-26T10:00:00Z","geo":{"geometry":{"coordinates":[-0.152231,5.647874400000001],"type":"Point"},"placekey":"@dvg-fdh-rtv","address":{"country_code":"GH","formatted_address":"La-Bawaleshi Road, Accra, Ghana","locality":"Accra","region":"Greater Accra Region"}},"labels":["business","conference"],"duration":7200,"start_local":"2024-07-26T10:00:00","end":"2024-07-26T12:00:00Z","end_local":"2024-07-26T12:00:00","updated":"2024-06-06T01:13:06Z"},{"title":"Hobnob Accra","description":"Sourced from predicthq.com","category":"expos","start":"2024-07-26T00:00:00Z","geo":{"geometry":{"coordinates":[-0.171786,5.560946],"type":"Point"},"placekey":"@dw7-yzn-mx5","address":{"country_code":"GH","formatted_address":"Accra, Greater Accra Region, Ghana","locality":"Accra","region":"Greater Accra Region"}},"labels":["expo"],"duration":86399,"start_local":"2024-07-26T00:00:00","end":"2024-07-26T23:59:59Z","end_local":"2024-07-26T23:59:59","updated":"2024-05-31T23:11:53Z"},{"title":"1st Africa Health Summit","description":"Sourced from predicthq.com - 1st Africa Health Summit\n\nJuly 25-26, 2024\n\nTheme- Enhancing Mental Health and general wellbeing in the Workplace","category":"conferences","start":"2024-07-25T09:00:00Z","geo":{"geometry":{"coordinates":[-0.188946,5.5674796],"type":"Point"},"placekey":"@dw7-yzy-3qz","address":{"country_code":"GH","formatted_address":"Gamel Abdul Nasser Avenue, Accra, Ghana","locality":"Accra","region":"Greater Accra Region"}},"labels":["conference","health"],"duration":111600,"start_local":"2024-07-25T09:00:00","end":"2024-07-26T16:00:00Z","end_local":"2024-07-26T16:00:00","updated":"2024-06-25T14:57:26Z"},{"title":"Quality of Life Conference","description":"Sourced from predicthq.com - Discover strategies to living your best life at the Quality of Life Conference - healthy relationships, mental health & wellness.","category":"conferences","start":"2024-07-24T09:00:00Z","geo":{"geometry":{"coordinates":[-0.1815046,5.648460399999999],"type":"Point"},"placekey":"@dvg-fdn-3wk","address":{"country_code":"GH","formatted_address":"La Road, Accra, Ghana","locality":"Accra","region":"Greater Accra Region"}},"labels":["conference","health"],"duration":21600,"start_local":"2024-07-24T09:00:00","end":"2024-07-24T15:00:00Z","end_local":"2024-07-24T15:00:00","updated":"2024-06-09T04:13:52Z"},{"title":"Odoo Roadshow  Accra","description":"Sourced from predicthq.com - Discover Odoo with our experts and partners in Accra!","category":"conferences","start":"2024-07-23T18:00:00Z","geo":{"geometry":{"coordinates":[-0.176527,5.604956],"type":"Point"},"placekey":"@dw7-z4f-wzf","address":{"country_code":"GH","formatted_address":"Liberation Road, Accra, Ghana","locality":"Accra","region":"Greater Accra Region"}},"labels":["business","conference"],"duration":10800,"start_local":"2024-07-23T18:00:00","end":"2024-07-23T21:00:00Z","end_local":"2024-07-23T21:00:00","updated":"2024-06-20T23:58:37Z"},{"title":"Wines of South Africa Grand Tasting Event Ghana 2024","description":"Sourced from predicthq.com - Come taste the best wines from South Africa at our Grand Tasting Event in Ghana 2024!","category":"expos","start":"2024-07-20T19:00:00Z","geo":{"geometry":{"coordinates":[-0.138383,5.563681],"type":"Point"},"placekey":"@dw7-z3d-pgk","address":{"country_code":"GH","formatted_address":"La Rd, Accra, Ghana","locality":"Accra","region":"Greater Accra Region"}},"labels":["expo","food"],"duration":14400,"start_local":"2024-07-20T19:00:00","end":"2024-07-20T23:00:00Z","end_local":"2024-07-20T23:00:00","updated":"2024-06-04T01:58:33Z"},{"title":"SPACE UNGANA 2024","description":"Sourced from predicthq.com - Space Ungana 2024 - JULY20-30,  Ghana\nBuilding capacity to advance the African Space Agenda for 2063.","category":"conferences","start":"2024-07-20T09:00:00Z","geo":{"geometry":{"coordinates":[-0.3022076,6.1095231],"type":"Point"},"placekey":"@dvg-dbk-kzz","address":{"country_code":"GH","formatted_address":"Koforidua, Eastern Region, Ghana","locality":"Koforidua","region":"Eastern Region"}},"labels":["conference","science","technology"],"duration":878400,"start_local":"2024-07-20T09:00:00","end":"2024-07-30T13:00:00Z","end_local":"2024-07-30T13:00:00","updated":"2024-06-20T07:09:51Z"},{"title":"\"Jaydub Prince Of Da County\"","description":"Sourced from predicthq.com","category":"concerts","start":"2024-07-19T21:00:00Z","geo":{"geometry":{"coordinates":[-0.2141164,5.568449],"type":"Point"},"placekey":"@dw7-z2r-v2k","address":{"country_code":"GH","formatted_address":"Akasanoma Road, Accra, Ghana","locality":"Accra","region":"Greater Accra Region"}},"labels":["concert","music"],"duration":0,"start_local":"2024-07-19T21:00:00","end":"2024-07-19T21:00:00Z","end_local":"2024-07-19T21:00:00","updated":"2024-06-30T10:34:48Z"},{"title":"Intor to AI 2024","description":"Sourced from predicthq.com - Get ready to dive into the world of Artificial Intelligence at Intor to AI 2024 - where you'll learn, network, and have a blast!","category":"conferences","start":"2024-07-17T10:00:00Z","geo":{"geometry":{"coordinates":[-0.2871621,5.5770604],"type":"Point"},"placekey":"@dw7-ygg-gx5","address":{"country_code":"GH","formatted_address":"Mallam, Greater Accra Region, Ghana","locality":"Mallam","region":"Greater Accra Region"}},"labels":["conference","science","technology"],"duration":7200,"start_local":"2024-07-17T10:00:00","end":"2024-07-17T12:00:00Z","end_local":"2024-07-17T12:00:00","updated":"2024-06-13T00:44:24Z"},{"title":"Ghana Data Science Summit","description":"Sourced from predicthq.com","category":"conferences","start":"2024-07-17T09:00:00Z","geo":{"geometry":{"coordinates":[-1.5654015,6.6731591],"type":"Point"},"placekey":"@dvg-q8v-fmk","address":{"country_code":"GH","formatted_address":"Accra Rd, Kumasi, Ghana","locality":"Kumasi","region":"Ashanti Region"}},"labels":["conference"],"duration":205200,"start_local":"2024-07-17T09:00:00","end":"2024-07-19T18:00:00Z","end_local":"2024-07-19T18:00:00","updated":"2024-06-14T12:51:50Z"},{"title":"International Conference Management, Accounting, Banking, Economics and Business Research","description":"Sourced from predicthq.com - The International Conference on Management, Accounting, Banking, Economics, and Business Research is a prestigious global event that unites leading experts and professionals from various fields to discuss cutting-edge research, innovations, and best practices in the areas of management, accounting, banking, economics, and business. This conference provides a platform for networking, knowledge exchange, and collaboration among academia, industry practitioners, and policymakers to address the emerging challenges and explore growth opportunities in these critical disciplines.","category":"conferences","start":"2024-07-16T09:00:00Z","geo":{"geometry":{"coordinates":[-0.197776,5.554252],"type":"Point"},"placekey":"@dw7-yzq-s5z","address":{"country_code":"GH","formatted_address":"Ministries PMB, 66 Gamel Abdul Nasser Ave, Accra, Ghana","locality":"Accra","region":"Greater Accra Region"}},"labels":["conference"],"duration":291600,"start_local":"2024-07-16T09:00:00","end":"2024-07-19T18:00:00Z","end_local":"2024-07-19T18:00:00","updated":"2024-06-04T06:01:24Z"},{"title":"Manifest 2024","description":"Sourced from predicthq.com - Welcome to a life-changing atmosphere!","category":"conferences","start":"2024-07-13T16:00:00Z","geo":{"geometry":{"coordinates":[-0.1864182,5.654621399999999],"type":"Point"},"placekey":"@dw7-yyn-gff","address":{"country_code":"GH","formatted_address":"Accra, Greater Accra Region, Ghana","locality":"Accra","region":"Greater Accra Region"}},"labels":["conference","religion"],"duration":14400,"start_local":"2024-07-13T16:00:00","end":"2024-07-13T20:00:00Z","end_local":"2024-07-13T20:00:00","updated":"2024-06-03T23:44:59Z"},{"title":"Echo Sound System","description":"Sourced from predicthq.com - Looking for a thrilling SoundSytem in Accra? Tired of overpriced, crowded venues? Attend Echo Sound System for an unforgettable experience","category":"concerts","start":"2024-07-13T16:00:00Z","geo":{"geometry":{"coordinates":[-0.1711788,5.6257655],"type":"Point"},"placekey":"@dvg-fdh-59f","address":{"country_code":"GH","formatted_address":"Accra, Greater Accra Region, Ghana","locality":"Accra","region":"Greater Accra Region"}},"labels":["concert","music"],"duration":21600,"start_local":"2024-07-13T16:00:00","end":"2024-07-13T22:00:00Z","end_local":"2024-07-13T22:00:00","updated":"2024-06-29T16:01:48Z"},{"title":"LOFTY REIGNZ","description":"Sourced from predicthq.com","category":"concerts","start":"2024-07-12T20:00:00Z","geo":{"geometry":{"coordinates":[-1.6162709,6.6666002],"type":"Point"},"placekey":"@dvg-qbd-dvz","address":{"country_code":"GH","formatted_address":"Kumasi, Ashanti Region, Ghana","locality":"Kumasi","region":"Ashanti Region"}},"labels":["concert","music"],"duration":0,"start_local":"2024-07-12T20:00:00","end":"2024-07-12T20:00:00Z","end_local":"2024-07-12T20:00:00","updated":"2024-06-23T00:50:45Z"},{"title":"LOFTY REIGNZ","description":"Sourced from predicthq.com","category":"concerts","start":"2024-07-12T14:30:00Z","geo":{"geometry":{"coordinates":[-1.6162709,6.6666002],"type":"Point"},"placekey":"@dvg-qbd-dvz","address":{"country_code":"GH","formatted_address":"Kumasi, Ashanti Region, Ghana","locality":"Kumasi","region":"Ashanti Region"}},"labels":["concert","music"],"duration":0,"start_local":"2024-07-12T14:30:00","end":"2024-07-12T14:30:00Z","end_local":"2024-07-12T14:30:00","updated":"2024-06-23T00:50:45Z"},{"title":"Path Of Life Conference","description":"Sourced from predicthq.com - The opening of the eye to see heightened level of truth. Walking in light of the word of God","category":"conferences","start":"2024-07-12T07:00:34Z","geo":{"geometry":{"coordinates":[-0.2077386,5.5619211],"type":"Point"},"placekey":"@dw7-z2r-d7q","address":{"country_code":"GH","formatted_address":"Castle Road, Accra, Ghana","locality":"Accra","region":"Greater Accra Region"}},"labels":["conference"],"duration":10800,"start_local":"2024-07-12T07:00:34","end":"2024-07-12T10:00:34Z","end_local":"2024-07-12T10:00:34","updated":"2024-07-04T01:12:37Z"},{"title":"IELTS Information Seminar","description":"Sourced from predicthq.com","category":"expos","start":"2024-07-10T00:00:00Z","geo":{"geometry":{"coordinates":[-0.1438325,5.5624701],"type":"Point"},"placekey":"@dw7-z44-mx5","address":{"country_code":"GH","formatted_address":"1 Labadi Road, Accra, Ghana","locality":"Accra","region":"Greater Accra Region"}},"labels":["expo"],"duration":86399,"start_local":"2024-07-10T00:00:00","end":"2024-07-10T23:59:59Z","end_local":"2024-07-10T23:59:59","updated":"2024-06-23T01:51:30Z"},{"title":"ERA E-MOBILITY Conference and Exhibition","description":"Sourced from predicthq.com","category":"expos","start":"2024-07-09T00:00:00Z","geo":{"geometry":{"coordinates":[-0.201819,5.554611],"type":"Point"},"placekey":"@dw7-yzr-5zz","address":{"country_code":"GH","formatted_address":"Pmb Ct 343, Independence Ave, Accra, Ghana","locality":"Accra","region":"Greater Accra Region"}},"labels":["expo"],"duration":172799,"start_local":"2024-07-09T00:00:00","end":"2024-07-10T23:59:59Z","end_local":"2024-07-10T23:59:59","updated":"2024-06-04T06:17:02Z"},{"title":"Ghana - EU Business Forum","description":"Sourced from predicthq.com","category":"conferences","start":"2024-07-03T09:00:00Z","geo":{"geometry":{"coordinates":[-0.176527,5.604956],"type":"Point"},"placekey":"@dw7-z4f-wzf","address":{"country_code":"GH","formatted_address":"Liberation Road, Accra, Ghana","locality":"Accra","region":"Greater Accra Region"}},"labels":["conference"],"duration":118800,"start_local":"2024-07-03T09:00:00","end":"2024-07-04T18:00:00Z","end_local":"2024-07-04T18:00:00","updated":"2024-06-30T02:47:47Z"},{"title":"Justifiers","description":"Sourced from predicthq.com - NPs sports agency is inviting free agent players within the age 14 -17 to come showcase their talent at the teshie MacDan Astro turf 7:00am","category":"conferences","start":"2024-07-01T10:00:00Z","geo":{"geometry":{"coordinates":[-0.1765031,5.6360138],"type":"Point"},"placekey":"@dvg-fdf-kmk","address":{"country_code":"GH","formatted_address":"1st Freetown Link, Accra, Ghana","locality":"Accra","region":"Greater Accra Region"}},"labels":["conference"],"duration":7200,"start_local":"2024-07-01T10:00:00","end":"2024-07-01T12:00:00Z","end_local":"2024-07-01T12:00:00","updated":"2024-05-23T03:56:01Z"},{"title":"AYORKUMI","description":"Sourced from predicthq.com - A total dance drama rendition with powerful live band music all  intertwined with the captivating story Written by Gerald Nyarko- Mensah","category":"performing-arts","start":"2024-06-29T19:00:13Z","geo":{"geometry":{"coordinates":[-0.182159,5.597067699999999],"type":"Point"},"placekey":"@dw7-z4g-j5f","address":{"country_code":"GH","formatted_address":"Casely Hayford Road, Accra, Ghana","locality":"Accra","region":"Greater Accra Region"}},"labels":["concert","music","performing-arts"],"duration":10814,"start_local":"2024-06-29T19:00:13","end":"2024-06-29T22:00:27Z","end_local":"2024-06-29T22:00:27","updated":"2024-06-06T01:12:09Z"},{"title":"6 月 29 日 物理治療暑期體驗活動 (Physiotherapy Summer Program)","description":"Sourced from predicthq.com","category":"expos","start":"2024-06-29T00:00:00Z","geo":{"geometry":{"coordinates":[-0.1438325,5.5624701],"type":"Point"},"placekey":"@dw7-z44-mx5","address":{"country_code":"GH","formatted_address":"1 Labadi Road, Accra, Ghana","locality":"Accra","region":"Greater Accra Region"}},"labels":["expo"],"duration":86399,"start_local":"2024-06-29T00:00:00","end":"2024-06-29T23:59:59Z","end_local":"2024-06-29T23:59:59","updated":"2024-06-14T07:12:07Z"},{"title":"BUDUM- a rhythmic experience to compliment FROM SOUL TO HUMANITY","description":"Sourced from predicthq.com - BUDUM- a rhythmic experience to compliment FROM SOUL TO HUMANITY\nCome join us at La Foundation for an unforgettable evening of music and art","category":"performing-arts","start":"2024-06-28T19:00:00Z","geo":{"geometry":{"coordinates":[-0.1507831,5.559141299999999],"type":"Point"},"placekey":"@dw7-yzx-4jv","address":{"country_code":"GH","formatted_address":"La Road, Accra, Ghana","locality":"Accra","region":"Greater Accra Region"}},"labels":["concert","music","performing-arts"],"duration":7200,"start_local":"2024-06-28T19:00:00","end":"2024-06-28T21:00:00Z","end_local":"2024-06-28T21:00:00","updated":"2024-06-27T19:02:58Z"},{"title":"4TH CONVERGENCE OF YOUNG AFRICAN LEADERS/AWARD  (COYALA 2024)","description":"Sourced from predicthq.com - COYALA 2024 is a global event aimed at inspiring a passionate commitment to a better Africa while honoring few impactful individuals.","category":"conferences","start":"2024-06-28T16:00:00Z","geo":{"geometry":{"coordinates":[-0.2013895,5.5560334],"type":"Point"},"placekey":"@dw7-yzr-6c5","address":{"country_code":"GH","formatted_address":"Liberia Road, Accra, Ghana","locality":"Accra","region":"Greater Accra Region"}},"labels":["community","conference"],"duration":14400,"start_local":"2024-06-28T16:00:00","end":"2024-06-28T20:00:00Z","end_local":"2024-06-28T20:00:00","updated":"2024-06-27T17:54:44Z"},{"title":"The Next Great Leader Summit","description":"Sourced from predicthq.com - Join us for a day of transformative insights and high-impact networking, designed exclusively for emerging leaders ready to make their mark.","category":"conferences","start":"2024-06-28T16:00:00Z","geo":{"geometry":{"coordinates":[-0.2018594,5.557373899999999],"type":"Point"},"placekey":"@dw7-yzr-8sq","address":{"country_code":"GH","formatted_address":"Cruickshank Road, Accra, Ghana","locality":"Accra","region":"Greater Accra Region"}},"labels":["business","conference"],"duration":10800,"start_local":"2024-06-28T16:00:00","end":"2024-06-28T19:00:00Z","end_local":"2024-06-28T19:00:00","updated":"2024-06-04T01:04:05Z"},{"title":"Beauty Ghana","description":"Sourced from predicthq.com","category":"expos","start":"2024-06-27T09:00:00Z","geo":{"geometry":{"coordinates":[-0.1930416,5.5545602],"type":"Point"},"placekey":"@dw7-yzq-wkz","address":{"country_code":"GH","formatted_address":"Castle Rd, Accra, Ghana","locality":"Accra","region":"Greater Accra Region"}},"labels":["expo"],"duration":205200,"start_local":"2024-06-27T09:00:00","end":"2024-06-29T18:00:00Z","end_local":"2024-06-29T18:00:00","updated":"2024-06-04T08:58:18Z"},{"title":"3rd Africa Energy Summit","description":"Sourced from predicthq.com - Get ready for an electrifying gathering of Africa's energy leaders at the Africa Energy Summit!","category":"conferences","start":"2024-06-27T08:00:00Z","geo":{"geometry":{"coordinates":[-0.1968936,5.570502299999998],"type":"Point"},"placekey":"@dw7-yzy-6x5","address":{"country_code":"GH","formatted_address":"Doctor Isert Street, Accra, Ghana","locality":"Accra","region":"Greater Accra Region"}},"labels":["business","conference"],"duration":25200,"start_local":"2024-06-27T08:00:00","end":"2024-06-27T15:00:00Z","end_local":"2024-06-27T15:00:00","updated":"2024-06-21T10:49:46Z"},{"title":"WATER AFRICA & West Africa Building & Construction Exhibition","description":"Sourced from predicthq.com","category":"expos","start":"2024-06-26T00:00:00Z","geo":{"geometry":{"coordinates":[-0.1930416,5.5545602],"type":"Point"},"placekey":"@dw7-yzq-wkz","address":{"country_code":"GH","formatted_address":"Castle Road, Accra, Ghana","locality":"Accra","region":"Greater Accra Region"}},"labels":["environment","expo","science","technology"],"duration":259199,"start_local":"2024-06-26T00:00:00","end":"2024-06-28T23:59:59Z","end_local":"2024-06-28T23:59:59","updated":"2024-06-04T10:49:13Z"},{"title":"LOFTY REIGNZ","description":"Sourced from predicthq.com","category":"concerts","start":"2024-06-25T20:00:00Z","geo":{"geometry":{"coordinates":[-1.6162709,6.6666002],"type":"Point"},"placekey":"@dvg-qbd-dvz","address":{"country_code":"GH","formatted_address":"Kumasi, Ashanti Region, Ghana","locality":"Kumasi","region":"Ashanti Region"}},"labels":["concert","music"],"duration":0,"start_local":"2024-06-25T20:00:00","end":"2024-06-25T20:00:00Z","end_local":"2024-06-25T20:00:00","updated":"2024-06-23T00:11:32Z"},{"title":"Dubai Real Estate Expo in Ghana","description":"Sourced from predicthq.com - Dubai Real Estate Expo in Ghana: Come check out the hottest properties in Dubai right here in Ghana!","category":"expos","start":"2024-06-22T10:00:00Z","geo":{"geometry":{"coordinates":[-0.2034176,5.5728635],"type":"Point"},"placekey":"@dw7-z2r-wtv","address":{"country_code":"GH","formatted_address":"Ring Road Central, Accra, Ghana","locality":"Accra","region":"Greater Accra Region"}},"labels":["business","expo"],"duration":122400,"start_local":"2024-06-22T10:00:00","end":"2024-06-23T20:00:00Z","end_local":"2024-06-23T20:00:00","updated":"2024-06-21T22:32:03Z"},{"title":"Youth Leadership Summit 2024","description":"Sourced from predicthq.com - Get ready for an epic Youth Leadership Summit in 2024 - where young leaders unite to inspire change and make a difference!","category":"conferences","start":"2024-06-22T09:00:00Z","geo":{"geometry":{"coordinates":[-0.2283804000000001,5.662873100000001],"type":"Point"},"placekey":"@dw7-yyp-hbk","address":{"country_code":"GH","formatted_address":"Dome, Greater Accra Region, Ghana","locality":"Dome","region":"Greater Accra Region"}},"labels":["business","conference"],"duration":10800,"start_local":"2024-06-22T09:00:00","end":"2024-06-22T12:00:00Z","end_local":"2024-06-22T12:00:00","updated":"2024-06-04T08:36:08Z"},{"title":"Youth Leadership Summit 2024","description":"Sourced from predicthq.com - Get ready for an epic Youth Leadership Summit in 2024 - where young leaders unite to inspire change and make a difference!","category":"conferences","start":"2024-06-21T09:00:00Z","geo":{"geometry":{"coordinates":[-0.2283804000000001,5.662873100000001],"type":"Point"},"placekey":"@dw7-yyp-hbk","address":{"country_code":"GH","formatted_address":"Dome, Greater Accra Region, Ghana","locality":"Dome","region":"Greater Accra Region"}},"labels":["business","conference"],"duration":10800,"start_local":"2024-06-21T09:00:00","end":"2024-06-21T12:00:00Z","end_local":"2024-06-21T12:00:00","updated":"2024-06-04T02:16:23Z"},{"title":"The Royal Woman Conference","description":"Sourced from predicthq.com - Diaspora Woman & Queen Mothers Building  Unforgettable Experiences & Connections","category":"conferences","start":"2024-06-20T15:00:00Z","geo":{"geometry":{"coordinates":[-0.176706,5.618984],"type":"Point"},"placekey":"@dvg-fdg-pvz","address":{"country_code":"GH","formatted_address":"Kofi Annan St, Accra, Ghana","locality":"Accra","region":"Greater Accra Region"}},"labels":["community","conference"],"duration":0,"start_local":"2024-06-20T15:00:00","end":"2024-06-20T15:00:00Z","end_local":"2024-06-20T15:00:00","updated":"2024-06-21T16:44:48Z"},{"title":"Climate for Peace Dialogue","description":"Sourced from predicthq.com - An evening to address climate issues and encourage Ghanaian youth to urge political leaders to take climate action and peace action.","category":"conferences","start":"2024-06-19T17:00:00Z","geo":{"geometry":{"coordinates":[-0.2013895,5.5560334],"type":"Point"},"placekey":"@dw7-yzr-6c5","address":{"country_code":"GH","formatted_address":"Liberia Road, Accra, Ghana","locality":"Accra","region":"Greater Accra Region"}},"labels":["community","conference"],"duration":10800,"start_local":"2024-06-19T17:00:00","end":"2024-06-19T20:00:00Z","end_local":"2024-06-19T20:00:00","updated":"2024-06-18T17:33:26Z"},{"title":"China Trade Week Ghana","description":"Sourced from predicthq.com","category":"expos","start":"2024-06-19T00:00:00Z","geo":{"geometry":{"coordinates":[-0.1930416,5.5545602],"type":"Point"},"placekey":"@dw7-yzq-wkz","address":{"country_code":"GH","formatted_address":"Castle Rd, Accra, Ghana","locality":"Accra","region":"Greater Accra Region"}},"labels":["expo"],"duration":259199,"start_local":"2024-06-19T00:00:00","end":"2024-06-21T23:59:59Z","end_local":"2024-06-21T23:59:59","updated":"2024-06-04T00:11:21Z"},{"title":"Ghana Investment and Trade Week","description":"Sourced from predicthq.com","category":"expos","start":"2024-06-19T00:00:00Z","geo":{"geometry":{"coordinates":[-0.1930416,5.5545602],"type":"Point"},"placekey":"@dw7-yzq-wkz","address":{"country_code":"GH","formatted_address":"Castle Road, Accra, Ghana","locality":"Accra","region":"Greater Accra Region"}},"labels":["business","construction","expo","industrial","technology"],"duration":259199,"start_local":"2024-06-19T00:00:00","end":"2024-06-21T23:59:59Z","end_local":"2024-06-21T23:59:59","updated":"2024-06-04T00:40:11Z"},{"title":"Ghana Investment Trade Week","description":"Sourced from predicthq.com","category":"expos","start":"2024-06-18T09:00:00Z","geo":{"geometry":{"coordinates":[-0.1930416,5.5545602],"type":"Point"},"placekey":"@dw7-yzq-wkz","address":{"country_code":"GH","formatted_address":"Castle Rd, Accra, Ghana","locality":"Accra","region":"Greater Accra Region"}},"labels":["expo"],"duration":205200,"start_local":"2024-06-18T09:00:00","end":"2024-06-20T18:00:00Z","end_local":"2024-06-20T18:00:00","updated":"2024-06-04T07:30:37Z"},{"title":"The Radiance Fair","description":"Sourced from predicthq.com - The ultimate luxury bridal affair in Ghana, featuring a vendor showcase, panel discussions, workshops, runway show, gifting bar and more","category":"festivals","start":"2024-06-15T10:00:00Z","geo":{"geometry":{"coordinates":[-0.1382485,5.563936000000001],"type":"Point"},"placekey":"@dw7-z3d-p9z","address":{"country_code":"GH","formatted_address":"Accra, Greater Accra Region, Ghana","locality":"Accra","region":"Greater Accra Region"}},"labels":["festival"],"duration":122400,"start_local":"2024-06-15T10:00:00","end":"2024-06-16T20:00:00Z","end_local":"2024-06-16T20:00:00","updated":"2024-06-04T03:42:15Z"},{"title":"EPIK Social Good Festival","description":"Sourced from predicthq.com - Ghana's Premier Purpose-Driven Father’s Day Celebration Social, Recreational & Livelihoods Nourishment Festival \"Beyond the Return\"!","category":"festivals","start":"2024-06-15T06:00:00Z","geo":{"geometry":{"coordinates":[-1.8965694,5.065217899999999],"type":"Point"},"placekey":"@dv5-cqq-wp9","address":{"country_code":"GH","formatted_address":"Adum Banso, Western Region, Ghana","locality":"Adum Banso","region":"Western Region"}},"labels":["festival","fundraiser"],"duration":149400,"start_local":"2024-06-15T06:00:00","end":"2024-06-16T23:30:00Z","end_local":"2024-06-16T23:30:00","updated":"2024-06-04T11:44:23Z"},{"title":"JAMES BARNOR 95 - DURBAR AND CULTURAL CELEBRATION","description":"Sourced from predicthq.com - e-Ananse is thrilled to present the “Durbar and Cultural Celebration” in commemoration of the James Barnor at 95 Festival.","category":"festivals","start":"2024-06-07T12:00:00Z","geo":{"geometry":{"coordinates":[-0.1699065,5.6370073],"type":"Point"},"placekey":"@dvg-fd9-yjv","address":{"country_code":"GH","formatted_address":"Anum Yemoh Loop, Accra, Ghana","locality":"Accra","region":"Greater Accra Region"}},"labels":["community","festival"],"duration":7200,"start_local":"2024-06-07T12:00:00","end":"2024-06-07T14:00:00Z","end_local":"2024-06-07T14:00:00","updated":"2024-05-30T01:21:28Z"},{"title":"Transport Evolution West Africa","description":"Sourced from predicthq.com","category":"expos","start":"2024-06-05T09:00:00Z","geo":{"geometry":{"coordinates":[-0.1930416,5.5545602],"type":"Point"},"placekey":"@dw7-yzq-wkz","address":{"country_code":"GH","formatted_address":"Castle Rd, Accra, Ghana","locality":"Accra","region":"Greater Accra Region"}},"labels":["expo"],"duration":205200,"start_local":"2024-06-05T09:00:00","end":"2024-06-07T18:00:00Z","end_local":"2024-06-07T18:00:00","updated":"2024-06-04T07:37:08Z"},{"title":"WAMPEX","description":"Sourced from predicthq.com - West African International Mining & Power Exhibition and Conference","category":"expos","start":"2024-06-05T00:00:00Z","geo":{"geometry":{"coordinates":[-0.1930416,5.5545602],"type":"Point"},"placekey":"@dw7-yzq-wkz","address":{"country_code":"GH","formatted_address":"Castle Road, Accra, Ghana","locality":"Accra","region":"Greater Accra Region"}},"labels":["expo","industrial","mineral","technology"],"duration":259199,"start_local":"2024-06-05T00:00:00","end":"2024-06-07T23:59:59Z","end_local":"2024-06-07T23:59:59","updated":"2024-07-05T04:55:12Z"},{"title":"2024 Ghana Urban Forum","description":"Sourced from predicthq.com - The theme for the 2024 GUF is Nurturing Roots, Growing Futures: Combining Policies and Partnerships for Urban Resilience and Transformation","category":"conferences","start":"2024-06-04T09:00:00Z","geo":{"geometry":{"coordinates":[-0.1385295,5.562204],"type":"Point"},"placekey":"@dw7-z44-py9","address":{"country_code":"GH","formatted_address":"Accra, Greater Accra Region, Ghana","locality":"Accra","region":"Greater Accra Region"}},"labels":["community","conference"],"duration":111600,"start_local":"2024-06-04T09:00:00","end":"2024-06-05T16:00:00Z","end_local":"2024-06-05T16:00:00","updated":"2024-06-12T10:35:19Z"},{"title":"Hella Plants Market Accra","description":"Sourced from predicthq.com - Come join us at the Hella Plants Market Accra on June 1st and 2nd, at 10:00 AM for a fabulous Plant Market and Vegan Experience in Osu!","category":"expos","start":"2024-06-01T10:00:00Z","geo":{"geometry":{"coordinates":[-0.1721958,5.5608835],"type":"Point"},"placekey":"@dw7-yzn-jjv","address":{"country_code":"GH","formatted_address":"Accra, Greater Accra Region, Ghana","locality":"Accra","region":"Greater Accra Region"}},"labels":["expo","outdoor"],"duration":108000,"start_local":"2024-06-01T10:00:00","end":"2024-06-02T16:00:00Z","end_local":"2024-06-02T16:00:00","updated":"2024-06-04T02:41:40Z"},{"title":"The Hangout 2024","description":"Sourced from predicthq.com - Get ready to chill and have a blast at The Hangout 2024 - the ultimate gathering for good vibes, great music, and awesome memories!","category":"festivals","start":"2024-05-31T16:00:00Z","geo":{"geometry":{"coordinates":[-0.2030479,5.5448327],"type":"Point"},"placekey":"@dw7-z35-t9z","address":{"country_code":"GH","formatted_address":"Accra, Greater Accra Region, Ghana","locality":"Accra","region":"Greater Accra Region"}},"labels":["festival","outdoor"],"duration":9000,"start_local":"2024-05-31T16:00:00","end":"2024-05-31T18:30:00Z","end_local":"2024-05-31T18:30:00","updated":"2024-06-05T00:25:17Z"},{"title":"Applied Research Conference of Technical Universities in Ghana","description":"Sourced from predicthq.com","category":"conferences","start":"2024-05-28T09:00:00Z","geo":{"geometry":{"coordinates":[-2.316518,7.322497],"type":"Point"},"placekey":"@dv4-dh9-9j9","address":{"country_code":"GH","formatted_address":"Sunyani, Bono Region, Ghana","locality":"Sunyani","region":"Bono Region"}},"labels":["conference"],"duration":378000,"start_local":"2024-05-28T09:00:00","end":"2024-06-01T18:00:00Z","end_local":"2024-06-01T18:00:00","updated":"2024-05-31T23:01:57Z"},{"title":"Ghana CEO Summit","description":"Sourced from predicthq.com","category":"conferences","start":"2024-05-27T09:00:00Z","geo":{"geometry":{"coordinates":[-0.197776,5.554252],"type":"Point"},"placekey":"@dw7-yzq-s5z","address":{"country_code":"GH","formatted_address":"Ministries PMB, 66 Gamel Abdul Nasser Ave, Accra, Ghana","locality":"Accra","region":"Greater Accra Region"}},"labels":["conference"],"duration":32400,"start_local":"2024-05-27T09:00:00","end":"2024-05-27T18:00:00Z","end_local":"2024-05-27T18:00:00","updated":"2024-06-01T12:07:53Z"},{"title":"Africa Executive Personal Assistants & Administrators Conference","description":"Sourced from predicthq.com","category":"conferences","start":"2024-05-27T00:00:00Z","geo":{"geometry":{"coordinates":[-0.138383,5.563681],"type":"Point"},"placekey":"@dw7-z3d-pgk","address":{"country_code":"GH","formatted_address":"La Rd, Accra, Ghana","locality":"Accra","region":"Greater Accra Region"}},"labels":["conference"],"duration":431999,"start_local":"2024-05-27T00:00:00","end":"2024-05-31T23:59:59Z","end_local":"2024-05-31T23:59:59","updated":"2024-05-28T01:12:05Z"},{"title":"Art & Vibrations x Afro Future Ghana","description":"Sourced from predicthq.com - Come vibe with us at Art & Vibrations x Afro Future Ghana, where we celebrate the art and culture of Ghana with a modern twist!","category":"festivals","start":"2024-05-25T17:00:00Z","geo":{"geometry":{"coordinates":[-0.176368,5.5637864],"type":"Point"},"placekey":"@dw7-yzv-d7q","address":{"country_code":"GH","formatted_address":"Dadebu Road, Accra, Ghana","locality":"Accra","region":"Greater Accra Region"}},"labels":["festival","performing-arts"],"duration":23400,"start_local":"2024-05-25T17:00:00","end":"2024-05-25T23:30:00Z","end_local":"2024-05-25T23:30:00","updated":"2024-05-23T02:04:19Z"},{"title":"Asa Ne Asa","description":"Sourced from predicthq.com - Watch the sun set and let loose to the music with dynamic dj duo,  African Parté","category":"concerts","start":"2024-05-25T14:00:00Z","geo":{"geometry":{"coordinates":[-0.17476,5.6257772],"type":"Point"},"placekey":"@dvg-fdg-ghq","address":{"country_code":"GH","formatted_address":"Accra, Greater Accra Region, Ghana","locality":"Accra","region":"Greater Accra Region"}},"labels":["community","concert","music"],"duration":21600,"start_local":"2024-05-25T14:00:00","end":"2024-05-25T20:00:00Z","end_local":"2024-05-25T20:00:00","updated":"2024-06-05T03:22:25Z"},{"title":"“Creative Minds, Healthy Souls”","description":"Sourced from predicthq.com - Let's come together and have conversations about creatives and their mental health at our 'Can We Talk' Campaign on May 25, 2024 at 12 PM!","category":"conferences","start":"2024-05-25T12:00:00Z","geo":{"geometry":{"coordinates":[-0.1800562,5.7672527],"type":"Point"},"placekey":"@dvg-f9v-v2k","address":{"country_code":"GH","formatted_address":"Oyarifa Road, Greater Accra Region, Ghana","region":"Greater Accra Region"}},"labels":["conference","health"],"duration":10800,"start_local":"2024-05-25T12:00:00","end":"2024-05-25T15:00:00Z","end_local":"2024-05-25T15:00:00","updated":"2024-05-23T03:07:09Z"},{"title":"PANALOVE SUMMIT II : HEALTH, WELLNESS + COLORISM","description":"Sourced from predicthq.com - OUR SUMMIT IS TWO RIVETING PANEL DISCUSSIONS W/ AN EXCITING PERFORMANCE IN BETWEEN! GREAT FOOD + POWERFUL NETWORKING IN THE HEART OF ACCRA!","category":"conferences","start":"2024-05-25T11:00:00Z","geo":{"geometry":{"coordinates":[-0.1717156,5.560284999999999],"type":"Point"},"placekey":"@dw7-yzn-jjv","address":{"country_code":"GH","formatted_address":"Accra, Greater Accra Region, Ghana","locality":"Accra","region":"Greater Accra Region"}},"labels":["conference","health"],"duration":21600,"start_local":"2024-05-25T11:00:00","end":"2024-05-25T17:00:00Z","end_local":"2024-05-25T17:00:00","updated":"2024-06-04T22:18:37Z"},{"title":"Leadership Conference and Retreat 2024 - Ghana","description":"Sourced from predicthq.com - Do you feel overwhelmed by the constant pressures and demands of your personal and ministry life? It's time for the Leaders Renewal Retreat.","category":"conferences","start":"2024-05-24T10:00:00Z","geo":{"geometry":{"coordinates":[-0.09924069999999999,5.9460108],"type":"Point"},"placekey":"@dvg-d5h-r49","address":{"country_code":"GH","formatted_address":"Larteh, Eastern Region, Ghana","locality":"Larteh","region":"Eastern Region"}},"labels":["business","conference"],"duration":32400,"start_local":"2024-05-24T10:00:00","end":"2024-05-24T19:00:00Z","end_local":"2024-05-24T19:00:00","updated":"2024-06-05T10:46:09Z"},{"title":"Ghana Impact Summit 2024","description":"Sourced from predicthq.com - The summit provides a platform for the Ghanaian financing ecosystem to make significant progress on local ecosystem-building initiatives.","category":"conferences","start":"2024-05-22T08:30:00Z","geo":{"geometry":{"coordinates":[-0.176527,5.604956],"type":"Point"},"placekey":"@dw7-z4f-wzf","address":{"country_code":"GH","formatted_address":"Liberation Road, Accra, Ghana","locality":"Accra","region":"Greater Accra Region"}},"labels":["business","conference"],"duration":30600,"start_local":"2024-05-22T08:30:00","end":"2024-05-22T17:00:00Z","end_local":"2024-05-22T17:00:00","updated":"2024-06-04T12:25:30Z"},{"title":"Accra International Education Fair 2024","description":"Sourced from predicthq.com - Study Abroad provide you with opportunities to Connect with other institutions, government representatives, and industry professionals.","category":"expos","start":"2024-05-20T11:30:00Z","geo":{"geometry":{"coordinates":[-0.204066,5.552898],"type":"Point"},"placekey":"@dw7-yzr-gp9","address":{"country_code":"GH","formatted_address":"Barnes Road, Accra, Ghana","locality":"Accra","region":"Greater Accra Region"}},"labels":["education","expo","family"],"duration":23400,"start_local":"2024-05-20T11:30:00","end":"2024-05-20T18:00:00Z","end_local":"2024-05-20T18:00:00","updated":"2024-06-05T15:28:21Z"},{"title":"FIG Working Week","description":"Sourced from predicthq.com","category":"conferences","start":"2024-05-19T09:00:00Z","geo":{"geometry":{"coordinates":[-0.1438325,5.5624701],"type":"Point"},"placekey":"@dw7-z44-mx5","address":{"country_code":"GH","formatted_address":"1 Labadi Road, Accra, Ghana","locality":"Accra","region":"Greater Accra Region"}},"labels":["conference"],"duration":464400,"start_local":"2024-05-19T09:00:00","end":"2024-05-24T18:00:00Z","end_local":"2024-05-24T18:00:00","updated":"2024-06-12T01:01:26Z"},{"title":"LaFA LATES: Converging Timelines","description":"Sourced from predicthq.com - Join us at LaFA LATES: Converging Timelines, and expect to be touched during the performance of an experimental dance duet!","category":"performing-arts","start":"2024-05-17T19:00:00Z","geo":{"geometry":{"coordinates":[-0.1507831,5.559141299999999],"type":"Point"},"placekey":"@dw7-yzx-4jv","address":{"country_code":"GH","formatted_address":"La Road, Accra, Ghana","locality":"Accra","region":"Greater Accra Region"}},"labels":["concert","music","performing-arts"],"duration":7200,"start_local":"2024-05-17T19:00:00","end":"2024-05-17T21:00:00Z","end_local":"2024-05-17T21:00:00","updated":"2024-05-31T23:04:06Z"},{"title":"Empowerment Night & Threshing Floor Worship","description":"Sourced from predicthq.com - Join EPR Global for a POWER-PACKED FREE Empowerment and Worship Night – your exclusive gateway to the upcoming Leadership Summit!","category":"concerts","start":"2024-05-16T18:00:00Z","geo":{"geometry":{"coordinates":[-0.1385295,5.562204],"type":"Point"},"placekey":"@dw7-z44-py9","address":{"country_code":"GH","formatted_address":"Accra, Greater Accra Region, Ghana","locality":"Accra","region":"Greater Accra Region"}},"labels":["concert","music","religion"],"duration":14400,"start_local":"2024-05-16T18:00:00","end":"2024-05-16T22:00:00Z","end_local":"2024-05-16T22:00:00","updated":"2024-06-12T00:37:29Z"},{"title":"International Conference on the Future of African Trade and the AfCFTA","description":"Sourced from predicthq.com","category":"conferences","start":"2024-05-16T09:00:00Z","geo":{"geometry":{"coordinates":[-0.165477,5.662812],"type":"Point"},"placekey":"@dvg-fcx-8d9","address":{"country_code":"GH","formatted_address":"New Road, Madina, Ghana","locality":"Madina","region":"Greater Accra Region"}},"labels":["conference"],"duration":118800,"start_local":"2024-05-16T09:00:00","end":"2024-05-17T18:00:00Z","end_local":"2024-05-17T18:00:00","updated":"2024-05-31T22:40:50Z"},{"title":"International Research Conference of the College of HumanitiesInternational Research Conference of the College of Humanities","description":"Sourced from predicthq.com","category":"conferences","start":"2024-05-15T09:00:00Z","geo":{"geometry":{"coordinates":[-0.196224,5.650562],"type":"Point"},"placekey":"@dw7-yyn-3wk","address":{"country_code":"GH","formatted_address":"Legon Boundary, Accra, Ghana","locality":"Accra","region":"Greater Accra Region"}},"labels":["conference"],"duration":205200,"start_local":"2024-05-15T09:00:00","end":"2024-05-17T18:00:00Z","end_local":"2024-05-17T18:00:00","updated":"2024-05-27T22:06:24Z"},{"title":"African Media Convention","description":"Sourced from predicthq.com","category":"conferences","start":"2024-05-15T09:00:00Z","geo":{"geometry":{"coordinates":[-0.1930416,5.5545602],"type":"Point"},"placekey":"@dw7-yzq-wkz","address":{"country_code":"GH","formatted_address":"Castle Rd, Accra, Ghana","locality":"Accra","region":"Greater Accra Region"}},"labels":["conference"],"duration":205200,"start_local":"2024-05-15T09:00:00","end":"2024-05-17T18:00:00Z","end_local":"2024-05-17T18:00:00","updated":"2024-06-04T23:26:23Z"},{"title":"The Lorgorligi Locomotion Poetry Show","description":"Sourced from predicthq.com - Join us for a night of rhythmic rhymes and soulful words at The Lorgorligi Locomotion Poetry Show on May 10, 2024, at 7:30 PM!","category":"performing-arts","start":"2024-05-10T19:30:00Z","geo":{"geometry":{"coordinates":[-0.1714555,5.5577488],"type":"Point"},"placekey":"@dw7-yzn-jvz","address":{"country_code":"GH","formatted_address":"Koi Street, Accra, Ghana","locality":"Accra","region":"Greater Accra Region"}},"labels":["concert","music","performing-arts"],"duration":7200,"start_local":"2024-05-10T19:30:00","end":"2024-05-10T21:30:00Z","end_local":"2024-05-10T21:30:00","updated":"2024-05-24T19:31:25Z"},{"title":"West Africa Pharma & Healthcare Exhibition Ghana","description":"Sourced from predicthq.com","category":"expos","start":"2024-05-08T00:00:00Z","geo":{"geometry":{"coordinates":[-0.1930416,5.5545602],"type":"Point"},"placekey":"@dw7-yzq-wkz","address":{"country_code":"GH","formatted_address":"Castle Road, Accra, Ghana","locality":"Accra","region":"Greater Accra Region"}},"labels":["expo","health","medical"],"duration":259199,"start_local":"2024-05-08T00:00:00","end":"2024-05-10T23:59:59Z","end_local":"2024-05-10T23:59:59","updated":"2024-05-28T04:15:20Z"},{"title":"Carligh International Conference","description":"Sourced from predicthq.com","category":"conferences","start":"2024-05-06T09:00:00Z","geo":{"geometry":{"coordinates":[-0.198814,5.633241],"type":"Point"},"placekey":"@dw7-yyd-grk","address":{"country_code":"GH","formatted_address":"Accra, Greater Accra Region, Ghana","locality":"Accra","region":"Greater Accra Region"}},"labels":["conference"],"duration":464400,"start_local":"2024-05-06T09:00:00","end":"2024-05-11T18:00:00Z","end_local":"2024-05-11T18:00:00","updated":"2024-06-04T00:34:53Z"},{"title":"Medleys Of God","description":"Sourced from predicthq.com - A live recording, worship experience.","category":"concerts","start":"2024-05-02T18:00:22Z","geo":{"geometry":{"coordinates":[-0.227798,5.5461942],"type":"Point"},"placekey":"@dw7-z38-rc5","address":{"country_code":"GH","formatted_address":"Zoti Road, Accra, Ghana","locality":"Accra","region":"Greater Accra Region"}},"labels":["concert","music","religion"],"duration":14432,"start_local":"2024-05-02T18:00:22","end":"2024-05-02T22:00:54Z","end_local":"2024-05-02T22:00:54","updated":"2024-06-05T11:11:39Z"},{"title":"MAYDAY STEAM DAY","description":"Sourced from predicthq.com - Get ready for a day filled with all things steam-powered at MAYDAY STEAM DAY - it's going to be an absolute blast!","category":"festivals","start":"2024-05-01T09:00:00Z","geo":{"geometry":{"coordinates":[-0.2059627,5.5542469],"type":"Point"},"placekey":"@dw7-yzr-7kf","address":{"country_code":"GH","formatted_address":"Barnes Road, Accra, Ghana","locality":"Accra","region":"Greater Accra Region"}},"labels":["festival","science","technology"],"duration":21600,"start_local":"2024-05-01T09:00:00","end":"2024-05-01T15:00:00Z","end_local":"2024-05-01T15:00:00","updated":"2024-06-05T02:22:53Z"},{"title":"Solar Business Expo (SBE): Ghana","description":"Sourced from predicthq.com","category":"expos","start":"2024-04-30T09:00:00Z","geo":{"geometry":{"coordinates":[-0.19844,5.55778],"type":"Point"},"placekey":"@dw7-yzq-xbk","address":{"country_code":"GH","formatted_address":"Morocco Road, Accra, Ghana","locality":"Accra","region":"Greater Accra Region"}},"labels":["expo"],"duration":25200,"start_local":"2024-04-30T09:00:00","end":"2024-04-30T16:00:00Z","end_local":"2024-04-30T16:00:00","updated":"2024-06-05T03:57:34Z"},{"title":"Ghana - Russia Business Forum 2024","description":"Sourced from predicthq.com - The Ghana - Russia Business Forum 2024 will serve as a key platform for discussions on unlocking economic and developmental potentials.","category":"conferences","start":"2024-04-29T08:00:00Z","geo":{"geometry":{"coordinates":[-0.1869644,5.6037168],"type":"Point"},"placekey":"@dw7-z47-g8v","address":{"country_code":"GH","formatted_address":"Patrice Lumumba Street, Accra, Ghana","locality":"Accra","region":"Greater Accra Region"}},"labels":["business","conference"],"duration":115200,"start_local":"2024-04-29T08:00:00","end":"2024-04-30T16:00:00Z","end_local":"2024-04-30T16:00:00","updated":"2024-06-05T03:10:31Z"},{"title":"CAF Confederation Cup - Semi-finals - Dreams vs Zamalek","description":"Sourced from predicthq.com","category":"sports","start":"2024-04-28T16:00:00Z","geo":{"geometry":{"coordinates":[-1.6051411628723145,6.682669719170319],"type":"Point"},"placekey":"@dvg-q9p-ygk","address":{"country_code":"GH","formatted_address":"Kwaku Atakora St, Kumasi, Ghana","locality":"Kumasi","region":"Ashanti Region"}},"labels":["soccer","sport"],"duration":6744,"start_local":"2024-04-28T16:00:00","end":"2024-04-28T17:52:24Z","end_local":"2024-04-28T17:52:24","updated":"2024-06-05T08:37:26Z"},{"title":"Kingdom Finance","description":"Sourced from predicthq.com - Get ready for the first of its kind biblical teachings on financial freedom for people of faith and integrity in a modern world.","category":"conferences","start":"2024-04-27T11:00:00Z","geo":{"geometry":{"coordinates":[-0.1717667,5.5610427],"type":"Point"},"placekey":"@dw7-yzn-mx5","address":{"country_code":"GH","formatted_address":"Osu La Crescent, Accra, Ghana","locality":"Accra","region":"Greater Accra Region"}},"labels":["conference","religion"],"duration":18000,"start_local":"2024-04-27T11:00:00","end":"2024-04-27T16:00:00Z","end_local":"2024-04-27T16:00:00","updated":"2024-06-05T12:53:25Z"},{"title":"Growing Your web3 Network and Net worth","description":"Sourced from predicthq.com - Learn how to expand your connections and wealth in the world of web3 technology at our upcoming event!","category":"conferences","start":"2024-04-27T10:00:00Z","geo":{"geometry":{"coordinates":[-0.1522155,5.6479247],"type":"Point"},"placekey":"@dvg-fdh-rtv","address":{"country_code":"GH","formatted_address":"La-Bawaleshi Road, Accra, Ghana","locality":"Accra","region":"Greater Accra Region"}},"labels":["business","conference"],"duration":21600,"start_local":"2024-04-27T10:00:00","end":"2024-04-27T16:00:00Z","end_local":"2024-04-27T16:00:00","updated":"2024-06-05T01:29:00Z"},{"title":"WCI Forum Ghana","description":"Sourced from predicthq.com","category":"conferences","start":"2024-04-24T09:00:00Z","geo":{"geometry":{"coordinates":[-0.196894,5.570502],"type":"Point"},"placekey":"@dw7-yzy-6x5","address":{"country_code":"GH","formatted_address":"Doctor Isert Street, Accra, Ghana","locality":"Accra","region":"Greater Accra Region"}},"labels":["conference"],"duration":118800,"start_local":"2024-04-24T09:00:00","end":"2024-04-25T18:00:00Z","end_local":"2024-04-25T18:00:00","updated":"2024-05-31T23:01:55Z"},{"title":"PROPAK GHANA 2024 - Premier Packaging, Print, Plastics & Food Processing Exhibition","description":"Sourced from predicthq.com","category":"expos","start":"2024-04-23T00:00:00Z","geo":{"geometry":{"coordinates":[-0.1930416,5.5545602],"type":"Point"},"placekey":"@dw7-yzq-wkz","address":{"country_code":"GH","formatted_address":"Castle Road, Accra, Ghana","locality":"Accra","region":"Greater Accra Region"}},"labels":["expo","food","industrial","packaging","technology"],"duration":259199,"start_local":"2024-04-23T00:00:00","end":"2024-04-25T23:59:59Z","end_local":"2024-04-25T23:59:59","updated":"2024-06-05T16:05:56Z"},{"title":"Societe Generale Jazz Festival","description":"Sourced from predicthq.com - Join us for an exhilarating Jazz Festival with Bibie Brew, Rocky Dawuni, and more, in partnership with Societe Generale Ghana!","category":"festivals","start":"2024-04-22T18:30:00Z","geo":{"geometry":{"coordinates":[-0.181991,5.59577],"type":"Point"},"placekey":"@dw7-z49-68v","address":{"country_code":"GH","formatted_address":"9 Casely Hayford Rd, Accra, Ghana","locality":"Accra","region":"Greater Accra Region"}},"labels":["concert","music"],"duration":10800,"start_local":"2024-04-22T18:30:00","end":"2024-04-22T21:30:00Z","end_local":"2024-04-22T21:30:00","updated":"2024-06-05T16:09:38Z"},{"title":"Ghana Grows Career Expo '24","description":"Sourced from predicthq.com - Join us at our Career Expo on April 20th, 10 am at Osu Presby Hall. Explore job openings & gain valuable insights. Don't miss.","category":"expos","start":"2024-04-20T10:00:00Z","geo":{"geometry":{"coordinates":[-0.1843724,5.554162300000001],"type":"Point"},"placekey":"@dw7-yzn-85f","address":{"country_code":"GH","formatted_address":"Oxford Street, Accra, Ghana","locality":"Accra","region":"Greater Accra Region"}},"labels":["career","education","expo"],"duration":25200,"start_local":"2024-04-20T10:00:00","end":"2024-04-20T17:00:00Z","end_local":"2024-04-20T17:00:00","updated":"2024-06-05T08:11:06Z"},{"title":"Earth Day Beach Cleanup","description":"Sourced from predicthq.com - Let's come together to clean up our beautiful beaches on Earth Day!","category":"community","start":"2024-04-20T07:00:00Z","geo":{"geometry":{"coordinates":[-0.0450299,5.6110352],"type":"Point"},"placekey":"@dw7-cpk-qvf","address":{"country_code":"GH","formatted_address":"Sakumono, Greater Accra Region, Ghana","locality":"Sakumono","region":"Greater Accra Region"}},"labels":["community","fundraiser"],"duration":10800,"start_local":"2024-04-20T07:00:00","end":"2024-04-20T10:00:00Z","end_local":"2024-04-20T10:00:00","updated":"2024-06-05T09:16:36Z"},{"title":"The Autism & SEN  Show GHANA 2024","description":"Sourced from predicthq.com - You're invited to Ghana’s Autism & Special Educational Needs (SEN) Show 2024. The main event  for special needs in Education, Health & Care.","category":"conferences","start":"2024-04-19T10:00:00Z","geo":{"geometry":{"coordinates":[-0.1974306,5.559284600000001],"type":"Point"},"placekey":"@dw7-yzr-wx5","address":{"country_code":"GH","formatted_address":"Accra, Greater Accra Region, Ghana","locality":"Accra","region":"Greater Accra Region"}},"labels":["conference","education","family"],"duration":108000,"start_local":"2024-04-19T10:00:00","end":"2024-04-20T16:00:00Z","end_local":"2024-04-20T16:00:00","updated":"2024-06-05T21:14:01Z"},{"title":"ICCX West Africa","description":"Sourced from predicthq.com","category":"conferences","start":"2024-04-16T09:00:00Z","geo":{"geometry":{"coordinates":[-0.193928,5.555057],"type":"Point"},"placekey":"@dw7-yzq-w6k","address":{"country_code":"GH","formatted_address":"Castle Rd, Accra, Ghana","locality":"Accra","region":"Greater Accra Region"}},"labels":["conference"],"duration":118800,"start_local":"2024-04-16T09:00:00","end":"2024-04-17T18:00:00Z","end_local":"2024-04-17T18:00:00","updated":"2024-06-01T12:36:57Z"},{"title":"Happy Independence Day Ghana","description":"Sourced from predicthq.com - Let's come together to celebrate Ghana's independence with music, food, and fun!","category":"festivals","start":"2024-04-15T10:00:00Z","geo":{"geometry":{"coordinates":[-0.1468483,5.5712984],"type":"Point"},"placekey":"@dw7-z3j-4gk","address":{"country_code":"GH","formatted_address":"Accra, Greater Accra Region, Ghana","locality":"Accra","region":"Greater Accra Region"}},"labels":["community","festival"],"duration":981000,"start_local":"2024-04-15T10:00:00","end":"2024-04-26T18:30:00Z","end_local":"2024-04-26T18:30:00","updated":"2024-06-05T02:21:56Z"},{"title":"REYO Foundation's Autism & SEN Week 2024","description":"Sourced from predicthq.com - You're invited to REYO Foundation’s Autism & Special Educational Needs (SEN) Week 2024. The main 4-DAY event  for special needs .","category":"conferences","start":"2024-04-15T09:30:00Z","geo":{"geometry":{"coordinates":[-0.1870506,5.650639399999999],"type":"Point"},"placekey":"@dw7-yyn-ckf","address":{"country_code":"GH","formatted_address":"Accra, Greater Accra Region, Ghana","locality":"Accra","region":"Greater Accra Region"}},"labels":["business","conference"],"duration":279000,"start_local":"2024-04-15T09:30:00","end":"2024-04-18T15:00:00Z","end_local":"2024-04-18T15:00:00","updated":"2024-06-05T00:42:44Z"},{"title":"Sustainable Sundays","description":"Sourced from predicthq.com - Welcome Community, Style Dial is back! Come enjoy a panel discussion on fashion sustainability, a clothing swap and a very special surprise!","category":"conferences","start":"2024-04-14T12:00:00Z","geo":{"geometry":{"coordinates":[-0.2353967,5.605703399999999],"type":"Point"},"placekey":"@dw7-ywp-tqf","address":{"country_code":"GH","formatted_address":"Brenya Avenue, Accra, Ghana","locality":"Accra","region":"Greater Accra Region"}},"labels":["conference","fashion"],"duration":18000,"start_local":"2024-04-14T12:00:00","end":"2024-04-14T17:00:00Z","end_local":"2024-04-14T17:00:00","updated":"2024-06-05T03:00:05Z"},{"title":"A Bloody Walk on the Beach","description":"Sourced from predicthq.com - Join us for a supportive walk to raise awareness on menstrual health!","category":"festivals","start":"2024-04-13T16:00:00Z","geo":{"geometry":{"coordinates":[-0.1319466,5.5654968],"type":"Point"},"placekey":"@dw7-z3d-9fz","address":{"country_code":"GH","formatted_address":"Teshie Road, Accra, Ghana","locality":"Accra","region":"Greater Accra Region"}},"labels":["festival","outdoor"],"duration":10800,"start_local":"2024-04-13T16:00:00","end":"2024-04-13T19:00:00Z","end_local":"2024-04-13T19:00:00","updated":"2024-06-04T22:00:13Z"},{"title":"30 DAYS WEALTH SHFT ACCRA GHANA","description":"Sourced from predicthq.com - Join us for 30 days of wealth shifting in Accra, Ghana - let's level up together!","category":"conferences","start":"2024-04-08T12:00:00Z","geo":{"geometry":{"coordinates":[-0.1974306,5.559284600000001],"type":"Point"},"placekey":"@dw7-yzr-wx5","address":{"country_code":"GH","formatted_address":"Accra, Greater Accra Region, Ghana","locality":"Accra","region":"Greater Accra Region"}},"labels":["business","conference"],"duration":10800,"start_local":"2024-04-08T12:00:00","end":"2024-04-08T15:00:00Z","end_local":"2024-04-08T15:00:00","updated":"2024-06-04T22:09:35Z"},{"title":"CAF Confederation Cup - Quarter-finals - Dreams vs Stade Malien Bamako","description":"Sourced from predicthq.com","category":"sports","start":"2024-04-07T16:00:00Z","geo":{"geometry":{"coordinates":[-1.6051411628723145,6.682669719170319],"type":"Point"},"placekey":"@dvg-q9p-ygk","address":{"country_code":"GH","formatted_address":"Kwaku Atakora St, Kumasi, Ghana","locality":"Kumasi","region":"Ashanti Region"}},"labels":["soccer","sport"],"duration":7090,"start_local":"2024-04-07T16:00:00","end":"2024-04-07T17:58:10Z","end_local":"2024-04-07T17:58:10","updated":"2024-06-05T03:10:51Z"},{"title":"Holyghost festival Ghana","description":"Sourced from predicthq.com - Experience the power of God like never before with Evangelist Joseph Achanya and Apostle Micheal Orokpo, 3 days holyghost and power meeting!","category":"festivals","start":"2024-04-04T18:00:00Z","geo":{"geometry":{"coordinates":[-0.1658758,5.660528999999999],"type":"Point"},"placekey":"@dvg-fcx-bc5","address":{"country_code":"GH","formatted_address":"Madina, Greater Accra Region, Ghana","locality":"Madina","region":"Greater Accra Region"}},"labels":["festival","religion"],"duration":151200,"start_local":"2024-04-04T18:00:00","end":"2024-04-06T12:00:00Z","end_local":"2024-04-06T12:00:00","updated":"2024-06-05T04:38:42Z"}]