[{"title":"Stand-Up Comedy Gibraltar (Gibraltar) SEPTEMBER SHOW","description":"Sourced from predicthq.com - A fresh set of Comedians come to Gibraltar for another hilarious night of stand-up comedy!","category":"performing-arts","start":"2024-09-28T18:30:00Z","geo":{"geometry":{"coordinates":[-5.353771,36.1480857],"type":"Point"},"placekey":"@7dj-8mp-k2k","address":{"country_code":"GI","formatted_address":"Gibraltar","locality":"Gibraltar","postcode":"GX11 1AA"}},"labels":["concert","music","performing-arts"],"duration":9000,"start_local":"2024-09-28T20:30:00","end":"2024-09-28T21:00:00Z","end_local":"2024-09-28T23:00:00","updated":"2024-06-20T13:00:17Z"},{"title":"Jetstream","description":"Sourced from predicthq.com","category":"community","start":"2024-09-27T18:00:00Z","geo":{"geometry":{"coordinates":[-5.3535994,36.1407734],"type":"Point"},"placekey":"@7dj-8mp-syv","address":{"country_code":"GI","formatted_address":"Leisure Island, Gibraltar GX11 1AA, Gibraltar","postcode":"GX11 1AA","locality":"Gibraltar"}},"labels":["concert","music"],"duration":0,"start_local":"2024-09-27T20:00:00","end":"2024-09-27T18:00:00Z","end_local":"2024-09-27T20:00:00","updated":"2024-06-04T02:15:38Z"},{"title":"Surianne","description":"Sourced from predicthq.com","category":"concerts","start":"2024-08-17T18:00:00Z","geo":{"geometry":{"coordinates":[-5.3499999,36.1333351],"type":"Point"},"placekey":"@7dj-8mp-3dv","address":{"country_code":"GI","formatted_address":"Gardiner's Road, Gibraltar","locality":"Gibraltar","postcode":"GX11 1AA"}},"labels":["concert","music"],"duration":0,"start_local":"2024-08-17T20:00:00","end":"2024-08-17T18:00:00Z","end_local":"2024-08-17T20:00:00","updated":"2024-06-11T09:28:48Z"},{"title":"UEFA Conference League - 1st Qualifying Round - St Joseph's vs Shelbourne","description":"Sourced from predicthq.com","category":"sports","start":"2024-07-18T16:00:00Z","geo":{"geometry":{"coordinates":[-5.34681,36.1107],"type":"Point"},"placekey":"@7dj-8ng-n3q","address":{"country_code":"GI","formatted_address":"4M63+77 Gibraltar","postcode":"GX11 1AA","locality":"Gibraltar"}},"labels":["soccer","sport"],"duration":0,"start_local":"2024-07-18T18:00:00","end":"2024-07-18T16:00:00Z","end_local":"2024-07-18T18:00:00","updated":"2024-06-25T21:39:50Z"},{"title":"UEFA Champions League - 1st Qualifying Round - Lincoln Red Imps vs Hamrun Spartans","description":"Sourced from predicthq.com","category":"sports","start":"2024-07-16T16:00:00Z","geo":{"geometry":{"coordinates":[-5.34681,36.1107],"type":"Point"},"placekey":"@7dj-8ng-n3q","address":{"country_code":"GI","formatted_address":"4M63+77 Gibraltar","postcode":"GX11 1AA","locality":"Gibraltar"}},"labels":["soccer","sport"],"duration":0,"start_local":"2024-07-16T18:00:00","end":"2024-07-16T16:00:00Z","end_local":"2024-07-16T18:00:00","updated":"2024-06-24T20:02:48Z"},{"title":"Eurobasket U16 C (W) - Final - Winner Semi-final 1 vs Winner Semi-final 2","description":"Sourced from predicthq.com","category":"sports","start":"2024-07-14T16:15:00Z","geo":{"geometry":{"coordinates":[-5.351303,36.149043],"type":"Point"},"placekey":"@7dj-8mp-f2k","address":{"country_code":"GI","formatted_address":"Gibraltar GX11, Gibraltar GX11 1AA, Gibraltar","postcode":"GX11 1AA","locality":"Gibraltar"}},"labels":["basketball","sport"],"duration":0,"start_local":"2024-07-14T18:15:00","end":"2024-07-14T16:15:00Z","end_local":"2024-07-14T18:15:00","updated":"2024-07-01T21:58:38Z"},{"title":"Eurobasket U16 C (W) - 3rd Place Final - Loser Semi-final 1 vs Loser Semi-final 2","description":"Sourced from predicthq.com","category":"sports","start":"2024-07-14T13:45:00Z","geo":{"geometry":{"coordinates":[-5.351303,36.149043],"type":"Point"},"placekey":"@7dj-8mp-f2k","address":{"country_code":"GI","formatted_address":"Gibraltar GX11, Gibraltar GX11 1AA, Gibraltar","postcode":"GX11 1AA","locality":"Gibraltar"}},"labels":["basketball","sport"],"duration":0,"start_local":"2024-07-14T15:45:00","end":"2024-07-14T13:45:00Z","end_local":"2024-07-14T15:45:00","updated":"2024-07-01T21:45:39Z"},{"title":"Eurobasket U16 C (W) - 5th Place Final - Winner 5th-8th Place Play-offs 1 vs Winner 5th-8th Place Play-offs 2","description":"Sourced from predicthq.com","category":"sports","start":"2024-07-14T11:00:00Z","geo":{"geometry":{"coordinates":[-5.351303,36.149043],"type":"Point"},"placekey":"@7dj-8mp-f2k","address":{"country_code":"GI","formatted_address":"Gibraltar GX11, Gibraltar GX11 1AA, Gibraltar","postcode":"GX11 1AA","locality":"Gibraltar"}},"labels":["basketball","sport"],"duration":0,"start_local":"2024-07-14T13:00:00","end":"2024-07-14T11:00:00Z","end_local":"2024-07-14T13:00:00","updated":"2024-07-01T22:31:44Z"},{"title":"Eurobasket U16 C (W) - 7th Place Final - Loser 5th-8th Place Play-offs 1 vs Loser 5th-8th Place Play-offs 2","description":"Sourced from predicthq.com","category":"sports","start":"2024-07-14T08:30:00Z","geo":{"geometry":{"coordinates":[-5.351303,36.149043],"type":"Point"},"placekey":"@7dj-8mp-f2k","address":{"country_code":"GI","formatted_address":"Gibraltar GX11, Gibraltar GX11 1AA, Gibraltar","postcode":"GX11 1AA","locality":"Gibraltar"}},"labels":["basketball","sport"],"duration":0,"start_local":"2024-07-14T10:30:00","end":"2024-07-14T08:30:00Z","end_local":"2024-07-14T10:30:00","updated":"2024-07-01T21:36:55Z"},{"title":"Eurobasket U16 C (W) - Group Stage - Gibraltar U16 vs Albania U16","description":"Sourced from predicthq.com","category":"sports","start":"2024-07-11T16:15:00Z","geo":{"geometry":{"coordinates":[-5.351303,36.149043],"type":"Point"},"placekey":"@7dj-8mp-f2k","address":{"country_code":"GI","formatted_address":"Gibraltar GX11, Gibraltar GX11 1AA, Gibraltar","postcode":"GX11 1AA","locality":"Gibraltar"}},"labels":["basketball","sport"],"duration":0,"start_local":"2024-07-11T18:15:00","end":"2024-07-11T16:15:00Z","end_local":"2024-07-11T18:15:00","updated":"2024-07-02T21:54:42Z"},{"title":"UEFA Conference League - 1st Qualifying Round - Magpies vs Derry City","description":"Sourced from predicthq.com","category":"sports","start":"2024-07-11T16:00:00Z","geo":{"geometry":{"coordinates":[-5.34681,36.1107],"type":"Point"},"placekey":"@7dj-8ng-n3q","address":{"country_code":"GI","formatted_address":"4M63+77 Gibraltar","postcode":"GX11 1AA","locality":"Gibraltar"}},"labels":["soccer","sport"],"duration":0,"start_local":"2024-07-11T18:00:00","end":"2024-07-11T16:00:00Z","end_local":"2024-07-11T18:00:00","updated":"2024-06-25T17:53:16Z"},{"title":"Eurobasket U16 C (W) - Group Stage - Georgia U16 vs Armenia U16","description":"Sourced from predicthq.com","category":"sports","start":"2024-07-11T13:45:00Z","geo":{"geometry":{"coordinates":[-5.351303,36.149043],"type":"Point"},"placekey":"@7dj-8mp-f2k","address":{"country_code":"GI","formatted_address":"Gibraltar GX11, Gibraltar GX11 1AA, Gibraltar","postcode":"GX11 1AA","locality":"Gibraltar"}},"labels":["basketball","sport"],"duration":0,"start_local":"2024-07-11T15:45:00","end":"2024-07-11T13:45:00Z","end_local":"2024-07-11T15:45:00","updated":"2024-07-02T21:50:20Z"},{"title":"Eurobasket U16 C (W) - Group Stage - Malta U16 vs Moldova U16","description":"Sourced from predicthq.com","category":"sports","start":"2024-07-11T11:00:00Z","geo":{"geometry":{"coordinates":[-5.351303,36.149043],"type":"Point"},"placekey":"@7dj-8mp-f2k","address":{"country_code":"GI","formatted_address":"Gibraltar GX11, Gibraltar GX11 1AA, Gibraltar","postcode":"GX11 1AA","locality":"Gibraltar"}},"labels":["basketball","sport"],"duration":0,"start_local":"2024-07-11T13:00:00","end":"2024-07-11T11:00:00Z","end_local":"2024-07-11T13:00:00","updated":"2024-07-01T21:53:06Z"},{"title":"Eurobasket U16 C (W) - Group Stage - Azerbaijan U16 vs Cyprus U16","description":"Sourced from predicthq.com","category":"sports","start":"2024-07-11T08:30:00Z","geo":{"geometry":{"coordinates":[-5.351303,36.149043],"type":"Point"},"placekey":"@7dj-8mp-f2k","address":{"country_code":"GI","formatted_address":"Gibraltar GX11, Gibraltar GX11 1AA, Gibraltar","postcode":"GX11 1AA","locality":"Gibraltar"}},"labels":["basketball","sport"],"duration":0,"start_local":"2024-07-11T10:30:00","end":"2024-07-11T08:30:00Z","end_local":"2024-07-11T10:30:00","updated":"2024-07-02T16:40:13Z"},{"title":"Eurobasket U16 C (W) - Group Stage - Gibraltar U16 vs Malta U16","description":"Sourced from predicthq.com","category":"sports","start":"2024-07-10T16:15:00Z","geo":{"geometry":{"coordinates":[-5.351303,36.149043],"type":"Point"},"placekey":"@7dj-8mp-f2k","address":{"country_code":"GI","formatted_address":"Gibraltar GX11, Gibraltar GX11 1AA, Gibraltar","postcode":"GX11 1AA","locality":"Gibraltar"}},"labels":["basketball","sport"],"duration":0,"start_local":"2024-07-10T18:15:00","end":"2024-07-10T16:15:00Z","end_local":"2024-07-10T18:15:00","updated":"2024-07-02T21:49:50Z"},{"title":"Eurobasket U16 C (W) - Group Stage - Cyprus U16 vs Armenia U16","description":"Sourced from predicthq.com","category":"sports","start":"2024-07-10T13:45:00Z","geo":{"geometry":{"coordinates":[-5.351303,36.149043],"type":"Point"},"placekey":"@7dj-8mp-f2k","address":{"country_code":"GI","formatted_address":"Gibraltar GX11, Gibraltar GX11 1AA, Gibraltar","postcode":"GX11 1AA","locality":"Gibraltar"}},"labels":["basketball","sport"],"duration":0,"start_local":"2024-07-10T15:45:00","end":"2024-07-10T13:45:00Z","end_local":"2024-07-10T15:45:00","updated":"2024-07-01T22:19:56Z"},{"title":"Eurobasket U16 C (W) - Group Stage - Albania U16 vs Moldova U16","description":"Sourced from predicthq.com","category":"sports","start":"2024-07-10T11:00:00Z","geo":{"geometry":{"coordinates":[-5.351303,36.149043],"type":"Point"},"placekey":"@7dj-8mp-f2k","address":{"country_code":"GI","formatted_address":"Gibraltar GX11, Gibraltar GX11 1AA, Gibraltar","postcode":"GX11 1AA","locality":"Gibraltar"}},"labels":["basketball","sport"],"duration":0,"start_local":"2024-07-10T13:00:00","end":"2024-07-10T11:00:00Z","end_local":"2024-07-10T13:00:00","updated":"2024-07-02T16:40:40Z"},{"title":"Eurobasket U16 C (W) - Group Stage - Azerbaijan U16 vs Georgia U16","description":"Sourced from predicthq.com","category":"sports","start":"2024-07-10T08:30:00Z","geo":{"geometry":{"coordinates":[-5.351303,36.149043],"type":"Point"},"placekey":"@7dj-8mp-f2k","address":{"country_code":"GI","formatted_address":"Gibraltar GX11, Gibraltar GX11 1AA, Gibraltar","postcode":"GX11 1AA","locality":"Gibraltar"}},"labels":["basketball","sport"],"duration":0,"start_local":"2024-07-10T10:30:00","end":"2024-07-10T08:30:00Z","end_local":"2024-07-10T10:30:00","updated":"2024-07-01T21:59:58Z"},{"title":"Eurobasket U16 C (W) - Group Stage - Moldova U16 vs Gibraltar U16","description":"Sourced from predicthq.com","category":"sports","start":"2024-07-09T16:15:00Z","geo":{"geometry":{"coordinates":[-5.351303,36.149043],"type":"Point"},"placekey":"@7dj-8mp-f2k","address":{"country_code":"GI","formatted_address":"Gibraltar GX11, Gibraltar GX11 1AA, Gibraltar","postcode":"GX11 1AA","locality":"Gibraltar"}},"labels":["basketball","sport"],"duration":0,"start_local":"2024-07-09T18:15:00","end":"2024-07-09T16:15:00Z","end_local":"2024-07-09T18:15:00","updated":"2024-07-01T22:04:31Z"},{"title":"Eurobasket U16 C (W) - Group Stage - Georgia U16 vs Cyprus U16","description":"Sourced from predicthq.com","category":"sports","start":"2024-07-09T13:45:00Z","geo":{"geometry":{"coordinates":[-5.351303,36.149043],"type":"Point"},"placekey":"@7dj-8mp-f2k","address":{"country_code":"GI","formatted_address":"Gibraltar GX11, Gibraltar GX11 1AA, Gibraltar","postcode":"GX11 1AA","locality":"Gibraltar"}},"labels":["basketball","sport"],"duration":0,"start_local":"2024-07-09T15:45:00","end":"2024-07-09T13:45:00Z","end_local":"2024-07-09T15:45:00","updated":"2024-07-01T21:30:10Z"},{"title":"Eurobasket U16 C (W) - Group Stage - Armenia U16 vs Azerbaijan U16","description":"Sourced from predicthq.com","category":"sports","start":"2024-07-09T11:00:00Z","geo":{"geometry":{"coordinates":[-5.351303,36.149043],"type":"Point"},"placekey":"@7dj-8mp-f2k","address":{"country_code":"GI","formatted_address":"Gibraltar GX11, Gibraltar GX11 1AA, Gibraltar","postcode":"GX11 1AA","locality":"Gibraltar"}},"labels":["basketball","sport"],"duration":0,"start_local":"2024-07-09T13:00:00","end":"2024-07-09T11:00:00Z","end_local":"2024-07-09T13:00:00","updated":"2024-07-02T21:49:45Z"},{"title":"Eurobasket U16 C (W) - Group Stage - Malta U16 vs Albania U16","description":"Sourced from predicthq.com","category":"sports","start":"2024-07-09T08:30:00Z","geo":{"geometry":{"coordinates":[-5.351303,36.149043],"type":"Point"},"placekey":"@7dj-8mp-f2k","address":{"country_code":"GI","formatted_address":"Gibraltar GX11, Gibraltar GX11 1AA, Gibraltar","postcode":"GX11 1AA","locality":"Gibraltar"}},"labels":["basketball","sport"],"duration":0,"start_local":"2024-07-09T10:30:00","end":"2024-07-09T08:30:00Z","end_local":"2024-07-09T10:30:00","updated":"2024-07-02T07:03:01Z"},{"title":"Stand-Up Comedy Gibraltar (Gibraltar) JUNE SHOW","description":"Sourced from predicthq.com - A number of comedians from the UK come to Gibraltar for another hilarious night of stand-up comedy!","category":"performing-arts","start":"2024-06-29T18:30:00Z","geo":{"geometry":{"coordinates":[-5.353771,36.1480857],"type":"Point"},"placekey":"@7dj-8mp-k2k","address":{"country_code":"GI","formatted_address":"Gibraltar","locality":"Gibraltar","postcode":"GX11 1AA"}},"labels":["concert","music","performing-arts"],"duration":9000,"start_local":"2024-06-29T20:30:00","end":"2024-06-29T21:00:00Z","end_local":"2024-06-29T23:00:00","updated":"2024-06-22T20:36:48Z"},{"title":"Jetstream","description":"Sourced from predicthq.com","category":"community","start":"2024-06-28T20:00:00Z","geo":{"geometry":{"coordinates":[-5.352213,36.1448608],"type":"Point"},"placekey":"@7dj-8mp-fzz","address":{"country_code":"GI","formatted_address":"23b Casemates Square, Gibraltar GX11 1AA, Gibraltar","postcode":"GX11 1AA","locality":"Gibraltar"}},"labels":["concert","music"],"duration":0,"start_local":"2024-06-28T22:00:00","end":"2024-06-28T20:00:00Z","end_local":"2024-06-28T22:00:00","updated":"2024-06-04T03:25:45Z"},{"title":"Surianne","description":"Sourced from predicthq.com","category":"concerts","start":"2024-06-28T17:00:00Z","geo":{"geometry":{"coordinates":[-5.3499999,36.1333351],"type":"Point"},"placekey":"@7dj-8mp-3dv","address":{"country_code":"GI","formatted_address":"Gardiner's Road, Gibraltar","locality":"Gibraltar","postcode":"GX11 1AA"}},"labels":["concert","music"],"duration":0,"start_local":"2024-06-28T19:00:00","end":"2024-06-28T17:00:00Z","end_local":"2024-06-28T19:00:00","updated":"2024-06-11T02:23:43Z"},{"title":"Peninsula Events: Take OFF","description":"Sourced from predicthq.com - Peninsula Events back with another unique experience.","category":"festivals","start":"2024-06-22T14:00:00Z","geo":{"geometry":{"coordinates":[-5.35,36.15],"type":"Point"},"placekey":"@7dj-8mp-j5f","address":{"country_code":"GI","formatted_address":"Winston Churchill Avenue, Gibraltar","locality":"Gibraltar","postcode":"GX11 1AA"}},"labels":["festival","music"],"duration":0,"start_local":"2024-06-22T16:00:00","end":"2024-06-22T14:00:00Z","end_local":"2024-06-22T16:00:00","updated":"2024-06-04T01:22:39Z"},{"title":"Wellbeing in the Workplace and AGM","description":"Sourced from predicthq.com - Discover the latest strategies for enhancing employee wellbeing at our interactive workshop as well as our Annual General Meeting.","category":"conferences","start":"2024-06-20T15:00:00Z","geo":{"geometry":{"coordinates":[-5.352329499999999,36.1449245],"type":"Point"},"placekey":"@7dj-8mp-fzz","address":{"country_code":"GI","formatted_address":"Casemates Square, Gibraltar","locality":"Gibraltar","postcode":"GX11 1AA"}},"labels":["business","conference"],"duration":7200,"start_local":"2024-06-20T17:00:00","end":"2024-06-20T17:00:00Z","end_local":"2024-06-20T19:00:00","updated":"2024-06-19T16:33:32Z"},{"title":"NILE RODGERS & CHIC and Jetstream","description":"Sourced from predicthq.com","category":"concerts","start":"2024-06-19T18:00:00Z","geo":{"geometry":{"coordinates":[-5.3458333,36.1105556],"type":"Point"},"placekey":"@7dj-8ng-n5z","address":{"country_code":"GI","formatted_address":"4M63+6M Gibraltar","postcode":"GX11 1AA","locality":"Gibraltar"}},"labels":["concert","music"],"duration":0,"start_local":"2024-06-19T20:00:00","end":"2024-06-19T18:00:00Z","end_local":"2024-06-19T20:00:00","updated":"2024-07-03T20:28:02Z"},{"title":"From Marsh to Atmosphere: Exploring the Carbon Story","description":"Sourced from predicthq.com - Join PhD Student Tasmin Griffith for an engaging public lecture on the vital role of wetlands in combating climate change!","category":"conferences","start":"2024-06-18T16:00:00Z","geo":{"geometry":{"coordinates":[-5.347998999999959,36.110969],"type":"Point"},"placekey":"@7dj-8ng-nkf","address":{"country_code":"GI","formatted_address":"Gibraltar","locality":"Gibraltar","postcode":"GX11 1AA"}},"labels":["conference","science","technology"],"duration":5400,"start_local":"2024-06-18T18:00:00","end":"2024-06-18T17:30:00Z","end_local":"2024-06-18T19:30:00","updated":"2024-06-06T03:55:27Z"},{"title":"Discover Your Summer Glow: Beauty and Skincare Beauty Bash at S.M. Seruya","description":"Sourced from predicthq.com - Join us to help you achieve that radiant summer glow with our exclusive beauty and skincare event!","category":"expos","start":"2024-06-06T15:30:00Z","geo":{"geometry":{"coordinates":[-5.353339699999999,36.1416889],"type":"Point"},"placekey":"@7dj-8mp-st9","address":{"country_code":"GI","formatted_address":"Main Street, Gibraltar","locality":"Gibraltar","postcode":"GX11 1AA"}},"labels":["expo","fashion"],"duration":5400,"start_local":"2024-06-06T17:30:00","end":"2024-06-06T17:00:00Z","end_local":"2024-06-06T19:00:00","updated":"2024-06-06T00:33:38Z"},{"title":"Jetstream","description":"Sourced from predicthq.com","category":"community","start":"2024-05-31T17:00:00Z","geo":{"geometry":{"coordinates":[-5.35191,36.13155],"type":"Point"},"placekey":"@7dj-8mp-2hq","address":{"country_code":"GI","formatted_address":"4JJX+PCM Gibraltar Botanic Gardens, Red Sands Rd, Gibraltar GX11 1AA, Gibraltar","postcode":"GX11 1AA","locality":"Gibraltar"}},"labels":["concert","music"],"duration":0,"start_local":"2024-05-31T19:00:00","end":"2024-05-31T17:00:00Z","end_local":"2024-05-31T19:00:00","updated":"2024-06-05T03:42:55Z"},{"title":"CERG Public Lecture | University of Gibraltar","description":"Sourced from predicthq.com - Videogaming, esports, and related-gambling","category":"conferences","start":"2024-05-28T13:30:00Z","geo":{"geometry":{"coordinates":[-5.347998999999959,36.110969],"type":"Point"},"placekey":"@7dj-8ng-nkf","address":{"country_code":"GI","formatted_address":"Gibraltar","locality":"Gibraltar","postcode":"GX11 1AA"}},"labels":["conference"],"duration":3600,"start_local":"2024-05-28T15:30:00","end":"2024-05-28T14:30:00Z","end_local":"2024-05-28T16:30:00","updated":"2024-06-04T21:41:29Z"},{"title":"Premier Division - Championship Round - Mons Calpe vs Magpies","description":"Sourced from predicthq.com","category":"sports","start":"2024-05-12T17:30:00Z","geo":{"geometry":{"coordinates":[-5.3501853,36.149231],"type":"Point"},"placekey":"@7dj-8mp-f4v","address":{"country_code":"GI","formatted_address":"20 Winston Churchill Ave, Gibraltar GX11 1AA, Gibraltar","postcode":"GX11 1AA","locality":"Gibraltar"}},"labels":["soccer","sport"],"duration":0,"start_local":"2024-05-12T19:30:00","end":"2024-05-12T17:30:00Z","end_local":"2024-05-12T19:30:00","updated":"2024-06-11T21:29:37Z"},{"title":"Surianne","description":"Sourced from predicthq.com","category":"concerts","start":"2024-05-11T18:00:00Z","geo":{"geometry":{"coordinates":[-5.3531513,36.1351471],"type":"Point"},"placekey":"@7dj-8mp-5pv","address":{"country_code":"GI","formatted_address":"Main Street, Gibraltar","locality":"Gibraltar","postcode":"GX11 1AA"}},"labels":["concert","music"],"duration":0,"start_local":"2024-05-11T20:00:00","end":"2024-05-11T18:00:00Z","end_local":"2024-05-11T20:00:00","updated":"2024-06-12T09:09:50Z"},{"title":"Premier Division - Championship Round - Manchester 62 vs Europa Point","description":"Sourced from predicthq.com","category":"sports","start":"2024-05-11T17:30:00Z","geo":{"geometry":{"coordinates":[-5.3501853,36.149231],"type":"Point"},"placekey":"@7dj-8mp-f4v","address":{"country_code":"GI","formatted_address":"20 Winston Churchill Ave, Gibraltar GX11 1AA, Gibraltar","postcode":"GX11 1AA","locality":"Gibraltar"}},"labels":["soccer","sport"],"duration":0,"start_local":"2024-05-11T19:30:00","end":"2024-05-11T17:30:00Z","end_local":"2024-05-11T19:30:00","updated":"2024-06-12T01:04:29Z"},{"title":"Premier Division - Championship Round - St Joseph's vs Lincoln Red Imps","description":"Sourced from predicthq.com","category":"sports","start":"2024-05-10T19:00:00Z","geo":{"geometry":{"coordinates":[-5.3501853,36.149231],"type":"Point"},"placekey":"@7dj-8mp-f4v","address":{"country_code":"GI","formatted_address":"20 Winston Churchill Ave, Gibraltar GX11 1AA, Gibraltar","postcode":"GX11 1AA","locality":"Gibraltar"}},"labels":["soccer","sport"],"duration":0,"start_local":"2024-05-10T21:00:00","end":"2024-05-10T19:00:00Z","end_local":"2024-05-10T21:00:00","updated":"2024-06-12T05:40:30Z"},{"title":"Premier Division - Championship Round - Magpies vs Manchester 62","description":"Sourced from predicthq.com","category":"sports","start":"2024-05-08T19:00:00Z","geo":{"geometry":{"coordinates":[-5.3501853,36.149231],"type":"Point"},"placekey":"@7dj-8mp-f4v","address":{"country_code":"GI","formatted_address":"20 Winston Churchill Ave, Gibraltar GX11 1AA, Gibraltar","postcode":"GX11 1AA","locality":"Gibraltar"}},"labels":["soccer","sport"],"duration":0,"start_local":"2024-05-08T21:00:00","end":"2024-05-08T19:00:00Z","end_local":"2024-05-08T21:00:00","updated":"2024-06-12T08:02:29Z"},{"title":"Ethical Gambling Forum 2024 - Taking A Gamble: Avoiding Risk with ESG","description":"Sourced from predicthq.com - Join us in Gibraltar for the EGF 2024 and learn how to play it smart, avoiding risks with Environment, Social, and Governance.","category":"conferences","start":"2024-05-07T07:00:00Z","geo":{"geometry":{"coordinates":[-5.353827999999999,36.1484654],"type":"Point"},"placekey":"@7dj-8mp-k2k","address":{"country_code":"GI","formatted_address":"Gibraltar","postcode":"GX11 1AA"}},"labels":["business","conference"],"duration":113400,"start_local":"2024-05-07T09:00:00","end":"2024-05-08T14:30:00Z","end_local":"2024-05-08T16:30:00","updated":"2024-06-02T01:58:50Z"},{"title":"Premier Division - Championship Round - Magpies vs Lincoln Red Imps","description":"Sourced from predicthq.com","category":"sports","start":"2024-05-05T17:30:00Z","geo":{"geometry":{"coordinates":[-5.3501853,36.149231],"type":"Point"},"placekey":"@7dj-8mp-f4v","address":{"country_code":"GI","formatted_address":"20 Winston Churchill Ave, Gibraltar GX11 1AA, Gibraltar","postcode":"GX11 1AA","locality":"Gibraltar"}},"labels":["soccer","sport"],"duration":0,"start_local":"2024-05-05T19:30:00","end":"2024-05-05T17:30:00Z","end_local":"2024-05-05T19:30:00","updated":"2024-06-11T23:54:01Z"},{"title":"Premier Division - Championship Round - Mons Calpe vs Europa Point","description":"Sourced from predicthq.com","category":"sports","start":"2024-05-04T17:30:00Z","geo":{"geometry":{"coordinates":[-5.3501853,36.149231],"type":"Point"},"placekey":"@7dj-8mp-f4v","address":{"country_code":"GI","formatted_address":"20 Winston Churchill Ave, Gibraltar GX11 1AA, Gibraltar","postcode":"GX11 1AA","locality":"Gibraltar"}},"labels":["soccer","sport"],"duration":0,"start_local":"2024-05-04T19:30:00","end":"2024-05-04T17:30:00Z","end_local":"2024-05-04T19:30:00","updated":"2024-06-12T04:39:05Z"},{"title":"Premier Division - Championship Round - Manchester 62 vs St Joseph's","description":"Sourced from predicthq.com","category":"sports","start":"2024-05-03T19:00:00Z","geo":{"geometry":{"coordinates":[-5.3501853,36.149231],"type":"Point"},"placekey":"@7dj-8mp-f4v","address":{"country_code":"GI","formatted_address":"20 Winston Churchill Ave, Gibraltar GX11 1AA, Gibraltar","postcode":"GX11 1AA","locality":"Gibraltar"}},"labels":["soccer","sport"],"duration":0,"start_local":"2024-05-03T21:00:00","end":"2024-05-03T19:00:00Z","end_local":"2024-05-03T21:00:00","updated":"2024-06-12T12:32:20Z"},{"title":"Premier Division - Championship Round - Lincoln Red Imps vs Mons Calpe","description":"Sourced from predicthq.com","category":"sports","start":"2024-04-30T19:00:00Z","geo":{"geometry":{"coordinates":[-5.3501853,36.149231],"type":"Point"},"placekey":"@7dj-8mp-f4v","address":{"country_code":"GI","formatted_address":"20 Winston Churchill Ave, Gibraltar GX11 1AA, Gibraltar","postcode":"GX11 1AA","locality":"Gibraltar"}},"labels":["soccer","sport"],"duration":0,"start_local":"2024-04-30T21:00:00","end":"2024-04-30T19:00:00Z","end_local":"2024-04-30T21:00:00","updated":"2024-06-12T07:50:54Z"},{"title":"Premier Division - Championship Round - St Joseph's vs Magpies","description":"Sourced from predicthq.com","category":"sports","start":"2024-04-28T17:30:00Z","geo":{"geometry":{"coordinates":[-5.3501853,36.149231],"type":"Point"},"placekey":"@7dj-8mp-f4v","address":{"country_code":"GI","formatted_address":"20 Winston Churchill Ave, Gibraltar GX11 1AA, Gibraltar","postcode":"GX11 1AA","locality":"Gibraltar"}},"labels":["soccer","sport"],"duration":0,"start_local":"2024-04-28T19:30:00","end":"2024-04-28T17:30:00Z","end_local":"2024-04-28T19:30:00","updated":"2024-06-12T02:24:56Z"},{"title":"Premier Division - Championship Round - Lincoln Red Imps vs Europa Point","description":"Sourced from predicthq.com","category":"sports","start":"2024-04-27T17:30:00Z","geo":{"geometry":{"coordinates":[-5.3501853,36.149231],"type":"Point"},"placekey":"@7dj-8mp-f4v","address":{"country_code":"GI","formatted_address":"20 Winston Churchill Ave, Gibraltar GX11 1AA, Gibraltar","postcode":"GX11 1AA","locality":"Gibraltar"}},"labels":["soccer","sport"],"duration":0,"start_local":"2024-04-27T19:30:00","end":"2024-04-27T17:30:00Z","end_local":"2024-04-27T19:30:00","updated":"2024-06-12T11:21:08Z"},{"title":"Premier Division - Championship Round - Mons Calpe vs Manchester 62","description":"Sourced from predicthq.com","category":"sports","start":"2024-04-26T19:00:00Z","geo":{"geometry":{"coordinates":[-5.3501853,36.149231],"type":"Point"},"placekey":"@7dj-8mp-f4v","address":{"country_code":"GI","formatted_address":"20 Winston Churchill Ave, Gibraltar GX11 1AA, Gibraltar","postcode":"GX11 1AA","locality":"Gibraltar"}},"labels":["soccer","sport"],"duration":0,"start_local":"2024-04-26T21:00:00","end":"2024-04-26T19:00:00Z","end_local":"2024-04-26T21:00:00","updated":"2024-06-12T01:49:06Z"},{"title":"Premier Division - Championship Round - Europa Point vs St Joseph's","description":"Sourced from predicthq.com","category":"sports","start":"2024-04-24T19:00:00Z","geo":{"geometry":{"coordinates":[-5.3501853,36.149231],"type":"Point"},"placekey":"@7dj-8mp-f4v","address":{"country_code":"GI","formatted_address":"20 Winston Churchill Ave, Gibraltar GX11 1AA, Gibraltar","postcode":"GX11 1AA","locality":"Gibraltar"}},"labels":["soccer","sport"],"duration":0,"start_local":"2024-04-24T21:00:00","end":"2024-04-24T19:00:00Z","end_local":"2024-04-24T21:00:00","updated":"2024-06-11T23:02:40Z"},{"title":"Premier Division - Championship Round - Manchester 62 vs Lincoln Red Imps","description":"Sourced from predicthq.com","category":"sports","start":"2024-04-21T17:30:00Z","geo":{"geometry":{"coordinates":[-5.3501853,36.149231],"type":"Point"},"placekey":"@7dj-8mp-f4v","address":{"country_code":"GI","formatted_address":"20 Winston Churchill Ave, Gibraltar GX11 1AA, Gibraltar","postcode":"GX11 1AA","locality":"Gibraltar"}},"labels":["soccer","sport"],"duration":0,"start_local":"2024-04-21T19:30:00","end":"2024-04-21T17:30:00Z","end_local":"2024-04-21T19:30:00","updated":"2024-06-11T21:15:29Z"},{"title":"Premier Division - Championship Round - Mons Calpe vs St Joseph's","description":"Sourced from predicthq.com","category":"sports","start":"2024-04-20T17:30:00Z","geo":{"geometry":{"coordinates":[-5.3501853,36.149231],"type":"Point"},"placekey":"@7dj-8mp-f4v","address":{"country_code":"GI","formatted_address":"20 Winston Churchill Ave, Gibraltar GX11 1AA, Gibraltar","postcode":"GX11 1AA","locality":"Gibraltar"}},"labels":["soccer","sport"],"duration":0,"start_local":"2024-04-20T19:30:00","end":"2024-04-20T17:30:00Z","end_local":"2024-04-20T19:30:00","updated":"2024-06-12T11:53:14Z"},{"title":"Premier Division - Championship Round - Europa Point vs Magpies","description":"Sourced from predicthq.com","category":"sports","start":"2024-04-19T19:00:00Z","geo":{"geometry":{"coordinates":[-5.3501853,36.149231],"type":"Point"},"placekey":"@7dj-8mp-f4v","address":{"country_code":"GI","formatted_address":"20 Winston Churchill Ave, Gibraltar GX11 1AA, Gibraltar","postcode":"GX11 1AA","locality":"Gibraltar"}},"labels":["soccer","sport"],"duration":0,"start_local":"2024-04-19T21:00:00","end":"2024-04-19T19:00:00Z","end_local":"2024-04-19T21:00:00","updated":"2024-06-12T06:40:08Z"},{"title":"Research That Benefits Gibraltar 2024 Conference","description":"Sourced from predicthq.com - We are pleased to announce the return of the Research that Benefits Gibraltar (RTBG) conference which was inaugurated in 2023!","category":"conferences","start":"2024-04-18T13:00:00Z","geo":{"geometry":{"coordinates":[-5.347998999999959,36.110969],"type":"Point"},"placekey":"@7dj-8ng-nkf","address":{"country_code":"GI","formatted_address":"Gibraltar","locality":"Gibraltar","postcode":"GX11 1AA"}},"labels":["conference","science","technology"],"duration":16200,"start_local":"2024-04-18T15:00:00","end":"2024-04-18T17:30:00Z","end_local":"2024-04-18T19:30:00","updated":"2024-06-05T15:42:06Z"},{"title":"Research That Benefits Gibraltar 2024 Conference","description":"Sourced from predicthq.com - We are pleased to announce the return of the Research that Benefits Gibraltar (RTBG) conference which was inaugurated in 2023!","category":"conferences","start":"2024-04-17T13:00:00Z","geo":{"geometry":{"coordinates":[-5.347998999999959,36.110969],"type":"Point"},"placekey":"@7dj-8ng-nkf","address":{"country_code":"GI","formatted_address":"Gibraltar","locality":"Gibraltar","postcode":"GX11 1AA"}},"labels":["conference","science","technology"],"duration":16200,"start_local":"2024-04-17T15:00:00","end":"2024-04-17T17:30:00Z","end_local":"2024-04-17T19:30:00","updated":"2024-06-05T04:03:50Z"},{"title":"Premier Division - Lynx vs Manchester 62","description":"Sourced from predicthq.com","category":"sports","start":"2024-04-14T17:30:00Z","geo":{"geometry":{"coordinates":[-5.3501853,36.149231],"type":"Point"},"placekey":"@7dj-8mp-f4v","address":{"country_code":"GI","formatted_address":"20 Winston Churchill Ave, Gibraltar GX11 1AA, Gibraltar","postcode":"GX11 1AA","locality":"Gibraltar"}},"labels":["soccer","sport"],"duration":0,"start_local":"2024-04-14T19:30:00","end":"2024-04-14T17:30:00Z","end_local":"2024-04-14T19:30:00","updated":"2024-06-11T22:07:15Z"},{"title":"Premier Division - St Joseph's vs Mons Calpe","description":"Sourced from predicthq.com","category":"sports","start":"2024-04-14T14:30:00Z","geo":{"geometry":{"coordinates":[-5.3501853,36.149231],"type":"Point"},"placekey":"@7dj-8mp-f4v","address":{"country_code":"GI","formatted_address":"20 Winston Churchill Ave, Gibraltar GX11 1AA, Gibraltar","postcode":"GX11 1AA","locality":"Gibraltar"}},"labels":["soccer","sport"],"duration":0,"start_local":"2024-04-14T16:30:00","end":"2024-04-14T14:30:00Z","end_local":"2024-04-14T16:30:00","updated":"2024-06-12T07:16:45Z"},{"title":"Premier Division - College 1975 vs Lincoln Red Imps","description":"Sourced from predicthq.com","category":"sports","start":"2024-04-13T17:30:00Z","geo":{"geometry":{"coordinates":[-5.3501853,36.149231],"type":"Point"},"placekey":"@7dj-8mp-f4v","address":{"country_code":"GI","formatted_address":"20 Winston Churchill Ave, Gibraltar GX11 1AA, Gibraltar","postcode":"GX11 1AA","locality":"Gibraltar"}},"labels":["soccer","sport"],"duration":0,"start_local":"2024-04-13T19:30:00","end":"2024-04-13T17:30:00Z","end_local":"2024-04-13T19:30:00","updated":"2024-06-12T12:48:22Z"},{"title":"Premier Division - Europa vs Lions Gibraltar","description":"Sourced from predicthq.com","category":"sports","start":"2024-04-13T14:30:00Z","geo":{"geometry":{"coordinates":[-5.3501853,36.149231],"type":"Point"},"placekey":"@7dj-8mp-f4v","address":{"country_code":"GI","formatted_address":"20 Winston Churchill Ave, Gibraltar GX11 1AA, Gibraltar","postcode":"GX11 1AA","locality":"Gibraltar"}},"labels":["soccer","sport"],"duration":0,"start_local":"2024-04-13T16:30:00","end":"2024-04-13T14:30:00Z","end_local":"2024-04-13T16:30:00","updated":"2024-06-12T20:11:13Z"},{"title":"Jetstream","description":"Sourced from predicthq.com","category":"community","start":"2024-04-12T20:00:00Z","geo":{"geometry":{"coordinates":[-5.3542431,36.1482243],"type":"Point"},"placekey":"@7dj-8mp-k2k","address":{"country_code":"GI","formatted_address":"29 Ocean Village Promenade, Gibraltar GX11 1AA, Gibraltar","postcode":"GX11 1AA","locality":"Gibraltar"}},"labels":["concert","music"],"duration":0,"start_local":"2024-04-12T22:00:00","end":"2024-04-12T20:00:00Z","end_local":"2024-04-12T22:00:00","updated":"2024-06-05T02:52:52Z"},{"title":"Premier Division - Magpies vs Europa Point","description":"Sourced from predicthq.com","category":"sports","start":"2024-04-12T19:00:00Z","geo":{"geometry":{"coordinates":[-5.3501853,36.149231],"type":"Point"},"placekey":"@7dj-8mp-f4v","address":{"country_code":"GI","formatted_address":"20 Winston Churchill Ave, Gibraltar GX11 1AA, Gibraltar","postcode":"GX11 1AA","locality":"Gibraltar"}},"labels":["soccer","sport"],"duration":0,"start_local":"2024-04-12T21:00:00","end":"2024-04-12T19:00:00Z","end_local":"2024-04-12T21:00:00","updated":"2024-06-11T21:16:06Z"}]