[{"title":"Odoo Roadshow Conakry","description":"Sourced from predicthq.com - Découvrez Odoo avec nos experts et partenaires à Conakry!","category":"conferences","start":"2024-07-23T18:00:00Z","geo":{"geometry":{"coordinates":[-13.7036825,9.507823199999999],"type":"Point"},"placekey":"@9xc-8sy-835","address":{"country_code":"GN","formatted_address":"Conakry, Guinea","locality":"Conakry","region":"Conakry"}},"labels":["business","conference"],"duration":10800,"start_local":"2024-07-23T18:00:00","end":"2024-07-23T21:00:00Z","end_local":"2024-07-23T21:00:00","updated":"2024-06-20T01:46:10Z"},{"title":"CJD Guinee : Pleniere de cloture de fin de mandat","description":"Sourced from predicthq.com - La Pleniere de cloture de fin de mandat du CJD Guinee est l'occasion parfaite de celebrer nos accomplissements et de se preparer pour de nou","category":"conferences","start":"2024-06-29T10:00:00Z","geo":{"geometry":{"coordinates":[-13.6880178,9.521511],"type":"Point"},"placekey":"@9xc-8sy-dsq","address":{"country_code":"GN","formatted_address":"Conakry, Guinea","locality":"Conakry","region":"Conakry"}},"labels":["community","conference"],"duration":7200,"start_local":"2024-06-29T10:00:00","end":"2024-06-29T12:00:00Z","end_local":"2024-06-29T12:00:00","updated":"2024-06-27T01:17:16Z"},{"title":"France Alumni Day 2024","description":"Sourced from predicthq.com - Prolongez l'expérience... en célébrant ensemble les talents francophones guinéens diplômés d'universités françaises !","category":"conferences","start":"2024-05-24T16:30:00Z","geo":{"geometry":{"coordinates":[-13.6521903,9.596107199999999],"type":"Point"},"placekey":"@9xc-8vq-5zz","address":{"country_code":"GN","formatted_address":"Conakry, Guinea","locality":"Conakry","region":"Conakry"}},"labels":["community","conference"],"duration":19800,"start_local":"2024-05-24T16:30:00","end":"2024-05-24T22:00:00Z","end_local":"2024-05-24T22:00:00","updated":"2024-06-05T06:23:30Z"}]