[{"title":"AFTERWORK FINANCES : Les secrets de la Prospérité","description":"Sourced from predicthq.com - Méaïvis Céprika-Giberné et Lucela Léon-Félix, toutes deux coachs Finances vous invitent à leur afterwork le 6 juillet. Un événement unique !","category":"conferences","start":"2024-07-06T21:00:00Z","geo":{"geometry":{"coordinates":[-61.5069699,16.2080788],"type":"Point"},"placekey":"@bs5-sjh-yvz","address":{"country_code":"GP","formatted_address":"Pointe de la Verdure, Rte des Hotels, Le Gosier 97190, Guadeloupe","postcode":"97190","locality":"Le Gosier","region":"Grande-Terre"}},"labels":["business","conference"],"duration":14400,"start_local":"2024-07-06T17:00:00","end":"2024-07-07T01:00:00Z","end_local":"2024-07-06T21:00:00","updated":"2024-06-29T21:04:01Z"},{"title":"RECITAL AIRS D'OPERA","description":"Sourced from predicthq.com - Yue SHI est venue de Chine s'installer en Guadeloupe pour apprendre le chant lyrique avec Molière ATHALYS. Vous pouvez diner en échangeant.","category":"performing-arts","start":"2024-07-02T23:00:00Z","geo":{"geometry":{"coordinates":[-61.5034697,16.2066728],"type":"Point"},"placekey":"@bs5-sjh-y7q","address":{"country_code":"GP","formatted_address":"97190 Le Gosier, Guadeloupe, France","locality":"Le Gosier","postcode":"97190","region":"Grande-Terre"}},"labels":["concert","music","performing-arts"],"duration":10800,"start_local":"2024-07-02T19:00:00","end":"2024-07-03T02:00:00Z","end_local":"2024-07-02T22:00:00","updated":"2024-06-20T07:25:54Z"},{"title":"RÉFÉRENCE BUSINESS CONFÉRENCE - 1ère ÉDITION","description":"Sourced from predicthq.com - Thème de la conférence : \nComment propulser son business grâce à l’influence ?","category":"conferences","start":"2024-06-28T23:00:00Z","geo":{"geometry":{"coordinates":[-61.506706,16.207],"type":"Point"},"placekey":"@bs5-sjh-yn5","address":{"country_code":"GP","formatted_address":"Pointe de la Verdure, Gosier 97190, Guadeloupe","postcode":"97190","locality":"Gosier","region":"Grande-Terre"}},"labels":["business","conference"],"duration":14400,"start_local":"2024-06-28T19:00:00","end":"2024-06-29T03:00:00Z","end_local":"2024-06-28T23:00:00","updated":"2024-06-04T10:44:59Z"},{"title":"LA DIVINATION DANS LA TRADITION AFRICAINE","description":"Sourced from predicthq.com - LA DIVINATION DANS LA TRADITION AFRICAINE : Source et boussole de toute pratique spirituelle (Conférence en Guadeloupe)","category":"conferences","start":"2024-06-28T22:00:00Z","geo":{"geometry":{"coordinates":[-61.5350233,16.2428527],"type":"Point"},"placekey":"@bs5-sp4-9vf","address":{"country_code":"GP","formatted_address":"Boulevard Legitimus, 97110 Pointe-à-Pitre, Guadeloupe, France","locality":"Pointe-à-Pitre","postcode":"97110","region":"Grande-Terre"}},"labels":["community","conference"],"duration":0,"start_local":"2024-06-28T18:00:00","end":"2024-06-28T22:00:00Z","end_local":"2024-06-28T18:00:00","updated":"2024-05-30T01:03:57Z"},{"title":"Transkarukéra","description":"Sourced from predicthq.com","category":"sports","start":"2024-06-28T02:00:00Z","geo":{"geometry":{"coordinates":[-61.725646,15.998761],"type":"Point"},"placekey":"@bs5-sw8-qxq","address":{"country_code":"GP","formatted_address":"Chemin de Circonvallation, 97100 Basse-Terre, Guadeloupe, France","locality":"Basse-Terre","postcode":"97100","region":"Basse-Terre"}},"labels":["outdoor-sports","running","sport"],"duration":0,"start_local":"2024-06-27T22:00:00","end":"2024-06-28T02:00:00Z","end_local":"2024-06-27T22:00:00","updated":"2024-06-27T18:25:58Z"},{"title":"A table en famille","description":"Sourced from predicthq.com - Une matinée d'échange autour de l'alimentation locale, la chlordécone et la santé. Manjé an nou bon, an nou kontinyé manjé lokal !","category":"conferences","start":"2024-06-22T13:00:00Z","geo":{"geometry":{"coordinates":[-61.4990346,16.2063036],"type":"Point"},"placekey":"@bs5-sj8-t5f","address":{"country_code":"GP","formatted_address":"Le Gosier, Guadeloupe","locality":"Le Gosier","region":"Grande-Terre"}},"labels":["conference","health"],"duration":14400,"start_local":"2024-06-22T09:00:00","end":"2024-06-22T17:00:00Z","end_local":"2024-06-22T13:00:00","updated":"2024-06-13T00:55:56Z"},{"title":"Atelier De Pratiques Artistiques","description":"Sourced from predicthq.com - Atelier de création Artistique","category":"expos","start":"2024-06-16T16:00:00Z","geo":{"geometry":{"coordinates":[-61.5388086,16.237711],"type":"Point"},"placekey":"@bs5-spc-7nq","address":{"country_code":"GP","formatted_address":"97110 Pointe-à-Pitre, Guadeloupe, France","locality":"Pointe-à-Pitre","postcode":"97110","region":"Grande-Terre"}},"labels":["community","expo"],"duration":25200,"start_local":"2024-06-16T12:00:00","end":"2024-06-16T23:00:00Z","end_local":"2024-06-16T19:00:00","updated":"2024-06-04T00:24:49Z"},{"title":"10 Km du Gosier","description":"Sourced from predicthq.com","category":"sports","start":"2024-06-15T20:30:00Z","geo":{"geometry":{"coordinates":[-61.4922035,16.2061679],"type":"Point"},"placekey":"@bs5-sj7-yqf","address":{"country_code":"GP","formatted_address":"97190 Le Gosier, Guadeloupe, France","locality":"Le Gosier","postcode":"97190","region":"Grande-Terre"}},"labels":["outdoor-sports","running","sport"],"duration":0,"start_local":"2024-06-15T16:30:00","end":"2024-06-15T20:30:00Z","end_local":"2024-06-15T16:30:00","updated":"2024-06-04T00:36:45Z"},{"title":"Pass","description":"Sourced from predicthq.com - Ticket  entrée salon","category":"conferences","start":"2024-06-14T16:00:00Z","geo":{"geometry":{"coordinates":[-61.5373831,16.2355706],"type":"Point"},"placekey":"@bs5-spc-75z","address":{"country_code":"GP","formatted_address":"Quai Ferdinand de Lesseps, 97110 Pointe-à-Pitre, Guadeloupe, France","locality":"Pointe-à-Pitre","postcode":"97110","region":"Grande-Terre"}},"labels":["conference","fundraiser"],"duration":201600,"start_local":"2024-06-14T12:00:00","end":"2024-06-17T00:00:00Z","end_local":"2024-06-16T20:00:00","updated":"2024-06-04T04:13:49Z"},{"title":"FIRSTVIEW : Réception  VIP","description":"Sourced from predicthq.com - L'événement annuel  des VIP du monde de l'art.","category":"expos","start":"2024-06-13T20:00:00Z","geo":{"geometry":{"coordinates":[-61.5373831,16.2355706],"type":"Point"},"placekey":"@bs5-spc-75z","address":{"country_code":"GP","formatted_address":"Quai Ferdinand de Lesseps, 97110 Pointe-à-Pitre, Guadeloupe, France","locality":"Pointe-à-Pitre","postcode":"97110","region":"Grande-Terre"}},"labels":["entertainment","expo"],"duration":25200,"start_local":"2024-06-13T16:00:00","end":"2024-06-14T03:00:00Z","end_local":"2024-06-13T23:00:00","updated":"2024-06-04T09:46:28Z"},{"title":"Salon inter-éditeurs scolaires du 2nd degré 2024_Guadeloupe","description":"Sourced from predicthq.com - Les éditeurs scolaires  attendent les enseignants du 2nd degré mercredi 5 juin afin de leur présenter leurs nouveautés.","category":"conferences","start":"2024-06-05T14:30:00Z","geo":{"geometry":{"coordinates":[-61.6347718,16.2737704],"type":"Point"},"placekey":"@bs5-snq-2c5","address":{"country_code":"GP","formatted_address":"Rue de la Mutualité, 97129 Lamentin, Guadeloupe, France","locality":"Lamentin","postcode":"97129","region":"Basse-Terre"}},"labels":["conference"],"duration":19800,"start_local":"2024-06-05T10:30:00","end":"2024-06-05T20:00:00Z","end_local":"2024-06-05T16:00:00","updated":"2024-06-04T02:29:08Z"},{"title":"Trail du Café","description":"Sourced from predicthq.com","category":"sports","start":"2024-06-02T08:00:00Z","geo":{"geometry":{"coordinates":[-61.7642508,16.0601806],"type":"Point"},"placekey":"@bs5-swj-249","address":{"country_code":"GP","formatted_address":"Rue Victor Schoelcher, 97119 Vieux-Habitants, Guadeloupe, France","locality":"Vieux-Habitants","postcode":"97119","region":"Basse-Terre"}},"labels":["outdoor-sports","running","sport"],"duration":0,"start_local":"2024-06-02T04:00:00","end":"2024-06-02T08:00:00Z","end_local":"2024-06-02T04:00:00","updated":"2024-06-10T04:02:17Z"},{"title":"Concert Jazz Caraïbe Soul Rock","description":"Sourced from predicthq.com - Loïc SOURIANT et Charlène DURIMEL vous  invitent à un concert exceptionnel le 31 Mai 2024 à l'Auditorium Jérome CLERY. Un voyage musicale","category":"concerts","start":"2024-06-01T00:00:00Z","geo":{"geometry":{"coordinates":[-61.73223830000001,15.9967127],"type":"Point"},"placekey":"@bs5-swc-5fz","address":{"country_code":"GP","formatted_address":"97100 Basse-Terre, Guadeloupe, France","locality":"Basse-Terre","postcode":"97100","region":"Basse-Terre"}},"labels":["concert","music"],"duration":7200,"start_local":"2024-05-31T20:00:00","end":"2024-06-01T02:00:00Z","end_local":"2024-05-31T22:00:00","updated":"2024-06-12T03:13:54Z"},{"title":"Division d'Honneur - CERFA vs Phare du Canal","description":"Sourced from predicthq.com","category":"sports","start":"2024-05-26T00:00:00Z","geo":{"geometry":{"coordinates":[-61.3432387,16.3198483],"type":"Point"},"placekey":"@bsd-t8y-rp9","address":{"country_code":"GP","formatted_address":"97160 D115, Le Moule 97160, Guadeloupe","postcode":"97160","locality":"Le Moule","region":"Grande-Terre"}},"labels":["soccer","sport"],"duration":0,"start_local":"2024-05-25T20:00:00","end":"2024-05-26T00:00:00Z","end_local":"2024-05-25T20:00:00","updated":"2024-06-12T17:44:15Z"},{"title":"Division d'Honneur - Cambrefort vs USBM","description":"Sourced from predicthq.com","category":"sports","start":"2024-05-26T00:00:00Z","geo":{"geometry":{"coordinates":[-61.562029123306274,16.048813888863315],"type":"Point"},"placekey":"@bs5-sr8-49z","address":{"country_code":"GP","formatted_address":"2CXQ+H45, Capesterre-Belle-Eau 97130, Guadeloupe","postcode":"97130","locality":"Capesterre-Belle-Eau","region":"Basse-Terre"}},"labels":["soccer","sport"],"duration":0,"start_local":"2024-05-25T20:00:00","end":"2024-05-26T00:00:00Z","end_local":"2024-05-25T20:00:00","updated":"2024-06-12T02:27:50Z"},{"title":"Division d'Honneur - Solidarité Scolaire vs Jeunesse Evolution","description":"Sourced from predicthq.com","category":"sports","start":"2024-05-26T00:00:00Z","geo":{"geometry":{"coordinates":[-61.5896800160408,16.264043625320472],"type":"Point"},"placekey":"@bs5-sny-tjv","address":{"country_code":"GP","formatted_address":"7C76+J23, Baie-Mahault 97122, Guadeloupe","postcode":"97122","locality":"Baie-Mahault","region":"Basse-Terre"}},"labels":["soccer","sport"],"duration":0,"start_local":"2024-05-25T20:00:00","end":"2024-05-26T00:00:00Z","end_local":"2024-05-25T20:00:00","updated":"2024-06-12T15:24:18Z"},{"title":"Division d'Honneur - La Gauloise vs Dynamo Le Moule","description":"Sourced from predicthq.com","category":"sports","start":"2024-05-26T00:00:00Z","geo":{"geometry":{"coordinates":[-61.7405768,16.0061538],"type":"Point"},"placekey":"@bs5-swb-73q","address":{"country_code":"GP","formatted_address":"97100 Allee des Palmistes, Basse-Terre 97100, Guadeloupe","postcode":"97100","locality":"Basse-Terre","region":"Basse-Terre"}},"labels":["soccer","sport"],"duration":0,"start_local":"2024-05-25T20:00:00","end":"2024-05-26T00:00:00Z","end_local":"2024-05-25T20:00:00","updated":"2024-06-12T07:59:39Z"},{"title":"Division d'Honneur - Siroco Les Abymes vs Etoile de Morne-à-l'Eau","description":"Sourced from predicthq.com","category":"sports","start":"2024-05-26T00:00:00Z","geo":{"geometry":{"coordinates":[-61.5086685,16.2687997],"type":"Point"},"placekey":"@bs5-smm-9xq","address":{"country_code":"GP","formatted_address":"7F9R+GHF, Rue du Stade, Les Abymes 97142, Guadeloupe","postcode":"97142","locality":"Les Abymes","region":"Grande-Terre"}},"labels":["soccer","sport"],"duration":0,"start_local":"2024-05-25T20:00:00","end":"2024-05-26T00:00:00Z","end_local":"2024-05-25T20:00:00","updated":"2024-06-12T04:09:51Z"},{"title":"Division d'Honneur - Solidarité Scolaire vs Cambrefort","description":"Sourced from predicthq.com","category":"sports","start":"2024-05-25T20:00:00Z","geo":{"geometry":{"coordinates":[-61.790845633,16.312252524],"type":"Point"},"placekey":"@bsf-3gx-7nq","address":{"country_code":"GP","formatted_address":"322 Rue des Acacias, Deshaies 97126, Guadeloupe","postcode":"97126","locality":"Deshaies","region":"Basse-Terre"}},"labels":["soccer","sport"],"duration":0,"start_local":"2024-05-25T16:00:00","end":"2024-05-25T20:00:00Z","end_local":"2024-05-25T16:00:00","updated":"2024-06-12T03:03:08Z"},{"title":"Division d'Honneur - Gosier vs Juventus Sainte-Anne","description":"Sourced from predicthq.com","category":"sports","start":"2024-05-25T20:00:00Z","geo":{"geometry":{"coordinates":[-61.382246017,16.227283944],"type":"Point"},"placekey":"@bs5-sgy-y7q","address":{"country_code":"GP","formatted_address":"Rue Du Stade Valette, Saint-Anne, Guadeloupe, France","locality":"Saint-Anne"}},"labels":["soccer","sport"],"duration":0,"start_local":"2024-05-25T16:00:00","end":"2024-05-25T20:00:00Z","end_local":"2024-05-25T16:00:00","updated":"2024-06-12T02:36:52Z"},{"title":"Division d'Honneur - Etoile de Morne-à-l'Eau vs Sporting Baie-Mahault","description":"Sourced from predicthq.com","category":"sports","start":"2024-05-25T20:00:00Z","geo":{"geometry":{"coordinates":[-61.3432387,16.3198483],"type":"Point"},"placekey":"@bsd-t8y-rp9","address":{"country_code":"GP","formatted_address":"97160 D115, Le Moule 97160, Guadeloupe","postcode":"97160","locality":"Le Moule","region":"Grande-Terre"}},"labels":["soccer","sport"],"duration":0,"start_local":"2024-05-25T16:00:00","end":"2024-05-25T20:00:00Z","end_local":"2024-05-25T16:00:00","updated":"2024-06-11T23:14:46Z"},{"title":"Division d'Honneur - Siroco Les Abymes vs Dynamo Le Moule","description":"Sourced from predicthq.com","category":"sports","start":"2024-05-25T20:00:00Z","geo":{"geometry":{"coordinates":[-61.5086685,16.2687997],"type":"Point"},"placekey":"@bs5-smm-9xq","address":{"country_code":"GP","formatted_address":"7F9R+GHF, Rue du Stade, Les Abymes 97142, Guadeloupe","postcode":"97142","locality":"Les Abymes","region":"Grande-Terre"}},"labels":["soccer","sport"],"duration":0,"start_local":"2024-05-25T16:00:00","end":"2024-05-25T20:00:00Z","end_local":"2024-05-25T16:00:00","updated":"2024-06-12T04:22:51Z"},{"title":"Division d'Honneur - USBM vs Jeunesse Evolution","description":"Sourced from predicthq.com","category":"sports","start":"2024-05-25T20:00:00Z","geo":{"geometry":{"coordinates":[-61.5896800160408,16.264043625320472],"type":"Point"},"placekey":"@bs5-sny-tjv","address":{"country_code":"GP","formatted_address":"7C76+J23, Baie-Mahault 97122, Guadeloupe","postcode":"97122","locality":"Baie-Mahault","region":"Basse-Terre"}},"labels":["soccer","sport"],"duration":0,"start_local":"2024-05-25T16:00:00","end":"2024-05-25T20:00:00Z","end_local":"2024-05-25T16:00:00","updated":"2024-06-12T18:20:50Z"},{"title":"Division d'Honneur - Phare du Canal vs La Gauloise","description":"Sourced from predicthq.com","category":"sports","start":"2024-05-25T20:00:00Z","geo":{"geometry":{"coordinates":[-61.485728323459625,16.38415281892219],"type":"Point"},"placekey":"@bsf-5dx-cnq","address":{"country_code":"GP","formatted_address":"Saint Amélie Petit Canal, 97131, Petit-Canal 97131, Guadeloupe","postcode":"97131","locality":"Petit-Canal","region":"Grande-Terre"}},"labels":["soccer","sport"],"duration":0,"start_local":"2024-05-25T16:00:00","end":"2024-05-25T20:00:00Z","end_local":"2024-05-25T16:00:00","updated":"2024-06-12T02:18:17Z"},{"title":"CONSULTATION ÂME À ÂME - SAINT-FRANÇOIS","description":"Sourced from predicthq.com - Venez vivre une Consultation Transformatrice & Libératrice. Le Casique lira votre Âme & vous prescrira des Rituels Ancestraux purificateurs","category":"conferences","start":"2024-05-14T12:00:00Z","geo":{"geometry":{"coordinates":[-61.289767,16.256573],"type":"Point"},"placekey":"@bsd-tc5-zmk","address":{"country_code":"GP","formatted_address":"97118 Saint-François, Guadeloupe, France","locality":"Saint-François","postcode":"97118","region":"Grande-Terre"}},"labels":["conference","religion"],"duration":288000,"start_local":"2024-05-14T08:00:00","end":"2024-05-17T20:00:00Z","end_local":"2024-05-17T16:00:00","updated":"2024-06-05T00:41:32Z"},{"title":"Division d'Honneur - USBM vs CERFA","description":"Sourced from predicthq.com","category":"sports","start":"2024-05-12T00:00:00Z","geo":{"geometry":{"coordinates":[-61.5896800160408,16.264043625320472],"type":"Point"},"placekey":"@bs5-sny-tjv","address":{"country_code":"GP","formatted_address":"7C76+J23, Baie-Mahault 97122, Guadeloupe","postcode":"97122","locality":"Baie-Mahault","region":"Basse-Terre"}},"labels":["soccer","sport"],"duration":0,"start_local":"2024-05-11T20:00:00","end":"2024-05-12T00:00:00Z","end_local":"2024-05-11T20:00:00","updated":"2024-06-12T01:33:23Z"},{"title":"Division d'Honneur - Jeunesse Evolution vs Cambrefort","description":"Sourced from predicthq.com","category":"sports","start":"2024-05-12T00:00:00Z","geo":{"geometry":{"coordinates":[-61.382246017,16.227283944],"type":"Point"},"placekey":"@bs5-sgy-y7q","address":{"country_code":"GP","formatted_address":"Rue Du Stade Valette, Saint-Anne, Guadeloupe, France","locality":"Saint-Anne"}},"labels":["soccer","sport"],"duration":0,"start_local":"2024-05-11T20:00:00","end":"2024-05-12T00:00:00Z","end_local":"2024-05-11T20:00:00","updated":"2024-06-12T06:16:51Z"},{"title":"Division d'Honneur - Etoile de Morne-à-l'Eau vs Gosier","description":"Sourced from predicthq.com","category":"sports","start":"2024-05-12T00:00:00Z","geo":{"geometry":{"coordinates":[-61.45624279975891,16.333236206648014],"type":"Point"},"placekey":"@bsf-5g4-djv","address":{"country_code":"GP","formatted_address":"97111 Rue du Marche, Morne-à-l'Eau 97111, Guadeloupe","postcode":"97111","locality":"Morne-à-l'Eau","region":"Grande-Terre"}},"labels":["soccer","sport"],"duration":0,"start_local":"2024-05-11T20:00:00","end":"2024-05-12T00:00:00Z","end_local":"2024-05-11T20:00:00","updated":"2024-06-12T11:40:39Z"},{"title":"Division d'Honneur - Dynamo Le Moule vs Solidarité Scolaire","description":"Sourced from predicthq.com","category":"sports","start":"2024-05-12T00:00:00Z","geo":{"geometry":{"coordinates":[-61.3432387,16.3198483],"type":"Point"},"placekey":"@bsd-t8y-rp9","address":{"country_code":"GP","formatted_address":"97160 D115, Le Moule 97160, Guadeloupe","postcode":"97160","locality":"Le Moule","region":"Grande-Terre"}},"labels":["soccer","sport"],"duration":0,"start_local":"2024-05-11T20:00:00","end":"2024-05-12T00:00:00Z","end_local":"2024-05-11T20:00:00","updated":"2024-06-12T04:03:16Z"},{"title":"Division d'Honneur - Phare du Canal vs Amical Club","description":"Sourced from predicthq.com","category":"sports","start":"2024-05-12T00:00:00Z","geo":{"geometry":{"coordinates":[-61.485728323459625,16.38415281892219],"type":"Point"},"placekey":"@bsf-5dx-cnq","address":{"country_code":"GP","formatted_address":"Saint Amélie Petit Canal, 97131, Petit-Canal 97131, Guadeloupe","postcode":"97131","locality":"Petit-Canal","region":"Grande-Terre"}},"labels":["soccer","sport"],"duration":0,"start_local":"2024-05-11T20:00:00","end":"2024-05-12T00:00:00Z","end_local":"2024-05-11T20:00:00","updated":"2024-06-12T13:54:06Z"},{"title":"Division d'Honneur - Juventus Sainte-Anne vs Phare du Canal","description":"Sourced from predicthq.com","category":"sports","start":"2024-05-11T20:00:00Z","geo":{"geometry":{"coordinates":[-61.5050822,16.473781634],"type":"Point"},"placekey":"@bsf-4yz-syv","address":{"country_code":"GP","formatted_address":"110 Av. Vital Borifax, Anse-Bertrand 97121, Guadeloupe","postcode":"97121","locality":"Anse-Bertrand","region":"Grande-Terre"}},"labels":["soccer","sport"],"duration":0,"start_local":"2024-05-11T16:00:00","end":"2024-05-11T20:00:00Z","end_local":"2024-05-11T16:00:00","updated":"2024-06-12T13:52:33Z"},{"title":"Division d'Honneur - Moulien vs CERFA","description":"Sourced from predicthq.com","category":"sports","start":"2024-05-11T20:00:00Z","geo":{"geometry":{"coordinates":[-61.3432387,16.3198483],"type":"Point"},"placekey":"@bsd-t8y-rp9","address":{"country_code":"GP","formatted_address":"97160 D115, Le Moule 97160, Guadeloupe","postcode":"97160","locality":"Le Moule","region":"Grande-Terre"}},"labels":["soccer","sport"],"duration":0,"start_local":"2024-05-11T16:00:00","end":"2024-05-11T20:00:00Z","end_local":"2024-05-11T16:00:00","updated":"2024-06-11T20:53:32Z"},{"title":"Division d'Honneur - Cambrefort vs Gosier","description":"Sourced from predicthq.com","category":"sports","start":"2024-05-11T20:00:00Z","geo":{"geometry":{"coordinates":[-61.562029123306274,16.048813888863315],"type":"Point"},"placekey":"@bs5-sr8-49z","address":{"country_code":"GP","formatted_address":"2CXQ+H45, Capesterre-Belle-Eau 97130, Guadeloupe","postcode":"97130","locality":"Capesterre-Belle-Eau","region":"Basse-Terre"}},"labels":["soccer","sport"],"duration":0,"start_local":"2024-05-11T16:00:00","end":"2024-05-11T20:00:00Z","end_local":"2024-05-11T16:00:00","updated":"2024-06-11T22:03:01Z"},{"title":"Division d'Honneur - La Gauloise vs USBM","description":"Sourced from predicthq.com","category":"sports","start":"2024-05-11T20:00:00Z","geo":{"geometry":{"coordinates":[-61.7405768,16.0061538],"type":"Point"},"placekey":"@bs5-swb-73q","address":{"country_code":"GP","formatted_address":"97100 Allee des Palmistes, Basse-Terre 97100, Guadeloupe","postcode":"97100","locality":"Basse-Terre","region":"Basse-Terre"}},"labels":["soccer","sport"],"duration":0,"start_local":"2024-05-11T16:00:00","end":"2024-05-11T20:00:00Z","end_local":"2024-05-11T16:00:00","updated":"2024-06-12T05:33:06Z"},{"title":"Division d'Honneur - Dynamo Le Moule vs Solidarité Scolaire","description":"Sourced from predicthq.com","category":"sports","start":"2024-05-11T20:00:00Z","geo":{"geometry":{"coordinates":[-61.485728323459625,16.38415281892219],"type":"Point"},"placekey":"@bsf-5dx-cnq","address":{"country_code":"GP","formatted_address":"Saint Amélie Petit Canal, 97131, Petit-Canal 97131, Guadeloupe","postcode":"97131","locality":"Petit-Canal","region":"Grande-Terre"}},"labels":["soccer","sport"],"duration":0,"start_local":"2024-05-11T16:00:00","end":"2024-05-11T20:00:00Z","end_local":"2024-05-11T16:00:00","updated":"2024-06-12T11:11:33Z"},{"title":"Division d'Honneur - Sporting Baie-Mahault vs Siroco Les Abymes","description":"Sourced from predicthq.com","category":"sports","start":"2024-05-11T20:00:00Z","geo":{"geometry":{"coordinates":[-61.5896800160408,16.264043625320472],"type":"Point"},"placekey":"@bs5-sny-tjv","address":{"country_code":"GP","formatted_address":"7C76+J23, Baie-Mahault 97122, Guadeloupe","postcode":"97122","locality":"Baie-Mahault","region":"Basse-Terre"}},"labels":["soccer","sport"],"duration":0,"start_local":"2024-05-11T16:00:00","end":"2024-05-11T20:00:00Z","end_local":"2024-05-11T16:00:00","updated":"2024-06-12T02:26:17Z"},{"title":"Division d'Honneur - Jeunesse Evolution vs Amical Club","description":"Sourced from predicthq.com","category":"sports","start":"2024-05-11T20:00:00Z","geo":{"geometry":{"coordinates":[-61.5086685,16.2687997],"type":"Point"},"placekey":"@bs5-smm-9xq","address":{"country_code":"GP","formatted_address":"7F9R+GHF, Rue du Stade, Les Abymes 97142, Guadeloupe","postcode":"97142","locality":"Les Abymes","region":"Grande-Terre"}},"labels":["soccer","sport"],"duration":0,"start_local":"2024-05-11T16:00:00","end":"2024-05-11T20:00:00Z","end_local":"2024-05-11T16:00:00","updated":"2024-06-11T22:28:56Z"},{"title":"15 km du Moule","description":"Sourced from predicthq.com","category":"sports","start":"2024-05-09T20:30:00Z","geo":{"geometry":{"coordinates":[-61.3438483,16.3312403],"type":"Point"},"placekey":"@bsd-t8s-hkf","address":{"country_code":"GP","formatted_address":"North 5, 97160 Le Moule, Guadeloupe, France","locality":"Le Moule","postcode":"97160","region":"Grande-Terre"}},"labels":["outdoor-sports","running","sport"],"duration":0,"start_local":"2024-05-09T16:30:00","end":"2024-05-09T20:30:00Z","end_local":"2024-05-09T16:30:00","updated":"2024-06-05T20:41:29Z"},{"title":"Les Foulées du Credit Agricole","description":"Sourced from predicthq.com","category":"sports","start":"2024-05-08T10:30:00Z","geo":{"geometry":{"coordinates":[-61.5376272,16.2370504],"type":"Point"},"placekey":"@bs5-spc-7kf","address":{"country_code":"GP","formatted_address":"Rue Achille René Boisneuf, 97110 Pointe-à-Pitre, Guadeloupe, France","locality":"Pointe-à-Pitre","postcode":"97110","region":"Grande-Terre"}},"labels":["outdoor-sports","running","sport"],"duration":0,"start_local":"2024-05-08T06:30:00","end":"2024-05-08T10:30:00Z","end_local":"2024-05-08T06:30:00","updated":"2024-06-05T08:55:34Z"},{"title":"Division d'Honneur - USBM vs CERFA","description":"Sourced from predicthq.com","category":"sports","start":"2024-05-08T00:30:00Z","geo":{"geometry":{"coordinates":[-61.5896800160408,16.264043625320472],"type":"Point"},"placekey":"@bs5-sny-tjv","address":{"country_code":"GP","formatted_address":"7C76+J23, Baie-Mahault 97122, Guadeloupe","postcode":"97122","locality":"Baie-Mahault","region":"Basse-Terre"}},"labels":["soccer","sport"],"duration":0,"start_local":"2024-05-07T20:30:00","end":"2024-05-08T00:30:00Z","end_local":"2024-05-07T20:30:00","updated":"2024-06-11T23:51:18Z"},{"title":"Division d'Honneur - Juventus Sainte-Anne vs Cambrefort","description":"Sourced from predicthq.com","category":"sports","start":"2024-05-05T20:00:00Z","geo":{"geometry":{"coordinates":[-61.485728323459625,16.38415281892219],"type":"Point"},"placekey":"@bsf-5dx-cnq","address":{"country_code":"GP","formatted_address":"Saint Amélie Petit Canal, 97131, Petit-Canal 97131, Guadeloupe","postcode":"97131","locality":"Petit-Canal","region":"Grande-Terre"}},"labels":["soccer","sport"],"duration":0,"start_local":"2024-05-05T16:00:00","end":"2024-05-05T20:00:00Z","end_local":"2024-05-05T16:00:00","updated":"2024-06-12T03:19:51Z"},{"title":"Division d'Honneur - Gosier vs Juventus Sainte-Anne","description":"Sourced from predicthq.com","category":"sports","start":"2024-05-05T00:00:00Z","geo":{"geometry":{"coordinates":[-61.382246017,16.227283944],"type":"Point"},"placekey":"@bs5-sgy-y7q","address":{"country_code":"GP","formatted_address":"Rue Du Stade Valette, Saint-Anne, Guadeloupe, France","locality":"Saint-Anne"}},"labels":["soccer","sport"],"duration":0,"start_local":"2024-05-04T20:00:00","end":"2024-05-05T00:00:00Z","end_local":"2024-05-04T20:00:00","updated":"2024-06-12T02:30:01Z"},{"title":"Division d'Honneur - Solidarité Scolaire vs La Gauloise","description":"Sourced from predicthq.com","category":"sports","start":"2024-05-05T00:00:00Z","geo":{"geometry":{"coordinates":[-61.5896800160408,16.264043625320472],"type":"Point"},"placekey":"@bs5-sny-tjv","address":{"country_code":"GP","formatted_address":"7C76+J23, Baie-Mahault 97122, Guadeloupe","postcode":"97122","locality":"Baie-Mahault","region":"Basse-Terre"}},"labels":["soccer","sport"],"duration":0,"start_local":"2024-05-04T20:00:00","end":"2024-05-05T00:00:00Z","end_local":"2024-05-04T20:00:00","updated":"2024-06-12T07:46:20Z"},{"title":"Division d'Honneur - Etoile de Morne-à-l'Eau vs Moulien","description":"Sourced from predicthq.com","category":"sports","start":"2024-05-05T00:00:00Z","geo":{"geometry":{"coordinates":[-61.485728323459625,16.38415281892219],"type":"Point"},"placekey":"@bsf-5dx-cnq","address":{"country_code":"GP","formatted_address":"Saint Amélie Petit Canal, 97131, Petit-Canal 97131, Guadeloupe","postcode":"97131","locality":"Petit-Canal","region":"Grande-Terre"}},"labels":["soccer","sport"],"duration":0,"start_local":"2024-05-04T20:00:00","end":"2024-05-05T00:00:00Z","end_local":"2024-05-04T20:00:00","updated":"2024-06-12T14:26:02Z"},{"title":"Division d'Honneur - CERFA vs Jeunesse Evolution","description":"Sourced from predicthq.com","category":"sports","start":"2024-05-05T00:00:00Z","geo":{"geometry":{"coordinates":[-61.3432387,16.3198483],"type":"Point"},"placekey":"@bsd-t8y-rp9","address":{"country_code":"GP","formatted_address":"97160 D115, Le Moule 97160, Guadeloupe","postcode":"97160","locality":"Le Moule","region":"Grande-Terre"}},"labels":["soccer","sport"],"duration":0,"start_local":"2024-05-04T20:00:00","end":"2024-05-05T00:00:00Z","end_local":"2024-05-04T20:00:00","updated":"2024-06-12T17:18:29Z"},{"title":"Division d'Honneur - Cambrefort vs Dynamo Le Moule","description":"Sourced from predicthq.com","category":"sports","start":"2024-05-05T00:00:00Z","geo":{"geometry":{"coordinates":[-61.562029123306274,16.048813888863315],"type":"Point"},"placekey":"@bs5-sr8-49z","address":{"country_code":"GP","formatted_address":"2CXQ+H45, Capesterre-Belle-Eau 97130, Guadeloupe","postcode":"97130","locality":"Capesterre-Belle-Eau","region":"Basse-Terre"}},"labels":["soccer","sport"],"duration":0,"start_local":"2024-05-04T20:00:00","end":"2024-05-05T00:00:00Z","end_local":"2024-05-04T20:00:00","updated":"2024-06-12T15:50:31Z"},{"title":"Division d'Honneur - Gosier vs Dynamo Le Moule","description":"Sourced from predicthq.com","category":"sports","start":"2024-05-04T00:30:00Z","geo":{"geometry":{"coordinates":[-61.485728323459625,16.38415281892219],"type":"Point"},"placekey":"@bsf-5dx-cnq","address":{"country_code":"GP","formatted_address":"Saint Amélie Petit Canal, 97131, Petit-Canal 97131, Guadeloupe","postcode":"97131","locality":"Petit-Canal","region":"Grande-Terre"}},"labels":["soccer","sport"],"duration":0,"start_local":"2024-05-03T20:30:00","end":"2024-05-04T00:30:00Z","end_local":"2024-05-03T20:30:00","updated":"2024-06-12T18:39:41Z"},{"title":"Division d'Honneur - USBM vs Phare du Canal","description":"Sourced from predicthq.com","category":"sports","start":"2024-05-04T00:30:00Z","geo":{"geometry":{"coordinates":[-61.5896800160408,16.264043625320472],"type":"Point"},"placekey":"@bs5-sny-tjv","address":{"country_code":"GP","formatted_address":"7C76+J23, Baie-Mahault 97122, Guadeloupe","postcode":"97122","locality":"Baie-Mahault","region":"Basse-Terre"}},"labels":["soccer","sport"],"duration":0,"start_local":"2024-05-03T20:30:00","end":"2024-05-04T00:30:00Z","end_local":"2024-05-03T20:30:00","updated":"2024-06-11T21:29:50Z"},{"title":"Division d'Honneur - CERFA vs Jeunesse Evolution","description":"Sourced from predicthq.com","category":"sports","start":"2024-05-04T00:30:00Z","geo":{"geometry":{"coordinates":[-61.3432387,16.3198483],"type":"Point"},"placekey":"@bsd-t8y-rp9","address":{"country_code":"GP","formatted_address":"97160 D115, Le Moule 97160, Guadeloupe","postcode":"97160","locality":"Le Moule","region":"Grande-Terre"}},"labels":["soccer","sport"],"duration":0,"start_local":"2024-05-03T20:30:00","end":"2024-05-04T00:30:00Z","end_local":"2024-05-03T20:30:00","updated":"2024-06-12T09:28:52Z"},{"title":"Division d'Honneur - USBM vs Juventus Sainte-Anne","description":"Sourced from predicthq.com","category":"sports","start":"2024-04-28T20:00:00Z","geo":{"geometry":{"coordinates":[-61.5896800160408,16.264043625320472],"type":"Point"},"placekey":"@bs5-sny-tjv","address":{"country_code":"GP","formatted_address":"7C76+J23, Baie-Mahault 97122, Guadeloupe","postcode":"97122","locality":"Baie-Mahault","region":"Basse-Terre"}},"labels":["soccer","sport"],"duration":0,"start_local":"2024-04-28T16:00:00","end":"2024-04-28T20:00:00Z","end_local":"2024-04-28T16:00:00","updated":"2024-06-12T11:48:32Z"},{"title":"La Jogger's - Sainte-Rose","description":"Sourced from predicthq.com","category":"sports","start":"2024-04-28T12:00:00Z","geo":{"geometry":{"coordinates":[-61.6982671,16.3335167],"type":"Point"},"placekey":"@bsf-3pr-h5z","address":{"country_code":"GP","formatted_address":"97115 Sainte-Rose, Guadeloupe, France","locality":"Sainte-Rose","postcode":"97115","region":"Basse-Terre"}},"labels":["outdoor-sports","running","sport"],"duration":0,"start_local":"2024-04-28T08:00:00","end":"2024-04-28T12:00:00Z","end_local":"2024-04-28T08:00:00","updated":"2024-06-05T08:54:19Z"},{"title":"Division d'Honneur - USBM vs Sporting Baie-Mahault","description":"Sourced from predicthq.com","category":"sports","start":"2024-04-28T00:00:00Z","geo":{"geometry":{"coordinates":[-61.5896800160408,16.264043625320472],"type":"Point"},"placekey":"@bs5-sny-tjv","address":{"country_code":"GP","formatted_address":"7C76+J23, Baie-Mahault 97122, Guadeloupe","postcode":"97122","locality":"Baie-Mahault","region":"Basse-Terre"}},"labels":["soccer","sport"],"duration":0,"start_local":"2024-04-27T20:00:00","end":"2024-04-28T00:00:00Z","end_local":"2024-04-27T20:00:00","updated":"2024-06-12T18:44:53Z"},{"title":"Division d'Honneur - Juventus Sainte-Anne vs Etoile de Morne-à-l'Eau","description":"Sourced from predicthq.com","category":"sports","start":"2024-04-28T00:00:00Z","geo":{"geometry":{"coordinates":[-61.382246017,16.227283944],"type":"Point"},"placekey":"@bs5-sgy-y7q","address":{"country_code":"GP","formatted_address":"Rue Du Stade Valette, Saint-Anne, Guadeloupe, France","locality":"Saint-Anne"}},"labels":["soccer","sport"],"duration":0,"start_local":"2024-04-27T20:00:00","end":"2024-04-28T00:00:00Z","end_local":"2024-04-27T20:00:00","updated":"2024-06-12T10:00:24Z"},{"title":"Division d'Honneur - Jeunesse Evolution vs Etoile de Morne-à-l'Eau","description":"Sourced from predicthq.com","category":"sports","start":"2024-04-28T00:00:00Z","geo":{"geometry":{"coordinates":[-61.5086685,16.2687997],"type":"Point"},"placekey":"@bs5-smm-9xq","address":{"country_code":"GP","formatted_address":"7F9R+GHF, Rue du Stade, Les Abymes 97142, Guadeloupe","postcode":"97142","locality":"Les Abymes","region":"Grande-Terre"}},"labels":["soccer","sport"],"duration":0,"start_local":"2024-04-27T20:00:00","end":"2024-04-28T00:00:00Z","end_local":"2024-04-27T20:00:00","updated":"2024-06-12T05:47:58Z"},{"title":"Division d'Honneur - Moulien vs Gosier","description":"Sourced from predicthq.com","category":"sports","start":"2024-04-28T00:00:00Z","geo":{"geometry":{"coordinates":[-61.3432387,16.3198483],"type":"Point"},"placekey":"@bsd-t8y-rp9","address":{"country_code":"GP","formatted_address":"97160 D115, Le Moule 97160, Guadeloupe","postcode":"97160","locality":"Le Moule","region":"Grande-Terre"}},"labels":["soccer","sport"],"duration":0,"start_local":"2024-04-27T20:00:00","end":"2024-04-28T00:00:00Z","end_local":"2024-04-27T20:00:00","updated":"2024-06-12T17:24:06Z"},{"title":"Division d'Honneur - La Gauloise vs Cambrefort","description":"Sourced from predicthq.com","category":"sports","start":"2024-04-28T00:00:00Z","geo":{"geometry":{"coordinates":[-61.7405768,16.0061538],"type":"Point"},"placekey":"@bs5-swb-73q","address":{"country_code":"GP","formatted_address":"97100 Allee des Palmistes, Basse-Terre 97100, Guadeloupe","postcode":"97100","locality":"Basse-Terre","region":"Basse-Terre"}},"labels":["soccer","sport"],"duration":0,"start_local":"2024-04-27T20:00:00","end":"2024-04-28T00:00:00Z","end_local":"2024-04-27T20:00:00","updated":"2024-06-12T00:54:31Z"},{"title":"Division d'Honneur - La Gauloise vs CERFA","description":"Sourced from predicthq.com","category":"sports","start":"2024-04-27T20:00:00Z","geo":{"geometry":{"coordinates":[-61.7405768,16.0061538],"type":"Point"},"placekey":"@bs5-swb-73q","address":{"country_code":"GP","formatted_address":"97100 Allee des Palmistes, Basse-Terre 97100, Guadeloupe","postcode":"97100","locality":"Basse-Terre","region":"Basse-Terre"}},"labels":["soccer","sport"],"duration":0,"start_local":"2024-04-27T16:00:00","end":"2024-04-27T20:00:00Z","end_local":"2024-04-27T16:00:00","updated":"2024-06-11T21:39:05Z"},{"title":"COLLOQUE REGIONALE SPORT SANTE                 \" POUR UNE FRANCE EN FORME \"","description":"Sourced from predicthq.com - Sensibiliser et mobiliser face aux enjeux majeurs de santé publique posés par le recul de la pratique d’activité physique et sportive.","category":"community","start":"2024-04-27T19:00:00Z","geo":{"geometry":{"coordinates":[-61.7322776,15.997059],"type":"Point"},"placekey":"@bs5-swc-5fz","address":{"country_code":"GP","formatted_address":"Rue du Cours Nolivos, 97100 Basse-Terre, Guadeloupe, France","locality":"Basse-Terre","postcode":"97100","region":"Basse-Terre"}},"labels":["community","health"],"duration":10800,"start_local":"2024-04-27T15:00:00","end":"2024-04-27T22:00:00Z","end_local":"2024-04-27T18:00:00","updated":"2024-06-05T08:40:56Z"},{"title":"Division d'Honneur - Moulien vs Siroco Les Abymes","description":"Sourced from predicthq.com","category":"sports","start":"2024-04-27T00:30:00Z","geo":{"geometry":{"coordinates":[-61.3432387,16.3198483],"type":"Point"},"placekey":"@bsd-t8y-rp9","address":{"country_code":"GP","formatted_address":"97160 D115, Le Moule 97160, Guadeloupe","postcode":"97160","locality":"Le Moule","region":"Grande-Terre"}},"labels":["soccer","sport"],"duration":0,"start_local":"2024-04-26T20:30:00","end":"2024-04-27T00:30:00Z","end_local":"2024-04-26T20:30:00","updated":"2024-06-11T23:18:13Z"},{"title":"Division d'Honneur - Cambrefort vs Sporting Baie-Mahault","description":"Sourced from predicthq.com","category":"sports","start":"2024-04-24T00:30:00Z","geo":{"geometry":{"coordinates":[-61.5896800160408,16.264043625320472],"type":"Point"},"placekey":"@bs5-sny-tjv","address":{"country_code":"GP","formatted_address":"7C76+J23, Baie-Mahault 97122, Guadeloupe","postcode":"97122","locality":"Baie-Mahault","region":"Basse-Terre"}},"labels":["soccer","sport"],"duration":0,"start_local":"2024-04-23T20:30:00","end":"2024-04-24T00:30:00Z","end_local":"2024-04-23T20:30:00","updated":"2024-06-11T21:19:21Z"},{"title":"Division d'Honneur - Siroco Les Abymes vs Jeunesse Evolution","description":"Sourced from predicthq.com","category":"sports","start":"2024-04-21T22:00:00Z","geo":{"geometry":{"coordinates":[-61.5086685,16.2687997],"type":"Point"},"placekey":"@bs5-smm-9xq","address":{"country_code":"GP","formatted_address":"7F9R+GHF, Rue du Stade, Les Abymes 97142, Guadeloupe","postcode":"97142","locality":"Les Abymes","region":"Grande-Terre"}},"labels":["soccer","sport"],"duration":0,"start_local":"2024-04-21T18:00:00","end":"2024-04-21T22:00:00Z","end_local":"2024-04-21T18:00:00","updated":"2024-06-12T06:02:09Z"},{"title":"Litto Trail Allegre","description":"Sourced from predicthq.com","category":"sports","start":"2024-04-21T10:30:00Z","geo":{"geometry":{"coordinates":[-61.6982671,16.3335167],"type":"Point"},"placekey":"@bsf-3pr-h5z","address":{"country_code":"GP","formatted_address":"97115 Sainte-Rose, Guadeloupe, France","locality":"Sainte-Rose","postcode":"97115","region":"Basse-Terre"}},"labels":["outdoor-sports","running","sport"],"duration":0,"start_local":"2024-04-21T06:30:00","end":"2024-04-21T10:30:00Z","end_local":"2024-04-21T06:30:00","updated":"2024-06-04T22:40:21Z"},{"title":"Division d'Honneur - CERFA vs La Gauloise","description":"Sourced from predicthq.com","category":"sports","start":"2024-04-21T00:00:00Z","geo":{"geometry":{"coordinates":[-61.3432387,16.3198483],"type":"Point"},"placekey":"@bsd-t8y-rp9","address":{"country_code":"GP","formatted_address":"97160 D115, Le Moule 97160, Guadeloupe","postcode":"97160","locality":"Le Moule","region":"Grande-Terre"}},"labels":["soccer","sport"],"duration":0,"start_local":"2024-04-20T20:00:00","end":"2024-04-21T00:00:00Z","end_local":"2024-04-20T20:00:00","updated":"2024-06-12T07:10:55Z"},{"title":"Division d'Honneur - Siroco Les Abymes vs USBM","description":"Sourced from predicthq.com","category":"sports","start":"2024-04-21T00:00:00Z","geo":{"geometry":{"coordinates":[-61.5086685,16.2687997],"type":"Point"},"placekey":"@bs5-smm-9xq","address":{"country_code":"GP","formatted_address":"7F9R+GHF, Rue du Stade, Les Abymes 97142, Guadeloupe","postcode":"97142","locality":"Les Abymes","region":"Grande-Terre"}},"labels":["soccer","sport"],"duration":0,"start_local":"2024-04-20T20:00:00","end":"2024-04-21T00:00:00Z","end_local":"2024-04-20T20:00:00","updated":"2024-06-12T03:28:26Z"},{"title":"Division d'Honneur - Etoile de Morne-à-l'Eau vs Moulien","description":"Sourced from predicthq.com","category":"sports","start":"2024-04-21T00:00:00Z","geo":{"geometry":{"coordinates":[-61.45624279975891,16.333236206648014],"type":"Point"},"placekey":"@bsf-5g4-djv","address":{"country_code":"GP","formatted_address":"97111 Rue du Marche, Morne-à-l'Eau 97111, Guadeloupe","postcode":"97111","locality":"Morne-à-l'Eau","region":"Grande-Terre"}},"labels":["soccer","sport"],"duration":0,"start_local":"2024-04-20T20:00:00","end":"2024-04-21T00:00:00Z","end_local":"2024-04-20T20:00:00","updated":"2024-06-12T01:31:46Z"},{"title":"Division d'Honneur - Sporting Baie-Mahault vs Jeunesse Evolution","description":"Sourced from predicthq.com","category":"sports","start":"2024-04-21T00:00:00Z","geo":{"geometry":{"coordinates":[-61.5896800160408,16.264043625320472],"type":"Point"},"placekey":"@bs5-sny-tjv","address":{"country_code":"GP","formatted_address":"7C76+J23, Baie-Mahault 97122, Guadeloupe","postcode":"97122","locality":"Baie-Mahault","region":"Basse-Terre"}},"labels":["soccer","sport"],"duration":0,"start_local":"2024-04-20T20:00:00","end":"2024-04-21T00:00:00Z","end_local":"2024-04-20T20:00:00","updated":"2024-06-12T04:34:54Z"},{"title":"Division d'Honneur - Cambrefort vs Solidarité Scolaire","description":"Sourced from predicthq.com","category":"sports","start":"2024-04-21T00:00:00Z","geo":{"geometry":{"coordinates":[-61.562029123306274,16.048813888863315],"type":"Point"},"placekey":"@bs5-sr8-49z","address":{"country_code":"GP","formatted_address":"2CXQ+H45, Capesterre-Belle-Eau 97130, Guadeloupe","postcode":"97130","locality":"Capesterre-Belle-Eau","region":"Basse-Terre"}},"labels":["soccer","sport"],"duration":0,"start_local":"2024-04-20T20:00:00","end":"2024-04-21T00:00:00Z","end_local":"2024-04-20T20:00:00","updated":"2024-06-11T23:41:06Z"},{"title":"Division d'Honneur - Gosier vs Phare du Canal","description":"Sourced from predicthq.com","category":"sports","start":"2024-04-21T00:00:00Z","geo":{"geometry":{"coordinates":[-61.382246017,16.227283944],"type":"Point"},"placekey":"@bs5-sgy-y7q","address":{"country_code":"GP","formatted_address":"Rue Du Stade Valette, Saint-Anne, Guadeloupe, France","locality":"Saint-Anne"}},"labels":["soccer","sport"],"duration":0,"start_local":"2024-04-20T20:00:00","end":"2024-04-21T00:00:00Z","end_local":"2024-04-20T20:00:00","updated":"2024-06-12T09:07:29Z"},{"title":"Division d'Honneur - Etoile de Morne-à-l'Eau vs La Gauloise","description":"Sourced from predicthq.com","category":"sports","start":"2024-04-20T19:30:00Z","geo":{"geometry":{"coordinates":[-61.485728323459625,16.38415281892219],"type":"Point"},"placekey":"@bsf-5dx-cnq","address":{"country_code":"GP","formatted_address":"Saint Amélie Petit Canal, 97131, Petit-Canal 97131, Guadeloupe","postcode":"97131","locality":"Petit-Canal","region":"Grande-Terre"}},"labels":["soccer","sport"],"duration":0,"start_local":"2024-04-20T15:30:00","end":"2024-04-20T19:30:00Z","end_local":"2024-04-20T15:30:00","updated":"2024-06-12T11:56:07Z"},{"title":"Division d'Honneur - Juventus Sainte-Anne vs Dynamo Le Moule","description":"Sourced from predicthq.com","category":"sports","start":"2024-04-20T19:30:00Z","geo":{"geometry":{"coordinates":[-61.382246017,16.227283944],"type":"Point"},"placekey":"@bs5-sgy-y7q","address":{"country_code":"GP","formatted_address":"Rue Du Stade Valette, Saint-Anne, Guadeloupe, France","locality":"Saint-Anne"}},"labels":["soccer","sport"],"duration":0,"start_local":"2024-04-20T15:30:00","end":"2024-04-20T19:30:00Z","end_local":"2024-04-20T15:30:00","updated":"2024-06-12T07:12:01Z"},{"title":"Division d'Honneur - Solidarité Scolaire vs Moulien","description":"Sourced from predicthq.com","category":"sports","start":"2024-04-20T19:30:00Z","geo":{"geometry":{"coordinates":[-61.5896800160408,16.264043625320472],"type":"Point"},"placekey":"@bs5-sny-tjv","address":{"country_code":"GP","formatted_address":"7C76+J23, Baie-Mahault 97122, Guadeloupe","postcode":"97122","locality":"Baie-Mahault","region":"Basse-Terre"}},"labels":["soccer","sport"],"duration":0,"start_local":"2024-04-20T15:30:00","end":"2024-04-20T19:30:00Z","end_local":"2024-04-20T15:30:00","updated":"2024-06-12T03:17:55Z"},{"title":"Division d'Honneur - USBM vs Siroco Les Abymes","description":"Sourced from predicthq.com","category":"sports","start":"2024-04-18T00:30:00Z","geo":{"geometry":{"coordinates":[-61.5896800160408,16.264043625320472],"type":"Point"},"placekey":"@bs5-sny-tjv","address":{"country_code":"GP","formatted_address":"7C76+J23, Baie-Mahault 97122, Guadeloupe","postcode":"97122","locality":"Baie-Mahault","region":"Basse-Terre"}},"labels":["soccer","sport"],"duration":0,"start_local":"2024-04-17T20:30:00","end":"2024-04-18T00:30:00Z","end_local":"2024-04-17T20:30:00","updated":"2024-06-11T23:26:33Z"},{"title":"Division d'Honneur - CERFA vs Amical Club","description":"Sourced from predicthq.com","category":"sports","start":"2024-04-18T00:30:00Z","geo":{"geometry":{"coordinates":[-61.382246017,16.227283944],"type":"Point"},"placekey":"@bs5-sgy-y7q","address":{"country_code":"GP","formatted_address":"Rue Du Stade Valette, Saint-Anne, Guadeloupe, France","locality":"Saint-Anne"}},"labels":["soccer","sport"],"duration":0,"start_local":"2024-04-17T20:30:00","end":"2024-04-18T00:30:00Z","end_local":"2024-04-17T20:30:00","updated":"2024-06-11T23:13:28Z"},{"title":"REVELE TON TALENT","description":"Sourced from predicthq.com - \"Révèle ton Talent\" en Guadeloupe et booste ton insertion professionnelle!","category":"conferences","start":"2024-04-16T13:00:00Z","geo":{"geometry":{"coordinates":[-61.5052771,16.2070055],"type":"Point"},"placekey":"@bs5-sjh-ysq","address":{"country_code":"GP","formatted_address":"97190 Le Gosier, Guadeloupe, France","locality":"Le Gosier","postcode":"97190","region":"Grande-Terre"}},"labels":["business","conference"],"duration":14400,"start_local":"2024-04-16T09:00:00","end":"2024-04-16T17:00:00Z","end_local":"2024-04-16T13:00:00","updated":"2024-06-05T12:41:37Z"},{"title":"Division d'Honneur - Jeunesse Evolution vs Solidarité Scolaire","description":"Sourced from predicthq.com","category":"sports","start":"2024-04-14T00:00:00Z","geo":{"geometry":{"coordinates":[-61.5086685,16.2687997],"type":"Point"},"placekey":"@bs5-smm-9xq","address":{"country_code":"GP","formatted_address":"7F9R+GHF, Rue du Stade, Les Abymes 97142, Guadeloupe","postcode":"97142","locality":"Les Abymes","region":"Grande-Terre"}},"labels":["soccer","sport"],"duration":0,"start_local":"2024-04-13T20:00:00","end":"2024-04-14T00:00:00Z","end_local":"2024-04-13T20:00:00","updated":"2024-06-12T12:38:37Z"},{"title":"Division d'Honneur - Dynamo Le Moule vs Sporting Baie-Mahault","description":"Sourced from predicthq.com","category":"sports","start":"2024-04-14T00:00:00Z","geo":{"geometry":{"coordinates":[-61.3432387,16.3198483],"type":"Point"},"placekey":"@bsd-t8y-rp9","address":{"country_code":"GP","formatted_address":"97160 D115, Le Moule 97160, Guadeloupe","postcode":"97160","locality":"Le Moule","region":"Grande-Terre"}},"labels":["soccer","sport"],"duration":0,"start_local":"2024-04-13T20:00:00","end":"2024-04-14T00:00:00Z","end_local":"2024-04-13T20:00:00","updated":"2024-06-12T06:30:50Z"},{"title":"Division d'Honneur - Jeunesse Evolution vs Siroco Les Abymes","description":"Sourced from predicthq.com","category":"sports","start":"2024-04-14T00:00:00Z","geo":{"geometry":{"coordinates":[-61.382246017,16.227283944],"type":"Point"},"placekey":"@bs5-sgy-y7q","address":{"country_code":"GP","formatted_address":"Rue Du Stade Valette, Saint-Anne, Guadeloupe, France","locality":"Saint-Anne"}},"labels":["soccer","sport"],"duration":0,"start_local":"2024-04-13T20:00:00","end":"2024-04-14T00:00:00Z","end_local":"2024-04-13T20:00:00","updated":"2024-06-12T04:31:26Z"},{"title":"Division d'Honneur - USBM vs Gosier","description":"Sourced from predicthq.com","category":"sports","start":"2024-04-14T00:00:00Z","geo":{"geometry":{"coordinates":[-61.5896800160408,16.264043625320472],"type":"Point"},"placekey":"@bs5-sny-tjv","address":{"country_code":"GP","formatted_address":"7C76+J23, Baie-Mahault 97122, Guadeloupe","postcode":"97122","locality":"Baie-Mahault","region":"Basse-Terre"}},"labels":["soccer","sport"],"duration":0,"start_local":"2024-04-13T20:00:00","end":"2024-04-14T00:00:00Z","end_local":"2024-04-13T20:00:00","updated":"2024-06-12T06:17:13Z"},{"title":"Division d'Honneur - La Gauloise vs Amical Club","description":"Sourced from predicthq.com","category":"sports","start":"2024-04-14T00:00:00Z","geo":{"geometry":{"coordinates":[-61.7405768,16.0061538],"type":"Point"},"placekey":"@bs5-swb-73q","address":{"country_code":"GP","formatted_address":"97100 Allee des Palmistes, Basse-Terre 97100, Guadeloupe","postcode":"97100","locality":"Basse-Terre","region":"Basse-Terre"}},"labels":["soccer","sport"],"duration":0,"start_local":"2024-04-13T20:00:00","end":"2024-04-14T00:00:00Z","end_local":"2024-04-13T20:00:00","updated":"2024-06-11T20:58:07Z"},{"title":"Les Foulées Lapwent","description":"Sourced from predicthq.com","category":"sports","start":"2024-04-13T20:00:00Z","geo":{"geometry":{"coordinates":[-61.5376272,16.2370504],"type":"Point"},"placekey":"@bs5-spc-7kf","address":{"country_code":"GP","formatted_address":"Rue Achille René Boisneuf, 97110 Pointe-à-Pitre, Guadeloupe, France","locality":"Pointe-à-Pitre","postcode":"97110","region":"Grande-Terre"}},"labels":["outdoor-sports","running","sport"],"duration":0,"start_local":"2024-04-13T16:00:00","end":"2024-04-13T20:00:00Z","end_local":"2024-04-13T16:00:00","updated":"2024-06-05T07:49:16Z"},{"title":"Division d'Honneur - La Gauloise vs Siroco Les Abymes","description":"Sourced from predicthq.com","category":"sports","start":"2024-04-13T20:00:00Z","geo":{"geometry":{"coordinates":[-61.7405768,16.0061538],"type":"Point"},"placekey":"@bs5-swb-73q","address":{"country_code":"GP","formatted_address":"97100 Allee des Palmistes, Basse-Terre 97100, Guadeloupe","postcode":"97100","locality":"Basse-Terre","region":"Basse-Terre"}},"labels":["soccer","sport"],"duration":0,"start_local":"2024-04-13T16:00:00","end":"2024-04-13T20:00:00Z","end_local":"2024-04-13T16:00:00","updated":"2024-06-12T13:16:45Z"},{"title":"Division d'Honneur - Moulien vs Gosier","description":"Sourced from predicthq.com","category":"sports","start":"2024-04-13T00:30:00Z","geo":{"geometry":{"coordinates":[-61.3432387,16.3198483],"type":"Point"},"placekey":"@bsd-t8y-rp9","address":{"country_code":"GP","formatted_address":"97160 D115, Le Moule 97160, Guadeloupe","postcode":"97160","locality":"Le Moule","region":"Grande-Terre"}},"labels":["soccer","sport"],"duration":0,"start_local":"2024-04-12T20:30:00","end":"2024-04-13T00:30:00Z","end_local":"2024-04-12T20:30:00","updated":"2024-06-12T16:40:23Z"},{"title":"L'Expérience Spirituelle au sein de la Rose-Croix d'Or","description":"Sourced from predicthq.com - Exposé - Table Ronde autour du chemin spirituel vécu au sein de la Rose-Croix d'Or","category":"conferences","start":"2024-04-07T18:30:00Z","geo":{"geometry":{"coordinates":[-61.579575,16.2518557],"type":"Point"},"placekey":"@bs5-snc-y35","address":{"country_code":"GP","formatted_address":"Allée des Ramiers, 97122 Baie-Mahault, Guadeloupe, France","locality":"Baie-Mahault","postcode":"97122","region":"Basse-Terre"}},"labels":["conference","religion"],"duration":10800,"start_local":"2024-04-07T14:30:00","end":"2024-04-07T21:30:00Z","end_local":"2024-04-07T17:30:00","updated":"2024-06-05T15:07:09Z"},{"title":"Division d'Honneur - Gosier vs Jeunesse Evolution","description":"Sourced from predicthq.com","category":"sports","start":"2024-04-07T00:00:00Z","geo":{"geometry":{"coordinates":[-61.382246017,16.227283944],"type":"Point"},"placekey":"@bs5-sgy-y7q","address":{"country_code":"GP","formatted_address":"Rue Du Stade Valette, Saint-Anne, Guadeloupe, France","locality":"Saint-Anne"}},"labels":["soccer","sport"],"duration":0,"start_local":"2024-04-06T20:00:00","end":"2024-04-07T00:00:00Z","end_local":"2024-04-06T20:00:00","updated":"2024-06-12T03:08:44Z"},{"title":"Division d'Honneur - CERFA vs Cambrefort","description":"Sourced from predicthq.com","category":"sports","start":"2024-04-07T00:00:00Z","geo":{"geometry":{"coordinates":[-61.3432387,16.3198483],"type":"Point"},"placekey":"@bsd-t8y-rp9","address":{"country_code":"GP","formatted_address":"97160 D115, Le Moule 97160, Guadeloupe","postcode":"97160","locality":"Le Moule","region":"Grande-Terre"}},"labels":["soccer","sport"],"duration":0,"start_local":"2024-04-06T20:00:00","end":"2024-04-07T00:00:00Z","end_local":"2024-04-06T20:00:00","updated":"2024-06-11T21:21:32Z"},{"title":"Division d'Honneur - Sporting Baie-Mahault vs La Gauloise","description":"Sourced from predicthq.com","category":"sports","start":"2024-04-07T00:00:00Z","geo":{"geometry":{"coordinates":[-61.5896800160408,16.264043625320472],"type":"Point"},"placekey":"@bs5-sny-tjv","address":{"country_code":"GP","formatted_address":"7C76+J23, Baie-Mahault 97122, Guadeloupe","postcode":"97122","locality":"Baie-Mahault","region":"Basse-Terre"}},"labels":["soccer","sport"],"duration":0,"start_local":"2024-04-06T20:00:00","end":"2024-04-07T00:00:00Z","end_local":"2024-04-06T20:00:00","updated":"2024-06-12T19:21:36Z"},{"title":"Division d'Honneur - Etoile de Morne-à-l'Eau vs USBM","description":"Sourced from predicthq.com","category":"sports","start":"2024-04-07T00:00:00Z","geo":{"geometry":{"coordinates":[-61.45624279975891,16.333236206648014],"type":"Point"},"placekey":"@bsf-5g4-djv","address":{"country_code":"GP","formatted_address":"97111 Rue du Marche, Morne-à-l'Eau 97111, Guadeloupe","postcode":"97111","locality":"Morne-à-l'Eau","region":"Grande-Terre"}},"labels":["soccer","sport"],"duration":0,"start_local":"2024-04-06T20:00:00","end":"2024-04-07T00:00:00Z","end_local":"2024-04-06T20:00:00","updated":"2024-06-12T04:04:43Z"},{"title":"Division d'Honneur - Siroco Les Abymes vs Dynamo Le Moule","description":"Sourced from predicthq.com","category":"sports","start":"2024-04-07T00:00:00Z","geo":{"geometry":{"coordinates":[-61.5086685,16.2687997],"type":"Point"},"placekey":"@bs5-smm-9xq","address":{"country_code":"GP","formatted_address":"7F9R+GHF, Rue du Stade, Les Abymes 97142, Guadeloupe","postcode":"97142","locality":"Les Abymes","region":"Grande-Terre"}},"labels":["soccer","sport"],"duration":0,"start_local":"2024-04-06T20:00:00","end":"2024-04-07T00:00:00Z","end_local":"2024-04-06T20:00:00","updated":"2024-06-12T08:43:11Z"},{"title":"Division d'Honneur - Etoile de Morne-à-l'Eau vs USBM","description":"Sourced from predicthq.com","category":"sports","start":"2024-04-06T20:00:00Z","geo":{"geometry":{"coordinates":[-61.485728323459625,16.38415281892219],"type":"Point"},"placekey":"@bsf-5dx-cnq","address":{"country_code":"GP","formatted_address":"Saint Amélie Petit Canal, 97131, Petit-Canal 97131, Guadeloupe","postcode":"97131","locality":"Petit-Canal","region":"Grande-Terre"}},"labels":["soccer","sport"],"duration":0,"start_local":"2024-04-06T16:00:00","end":"2024-04-06T20:00:00Z","end_local":"2024-04-06T16:00:00","updated":"2024-06-12T02:58:17Z"},{"title":"Division d'Honneur - Cambrefort vs Moulien","description":"Sourced from predicthq.com","category":"sports","start":"2024-04-06T20:00:00Z","geo":{"geometry":{"coordinates":[-61.562029123306274,16.048813888863315],"type":"Point"},"placekey":"@bs5-sr8-49z","address":{"country_code":"GP","formatted_address":"2CXQ+H45, Capesterre-Belle-Eau 97130, Guadeloupe","postcode":"97130","locality":"Capesterre-Belle-Eau","region":"Basse-Terre"}},"labels":["soccer","sport"],"duration":0,"start_local":"2024-04-06T16:00:00","end":"2024-04-06T20:00:00Z","end_local":"2024-04-06T16:00:00","updated":"2024-06-12T02:38:46Z"},{"title":"Division d'Honneur - Gosier vs Jeunesse Evolution","description":"Sourced from predicthq.com","category":"sports","start":"2024-04-06T00:30:00Z","geo":{"geometry":{"coordinates":[-61.382246017,16.227283944],"type":"Point"},"placekey":"@bs5-sgy-y7q","address":{"country_code":"GP","formatted_address":"Rue Du Stade Valette, Saint-Anne, Guadeloupe, France","locality":"Saint-Anne"}},"labels":["soccer","sport"],"duration":0,"start_local":"2024-04-05T20:30:00","end":"2024-04-06T00:30:00Z","end_local":"2024-04-05T20:30:00","updated":"2024-06-12T10:04:57Z"}]