[{"title":"eCommerce Day Guatemala 2024","description":"Sourced from predicthq.com - eCommerce Day® es el principal encuentro de la industria de los Negocios por Internet.","category":"conferences","start":"2024-09-24T14:00:00Z","geo":{"geometry":{"coordinates":[-90.50701160000001,14.5987161],"type":"Point"},"placekey":"@d53-yg2-nkf","address":{"country_code":"GT","formatted_address":"01010-Ciudad de Guatemala, Guatemala","locality":"Ciudad de Guatemala","postcode":"01010","region":"Guatemala"}},"labels":["business","conference"],"duration":37800,"start_local":"2024-09-24T08:00:00","end":"2024-09-25T00:30:00Z","end_local":"2024-09-24T18:30:00","updated":"2024-06-04T00:57:15Z"},{"title":"Feria  Estudia en Australia 2024 - Guatemala","description":"Sourced from predicthq.com - Participa en la feria de estudios en Australia más importante en Guatemala, conoce las opciones para estudiar, vivir y trabajar en este país","category":"expos","start":"2024-09-19T21:00:00Z","geo":{"geometry":{"coordinates":[-90.5137891,14.6007426],"type":"Point"},"placekey":"@d53-yfy-wrk","address":{"country_code":"GT","formatted_address":"01010-Ciudad de Guatemala, Guatemala","locality":"Ciudad de Guatemala","postcode":"01010","region":"Guatemala"}},"labels":["expo","outdoor"],"duration":18000,"start_local":"2024-09-19T15:00:00","end":"2024-09-20T02:00:00Z","end_local":"2024-09-19T20:00:00","updated":"2024-06-21T10:52:38Z"},{"title":"El Zar","description":"Sourced from predicthq.com","category":"concerts","start":"2024-08-19T02:00:00Z","geo":{"geometry":{"coordinates":[-90.5269759,14.5977749],"type":"Point"},"placekey":"@d53-yfy-bp9","address":{"country_code":"GT","formatted_address":"Guatemala City, Guatemala Department, Guatemala","locality":"Guatemala City","region":"Guatemala Department"}},"labels":["concert","music"],"duration":0,"start_local":"2024-08-18T20:00:00","end":"2024-08-19T02:00:00Z","end_local":"2024-08-18T20:00:00","updated":"2024-06-28T23:18:57Z"},{"title":"BASS GT","description":"Sourced from predicthq.com","category":"festivals","start":"2024-08-17T06:00:00Z","geo":{"geometry":{"coordinates":[-90.52734,14.5975],"type":"Point"},"placekey":"@d53-yfy-d5f","address":{"country_code":"GT","formatted_address":"HFXC+4XF, Guatemala City, Guatemala","locality":"Guatemala City","region":"Guatemala Department"}},"labels":["festival","music"],"duration":86399,"start_local":"2024-08-17T00:00:00","end":"2024-08-18T05:59:59Z","end_local":"2024-08-17T23:59:59","updated":"2024-06-12T03:11:34Z"},{"title":"Caloncho","description":"Sourced from predicthq.com","category":"concerts","start":"2024-08-03T03:00:00Z","geo":{"geometry":{"coordinates":[-90.5148485,14.6650988],"type":"Point"},"placekey":"@d53-ywn-kzz","address":{"country_code":"GT","formatted_address":"6A Calle, -Guatemala City, Guatemala","locality":"Guatemala City"}},"labels":["concert","music"],"duration":0,"start_local":"2024-08-02T21:00:00","end":"2024-08-03T03:00:00Z","end_local":"2024-08-02T21:00:00","updated":"2024-06-11T08:48:20Z"},{"title":"Los Zanates","description":"Sourced from predicthq.com","category":"concerts","start":"2024-07-21T01:00:00Z","geo":{"geometry":{"coordinates":[-90.51372,14.63852],"type":"Point"},"placekey":"@d53-ywf-wp9","address":{"country_code":"GT","formatted_address":"6ta avenida A 10-39 zona 1, -Guatemala City, Guatemala","locality":"Guatemala City"}},"labels":["concert","music"],"duration":0,"start_local":"2024-07-20T19:00:00","end":"2024-07-21T01:00:00Z","end_local":"2024-07-20T19:00:00","updated":"2024-06-10T23:57:07Z"},{"title":"Inversiones en Wall Street con Inteligencia Artificial","description":"Sourced from predicthq.com - Únete a nuestro exclusivo evento GRATUITO. No te pierdas la oportunidad de aprender cómo la IA está transformando el mercado de valores.","category":"conferences","start":"2024-07-20T14:00:00Z","geo":{"geometry":{"coordinates":[-90.51310660000001,14.6090986],"type":"Point"},"placekey":"@d53-yfy-sqz","address":{"country_code":"GT","formatted_address":"2A Avenida, 01010-Ciudad de Guatemala, Guatemala","locality":"Ciudad de Guatemala","postcode":"01010","region":"Guatemala"}},"labels":["business","conference"],"duration":12600,"start_local":"2024-07-20T08:00:00","end":"2024-07-20T17:30:00Z","end_local":"2024-07-20T11:30:00","updated":"2024-06-06T15:39:16Z"},{"title":"Inspector","description":"Sourced from predicthq.com","category":"concerts","start":"2024-07-19T01:00:00Z","geo":{"geometry":{"coordinates":[-90.5148485,14.6650988],"type":"Point"},"placekey":"@d53-ywn-kzz","address":{"country_code":"GT","formatted_address":"6A Calle, -Guatemala City, Guatemala","locality":"Guatemala City"}},"labels":["concert","music"],"duration":0,"start_local":"2024-07-18T19:00:00","end":"2024-07-19T01:00:00Z","end_local":"2024-07-18T19:00:00","updated":"2024-06-12T13:33:44Z"},{"title":"MIDSUMMER Festival Lake Atitlan","description":"Sourced from predicthq.com - ¡Celebra el verano en el hermoso Lago Atitlán con música, baile y comida local en el Festival MIDSUMMER!","category":"festivals","start":"2024-07-18T16:00:00Z","geo":{"geometry":{"coordinates":[-91.24924229999999,14.7363004],"type":"Point"},"placekey":"@d53-qsr-g49","address":{"country_code":"GT","formatted_address":"07014-Santa Cruz la Laguna, Guatemala","locality":"Santa Cruz la Laguna","postcode":"07014","region":"Sololá Department"}},"labels":["festival","performing-arts"],"duration":394200,"start_local":"2024-07-18T10:00:00","end":"2024-07-23T05:30:00Z","end_local":"2024-07-22T23:30:00","updated":"2024-06-06T02:08:12Z"},{"title":"Bronco","description":"Sourced from predicthq.com","category":"concerts","start":"2024-07-14T02:00:00Z","geo":{"geometry":{"coordinates":[-90.4814121,14.6843656],"type":"Point"},"placekey":"@d53-ywj-yjv","address":{"country_code":"GT","formatted_address":"MGM9+PCW, 5A C, Cdad. de Guatemala, Guatemala","locality":"Ciudad de Guatemala","region":"Guatemala"}},"labels":["concert","music"],"duration":0,"start_local":"2024-07-13T20:00:00","end":"2024-07-14T02:00:00Z","end_local":"2024-07-13T20:00:00","updated":"2024-06-11T05:06:57Z"},{"title":"III Congreso Rehumanizar La educaión","description":"Sourced from predicthq.com - Trabajar emociones en el aula en tiempos de la IA","category":"conferences","start":"2024-07-13T14:00:00Z","geo":{"geometry":{"coordinates":[-90.51612999999999,14.5843552],"type":"Point"},"placekey":"@d53-yg5-6p9","address":{"country_code":"GT","formatted_address":"Ciudad de Guatemala, Guatemala","locality":"Ciudad de Guatemala","region":"Guatemala"}},"labels":["conference","education","family"],"duration":14400,"start_local":"2024-07-13T08:00:00","end":"2024-07-13T18:00:00Z","end_local":"2024-07-13T12:00:00","updated":"2024-06-04T00:28:46Z"},{"title":"Congreso Nacional de Ventas Guatemala","description":"Sourced from predicthq.com - Descubre cómo maximizar tus resultados y eficiencia en el mundo de las ventas.","category":"conferences","start":"2024-07-11T14:00:00Z","geo":{"geometry":{"coordinates":[-90.5157699,14.5979585],"type":"Point"},"placekey":"@d53-yfy-7nq","address":{"country_code":"GT","formatted_address":"14 Calle, 01010-Ciudad de Guatemala, Guatemala","locality":"Ciudad de Guatemala","postcode":"01010","region":"Guatemala"}},"labels":["business","conference"],"duration":36000,"start_local":"2024-07-11T08:00:00","end":"2024-07-12T00:00:00Z","end_local":"2024-07-11T18:00:00","updated":"2024-06-11T01:27:15Z"},{"title":"Nito Mestre","description":"Sourced from predicthq.com","category":"concerts","start":"2024-07-11T02:00:00Z","geo":{"geometry":{"coordinates":[-90.5068824,14.6349149],"type":"Point"},"placekey":"@d53-ywf-guv","address":{"country_code":"GT","formatted_address":"Guatemala City, Guatemala","locality":"Guatemala City"}},"labels":["concert","music"],"duration":0,"start_local":"2024-07-10T20:00:00","end":"2024-07-11T02:00:00Z","end_local":"2024-07-10T20:00:00","updated":"2024-06-29T06:55:58Z"},{"title":"AQUIHAYAQUIHAY","description":"Sourced from predicthq.com","category":"concerts","start":"2024-06-30T03:00:00Z","geo":{"geometry":{"coordinates":[-90.5269759,14.5977749],"type":"Point"},"placekey":"@d53-yfy-bp9","address":{"country_code":"GT","formatted_address":"Guatemala City, Guatemala Department, Guatemala","locality":"Guatemala City","region":"Guatemala Department"}},"labels":["concert","music"],"duration":0,"start_local":"2024-06-29T21:00:00","end":"2024-06-30T03:00:00Z","end_local":"2024-06-29T21:00:00","updated":"2024-06-11T06:36:27Z"},{"title":"Tech Day Guatemala","description":"Sourced from predicthq.com - En un mundo que cambia a diario, tenemos que estar siempre INNOVANDO","category":"conferences","start":"2024-06-25T14:00:00Z","geo":{"geometry":{"coordinates":[-90.5158618,14.5981445],"type":"Point"},"placekey":"@d53-yfy-7nq","address":{"country_code":"GT","formatted_address":"14 Calle, 01010-Ciudad de Guatemala, Guatemala","locality":"Ciudad de Guatemala","postcode":"01010","region":"Guatemala"}},"labels":["conference","science","technology"],"duration":36000,"start_local":"2024-06-25T08:00:00","end":"2024-06-26T00:00:00Z","end_local":"2024-06-25T18:00:00","updated":"2024-06-11T03:18:44Z"},{"title":"Picha and CannabicA","description":"Sourced from predicthq.com","category":"community","start":"2024-06-23T01:00:00Z","geo":{"geometry":{"coordinates":[-90.51479,14.63624],"type":"Point"},"placekey":"@d53-ywf-t35","address":{"country_code":"GT","formatted_address":"6ta Av. 3-39 zona 1, -Guatemala City, Guatemala","locality":"Guatemala City"}},"labels":["concert","music"],"duration":0,"start_local":"2024-06-22T19:00:00","end":"2024-06-23T01:00:00Z","end_local":"2024-06-22T19:00:00","updated":"2024-06-02T17:37:47Z"},{"title":"Música y vino","description":"Sourced from predicthq.com - Ven a disfrutar de una noche llena de buena música y delicioso vino  con invitado especial \nMau Rodas ¡No te lo pierdas!","category":"concerts","start":"2024-06-21T01:30:00Z","geo":{"geometry":{"coordinates":[-90.7352365,14.5557644],"type":"Point"},"placekey":"@d54-2xt-f4v","address":{"country_code":"GT","formatted_address":"6a Avenida Sur, -Antigua Guatemala, Guatemala","locality":"Antigua Guatemala","region":"Sacatepéquez"}},"labels":["concert","food","music"],"duration":9000,"start_local":"2024-06-20T19:30:00","end":"2024-06-21T04:00:00Z","end_local":"2024-06-20T22:00:00","updated":"2024-06-20T12:46:07Z"},{"title":"Soft Kill and Asimov","description":"Sourced from predicthq.com","category":"concerts","start":"2024-06-20T01:00:00Z","geo":{"geometry":{"coordinates":[-90.51439,14.62207],"type":"Point"},"placekey":"@d53-yg5-wkz","address":{"country_code":"GT","formatted_address":"4 Grados Norte, Ruta 1 4-48, -Guatemala City, Guatemala","locality":"Guatemala City"}},"labels":["concert","music"],"duration":0,"start_local":"2024-06-19T19:00:00","end":"2024-06-20T01:00:00Z","end_local":"2024-06-19T19:00:00","updated":"2024-07-04T09:21:28Z"},{"title":"Banda MS de Sergio Lizárraga","description":"Sourced from predicthq.com","category":"concerts","start":"2024-06-14T01:00:00Z","geo":{"geometry":{"coordinates":[-91.5241317,14.8451434],"type":"Point"},"placekey":"@d53-sgz-7nq","address":{"country_code":"GT","formatted_address":"RFWG+385, 21 Avenida, Quetzaltenango, Guatemala","locality":"Quetzaltenango","region":"Quetzaltenango"}},"labels":["concert","music"],"duration":0,"start_local":"2024-06-13T19:00:00","end":"2024-06-14T01:00:00Z","end_local":"2024-06-13T19:00:00","updated":"2024-06-28T01:38:35Z"},{"title":"PROCAMPO Learning Event","description":"Sourced from predicthq.com - Join us for a hybrid learning event in celebration of the successes and lessons learned from the Guatemala Food for Progress project.","category":"conferences","start":"2024-06-13T15:00:00Z","geo":{"geometry":{"coordinates":[-90.513915,14.5977466],"type":"Point"},"placekey":"@d53-yfy-7kf","address":{"country_code":"GT","formatted_address":"3A Avenida, 01010-Ciudad de Guatemala, Guatemala","locality":"Ciudad de Guatemala","postcode":"01010","region":"Guatemala"}},"labels":["conference"],"duration":28800,"start_local":"2024-06-13T09:00:00","end":"2024-06-13T23:00:00Z","end_local":"2024-06-13T17:00:00","updated":"2024-06-06T15:08:42Z"},{"title":"Presentación del Índice de Gobierno Digital 2024 - Guatemala","description":"Sourced from predicthq.com - El Índice de Gobierno Digital es un informe anual que evalúa el estado y progreso de la digitalización en el sector público de Guatemala.","category":"conferences","start":"2024-06-11T16:00:00Z","geo":{"geometry":{"coordinates":[-90.513915,14.5977466],"type":"Point"},"placekey":"@d53-yfy-7kf","address":{"country_code":"GT","formatted_address":"3A Avenida, 01010-Ciudad de Guatemala, Guatemala","locality":"Ciudad de Guatemala","postcode":"01010","region":"Guatemala"}},"labels":["conference"],"duration":7200,"start_local":"2024-06-11T10:00:00","end":"2024-06-11T18:00:00Z","end_local":"2024-06-11T12:00:00","updated":"2024-06-06T05:18:36Z"},{"title":"Primera Division - Promotion Play-offs - Final - Juventud Pinulteca vs Juventud Copalera","description":"Sourced from predicthq.com","category":"sports","start":"2024-06-09T19:00:00Z","geo":{"geometry":{"coordinates":[-91.5170802,14.8417644],"type":"Point"},"placekey":"@d53-sgz-gc5","address":{"country_code":"GT","formatted_address":"14 Avenida, -Quezaltenango, Guatemala","locality":"Quezaltenango","region":"Quetzaltenango"}},"labels":["soccer","sport"],"duration":0,"start_local":"2024-06-09T13:00:00","end":"2024-06-09T19:00:00Z","end_local":"2024-06-09T13:00:00","updated":"2024-06-12T17:49:23Z"},{"title":"Porter and Technicolor Fabrics","description":"Sourced from predicthq.com","category":"concerts","start":"2024-06-09T00:00:00Z","geo":{"geometry":{"coordinates":[-90.5148485,14.6650988],"type":"Point"},"placekey":"@d53-ywn-kzz","address":{"country_code":"GT","formatted_address":"6A Calle, -Guatemala City, Guatemala","locality":"Guatemala City"}},"labels":["concert","music"],"duration":0,"start_local":"2024-06-08T18:00:00","end":"2024-06-09T00:00:00Z","end_local":"2024-06-08T18:00:00","updated":"2024-06-23T00:08:39Z"},{"title":"Primera Division - Clausura - Finals - Juventud Copalera vs Marquense","description":"Sourced from predicthq.com","category":"sports","start":"2024-06-02T21:15:00Z","geo":{"geometry":{"coordinates":[-91.48144841194153,15.320673777550663],"type":"Point"},"placekey":"@d53-q9n-fzz","address":{"country_code":"GT","formatted_address":"8GC9+58V, Huehuetenango, Guatemala","locality":"Huehuetenango","region":"Huehuetenango Department"}},"labels":["soccer","sport"],"duration":0,"start_local":"2024-06-02T15:15:00","end":"2024-06-02T21:15:00Z","end_local":"2024-06-02T15:15:00","updated":"2024-06-11T21:32:53Z"},{"title":"Realidades, Ausencias, Carousel GT, and Good Refference","description":"Sourced from predicthq.com","category":"concerts","start":"2024-06-02T00:00:00Z","geo":{"geometry":{"coordinates":[-90.51439,14.62207],"type":"Point"},"placekey":"@d53-yg5-wkz","address":{"country_code":"GT","formatted_address":"4 Grados Norte, Ruta 1 4-48, -Guatemala City, Guatemala","locality":"Guatemala City"}},"labels":["concert","music"],"duration":0,"start_local":"2024-06-01T18:00:00","end":"2024-06-02T00:00:00Z","end_local":"2024-06-01T18:00:00","updated":"2024-06-16T00:11:40Z"},{"title":"Friendlies Women - Friendlies 1 - Guatemala vs Chile","description":"Sourced from predicthq.com","category":"sports","start":"2024-06-01T22:00:00Z","geo":{"geometry":{"coordinates":[-90.4882867,14.6761283],"type":"Point"},"placekey":"@d53-ywj-8sq","address":{"country_code":"GT","formatted_address":"MGG6+FM5, Guatemala City, Guatemala","locality":"Guatemala City","region":"Guatemala Department"}},"labels":["soccer","sport"],"duration":7140,"start_local":"2024-06-01T16:00:00","end":"2024-06-01T23:59:00Z","end_local":"2024-06-01T17:59:00","updated":"2024-06-02T00:17:26Z"},{"title":"Foro Desarrollo Inmobiliario Sostenible","description":"Sourced from predicthq.com - Un evento que reúne a  los líderes que están transformando el desarrollo inmobiliario en Guatemala.","category":"conferences","start":"2024-05-30T15:00:00Z","geo":{"geometry":{"coordinates":[-90.5119271,14.5996073],"type":"Point"},"placekey":"@d53-yfy-xwk","address":{"country_code":"GT","formatted_address":"01010-Ciudad de Guatemala, Guatemala","locality":"Ciudad de Guatemala","postcode":"01010","region":"Guatemala"}},"labels":["business","conference"],"duration":28800,"start_local":"2024-05-30T09:00:00","end":"2024-05-30T23:00:00Z","end_local":"2024-05-30T17:00:00","updated":"2024-05-30T05:18:31Z"},{"title":"Friendlies Women - Friendlies 1 - Guatemala vs Chile","description":"Sourced from predicthq.com","category":"sports","start":"2024-05-29T21:00:00Z","geo":{"geometry":{"coordinates":[-90.4882867,14.6761283],"type":"Point"},"placekey":"@d53-ywj-8sq","address":{"country_code":"GT","formatted_address":"MGG6+FM5, Guatemala City, Guatemala","locality":"Guatemala City","region":"Guatemala Department"}},"labels":["soccer","sport"],"duration":7021,"start_local":"2024-05-29T15:00:00","end":"2024-05-29T22:57:01Z","end_local":"2024-05-29T16:57:01","updated":"2024-05-29T23:43:38Z"},{"title":"Medio Maratón Internacional de Coban","description":"Sourced from predicthq.com","category":"sports","start":"2024-05-26T13:00:00Z","geo":{"geometry":{"coordinates":[-90.3842527,15.4650586],"type":"Point"},"placekey":"@d55-3y2-jsq","address":{"country_code":"GT","formatted_address":"Cobán, Alta Verapaz, Guatemala","locality":"Cobán","region":"Alta Verapaz"}},"labels":["marathon","outdoor-sports","running","sport"],"duration":0,"start_local":"2024-05-26T07:00:00","end":"2024-05-26T13:00:00Z","end_local":"2024-05-26T07:00:00","updated":"2024-06-05T16:04:19Z"},{"title":"Primera Division - Clausura - Finals - Marquense vs Juventud Copalera","description":"Sourced from predicthq.com","category":"sports","start":"2024-05-26T02:00:00Z","geo":{"geometry":{"coordinates":[-91.7917744,14.967123],"type":"Point"},"placekey":"@d54-fq7-nbk","address":{"country_code":"GT","formatted_address":"X685+R83, RN-12N, San Marcos, Guatemala","locality":"San Marcos","region":"San Marcos"}},"labels":["soccer","sport"],"duration":0,"start_local":"2024-05-25T20:00:00","end":"2024-05-26T02:00:00Z","end_local":"2024-05-25T20:00:00","updated":"2024-06-12T09:52:42Z"},{"title":"Expo Construir Guatemala","description":"Sourced from predicthq.com - El mayor evento de la industria de la construcción en Guatemala, vuelve este 2024 con mucha más actualización","category":"conferences","start":"2024-05-23T13:30:00Z","geo":{"geometry":{"coordinates":[-90.5157699,14.5979585],"type":"Point"},"placekey":"@d53-yfy-7nq","address":{"country_code":"GT","formatted_address":"14 Calle, 01010-Ciudad de Guatemala, Guatemala","locality":"Ciudad de Guatemala","postcode":"01010","region":"Guatemala"}},"labels":["conference"],"duration":57600,"start_local":"2024-05-23T07:30:00","end":"2024-05-24T05:30:00Z","end_local":"2024-05-23T23:30:00","updated":"2024-06-12T13:36:35Z"},{"title":"Liga Nacional - Clausura - Finals - Municipal vs Mixco","description":"Sourced from predicthq.com","category":"sports","start":"2024-05-19T20:30:00Z","geo":{"geometry":{"coordinates":[-90.5350879,14.6164552],"type":"Point"},"placekey":"@d53-yg8-zj9","address":{"country_code":"GT","formatted_address":"7A Avenida, 01003-Guatemala, Guatemala","postcode":"01003","locality":"Guatemala","region":"Guatemala"}},"labels":["soccer","sport"],"duration":7265,"start_local":"2024-05-19T14:30:00","end":"2024-05-19T22:31:05Z","end_local":"2024-05-19T16:31:05","updated":"2024-06-05T13:01:21Z"},{"title":"Primera Division - Clausura - Semi-finals - Juventud Copalera vs Juventud Pinulteca","description":"Sourced from predicthq.com","category":"sports","start":"2024-05-19T18:15:00Z","geo":{"geometry":{"coordinates":[-91.774801597,15.418688476],"type":"Point"},"placekey":"@d53-s45-psq","address":{"country_code":"GT","formatted_address":"C69G+G34, San Ildefonso Ixtahuacán, Guatemala","locality":"San Ildefonso Ixtahuacán","region":"Huehuetenango Department"}},"labels":["soccer","sport"],"duration":0,"start_local":"2024-05-19T12:15:00","end":"2024-05-19T18:15:00Z","end_local":"2024-05-19T12:15:00","updated":"2024-06-12T00:02:19Z"},{"title":"Primera Division - Clausura - Semi-finals - Suchitepéquez vs Marquense","description":"Sourced from predicthq.com","category":"sports","start":"2024-05-19T02:00:00Z","geo":{"geometry":{"coordinates":[-91.5092142,14.5317498],"type":"Point"},"placekey":"@d54-pn6-94v","address":{"country_code":"GT","formatted_address":"8a. Calle 2-60 Zona 2, Cantón Santa Cristina., Mazatenango, Guatemala","locality":"Mazatenango","region":"Suchitepéquez"}},"labels":["soccer","sport"],"duration":0,"start_local":"2024-05-18T20:00:00","end":"2024-05-19T02:00:00Z","end_local":"2024-05-18T20:00:00","updated":"2024-06-12T05:42:28Z"},{"title":"Primera Division - Clausura - Semi-finals - Marquense vs Suchitepéquez","description":"Sourced from predicthq.com","category":"sports","start":"2024-05-13T02:00:00Z","geo":{"geometry":{"coordinates":[-91.7917744,14.967123],"type":"Point"},"placekey":"@d54-fq7-nbk","address":{"country_code":"GT","formatted_address":"X685+R83, RN-12N, San Marcos, Guatemala","locality":"San Marcos","region":"San Marcos"}},"labels":["soccer","sport"],"duration":0,"start_local":"2024-05-12T20:00:00","end":"2024-05-13T02:00:00Z","end_local":"2024-05-12T20:00:00","updated":"2024-06-12T13:37:11Z"},{"title":"Primera Division - Clausura - Semi-finals - Juventud Pinulteca vs Juventud Copalera","description":"Sourced from predicthq.com","category":"sports","start":"2024-05-12T21:30:00Z","geo":{"geometry":{"coordinates":[-90.40688814456058,14.540188443607104],"type":"Point"},"placekey":"@d53-yfm-gkz","address":{"country_code":"GT","formatted_address":"GHQV+XGJ, RN-18, San José Pinula, Guatemala","locality":"San José Pinula","region":"Guatemala"}},"labels":["soccer","sport"],"duration":0,"start_local":"2024-05-12T15:30:00","end":"2024-05-12T21:30:00Z","end_local":"2024-05-12T15:30:00","updated":"2024-06-12T11:44:03Z"},{"title":"Miranda!","description":"Sourced from predicthq.com","category":"concerts","start":"2024-05-12T02:00:00Z","geo":{"geometry":{"coordinates":[-90.51457,14.62191],"type":"Point"},"placekey":"@d53-yg5-wkz","address":{"country_code":"GT","formatted_address":"JFCP+Q5G, Guatemala City, Guatemala","locality":"Guatemala City","region":"Guatemala Department"}},"labels":["concert","music"],"duration":0,"start_local":"2024-05-11T20:00:00","end":"2024-05-12T02:00:00Z","end_local":"2024-05-11T20:00:00","updated":"2024-06-12T07:47:09Z"},{"title":"Liga Nacional - Clausura - Finals - Mixco vs Municipal","description":"Sourced from predicthq.com","category":"sports","start":"2024-05-11T21:00:00Z","geo":{"geometry":{"coordinates":[-90.60940186193659,14.635834252732074],"type":"Point"},"placekey":"@d53-z42-snq","address":{"country_code":"GT","formatted_address":"Ave Federal, -Mixco, Guatemala","locality":"Mixco"}},"labels":["soccer","sport"],"duration":7436,"start_local":"2024-05-11T15:00:00","end":"2024-05-11T23:03:56Z","end_local":"2024-05-11T17:03:56","updated":"2024-06-05T03:10:19Z"},{"title":"UB40","description":"Sourced from predicthq.com","category":"concerts","start":"2024-05-11T01:00:00Z","geo":{"geometry":{"coordinates":[-90.56169,14.6204],"type":"Point"},"placekey":"@d53-z66-9fz","address":{"country_code":"GT","formatted_address":"Anillo Periférico 27 Avenida 6-40, -Guatemala City, Guatemala","locality":"Guatemala City"}},"labels":["concert","music"],"duration":0,"start_local":"2024-05-10T19:00:00","end":"2024-05-11T01:00:00Z","end_local":"2024-05-10T19:00:00","updated":"2024-07-04T17:56:50Z"},{"title":"Mägo de Oz","description":"Sourced from predicthq.com","category":"concerts","start":"2024-05-11T01:00:00Z","geo":{"geometry":{"coordinates":[-90.52375029999999,14.6089973],"type":"Point"},"placekey":"@d53-yfz-2zf","address":{"country_code":"GT","formatted_address":"JF5G+HFX, 6a Calle, Cdad. de Guatemala 01009, Guatemala","postcode":"01009","locality":"Ciudad de Guatemala","region":"Guatemala"}},"labels":["concert","music"],"duration":0,"start_local":"2024-05-10T19:00:00","end":"2024-05-11T01:00:00Z","end_local":"2024-05-10T19:00:00","updated":"2024-06-11T23:18:54Z"},{"title":"Curso de Eficiencia Personal","description":"Sourced from predicthq.com - Soluciones prácticas para los desafíos de la vida cotidiana. Inglés con traducción al español.","category":"conferences","start":"2024-05-07T22:00:00Z","geo":{"geometry":{"coordinates":[-90.51424569999999,14.5923477],"type":"Point"},"placekey":"@d53-yfy-5cq","address":{"country_code":"GT","formatted_address":"20 Calle, 01010-Ciudad de Guatemala, Guatemala","locality":"Ciudad de Guatemala","postcode":"01010","region":"Guatemala"}},"labels":["business","conference"],"duration":10800,"start_local":"2024-05-07T16:00:00","end":"2024-05-08T01:00:00Z","end_local":"2024-05-07T19:00:00","updated":"2024-06-05T05:37:29Z"},{"title":"Primera Division - Clausura - Quarter-finals - Suchitepéquez vs Aurora","description":"Sourced from predicthq.com","category":"sports","start":"2024-05-06T01:00:00Z","geo":{"geometry":{"coordinates":[-91.5092142,14.5317498],"type":"Point"},"placekey":"@d54-pn6-94v","address":{"country_code":"GT","formatted_address":"8a. Calle 2-60 Zona 2, Cantón Santa Cristina., Mazatenango, Guatemala","locality":"Mazatenango","region":"Suchitepéquez"}},"labels":["soccer","sport"],"duration":0,"start_local":"2024-05-05T19:00:00","end":"2024-05-06T01:00:00Z","end_local":"2024-05-05T19:00:00","updated":"2024-06-12T08:45:40Z"},{"title":"Liga Nacional - Clausura - Semi-finals - Municipal vs Comunicaciones","description":"Sourced from predicthq.com","category":"sports","start":"2024-05-05T20:30:00Z","geo":{"geometry":{"coordinates":[-90.5350879,14.6164552],"type":"Point"},"placekey":"@d53-yg8-zj9","address":{"country_code":"GT","formatted_address":"7A Avenida, 01003-Guatemala, Guatemala","postcode":"01003","locality":"Guatemala","region":"Guatemala"}},"labels":["soccer","sport"],"duration":6993,"start_local":"2024-05-05T14:30:00","end":"2024-05-05T22:26:33Z","end_local":"2024-05-05T16:26:33","updated":"2024-06-04T23:15:31Z"},{"title":"Primera Division - Clausura - Quarter-finals - Iztapa vs Marquense","description":"Sourced from predicthq.com","category":"sports","start":"2024-05-05T20:00:00Z","geo":{"geometry":{"coordinates":[-90.71531027555466,13.93785492517346],"type":"Point"},"placekey":"@d5v-nd4-h5z","address":{"country_code":"GT","formatted_address":"Puerto Iztapa, Guatemala","locality":"Puerto Iztapa"}},"labels":["soccer","sport"],"duration":0,"start_local":"2024-05-05T14:00:00","end":"2024-05-05T20:00:00Z","end_local":"2024-05-05T14:00:00","updated":"2024-06-12T12:40:19Z"},{"title":"Primera Division - Clausura - Quarter-finals - Juventud Copalera vs San Pedro","description":"Sourced from predicthq.com","category":"sports","start":"2024-05-05T18:00:00Z","geo":{"geometry":{"coordinates":[-91.774801597,15.418688476],"type":"Point"},"placekey":"@d53-s45-psq","address":{"country_code":"GT","formatted_address":"C69G+G34, San Ildefonso Ixtahuacán, Guatemala","locality":"San Ildefonso Ixtahuacán","region":"Huehuetenango Department"}},"labels":["soccer","sport"],"duration":0,"start_local":"2024-05-05T12:00:00","end":"2024-05-05T18:00:00Z","end_local":"2024-05-05T12:00:00","updated":"2024-06-11T23:02:37Z"},{"title":"Liga Nacional - Clausura - Semi-finals - Antigua GFC vs Mixco","description":"Sourced from predicthq.com","category":"sports","start":"2024-05-05T02:00:00Z","geo":{"geometry":{"coordinates":[-90.7381336,14.5676473],"type":"Point"},"placekey":"@d54-2x4-5vf","address":{"country_code":"GT","formatted_address":"H796+3P5, Antigua Guatemala, Guatemala","locality":"Antigua Guatemala","region":"Sacatepéquez Department"}},"labels":["soccer","sport"],"duration":10466,"start_local":"2024-05-04T20:00:00","end":"2024-05-05T04:54:26Z","end_local":"2024-05-04T22:54:26","updated":"2024-06-05T20:15:18Z"},{"title":"Liga Nacional - Clausura - Semi-finals - Comunicaciones vs Municipal","description":"Sourced from predicthq.com","category":"sports","start":"2024-05-03T02:00:00Z","geo":{"geometry":{"coordinates":[-90.4882867,14.6761283],"type":"Point"},"placekey":"@d53-ywj-8sq","address":{"country_code":"GT","formatted_address":"MGG6+FM5, Guatemala City, Guatemala","locality":"Guatemala City","region":"Guatemala Department"}},"labels":["soccer","sport"],"duration":7129,"start_local":"2024-05-02T20:00:00","end":"2024-05-03T03:58:49Z","end_local":"2024-05-02T21:58:49","updated":"2024-06-05T08:49:10Z"},{"title":"Primera Division - Clausura - Quarter-finals - Marquense vs Iztapa","description":"Sourced from predicthq.com","category":"sports","start":"2024-05-03T02:00:00Z","geo":{"geometry":{"coordinates":[-91.7917744,14.967123],"type":"Point"},"placekey":"@d54-fq7-nbk","address":{"country_code":"GT","formatted_address":"X685+R83, RN-12N, San Marcos, Guatemala","locality":"San Marcos","region":"San Marcos"}},"labels":["soccer","sport"],"duration":0,"start_local":"2024-05-02T20:00:00","end":"2024-05-03T02:00:00Z","end_local":"2024-05-02T20:00:00","updated":"2024-06-12T15:28:30Z"},{"title":"Primera Division - Clausura - Quarter-finals - Aurora vs Suchitepéquez","description":"Sourced from predicthq.com","category":"sports","start":"2024-05-02T21:00:00Z","geo":{"geometry":{"coordinates":[-90.6162602,14.4875408],"type":"Point"},"placekey":"@d53-ym9-q4v","address":{"country_code":"GT","formatted_address":"F9PM+M94, Amatitlán, Guatemala","locality":"Amatitlán","region":"Guatemala Department"}},"labels":["soccer","sport"],"duration":0,"start_local":"2024-05-02T15:00:00","end":"2024-05-02T21:00:00Z","end_local":"2024-05-02T15:00:00","updated":"2024-06-12T07:22:40Z"},{"title":"Primera Division - Clausura - Quarter-finals - Juventud Pinulteca vs Universidad San Carlos","description":"Sourced from predicthq.com","category":"sports","start":"2024-05-01T21:30:00Z","geo":{"geometry":{"coordinates":[-90.40688814456058,14.540188443607104],"type":"Point"},"placekey":"@d53-yfm-gkz","address":{"country_code":"GT","formatted_address":"GHQV+XGJ, RN-18, San José Pinula, Guatemala","locality":"San José Pinula","region":"Guatemala"}},"labels":["soccer","sport"],"duration":0,"start_local":"2024-05-01T15:30:00","end":"2024-05-01T21:30:00Z","end_local":"2024-05-01T15:30:00","updated":"2024-06-12T04:22:00Z"},{"title":"Liga Nacional - Clausura - Semi-finals - Mixco vs Antigua GFC","description":"Sourced from predicthq.com","category":"sports","start":"2024-05-01T21:00:00Z","geo":{"geometry":{"coordinates":[-90.60940186193659,14.635834252732074],"type":"Point"},"placekey":"@d53-z42-snq","address":{"country_code":"GT","formatted_address":"Ave Federal, -Mixco, Guatemala","locality":"Mixco"}},"labels":["soccer","sport"],"duration":7268,"start_local":"2024-05-01T15:00:00","end":"2024-05-01T23:01:08Z","end_local":"2024-05-01T17:01:08","updated":"2024-06-05T02:42:57Z"},{"title":"Primera Division - Clausura - Play-offs - Marquense vs Heredia","description":"Sourced from predicthq.com","category":"sports","start":"2024-04-29T02:00:00Z","geo":{"geometry":{"coordinates":[-91.7917744,14.967123],"type":"Point"},"placekey":"@d54-fq7-nbk","address":{"country_code":"GT","formatted_address":"X685+R83, RN-12N, San Marcos, Guatemala","locality":"San Marcos","region":"San Marcos"}},"labels":["soccer","sport"],"duration":0,"start_local":"2024-04-28T20:00:00","end":"2024-04-29T02:00:00Z","end_local":"2024-04-28T20:00:00","updated":"2024-06-12T17:05:19Z"},{"title":"Liga Nacional - Clausura - Quarter-finals - Antigua GFC vs Xinabajul","description":"Sourced from predicthq.com","category":"sports","start":"2024-04-29T00:00:00Z","geo":{"geometry":{"coordinates":[-90.7381336,14.5676473],"type":"Point"},"placekey":"@d54-2x4-5vf","address":{"country_code":"GT","formatted_address":"H796+3P5, Antigua Guatemala, Guatemala","locality":"Antigua Guatemala","region":"Sacatepéquez Department"}},"labels":["soccer","sport"],"duration":7264,"start_local":"2024-04-28T18:00:00","end":"2024-04-29T02:01:04Z","end_local":"2024-04-28T20:01:04","updated":"2024-06-05T04:14:45Z"},{"title":"Liga Nacional - Clausura - Quarter-finals - Municipal vs Malacateco","description":"Sourced from predicthq.com","category":"sports","start":"2024-04-28T20:30:00Z","geo":{"geometry":{"coordinates":[-90.5350879,14.6164552],"type":"Point"},"placekey":"@d53-yg8-zj9","address":{"country_code":"GT","formatted_address":"7A Avenida, 01003-Guatemala, Guatemala","postcode":"01003","locality":"Guatemala","region":"Guatemala"}},"labels":["soccer","sport"],"duration":6731,"start_local":"2024-04-28T14:30:00","end":"2024-04-28T22:22:11Z","end_local":"2024-04-28T16:22:11","updated":"2024-06-05T00:20:09Z"},{"title":"Primera Division - Clausura - Play-offs - Iztapa vs Mictlán","description":"Sourced from predicthq.com","category":"sports","start":"2024-04-28T20:00:00Z","geo":{"geometry":{"coordinates":[-90.71531027555466,13.93785492517346],"type":"Point"},"placekey":"@d5v-nd4-h5z","address":{"country_code":"GT","formatted_address":"Puerto Iztapa, Guatemala","locality":"Puerto Iztapa"}},"labels":["soccer","sport"],"duration":0,"start_local":"2024-04-28T14:00:00","end":"2024-04-28T20:00:00Z","end_local":"2024-04-28T14:00:00","updated":"2024-06-12T05:43:54Z"},{"title":"Primera Division - Clausura - Play-offs - Juventud Pinulteca vs Democracia","description":"Sourced from predicthq.com","category":"sports","start":"2024-04-28T17:00:00Z","geo":{"geometry":{"coordinates":[-90.40688814456058,14.540188443607104],"type":"Point"},"placekey":"@d53-yfm-gkz","address":{"country_code":"GT","formatted_address":"GHQV+XGJ, RN-18, San José Pinula, Guatemala","locality":"San José Pinula","region":"Guatemala"}},"labels":["soccer","sport"],"duration":0,"start_local":"2024-04-28T11:00:00","end":"2024-04-28T17:00:00Z","end_local":"2024-04-28T11:00:00","updated":"2024-06-12T09:54:41Z"},{"title":"Primera Division - Clausura - Play-offs - Sacachispas vs San Pedro","description":"Sourced from predicthq.com","category":"sports","start":"2024-04-28T02:00:00Z","geo":{"geometry":{"coordinates":[-90.115366,14.75044],"type":"Point"},"placekey":"@d54-4dg-wp9","address":{"country_code":"GT","formatted_address":"Carr. 19, Sansare, Guatemala","locality":"Sansare","region":"El Progreso"}},"labels":["soccer","sport"],"duration":0,"start_local":"2024-04-27T20:00:00","end":"2024-04-28T02:00:00Z","end_local":"2024-04-27T20:00:00","updated":"2024-06-12T03:32:46Z"},{"title":"Liga Nacional - Clausura - Quarter-finals - Mixco vs Achuapa","description":"Sourced from predicthq.com","category":"sports","start":"2024-04-27T21:00:00Z","geo":{"geometry":{"coordinates":[-90.60940186193659,14.635834252732074],"type":"Point"},"placekey":"@d53-z42-snq","address":{"country_code":"GT","formatted_address":"Ave Federal, -Mixco, Guatemala","locality":"Mixco"}},"labels":["soccer","sport"],"duration":6853,"start_local":"2024-04-27T15:00:00","end":"2024-04-27T22:54:13Z","end_local":"2024-04-27T16:54:13","updated":"2024-06-05T20:18:47Z"},{"title":"Primera Division - Relegation Play-offs - Nueva Concepción vs Cuilapa","description":"Sourced from predicthq.com","category":"sports","start":"2024-04-27T21:00:00Z","geo":{"geometry":{"coordinates":[-90.7381336,14.5676473],"type":"Point"},"placekey":"@d54-2x4-5vf","address":{"country_code":"GT","formatted_address":"H796+3P5, Antigua Guatemala, Guatemala","locality":"Antigua Guatemala","region":"Sacatepéquez Department"}},"labels":["soccer","sport"],"duration":0,"start_local":"2024-04-27T15:00:00","end":"2024-04-27T21:00:00Z","end_local":"2024-04-27T15:00:00","updated":"2024-06-12T14:21:20Z"},{"title":"Liga Nacional - Clausura - Quarter-finals - Cobán Imperial vs Comunicaciones","description":"Sourced from predicthq.com","category":"sports","start":"2024-04-27T18:00:00Z","geo":{"geometry":{"coordinates":[-90.3771412633,15.4767634746],"type":"Point"},"placekey":"@d55-3xy-33q","address":{"country_code":"GT","formatted_address":"6a. Ave Zona 1\nCobán\nGuatemala","locality":"Cobán","region":"Alta Verapaz"}},"labels":["soccer","sport"],"duration":6759,"start_local":"2024-04-27T12:00:00","end":"2024-04-27T19:52:39Z","end_local":"2024-04-27T13:52:39","updated":"2024-06-05T07:43:30Z"},{"title":"Recubrimiento para pisos industriales","description":"Sourced from predicthq.com - ¡Descubre las últimas tendencias en recubrimientos para pisos industriales en nuestro evento! ¡No te lo pierdas!","category":"expos","start":"2024-04-26T14:00:00Z","geo":{"geometry":{"coordinates":[-90.5142388,14.616129],"type":"Point"},"placekey":"@d53-yg6-5j9","address":{"country_code":"GT","formatted_address":"21., Ruta 6, Guatemala","locality":"Guatemala"}},"labels":["business","expo"],"duration":18000,"start_local":"2024-04-26T08:00:00","end":"2024-04-26T19:00:00Z","end_local":"2024-04-26T13:00:00","updated":"2024-06-05T13:57:11Z"},{"title":"Liga Nacional - Clausura - Quarter-finals - Xinabajul vs Antigua GFC","description":"Sourced from predicthq.com","category":"sports","start":"2024-04-26T02:15:00Z","geo":{"geometry":{"coordinates":[-91.48144841194153,15.320673777550663],"type":"Point"},"placekey":"@d53-q9n-fzz","address":{"country_code":"GT","formatted_address":"8GC9+58V, Huehuetenango, Guatemala","locality":"Huehuetenango","region":"Huehuetenango Department"}},"labels":["soccer","sport"],"duration":9338,"start_local":"2024-04-25T20:15:00","end":"2024-04-26T04:50:38Z","end_local":"2024-04-25T22:50:38","updated":"2024-06-05T18:40:26Z"},{"title":"Primera Division - Clausura - Play-offs - Mictlán vs Iztapa","description":"Sourced from predicthq.com","category":"sports","start":"2024-04-26T00:00:00Z","geo":{"geometry":{"coordinates":[-89.7142225,14.337927],"type":"Point"},"placekey":"@d5v-3s8-ckf","address":{"country_code":"GT","formatted_address":"87QP+58C, Pan-American Highway, Asunción Mita, Guatemala","locality":"Asunción Mita","region":"Jutiapa"}},"labels":["soccer","sport"],"duration":0,"start_local":"2024-04-25T18:00:00","end":"2024-04-26T00:00:00Z","end_local":"2024-04-25T18:00:00","updated":"2024-06-12T08:44:43Z"},{"title":"Liga Nacional - Clausura - Quarter-finals - Malacateco vs Municipal","description":"Sourced from predicthq.com","category":"sports","start":"2024-04-26T00:00:00Z","geo":{"geometry":{"coordinates":[-92.0601075,14.9119019],"type":"Point"},"placekey":"@d54-frs-hnq","address":{"country_code":"GT","formatted_address":"WW6Q+PW7, 1a Avenida, Malacatán, Guatemala","locality":"Malacatán","region":"San Marcos"}},"labels":["soccer","sport"],"duration":6596,"start_local":"2024-04-25T18:00:00","end":"2024-04-26T01:49:56Z","end_local":"2024-04-25T19:49:56","updated":"2024-06-05T11:55:21Z"},{"title":"Primera Division - Clausura - Play-offs - Heredia vs Marquense","description":"Sourced from predicthq.com","category":"sports","start":"2024-04-25T21:00:00Z","geo":{"geometry":{"coordinates":[-88.8402932882309,15.465313463900792],"type":"Point"},"placekey":"@8h5-k85-h5z","address":{"country_code":"GT","formatted_address":"F585+5VX, Morales, Guatemala","locality":"Morales","region":"Izabal Department"}},"labels":["soccer","sport"],"duration":0,"start_local":"2024-04-25T15:00:00","end":"2024-04-25T21:00:00Z","end_local":"2024-04-25T15:00:00","updated":"2024-06-12T07:20:59Z"},{"title":"Fachadas - Samboro","description":"Sourced from predicthq.com - ¡Ven a disfrutar de una noche llena de color, música y baile en nuestro evento Fachadas - Samboro!","category":"concerts","start":"2024-04-25T14:00:00Z","geo":{"geometry":{"coordinates":[-90.5170605,14.5953482],"type":"Point"},"placekey":"@d53-yfy-8jv","address":{"country_code":"GT","formatted_address":"01010-Guatemala City, Guatemala","locality":"Guatemala City","postcode":"01010","region":"Guatemala Department"}},"labels":["community","concert","music"],"duration":18000,"start_local":"2024-04-25T08:00:00","end":"2024-04-25T19:00:00Z","end_local":"2024-04-25T13:00:00","updated":"2024-06-05T05:21:34Z"},{"title":"Liga Nacional - Clausura - Quarter-finals - Comunicaciones vs Cobán Imperial","description":"Sourced from predicthq.com","category":"sports","start":"2024-04-25T02:00:00Z","geo":{"geometry":{"coordinates":[-90.4882867,14.6761283],"type":"Point"},"placekey":"@d53-ywj-8sq","address":{"country_code":"GT","formatted_address":"MGG6+FM5, Guatemala City, Guatemala","locality":"Guatemala City","region":"Guatemala Department"}},"labels":["soccer","sport"],"duration":7133,"start_local":"2024-04-24T20:00:00","end":"2024-04-25T03:58:53Z","end_local":"2024-04-24T21:58:53","updated":"2024-06-05T17:21:22Z"},{"title":"Liga Nacional - Clausura - Quarter-finals - Achuapa vs Mixco","description":"Sourced from predicthq.com","category":"sports","start":"2024-04-24T21:00:00Z","geo":{"geometry":{"coordinates":[-89.8938529,14.2948194],"type":"Point"},"placekey":"@d5v-375-4d9","address":{"country_code":"GT","formatted_address":"74V4+WFC, Jutiapa, Guatemala","locality":"Jutiapa","region":"Jutiapa Department"}},"labels":["soccer","sport"],"duration":7208,"start_local":"2024-04-24T15:00:00","end":"2024-04-24T23:00:08Z","end_local":"2024-04-24T17:00:08","updated":"2024-06-05T01:16:06Z"},{"title":"Primera Division - Clausura - Play-offs - Democracia vs Juventud Pinulteca","description":"Sourced from predicthq.com","category":"sports","start":"2024-04-24T21:00:00Z","geo":{"geometry":{"coordinates":[-91.89309775829315,15.62845613113162],"type":"Point"},"placekey":"@d55-dyr-t9z","address":{"country_code":"GT","formatted_address":"CA-1, -La Democracia, Huehuetenango, Guatemala","locality":"La Democracia, Huehuetenango"}},"labels":["soccer","sport"],"duration":0,"start_local":"2024-04-24T15:00:00","end":"2024-04-24T21:00:00Z","end_local":"2024-04-24T15:00:00","updated":"2024-06-12T18:09:52Z"},{"title":"Buy Verified Paypal Accounts","description":"Sourced from predicthq.com - Come join us to learn how to safely purchase verified Paypal accounts for your online transactions!","category":"expos","start":"2024-04-24T16:00:00Z","geo":{"geometry":{"coordinates":[-90.5517222,14.5878975],"type":"Point"},"placekey":"@d53-z4c-y35","address":{"country_code":"GT","formatted_address":"01012-Ciudad de Guatemala, Guatemala","locality":"Ciudad de Guatemala","postcode":"01012","region":"Guatemala"}},"labels":["business","expo"],"duration":46800,"start_local":"2024-04-24T10:00:00","end":"2024-04-25T05:00:00Z","end_local":"2024-04-24T23:00:00","updated":"2024-06-05T13:00:35Z"},{"title":"Liga Nacional - Clausura - Malacateco vs Deportivo Zacapa","description":"Sourced from predicthq.com","category":"sports","start":"2024-04-22T16:00:00Z","geo":{"geometry":{"coordinates":[-92.0601075,14.9119019],"type":"Point"},"placekey":"@d54-frs-hnq","address":{"country_code":"GT","formatted_address":"WW6Q+PW7, 1a Avenida, Malacatán, Guatemala","locality":"Malacatán","region":"San Marcos"}},"labels":["soccer","sport"],"duration":5246,"start_local":"2024-04-22T10:00:00","end":"2024-04-22T17:27:26Z","end_local":"2024-04-22T11:27:26","updated":"2024-06-05T13:05:08Z"},{"title":"CISTENAS SIN FILTRACIÓN","description":"Sourced from predicthq.com - ¡Ven y disfruta de una noche sin filtros en CISTENAS SIN FILTRACIÓN, donde la autenticidad y la diversión son los protagonistas!","category":"conferences","start":"2024-04-22T14:00:00Z","geo":{"geometry":{"coordinates":[-90.5142388,14.616129],"type":"Point"},"placekey":"@d53-yg6-5j9","address":{"country_code":"GT","formatted_address":"21., Ruta 6, Guatemala","locality":"Guatemala"}},"labels":["community","conference"],"duration":14400,"start_local":"2024-04-22T08:00:00","end":"2024-04-22T18:00:00Z","end_local":"2024-04-22T12:00:00","updated":"2024-06-05T11:29:35Z"},{"title":"Liga Nacional - Clausura - Cobán Imperial vs Guastatoya","description":"Sourced from predicthq.com","category":"sports","start":"2024-04-21T21:00:00Z","geo":{"geometry":{"coordinates":[-90.3771412633,15.4767634746],"type":"Point"},"placekey":"@d55-3xy-33q","address":{"country_code":"GT","formatted_address":"6a. Ave Zona 1\nCobán\nGuatemala","locality":"Cobán","region":"Alta Verapaz"}},"labels":["soccer","sport"],"duration":6692,"start_local":"2024-04-21T15:00:00","end":"2024-04-21T22:51:32Z","end_local":"2024-04-21T16:51:32","updated":"2024-06-05T09:05:22Z"},{"title":"Liga Nacional - Clausura - Xinabajul vs Antigua GFC","description":"Sourced from predicthq.com","category":"sports","start":"2024-04-21T21:00:00Z","geo":{"geometry":{"coordinates":[-91.48144841194153,15.320673777550663],"type":"Point"},"placekey":"@d53-q9n-fzz","address":{"country_code":"GT","formatted_address":"8GC9+58V, Huehuetenango, Guatemala","locality":"Huehuetenango","region":"Huehuetenango Department"}},"labels":["soccer","sport"],"duration":7025,"start_local":"2024-04-21T15:00:00","end":"2024-04-21T22:57:05Z","end_local":"2024-04-21T16:57:05","updated":"2024-06-05T00:43:21Z"},{"title":"Liga Nacional - Clausura - Coatepeque vs Municipal","description":"Sourced from predicthq.com","category":"sports","start":"2024-04-21T21:00:00Z","geo":{"geometry":{"coordinates":[-91.8732816,14.6911371],"type":"Point"},"placekey":"@d54-f75-pjv","address":{"country_code":"GT","formatted_address":"Coatepeque, Quetzaltenango Department, Guatemala","locality":"Coatepeque","region":"Quetzaltenango Department"}},"labels":["soccer","sport"],"duration":6639,"start_local":"2024-04-21T15:00:00","end":"2024-04-21T22:50:39Z","end_local":"2024-04-21T16:50:39","updated":"2024-05-24T08:49:03Z"},{"title":"Liga Nacional - Clausura - Comunicaciones vs Achuapa","description":"Sourced from predicthq.com","category":"sports","start":"2024-04-21T21:00:00Z","geo":{"geometry":{"coordinates":[-90.4882867,14.6761283],"type":"Point"},"placekey":"@d53-ywj-8sq","address":{"country_code":"GT","formatted_address":"MGG6+FM5, Guatemala City, Guatemala","locality":"Guatemala City","region":"Guatemala Department"}},"labels":["soccer","sport"],"duration":6995,"start_local":"2024-04-21T15:00:00","end":"2024-04-21T22:56:35Z","end_local":"2024-04-21T16:56:35","updated":"2024-06-05T09:38:50Z"},{"title":"Liga Nacional - Clausura - Xelajú vs Mixco","description":"Sourced from predicthq.com","category":"sports","start":"2024-04-21T21:00:00Z","geo":{"geometry":{"coordinates":[-91.5170802,14.8417644],"type":"Point"},"placekey":"@d53-sgz-gc5","address":{"country_code":"GT","formatted_address":"14 Avenida, -Quezaltenango, Guatemala","locality":"Quezaltenango","region":"Quetzaltenango"}},"labels":["soccer","sport"],"duration":6878,"start_local":"2024-04-21T15:00:00","end":"2024-04-21T22:54:38Z","end_local":"2024-04-21T16:54:38","updated":"2024-05-28T23:38:29Z"},{"title":"Primera Division - Clausura - Democracia vs Suchitepéquez","description":"Sourced from predicthq.com","category":"sports","start":"2024-04-21T17:00:00Z","geo":{"geometry":{"coordinates":[-91.89309775829315,15.62845613113162],"type":"Point"},"placekey":"@d55-dyr-t9z","address":{"country_code":"GT","formatted_address":"CA-1, -La Democracia, Huehuetenango, Guatemala","locality":"La Democracia, Huehuetenango"}},"labels":["soccer","sport"],"duration":0,"start_local":"2024-04-21T11:00:00","end":"2024-04-21T17:00:00Z","end_local":"2024-04-21T11:00:00","updated":"2024-06-12T06:16:40Z"},{"title":"Primera Division - Clausura - Marquense vs Iztapa","description":"Sourced from predicthq.com","category":"sports","start":"2024-04-21T17:00:00Z","geo":{"geometry":{"coordinates":[-91.7917744,14.967123],"type":"Point"},"placekey":"@d54-fq7-nbk","address":{"country_code":"GT","formatted_address":"X685+R83, RN-12N, San Marcos, Guatemala","locality":"San Marcos","region":"San Marcos"}},"labels":["soccer","sport"],"duration":0,"start_local":"2024-04-21T11:00:00","end":"2024-04-21T17:00:00Z","end_local":"2024-04-21T11:00:00","updated":"2024-06-12T14:31:47Z"},{"title":"Primera Division - Clausura - Juventud Copalera vs Sololá","description":"Sourced from predicthq.com","category":"sports","start":"2024-04-21T17:00:00Z","geo":{"geometry":{"coordinates":[-91.774801597,15.418688476],"type":"Point"},"placekey":"@d53-s45-psq","address":{"country_code":"GT","formatted_address":"C69G+G34, San Ildefonso Ixtahuacán, Guatemala","locality":"San Ildefonso Ixtahuacán","region":"Huehuetenango Department"}},"labels":["soccer","sport"],"duration":0,"start_local":"2024-04-21T11:00:00","end":"2024-04-21T17:00:00Z","end_local":"2024-04-21T11:00:00","updated":"2024-06-12T04:37:39Z"},{"title":"Primera Division - Clausura - Quiché vs Santa Lucía","description":"Sourced from predicthq.com","category":"sports","start":"2024-04-21T17:00:00Z","geo":{"geometry":{"coordinates":[-91.14631,15.025369],"type":"Point"},"placekey":"@d53-r2t-pvz","address":{"country_code":"GT","formatted_address":"Santa Cruz del Quiché, Guatemala","locality":"Santa Cruz del Quiché","region":"Quiché Department"}},"labels":["soccer","sport"],"duration":0,"start_local":"2024-04-21T11:00:00","end":"2024-04-21T17:00:00Z","end_local":"2024-04-21T11:00:00","updated":"2024-06-12T01:11:49Z"},{"title":"Primera Division - Clausura - Mictlán vs Aurora","description":"Sourced from predicthq.com","category":"sports","start":"2024-04-21T17:00:00Z","geo":{"geometry":{"coordinates":[-89.7142225,14.337927],"type":"Point"},"placekey":"@d5v-3s8-ckf","address":{"country_code":"GT","formatted_address":"87QP+58C, Pan-American Highway, Asunción Mita, Guatemala","locality":"Asunción Mita","region":"Jutiapa"}},"labels":["soccer","sport"],"duration":0,"start_local":"2024-04-21T11:00:00","end":"2024-04-21T17:00:00Z","end_local":"2024-04-21T11:00:00","updated":"2024-06-12T02:59:06Z"},{"title":"Primera Division - Clausura - Sacachispas vs San Benito","description":"Sourced from predicthq.com","category":"sports","start":"2024-04-21T17:00:00Z","geo":{"geometry":{"coordinates":[-89.5443087,14.7952235],"type":"Point"},"placekey":"@8h6-sh9-py9","address":{"country_code":"GT","formatted_address":"Chiquimula, Chiquimula Department, Guatemala","locality":"Chiquimula","region":"Chiquimula Department"}},"labels":["soccer","sport"],"duration":0,"start_local":"2024-04-21T11:00:00","end":"2024-04-21T17:00:00Z","end_local":"2024-04-21T11:00:00","updated":"2024-06-12T04:36:26Z"},{"title":"Primera Division - Clausura - Deportivo Barberena vs Cuilapa","description":"Sourced from predicthq.com","category":"sports","start":"2024-04-21T17:00:00Z","geo":{"geometry":{"coordinates":[-90.354194746,14.299033228],"type":"Point"},"placekey":"@d54-25f-gkz","address":{"country_code":"GT","formatted_address":"7JXW+QCH, Barberena, Guatemala","locality":"Barberena","region":"Santa Rosa Department"}},"labels":["soccer","sport"],"duration":0,"start_local":"2024-04-21T11:00:00","end":"2024-04-21T17:00:00Z","end_local":"2024-04-21T11:00:00","updated":"2024-06-12T01:29:34Z"},{"title":"Primera Division - Clausura - Heredia vs Universidad San Carlos","description":"Sourced from predicthq.com","category":"sports","start":"2024-04-21T17:00:00Z","geo":{"geometry":{"coordinates":[-88.8402932882309,15.465313463900792],"type":"Point"},"placekey":"@8h5-k85-h5z","address":{"country_code":"GT","formatted_address":"F585+5VX, Morales, Guatemala","locality":"Morales","region":"Izabal Department"}},"labels":["soccer","sport"],"duration":0,"start_local":"2024-04-21T11:00:00","end":"2024-04-21T17:00:00Z","end_local":"2024-04-21T11:00:00","updated":"2024-06-12T09:54:47Z"},{"title":"Primera Division - Clausura - Fraijanes vs Juventud Pinulteca","description":"Sourced from predicthq.com","category":"sports","start":"2024-04-21T17:00:00Z","geo":{"geometry":{"coordinates":[-90.40688814456058,14.540188443607104],"type":"Point"},"placekey":"@d53-yfm-gkz","address":{"country_code":"GT","formatted_address":"GHQV+XGJ, RN-18, San José Pinula, Guatemala","locality":"San José Pinula","region":"Guatemala"}},"labels":["soccer","sport"],"duration":0,"start_local":"2024-04-21T11:00:00","end":"2024-04-21T17:00:00Z","end_local":"2024-04-21T11:00:00","updated":"2024-06-12T10:15:04Z"},{"title":"Héctor Morales","description":"Sourced from predicthq.com","category":"concerts","start":"2024-04-21T02:00:00Z","geo":{"geometry":{"coordinates":[-91.86598,14.7038],"type":"Point"},"placekey":"@d54-f76-66k","address":{"country_code":"GT","formatted_address":"7av 3-43, Coatepeque, Guatemala","locality":"Coatepeque","region":"Quetzaltenango"}},"labels":["concert","music"],"duration":0,"start_local":"2024-04-20T20:00:00","end":"2024-04-21T02:00:00Z","end_local":"2024-04-20T20:00:00","updated":"2024-06-12T06:50:53Z"},{"title":"Mose","description":"Sourced from predicthq.com","category":"concerts","start":"2024-04-20T21:00:00Z","geo":{"geometry":{"coordinates":[-91.2633921,14.7264447],"type":"Point"},"placekey":"@d54-pdv-sdv","address":{"country_code":"GT","formatted_address":"Lake Atitlán, San Marcos La Laguna, Guatemala","locality":"San Marcos La Laguna","region":"Sololá"}},"labels":["concert","music"],"duration":0,"start_local":"2024-04-20T15:00:00","end":"2024-04-20T21:00:00Z","end_local":"2024-04-20T15:00:00","updated":"2024-06-12T08:43:32Z"},{"title":"Diego Ojeda","description":"Sourced from predicthq.com","category":"concerts","start":"2024-04-20T02:00:00Z","geo":{"geometry":{"coordinates":[-90.51277,14.62081],"type":"Point"},"placekey":"@d53-yg5-x89","address":{"country_code":"GT","formatted_address":"Via 6, 3-55 Zona 4, -Guatemala City, Guatemala","locality":"Guatemala City"}},"labels":["concert","music"],"duration":0,"start_local":"2024-04-19T20:00:00","end":"2024-04-20T02:00:00Z","end_local":"2024-04-19T20:00:00","updated":"2024-06-12T12:23:43Z"},{"title":"Héctor Morales","description":"Sourced from predicthq.com","category":"concerts","start":"2024-04-20T02:00:00Z","geo":{"geometry":{"coordinates":[-91.67941,14.53678],"type":"Point"},"placekey":"@d54-rfx-grk","address":{"country_code":"GT","formatted_address":"5a Calle 4-60, Retalhuleu 01010, Guatemala","postcode":"01010","locality":"Retalhuleu","region":"Retalhuleu"}},"labels":["concert","music"],"duration":0,"start_local":"2024-04-19T20:00:00","end":"2024-04-20T02:00:00Z","end_local":"2024-04-19T20:00:00","updated":"2024-06-11T21:22:14Z"},{"title":"Casa de Kello, Kathy Palma, and Joaquin","description":"Sourced from predicthq.com","category":"concerts","start":"2024-04-19T01:00:00Z","geo":{"geometry":{"coordinates":[-90.5068824,14.6349149],"type":"Point"},"placekey":"@d53-ywf-guv","address":{"country_code":"GT","formatted_address":"Guatemala City, Guatemala","locality":"Guatemala City"}},"labels":["concert","music"],"duration":0,"start_local":"2024-04-18T19:00:00","end":"2024-04-19T01:00:00Z","end_local":"2024-04-18T19:00:00","updated":"2024-06-12T16:36:53Z"},{"title":"LEGENDARIOS WORLD SUMMIT GUATEMALA","description":"Sourced from predicthq.com - LEGENDARIOS WORLD SUMMIT.","category":"conferences","start":"2024-04-18T23:00:00Z","geo":{"geometry":{"coordinates":[-90.5117911,14.6099048],"type":"Point"},"placekey":"@d53-yfy-sh5","address":{"country_code":"GT","formatted_address":"4A Calle, 01010-Ciudad de Guatemala, Guatemala","locality":"Ciudad de Guatemala","postcode":"01010","region":"Guatemala"}},"labels":["business","conference"],"duration":194400,"start_local":"2024-04-18T17:00:00","end":"2024-04-21T05:00:00Z","end_local":"2024-04-20T23:00:00","updated":"2024-06-05T01:44:44Z"},{"title":"Encuentro Regional: Ciudades para La Primera Infancia","description":"Sourced from predicthq.com - Únete al Encuentro Regional:\"Ciudades para la Primera Infancia\", apoyado por importantes fundaciones y universidades, explorando experiencia","category":"conferences","start":"2024-04-18T14:00:00Z","geo":{"geometry":{"coordinates":[-90.4836727,14.5951108],"type":"Point"},"placekey":"@d53-yf7-3wk","address":{"country_code":"GT","formatted_address":"Vista Hermosa III, Campus Central, Zona 16, -Ciudad de Guatemala, Guatemala","locality":"Ciudad de Guatemala","region":"Guatemala"}},"labels":["community","conference"],"duration":36000,"start_local":"2024-04-18T08:00:00","end":"2024-04-19T00:00:00Z","end_local":"2024-04-18T18:00:00","updated":"2024-06-05T03:15:14Z"},{"title":"Liga Nacional - Clausura - Comunicaciones vs Municipal","description":"Sourced from predicthq.com","category":"sports","start":"2024-04-18T02:00:00Z","geo":{"geometry":{"coordinates":[-90.4882867,14.6761283],"type":"Point"},"placekey":"@d53-ywj-8sq","address":{"country_code":"GT","formatted_address":"MGG6+FM5, Guatemala City, Guatemala","locality":"Guatemala City","region":"Guatemala Department"}},"labels":["soccer","sport"],"duration":7052,"start_local":"2024-04-17T20:00:00","end":"2024-04-18T03:57:32Z","end_local":"2024-04-17T21:57:32","updated":"2024-06-05T13:36:31Z"},{"title":"Encuentro Regional: Ciudades para La Primera Infancia","description":"Sourced from predicthq.com - Únete al Encuentro Regional:\"Ciudades para la Primera Infancia\", apoyado por importantes fundaciones y universidades, explorando experiencia","category":"conferences","start":"2024-04-17T14:00:00Z","geo":{"geometry":{"coordinates":[-90.4836727,14.5951108],"type":"Point"},"placekey":"@d53-yf7-3wk","address":{"country_code":"GT","formatted_address":"Vista Hermosa III, Campus Central, Zona 16, -Ciudad de Guatemala, Guatemala","locality":"Ciudad de Guatemala","region":"Guatemala"}},"labels":["community","conference"],"duration":36000,"start_local":"2024-04-17T08:00:00","end":"2024-04-18T00:00:00Z","end_local":"2024-04-17T18:00:00","updated":"2024-06-05T18:39:01Z"},{"title":"Encuentro Regional: Ciudades para la Primera Infancia","description":"Sourced from predicthq.com - ¡Un encuentro regional para conversar sobre cómo mejorar las ciudades para los más pequeños!","category":"conferences","start":"2024-04-16T15:00:00Z","geo":{"geometry":{"coordinates":[-90.5068824,14.6349149],"type":"Point"},"placekey":"@d53-ywf-guv","address":{"country_code":"GT","formatted_address":"Ciudad de Guatemala, Guatemala","locality":"Ciudad de Guatemala","region":"Guatemala"}},"labels":["community","conference"],"duration":194400,"start_local":"2024-04-16T09:00:00","end":"2024-04-18T21:00:00Z","end_local":"2024-04-18T15:00:00","updated":"2024-06-05T04:23:54Z"},{"title":"Encuentro Regional: Ciudades para La Primera Infancia","description":"Sourced from predicthq.com - Únete al Encuentro Regional:\"Ciudades para la Primera Infancia\", apoyado por importantes fundaciones y universidades, explorando experiencia","category":"conferences","start":"2024-04-16T14:00:00Z","geo":{"geometry":{"coordinates":[-90.4836727,14.5951108],"type":"Point"},"placekey":"@d53-yf7-3wk","address":{"country_code":"GT","formatted_address":"Vista Hermosa III, Campus Central, Zona 16, -Ciudad de Guatemala, Guatemala","locality":"Ciudad de Guatemala","region":"Guatemala"}},"labels":["community","conference"],"duration":36000,"start_local":"2024-04-16T08:00:00","end":"2024-04-17T00:00:00Z","end_local":"2024-04-16T18:00:00","updated":"2024-06-05T00:44:25Z"},{"title":"Primera Division - Clausura - Suchitepéquez vs San Pedro","description":"Sourced from predicthq.com","category":"sports","start":"2024-04-15T01:00:00Z","geo":{"geometry":{"coordinates":[-91.5092142,14.5317498],"type":"Point"},"placekey":"@d54-pn6-94v","address":{"country_code":"GT","formatted_address":"8a. Calle 2-60 Zona 2, Cantón Santa Cristina., Mazatenango, Guatemala","locality":"Mazatenango","region":"Suchitepéquez"}},"labels":["soccer","sport"],"duration":0,"start_local":"2024-04-14T19:00:00","end":"2024-04-15T01:00:00Z","end_local":"2024-04-14T19:00:00","updated":"2024-06-12T09:03:37Z"},{"title":"Liga Nacional - Clausura - Guastatoya vs Comunicaciones","description":"Sourced from predicthq.com","category":"sports","start":"2024-04-14T22:00:00Z","geo":{"geometry":{"coordinates":[-90.0723117,14.8599217],"type":"Point"},"placekey":"@8h6-yhc-qpv","address":{"country_code":"GT","formatted_address":"VW5H+X38, Guastatoya, Guatemala","locality":"Guastatoya","region":"El Progreso Department"}},"labels":["soccer","sport"],"duration":7016,"start_local":"2024-04-14T16:00:00","end":"2024-04-14T23:56:56Z","end_local":"2024-04-14T17:56:56","updated":"2024-06-04T21:50:36Z"},{"title":"Primera Division - Clausura - Juventud Pinulteca vs Sacachispas","description":"Sourced from predicthq.com","category":"sports","start":"2024-04-14T21:00:00Z","geo":{"geometry":{"coordinates":[-90.40688814456058,14.540188443607104],"type":"Point"},"placekey":"@d53-yfm-gkz","address":{"country_code":"GT","formatted_address":"GHQV+XGJ, RN-18, San José Pinula, Guatemala","locality":"San José Pinula","region":"Guatemala"}},"labels":["soccer","sport"],"duration":0,"start_local":"2024-04-14T15:00:00","end":"2024-04-14T21:00:00Z","end_local":"2024-04-14T15:00:00","updated":"2024-06-12T05:31:49Z"},{"title":"Liga Nacional - Clausura - Achuapa vs Malacateco","description":"Sourced from predicthq.com","category":"sports","start":"2024-04-14T20:00:00Z","geo":{"geometry":{"coordinates":[-89.8938529,14.2948194],"type":"Point"},"placekey":"@d5v-375-4d9","address":{"country_code":"GT","formatted_address":"74V4+WFC, Jutiapa, Guatemala","locality":"Jutiapa","region":"Jutiapa Department"}},"labels":["soccer","sport"],"duration":6784,"start_local":"2024-04-14T14:00:00","end":"2024-04-14T21:53:04Z","end_local":"2024-04-14T15:53:04","updated":"2024-06-05T15:27:24Z"},{"title":"Primera Division - Clausura - San Benito vs Heredia","description":"Sourced from predicthq.com","category":"sports","start":"2024-04-14T18:00:00Z","geo":{"geometry":{"coordinates":[-89.9070776,16.919548],"type":"Point"},"placekey":"@8h8-tzf-v75","address":{"country_code":"GT","formatted_address":"W39V+W9C, 5, San Benito, Guatemala","locality":"San Benito","region":"Petén"}},"labels":["soccer","sport"],"duration":0,"start_local":"2024-04-14T12:00:00","end":"2024-04-14T18:00:00Z","end_local":"2024-04-14T12:00:00","updated":"2024-06-11T21:49:25Z"},{"title":"Primera Division - Clausura - Cuilapa vs Fraijanes","description":"Sourced from predicthq.com","category":"sports","start":"2024-04-14T17:00:00Z","geo":{"geometry":{"coordinates":[-90.296470544,14.275010067],"type":"Point"},"placekey":"@d53-zfh-52k","address":{"country_code":"GT","formatted_address":"7PG3+2H4, Cuilapa, Guatemala","locality":"Cuilapa","region":"Santa Rosa Department"}},"labels":["soccer","sport"],"duration":0,"start_local":"2024-04-14T11:00:00","end":"2024-04-14T17:00:00Z","end_local":"2024-04-14T11:00:00","updated":"2024-06-12T00:38:13Z"},{"title":"Primera Division - Clausura - Nueva Concepción vs Quiché","description":"Sourced from predicthq.com","category":"sports","start":"2024-04-14T17:00:00Z","geo":{"geometry":{"coordinates":[-91.31069362163544,14.18981151146095],"type":"Point"},"placekey":"@d54-jnd-kxq","address":{"country_code":"GT","formatted_address":"5MQQ+VPM, Nueva Concepción, Guatemala","locality":"Nueva Concepción","region":"Escuintla Department"}},"labels":["soccer","sport"],"duration":0,"start_local":"2024-04-14T11:00:00","end":"2024-04-14T17:00:00Z","end_local":"2024-04-14T11:00:00","updated":"2024-06-12T15:04:16Z"},{"title":"Primera Division - Clausura - Sololá vs Democracia","description":"Sourced from predicthq.com","category":"sports","start":"2024-04-14T17:00:00Z","geo":{"geometry":{"coordinates":[-91.1852945226845,14.76821998321266],"type":"Point"},"placekey":"@d53-qz5-33q","address":{"country_code":"GT","formatted_address":"Sololá, Guatemala","locality":"Sololá","region":"Sololá Department"}},"labels":["soccer","sport"],"duration":0,"start_local":"2024-04-14T11:00:00","end":"2024-04-14T17:00:00Z","end_local":"2024-04-14T11:00:00","updated":"2024-06-12T00:37:08Z"},{"title":"Primera Division - Clausura - Santa Lucía vs Marquense","description":"Sourced from predicthq.com","category":"sports","start":"2024-04-14T17:00:00Z","geo":{"geometry":{"coordinates":[-91.019218,14.3328231],"type":"Point"},"placekey":"@d54-qdk-wtv","address":{"country_code":"GT","formatted_address":"Santa Lucía Cotzumalguapa, Escuintla, Guatemala","locality":"Santa Lucía Cotzumalguapa","region":"Escuintla"}},"labels":["soccer","sport"],"duration":0,"start_local":"2024-04-14T11:00:00","end":"2024-04-14T17:00:00Z","end_local":"2024-04-14T11:00:00","updated":"2024-06-12T08:40:10Z"},{"title":"Primera Division - Clausura - Aurora vs Deportivo Barberena","description":"Sourced from predicthq.com","category":"sports","start":"2024-04-14T17:00:00Z","geo":{"geometry":{"coordinates":[-90.6162602,14.4875408],"type":"Point"},"placekey":"@d53-ym9-q4v","address":{"country_code":"GT","formatted_address":"F9PM+M94, Amatitlán, Guatemala","locality":"Amatitlán","region":"Guatemala Department"}},"labels":["soccer","sport"],"duration":0,"start_local":"2024-04-14T11:00:00","end":"2024-04-14T17:00:00Z","end_local":"2024-04-14T11:00:00","updated":"2024-06-11T23:38:22Z"},{"title":"Primera Division - Clausura - Iztapa vs Juventud Copalera","description":"Sourced from predicthq.com","category":"sports","start":"2024-04-14T17:00:00Z","geo":{"geometry":{"coordinates":[-90.71531027555466,13.93785492517346],"type":"Point"},"placekey":"@d5v-nd4-h5z","address":{"country_code":"GT","formatted_address":"Puerto Iztapa, Guatemala","locality":"Puerto Iztapa"}},"labels":["soccer","sport"],"duration":0,"start_local":"2024-04-14T11:00:00","end":"2024-04-14T17:00:00Z","end_local":"2024-04-14T11:00:00","updated":"2024-06-12T02:26:37Z"},{"title":"Tarde de Pincel y Acústica","description":"Sourced from predicthq.com","category":"festivals","start":"2024-04-14T06:00:00Z","geo":{"geometry":{"coordinates":[-88.58551,15.697],"type":"Point"},"placekey":"@8h5-dx9-xwk","address":{"country_code":"GT","formatted_address":"17 calle 12 Avenida Puerto Barrios, Puerto Barrios 18001, Guatemala","postcode":"18001","locality":"Puerto Barrios","region":"Izabal"}},"labels":["festival","music"],"duration":86399,"start_local":"2024-04-14T00:00:00","end":"2024-04-15T05:59:59Z","end_local":"2024-04-14T23:59:59","updated":"2024-06-05T02:53:35Z"},{"title":"Liga Nacional - Clausura - Deportivo Zacapa vs Coatepeque","description":"Sourced from predicthq.com","category":"sports","start":"2024-04-14T02:00:00Z","geo":{"geometry":{"coordinates":[-89.5268422,14.966902],"type":"Point"},"placekey":"@8h6-rzp-xnq","address":{"country_code":"GT","formatted_address":"XF8F+Q75, Zacapa, Guatemala","locality":"Zacapa","region":"Zacapa Department"}},"labels":["soccer","sport"],"duration":7169,"start_local":"2024-04-13T20:00:00","end":"2024-04-14T03:59:29Z","end_local":"2024-04-13T21:59:29","updated":"2024-06-05T03:02:42Z"},{"title":"Liga Nacional - Clausura - Antigua GFC vs Xelajú","description":"Sourced from predicthq.com","category":"sports","start":"2024-04-14T00:00:00Z","geo":{"geometry":{"coordinates":[-90.7381336,14.5676473],"type":"Point"},"placekey":"@d54-2x4-5vf","address":{"country_code":"GT","formatted_address":"H796+3P5, Antigua Guatemala, Guatemala","locality":"Antigua Guatemala","region":"Sacatepéquez Department"}},"labels":["soccer","sport"],"duration":7303,"start_local":"2024-04-13T18:00:00","end":"2024-04-14T02:01:43Z","end_local":"2024-04-13T20:01:43","updated":"2024-06-05T04:51:08Z"},{"title":"Liga Nacional - Clausura - Mixco vs Cobán Imperial","description":"Sourced from predicthq.com","category":"sports","start":"2024-04-13T21:45:00Z","geo":{"geometry":{"coordinates":[-90.60940186193659,14.635834252732074],"type":"Point"},"placekey":"@d53-z42-snq","address":{"country_code":"GT","formatted_address":"Ave Federal, -Mixco, Guatemala","locality":"Mixco"}},"labels":["soccer","sport"],"duration":7087,"start_local":"2024-04-13T15:45:00","end":"2024-04-13T23:43:07Z","end_local":"2024-04-13T17:43:07","updated":"2024-06-05T15:29:57Z"},{"title":"Liga Nacional - Clausura - Municipal vs Xinabajul","description":"Sourced from predicthq.com","category":"sports","start":"2024-04-13T20:00:00Z","geo":{"geometry":{"coordinates":[-90.5350879,14.6164552],"type":"Point"},"placekey":"@d53-yg8-zj9","address":{"country_code":"GT","formatted_address":"7A Avenida, 01003-Guatemala, Guatemala","postcode":"01003","locality":"Guatemala","region":"Guatemala"}},"labels":["soccer","sport"],"duration":7272,"start_local":"2024-04-13T14:00:00","end":"2024-04-13T22:01:12Z","end_local":"2024-04-13T16:01:12","updated":"2024-06-05T04:27:40Z"},{"title":"Héctor Morales","description":"Sourced from predicthq.com","category":"concerts","start":"2024-04-13T02:00:00Z","geo":{"geometry":{"coordinates":[-91.68579,14.52455],"type":"Point"},"placekey":"@d54-rfx-cyv","address":{"country_code":"GT","formatted_address":"Av. Circunvalación 4-12, Retalhuleu, Guatemala","locality":"Retalhuleu","region":"Retalhuleu"}},"labels":["concert","music"],"duration":0,"start_local":"2024-04-12T20:00:00","end":"2024-04-13T02:00:00Z","end_local":"2024-04-12T20:00:00","updated":"2024-06-12T01:55:53Z"},{"title":"Liga Nacional - Clausura - Xelajú vs Achuapa","description":"Sourced from predicthq.com","category":"sports","start":"2024-04-11T01:00:00Z","geo":{"geometry":{"coordinates":[-91.5170802,14.8417644],"type":"Point"},"placekey":"@d53-sgz-gc5","address":{"country_code":"GT","formatted_address":"14 Avenida, -Quezaltenango, Guatemala","locality":"Quezaltenango","region":"Quetzaltenango"}},"labels":["soccer","sport"],"duration":7004,"start_local":"2024-04-10T19:00:00","end":"2024-04-11T02:56:44Z","end_local":"2024-04-10T20:56:44","updated":"2024-05-28T23:38:03Z"},{"title":"Liga Nacional - Clausura - Municipal vs Malacateco","description":"Sourced from predicthq.com","category":"sports","start":"2024-04-10T18:30:00Z","geo":{"geometry":{"coordinates":[-90.5350879,14.6164552],"type":"Point"},"placekey":"@d53-yg8-zj9","address":{"country_code":"GT","formatted_address":"7A Avenida, 01003-Guatemala, Guatemala","postcode":"01003","locality":"Guatemala","region":"Guatemala"}},"labels":["soccer","sport"],"duration":6713,"start_local":"2024-04-10T12:30:00","end":"2024-04-10T20:21:53Z","end_local":"2024-04-10T14:21:53","updated":"2024-06-05T10:34:36Z"},{"title":"Woman Impact Guatemala","description":"Sourced from predicthq.com - ¡Bienvenidos a WOMAN IMPACT!\nÚnase a nosotros el miércoles 10 de abril de 2024 a las 8:00 a. m. para un día lleno de empoderamiento.","category":"conferences","start":"2024-04-10T14:00:00Z","geo":{"geometry":{"coordinates":[-90.5137891,14.6007425],"type":"Point"},"placekey":"@d53-yfy-wrk","address":{"country_code":"GT","formatted_address":"01010-Ciudad de Guatemala, Guatemala","locality":"Ciudad de Guatemala","postcode":"01010","region":"Guatemala"}},"labels":["conference","fundraiser"],"duration":21600,"start_local":"2024-04-10T08:00:00","end":"2024-04-10T20:00:00Z","end_local":"2024-04-10T14:00:00","updated":"2024-06-12T01:29:43Z"},{"title":"Diagnóstico de la calidad de los materiales de construcción","description":"Sourced from predicthq.com - C﻿ONSTRUCCIÓN SEGURA\nDiagnóstico de la calidad de los materiales de construcción","category":"conferences","start":"2024-04-09T20:00:00Z","geo":{"geometry":{"coordinates":[-90.4841968,14.5681338],"type":"Point"},"placekey":"@d53-ycm-kpv","address":{"country_code":"GT","formatted_address":"Guatemala City, Guatemala Department, Guatemala","locality":"Guatemala City","region":"Guatemala Department"}},"labels":["conference","science","technology"],"duration":9000,"start_local":"2024-04-09T14:00:00","end":"2024-04-09T22:30:00Z","end_local":"2024-04-09T16:30:00","updated":"2024-06-05T05:59:21Z"},{"title":"Primera Division - Clausura - Sacachispas vs Cuilapa","description":"Sourced from predicthq.com","category":"sports","start":"2024-04-08T01:00:00Z","geo":{"geometry":{"coordinates":[-89.5443087,14.7952235],"type":"Point"},"placekey":"@8h6-sh9-py9","address":{"country_code":"GT","formatted_address":"Chiquimula, Chiquimula Department, Guatemala","locality":"Chiquimula","region":"Chiquimula Department"}},"labels":["soccer","sport"],"duration":0,"start_local":"2024-04-07T19:00:00","end":"2024-04-08T01:00:00Z","end_local":"2024-04-07T19:00:00","updated":"2024-06-12T04:05:45Z"},{"title":"Liga Nacional - Clausura - Xinabajul vs Deportivo Zacapa","description":"Sourced from predicthq.com","category":"sports","start":"2024-04-07T23:00:00Z","geo":{"geometry":{"coordinates":[-91.48144841194153,15.320673777550663],"type":"Point"},"placekey":"@d53-q9n-fzz","address":{"country_code":"GT","formatted_address":"8GC9+58V, Huehuetenango, Guatemala","locality":"Huehuetenango","region":"Huehuetenango Department"}},"labels":["soccer","sport"],"duration":7490,"start_local":"2024-04-07T17:00:00","end":"2024-04-08T01:04:50Z","end_local":"2024-04-07T19:04:50","updated":"2024-06-05T04:58:11Z"},{"title":"Primera Division - Clausura - Fraijanes vs Aurora","description":"Sourced from predicthq.com","category":"sports","start":"2024-04-07T21:30:00Z","geo":{"geometry":{"coordinates":[-90.40688814456058,14.540188443607104],"type":"Point"},"placekey":"@d53-yfm-gkz","address":{"country_code":"GT","formatted_address":"GHQV+XGJ, RN-18, San José Pinula, Guatemala","locality":"San José Pinula","region":"Guatemala"}},"labels":["soccer","sport"],"duration":0,"start_local":"2024-04-07T15:30:00","end":"2024-04-07T21:30:00Z","end_local":"2024-04-07T15:30:00","updated":"2024-06-12T03:28:29Z"},{"title":"Primera Division - Clausura - Juventud Copalera vs Santa Lucía","description":"Sourced from predicthq.com","category":"sports","start":"2024-04-07T21:00:00Z","geo":{"geometry":{"coordinates":[-91.774801597,15.418688476],"type":"Point"},"placekey":"@d53-s45-psq","address":{"country_code":"GT","formatted_address":"C69G+G34, San Ildefonso Ixtahuacán, Guatemala","locality":"San Ildefonso Ixtahuacán","region":"Huehuetenango Department"}},"labels":["soccer","sport"],"duration":0,"start_local":"2024-04-07T15:00:00","end":"2024-04-07T21:00:00Z","end_local":"2024-04-07T15:00:00","updated":"2024-06-12T00:53:08Z"},{"title":"Liga Nacional - Clausura - Coatepeque vs Achuapa","description":"Sourced from predicthq.com","category":"sports","start":"2024-04-07T21:00:00Z","geo":{"geometry":{"coordinates":[-91.8732816,14.6911371],"type":"Point"},"placekey":"@d54-f75-pjv","address":{"country_code":"GT","formatted_address":"Coatepeque, Quetzaltenango Department, Guatemala","locality":"Coatepeque","region":"Quetzaltenango Department"}},"labels":["soccer","sport"],"duration":7104,"start_local":"2024-04-07T15:00:00","end":"2024-04-07T22:58:24Z","end_local":"2024-04-07T16:58:24","updated":"2024-05-24T08:33:03Z"},{"title":"Primera Division - Clausura - San Benito vs Juventud Pinulteca","description":"Sourced from predicthq.com","category":"sports","start":"2024-04-07T18:00:00Z","geo":{"geometry":{"coordinates":[-89.9070776,16.919548],"type":"Point"},"placekey":"@8h8-tzf-v75","address":{"country_code":"GT","formatted_address":"W39V+W9C, 5, San Benito, Guatemala","locality":"San Benito","region":"Petén"}},"labels":["soccer","sport"],"duration":0,"start_local":"2024-04-07T12:00:00","end":"2024-04-07T18:00:00Z","end_local":"2024-04-07T12:00:00","updated":"2024-06-12T04:44:05Z"},{"title":"Primera Division - Clausura - Mictlán vs Heredia","description":"Sourced from predicthq.com","category":"sports","start":"2024-04-07T18:00:00Z","geo":{"geometry":{"coordinates":[-89.7142225,14.337927],"type":"Point"},"placekey":"@d5v-3s8-ckf","address":{"country_code":"GT","formatted_address":"87QP+58C, Pan-American Highway, Asunción Mita, Guatemala","locality":"Asunción Mita","region":"Jutiapa"}},"labels":["soccer","sport"],"duration":0,"start_local":"2024-04-07T12:00:00","end":"2024-04-07T18:00:00Z","end_local":"2024-04-07T12:00:00","updated":"2024-06-12T06:08:16Z"},{"title":"Primera Division - Clausura - Nueva Concepción vs Suchitepéquez","description":"Sourced from predicthq.com","category":"sports","start":"2024-04-07T17:00:00Z","geo":{"geometry":{"coordinates":[-91.31069362163544,14.18981151146095],"type":"Point"},"placekey":"@d54-jnd-kxq","address":{"country_code":"GT","formatted_address":"5MQQ+VPM, Nueva Concepción, Guatemala","locality":"Nueva Concepción","region":"Escuintla Department"}},"labels":["soccer","sport"],"duration":0,"start_local":"2024-04-07T11:00:00","end":"2024-04-07T17:00:00Z","end_local":"2024-04-07T11:00:00","updated":"2024-06-11T21:27:09Z"},{"title":"Primera Division - Clausura - Deportivo Barberena vs Universidad San Carlos","description":"Sourced from predicthq.com","category":"sports","start":"2024-04-07T17:00:00Z","geo":{"geometry":{"coordinates":[-90.354194746,14.299033228],"type":"Point"},"placekey":"@d54-25f-gkz","address":{"country_code":"GT","formatted_address":"7JXW+QCH, Barberena, Guatemala","locality":"Barberena","region":"Santa Rosa Department"}},"labels":["soccer","sport"],"duration":0,"start_local":"2024-04-07T11:00:00","end":"2024-04-07T17:00:00Z","end_local":"2024-04-07T11:00:00","updated":"2024-06-12T10:49:53Z"},{"title":"Ultramaratón Viñas","description":"Sourced from predicthq.com","category":"sports","start":"2024-04-07T12:45:00Z","geo":{"geometry":{"coordinates":[-90.4773694,14.2289467],"type":"Point"},"placekey":"@d54-3yj-ch5","address":{"country_code":"GT","formatted_address":"Pueblo Nuevo Viñas, Santa Rosa Department, Guatemala","locality":"Pueblo Nuevo Viñas","region":"Santa Rosa Department"}},"labels":["outdoor-sports","running","sport"],"duration":0,"start_local":"2024-04-07T06:45:00","end":"2024-04-07T12:45:00Z","end_local":"2024-04-07T06:45:00","updated":"2024-06-05T08:24:32Z"},{"title":"Primera Division - Clausura - Marquense vs Quiché","description":"Sourced from predicthq.com","category":"sports","start":"2024-04-07T02:00:00Z","geo":{"geometry":{"coordinates":[-91.7917744,14.967123],"type":"Point"},"placekey":"@d54-fq7-nbk","address":{"country_code":"GT","formatted_address":"X685+R83, RN-12N, San Marcos, Guatemala","locality":"San Marcos","region":"San Marcos"}},"labels":["soccer","sport"],"duration":0,"start_local":"2024-04-06T20:00:00","end":"2024-04-07T02:00:00Z","end_local":"2024-04-06T20:00:00","updated":"2024-06-12T20:18:14Z"},{"title":"Liga Nacional - Clausura - Xelajú vs Municipal","description":"Sourced from predicthq.com","category":"sports","start":"2024-04-07T02:00:00Z","geo":{"geometry":{"coordinates":[-91.5170802,14.8417644],"type":"Point"},"placekey":"@d53-sgz-gc5","address":{"country_code":"GT","formatted_address":"14 Avenida, -Quezaltenango, Guatemala","locality":"Quezaltenango","region":"Quetzaltenango"}},"labels":["soccer","sport"],"duration":7506,"start_local":"2024-04-06T20:00:00","end":"2024-04-07T04:05:06Z","end_local":"2024-04-06T22:05:06","updated":"2024-05-28T23:56:40Z"},{"title":"Liga Nacional - Clausura - Comunicaciones vs Mixco","description":"Sourced from predicthq.com","category":"sports","start":"2024-04-07T00:00:00Z","geo":{"geometry":{"coordinates":[-90.4882867,14.6761283],"type":"Point"},"placekey":"@d53-ywj-8sq","address":{"country_code":"GT","formatted_address":"MGG6+FM5, Guatemala City, Guatemala","locality":"Guatemala City","region":"Guatemala Department"}},"labels":["soccer","sport"],"duration":7241,"start_local":"2024-04-06T18:00:00","end":"2024-04-07T02:00:41Z","end_local":"2024-04-06T20:00:41","updated":"2024-06-05T18:14:35Z"},{"title":"Liga Nacional - Clausura - Cobán Imperial vs Antigua GFC","description":"Sourced from predicthq.com","category":"sports","start":"2024-04-06T21:00:00Z","geo":{"geometry":{"coordinates":[-90.3771412633,15.4767634746],"type":"Point"},"placekey":"@d55-3xy-33q","address":{"country_code":"GT","formatted_address":"6a. Ave Zona 1\nCobán\nGuatemala","locality":"Cobán","region":"Alta Verapaz"}},"labels":["soccer","sport"],"duration":7218,"start_local":"2024-04-06T15:00:00","end":"2024-04-06T23:00:18Z","end_local":"2024-04-06T17:00:18","updated":"2024-06-05T02:13:02Z"},{"title":"Primera Division - Clausura - Democracia vs Iztapa","description":"Sourced from predicthq.com","category":"sports","start":"2024-04-06T21:00:00Z","geo":{"geometry":{"coordinates":[-91.89309775829315,15.62845613113162],"type":"Point"},"placekey":"@d55-dyr-t9z","address":{"country_code":"GT","formatted_address":"CA-1, -La Democracia, Huehuetenango, Guatemala","locality":"La Democracia, Huehuetenango"}},"labels":["soccer","sport"],"duration":0,"start_local":"2024-04-06T15:00:00","end":"2024-04-06T21:00:00Z","end_local":"2024-04-06T15:00:00","updated":"2024-06-11T22:17:05Z"},{"title":"Festival Contracorriente Guatemala","description":"Sourced from predicthq.com","category":"festivals","start":"2024-04-06T06:00:00Z","geo":{"geometry":{"coordinates":[-90.5148485,14.6650988],"type":"Point"},"placekey":"@d53-ywn-kzz","address":{"country_code":"GT","formatted_address":"6A Calle, -Guatemala City, Guatemala","locality":"Guatemala City"}},"labels":["festival","music"],"duration":86399,"start_local":"2024-04-06T00:00:00","end":"2024-04-07T05:59:59Z","end_local":"2024-04-06T23:59:59","updated":"2024-05-24T11:16:25Z"},{"title":"Festival Contracorriente","description":"Sourced from predicthq.com","category":"festivals","start":"2024-04-06T06:00:00Z","geo":{"geometry":{"coordinates":[-90.5237503,14.6089973],"type":"Point"},"placekey":"@d53-yfz-2zf","address":{"country_code":"GT","formatted_address":"JF5G+HFX, 6a Calle, Cdad. de Guatemala 01009, Guatemala","postcode":"01009","locality":"Ciudad de Guatemala","region":"Guatemala"}},"labels":["festival","music"],"duration":86399,"start_local":"2024-04-06T00:00:00","end":"2024-04-07T05:59:59Z","end_local":"2024-04-06T23:59:59","updated":"2024-06-05T04:12:53Z"},{"title":"Carlos Rivera","description":"Sourced from predicthq.com","category":"concerts","start":"2024-04-06T02:30:00Z","geo":{"geometry":{"coordinates":[-90.56169,14.6204],"type":"Point"},"placekey":"@d53-z66-9fz","address":{"country_code":"GT","formatted_address":"Anillo Periférico 27 Avenida 6-40, -Guatemala City, Guatemala","locality":"Guatemala City"}},"labels":["concert","music"],"duration":0,"start_local":"2024-04-05T20:30:00","end":"2024-04-06T02:30:00Z","end_local":"2024-04-05T20:30:00","updated":"2024-06-26T16:43:36Z"},{"title":"Liga Nacional - Clausura - Malacateco vs Guastatoya","description":"Sourced from predicthq.com","category":"sports","start":"2024-04-06T02:00:00Z","geo":{"geometry":{"coordinates":[-92.0601075,14.9119019],"type":"Point"},"placekey":"@d54-frs-hnq","address":{"country_code":"GT","formatted_address":"WW6Q+PW7, 1a Avenida, Malacatán, Guatemala","locality":"Malacatán","region":"San Marcos"}},"labels":["soccer","sport"],"duration":7043,"start_local":"2024-04-05T20:00:00","end":"2024-04-06T03:57:23Z","end_local":"2024-04-05T21:57:23","updated":"2024-06-05T03:34:13Z"}]