[{"title":"Guyana Amazon Warriors vs Trinbago Knight Riders","description":"Sourced from predicthq.com","category":"sports","start":"2024-09-29T23:00:00Z","geo":{"geometry":{"coordinates":[-58.1779457,6.7577088],"type":"Point"},"placekey":"@bv4-wj2-bkz","address":{"country_code":"GY","formatted_address":"QR5C+3RM, Public Road, Georgetown, Guyana","locality":"Georgetown","region":"Demerara-Mahaica"}},"labels":["cricket","sport"],"duration":0,"start_local":"2024-09-29T19:00:00","end":"2024-09-29T23:00:00Z","end_local":"2024-09-29T19:00:00","updated":"2024-06-04T09:09:48Z"},{"title":"Guyana Amazon Warriors vs St. Lucia Kings","description":"Sourced from predicthq.com","category":"sports","start":"2024-09-28T14:00:00Z","geo":{"geometry":{"coordinates":[-58.1779457,6.7577088],"type":"Point"},"placekey":"@bv4-wj2-bkz","address":{"country_code":"GY","formatted_address":"QR5C+3RM, Public Road, Georgetown, Guyana","locality":"Georgetown","region":"Demerara-Mahaica"}},"labels":["cricket","sport"],"duration":0,"start_local":"2024-09-28T10:00:00","end":"2024-09-28T14:00:00Z","end_local":"2024-09-28T10:00:00","updated":"2024-06-04T02:19:45Z"},{"title":"Guyana Amazon Warriors vs Barbados Royals","description":"Sourced from predicthq.com","category":"sports","start":"2024-09-25T23:00:00Z","geo":{"geometry":{"coordinates":[-58.1779457,6.7577088],"type":"Point"},"placekey":"@bv4-wj2-bkz","address":{"country_code":"GY","formatted_address":"QR5C+3RM, Public Road, Georgetown, Guyana","locality":"Georgetown","region":"Demerara-Mahaica"}},"labels":["cricket","sport"],"duration":0,"start_local":"2024-09-25T19:00:00","end":"2024-09-25T23:00:00Z","end_local":"2024-09-25T19:00:00","updated":"2024-06-04T02:56:54Z"},{"title":"Barbados Royals vs St. Lucia Kings","description":"Sourced from predicthq.com","category":"sports","start":"2024-09-22T14:00:00Z","geo":{"geometry":{"coordinates":[-58.1779457,6.7577088],"type":"Point"},"placekey":"@bv4-wj2-bkz","address":{"country_code":"GY","formatted_address":"QR5C+3RM, Public Road, Georgetown, Guyana","locality":"Georgetown","region":"Demerara-Mahaica"}},"labels":["cricket","sport"],"duration":0,"start_local":"2024-09-22T10:00:00","end":"2024-09-22T14:00:00Z","end_local":"2024-09-22T10:00:00","updated":"2024-06-04T06:40:04Z"},{"title":"Guyana Amazon Warriors vs Antigua And Barbuda Falcons","description":"Sourced from predicthq.com","category":"sports","start":"2024-09-21T23:00:00Z","geo":{"geometry":{"coordinates":[-58.1779457,6.7577088],"type":"Point"},"placekey":"@bv4-wj2-bkz","address":{"country_code":"GY","formatted_address":"QR5C+3RM, Public Road, Georgetown, Guyana","locality":"Georgetown","region":"Demerara-Mahaica"}},"labels":["cricket","sport"],"duration":0,"start_local":"2024-09-21T19:00:00","end":"2024-09-21T23:00:00Z","end_local":"2024-09-21T19:00:00","updated":"2024-06-04T08:56:54Z"},{"title":"St. Lucia Kings vs Barbados Royals","description":"Sourced from predicthq.com","category":"sports","start":"2024-09-21T14:00:00Z","geo":{"geometry":{"coordinates":[-58.1779457,6.7577088],"type":"Point"},"placekey":"@bv4-wj2-bkz","address":{"country_code":"GY","formatted_address":"QR5C+3RM, Public Road, Georgetown, Guyana","locality":"Georgetown","region":"Demerara-Mahaica"}},"labels":["cricket","sport"],"duration":0,"start_local":"2024-09-21T10:00:00","end":"2024-09-21T14:00:00Z","end_local":"2024-09-21T10:00:00","updated":"2024-06-04T08:34:41Z"},{"title":"Guyana Amazon Warriors vs St. Kitts and Nevis Patriots","description":"Sourced from predicthq.com","category":"sports","start":"2024-09-20T23:00:00Z","geo":{"geometry":{"coordinates":[-58.1779457,6.7577088],"type":"Point"},"placekey":"@bv4-wj2-bkz","address":{"country_code":"GY","formatted_address":"QR5C+3RM, Public Road, Georgetown, Guyana","locality":"Georgetown","region":"Demerara-Mahaica"}},"labels":["cricket","sport"],"duration":0,"start_local":"2024-09-20T19:00:00","end":"2024-09-20T23:00:00Z","end_local":"2024-09-20T19:00:00","updated":"2024-06-04T09:57:31Z"},{"title":"Manifesting The Relationship You Want 2024","description":"Sourced from predicthq.com - \"Join us on August 25 for the annual launch of our conference, 'Manifesting the Relationship You Want.' Delve into the power of inner change","category":"conferences","start":"2024-08-25T12:00:00Z","geo":{"geometry":{"coordinates":[-58.17778059999999,6.762013199999998],"type":"Point"},"placekey":"@bv4-wj2-b8v","address":{"country_code":"GY","formatted_address":"Georgetown, Demerara-Mahaica, Guyana","locality":"Georgetown","region":"Demerara-Mahaica"}},"labels":["conference","religion"],"duration":36000,"start_local":"2024-08-25T08:00:00","end":"2024-08-25T22:00:00Z","end_local":"2024-08-25T18:00:00","updated":"2024-06-04T04:08:20Z"},{"title":"South Africa tour of West Indies - West Indies vs South Africa","description":"Sourced from predicthq.com","category":"sports","start":"2024-08-15T14:00:00Z","geo":{"geometry":{"coordinates":[-58.1779457,6.7577088],"type":"Point"},"placekey":"@bv4-wj2-bkz","address":{"country_code":"GY","formatted_address":"QR5C+3RM, Public Road, Georgetown, Guyana","locality":"Georgetown","region":"Demerara-Mahaica"}},"labels":["cricket","sport"],"duration":370800,"start_local":"2024-08-15T10:00:00","end":"2024-08-19T21:00:00Z","end_local":"2024-08-19T17:00:00","updated":"2024-06-04T02:33:40Z"},{"title":"Sashing Ceremony & Fashion Show","description":"Sourced from predicthq.com - Get ready to witness the ultimate glam with our Sashing Ceremony & Fashion Show - it's going to be FABULOUS!","category":"conferences","start":"2024-07-25T23:00:00Z","geo":{"geometry":{"coordinates":[-58.163873,6.825623],"type":"Point"},"placekey":"@bv4-wt4-2hq","address":{"country_code":"GY","formatted_address":"Block Alpha, Battery Road, Georgetown, Guyana","locality":"Georgetown","region":"Demerara-Mahaica"}},"labels":["conference","fashion"],"duration":7200,"start_local":"2024-07-25T19:00:00","end":"2024-07-26T01:00:00Z","end_local":"2024-07-25T21:00:00","updated":"2024-07-04T16:12:11Z"},{"title":"‘SHH’ THE CONCERT INTENCE LIVE IN GUYANA","description":"Sourced from predicthq.com - Get ready for a wild night with Dancehall artiste intense live in concert ‘SHH’ The Concert Intence live in Guyana!","category":"concerts","start":"2024-07-21T00:00:00Z","geo":{"geometry":{"coordinates":[-57.5215658,6.2498603],"type":"Point"},"placekey":"@bv4-p4p-h3q","address":{"country_code":"GY","formatted_address":"Stelling Road, New Amsterdam, Guyana","locality":"New Amsterdam","region":"East Berbice-Corentyne"}},"labels":["concert","music"],"duration":18000,"start_local":"2024-07-20T20:00:00","end":"2024-07-21T05:00:00Z","end_local":"2024-07-21T01:00:00","updated":"2024-06-06T02:52:13Z"},{"title":"bursdagsjentene","description":"Sourced from predicthq.com","category":"concerts","start":"2024-07-03T00:00:00Z","geo":{"geometry":{"coordinates":[-58.1666679,6.8000002],"type":"Point"},"placekey":"@bv4-wtb-yqf","address":{"country_code":"GY","formatted_address":"James Street, Georgetown, Guyana","locality":"Georgetown","region":"Demerara-Mahaica"}},"labels":["concert","music"],"duration":0,"start_local":"2024-07-02T20:00:00","end":"2024-07-03T00:00:00Z","end_local":"2024-07-02T20:00:00","updated":"2024-06-30T09:52:17Z"},{"title":"ICC Mens T20 World Cup 2024 - India vs England","description":"Sourced from predicthq.com","category":"sports","start":"2024-06-27T14:30:00Z","geo":{"geometry":{"coordinates":[-58.1779457,6.7577088],"type":"Point"},"placekey":"@bv4-wj2-bkz","address":{"country_code":"GY","formatted_address":"QR5C+3RM, Public Road, Georgetown, Guyana","locality":"Georgetown","region":"Demerara-Mahaica"}},"labels":["cricket","sport"],"duration":0,"start_local":"2024-06-27T10:30:00","end":"2024-06-27T14:30:00Z","end_local":"2024-06-27T10:30:00","updated":"2024-06-28T09:16:53Z"},{"title":"South Africa vs Afghanistan","description":"Sourced from predicthq.com","category":"sports","start":"2024-06-27T00:30:00Z","geo":{"geometry":{"coordinates":[-58.1779457,6.7577088],"type":"Point"},"placekey":"@bv4-wj2-bkz","address":{"country_code":"GY","formatted_address":"QR5C+3RM, Public Road, Georgetown, Guyana","locality":"Georgetown","region":"Demerara-Mahaica"}},"labels":["cricket","sport"],"duration":7676,"start_local":"2024-06-26T20:30:00","end":"2024-06-27T02:37:56Z","end_local":"2024-06-26T22:37:56","updated":"2024-06-28T10:24:44Z"},{"title":"CLASH OF THE TITANS CHUTNEY SUPER CONCERT","description":"Sourced from predicthq.com - The Return of The World's Biggest Chutney Event, \"Clash of the Titans\". This event brings together the biggest bands and names in Chutney an","category":"festivals","start":"2024-06-22T21:00:00Z","geo":{"geometry":{"coordinates":[-58.1779457,6.7577088],"type":"Point"},"placekey":"@bv4-wj2-bkz","address":{"country_code":"GY","formatted_address":"Georgetown, Demerara-Mahaica, Guyana","locality":"Georgetown","region":"Demerara-Mahaica"}},"labels":["concert","music"],"duration":23400,"start_local":"2024-06-22T17:00:00","end":"2024-06-23T03:30:00Z","end_local":"2024-06-22T23:30:00","updated":"2024-06-04T01:48:25Z"},{"title":"Rugby Union Internationals - Friendlies 3 - Guyana vs Trinidad and Tobago","description":"Sourced from predicthq.com","category":"sports","start":"2024-06-22T19:00:00Z","geo":{"geometry":{"coordinates":[-58.14473413159941,6.823509935333401],"type":"Point"},"placekey":"@bv4-wt7-tqf","address":{"country_code":"GY","formatted_address":"52 stanley place, Georgetown, Guyana","locality":"Georgetown","region":"Demerara-Mahaica"}},"labels":["rugby","sport"],"duration":0,"start_local":"2024-06-22T15:00:00","end":"2024-06-22T19:00:00Z","end_local":"2024-06-22T15:00:00","updated":"2024-06-19T10:28:26Z"},{"title":"Championing Women in the Energy Sector: Creating Pathways","description":"Sourced from predicthq.com - Get ready to celebrate and empower women in the energy sector, as we pave the way for a brighter and more inclusive future together!","category":"conferences","start":"2024-06-15T13:00:00Z","geo":{"geometry":{"coordinates":[-58.1186397,6.8205361],"type":"Point"},"placekey":"@bv4-wr8-y5f","address":{"country_code":"GY","formatted_address":"RVCJ+6G9, Georgetown, Guyana","locality":"Georgetown","region":"Demerara-Mahaica"}},"labels":["business","conference"],"duration":25200,"start_local":"2024-06-15T09:00:00","end":"2024-06-15T20:00:00Z","end_local":"2024-06-15T16:00:00","updated":"2024-06-04T04:44:43Z"},{"title":"West Indies vs Uganda","description":"Sourced from predicthq.com","category":"sports","start":"2024-06-09T00:30:00Z","geo":{"geometry":{"coordinates":[-58.1779457,6.7577088],"type":"Point"},"placekey":"@bv4-wj2-bkz","address":{"country_code":"GY","formatted_address":"QR5C+3RM, Public Road, Georgetown, Guyana","locality":"Georgetown","region":"Demerara-Mahaica"}},"labels":["cricket","sport"],"duration":10025,"start_local":"2024-06-08T20:30:00","end":"2024-06-09T03:17:05Z","end_local":"2024-06-08T23:17:05","updated":"2024-06-10T01:26:38Z"},{"title":"Heat","description":"Sourced from predicthq.com - An exclusive boiler room inspired event","category":"concerts","start":"2024-06-08T23:00:00Z","geo":{"geometry":{"coordinates":[-58.15032159999999,6.8188258],"type":"Point"},"placekey":"@bv4-wtf-6rk","address":{"country_code":"GY","formatted_address":"Albert Street, Georgetown, Guyana","locality":"Georgetown","region":"Demerara-Mahaica"}},"labels":["concert","music"],"duration":28800,"start_local":"2024-06-08T19:00:00","end":"2024-06-09T07:00:00Z","end_local":"2024-06-09T03:00:00","updated":"2024-06-04T02:13:08Z"},{"title":"New Zealand vs Afghanistan","description":"Sourced from predicthq.com","category":"sports","start":"2024-06-07T23:30:00Z","geo":{"geometry":{"coordinates":[-58.1779457,6.7577088],"type":"Point"},"placekey":"@bv4-wj2-bkz","address":{"country_code":"GY","formatted_address":"QR5C+3RM, Public Road, Georgetown, Guyana","locality":"Georgetown","region":"Demerara-Mahaica"}},"labels":["cricket","sport"],"duration":11650,"start_local":"2024-06-07T19:30:00","end":"2024-06-08T02:44:10Z","end_local":"2024-06-07T22:44:10","updated":"2024-06-08T23:46:36Z"},{"title":"ICC Mens T20 World Cup 2024 - New Zealand vs Afghanistan","description":"Sourced from predicthq.com","category":"sports","start":"2024-06-07T14:00:00Z","geo":{"geometry":{"coordinates":[-58.1779457,6.7577088],"type":"Point"},"placekey":"@bv4-wj2-bkz","address":{"country_code":"GY","formatted_address":"QR5C+3RM, Public Road, Georgetown, Guyana","locality":"Georgetown","region":"Demerara-Mahaica"}},"labels":["cricket","sport"],"duration":0,"start_local":"2024-06-07T10:00:00","end":"2024-06-07T14:00:00Z","end_local":"2024-06-07T10:00:00","updated":"2024-06-04T01:22:11Z"},{"title":"Papua New Guinea vs Uganda","description":"Sourced from predicthq.com","category":"sports","start":"2024-06-05T23:30:00Z","geo":{"geometry":{"coordinates":[-58.1779457,6.7577088],"type":"Point"},"placekey":"@bv4-wj2-bkz","address":{"country_code":"GY","formatted_address":"QR5C+3RM, Public Road, Georgetown, Guyana","locality":"Georgetown","region":"Demerara-Mahaica"}},"labels":["cricket","sport"],"duration":11372,"start_local":"2024-06-05T19:30:00","end":"2024-06-06T02:39:32Z","end_local":"2024-06-05T22:39:32","updated":"2024-06-06T23:45:48Z"},{"title":"Afghanistan vs Uganda","description":"Sourced from predicthq.com","category":"sports","start":"2024-06-04T00:30:00Z","geo":{"geometry":{"coordinates":[-58.1779457,6.7577088],"type":"Point"},"placekey":"@bv4-wj2-bkz","address":{"country_code":"GY","formatted_address":"QR5C+3RM, Public Road, Georgetown, Guyana","locality":"Georgetown","region":"Demerara-Mahaica"}},"labels":["cricket","sport"],"duration":11918,"start_local":"2024-06-03T20:30:00","end":"2024-06-04T03:48:38Z","end_local":"2024-06-03T23:48:38","updated":"2024-06-05T12:25:12Z"},{"title":"West Indies vs Papua New Guinea","description":"Sourced from predicthq.com","category":"sports","start":"2024-06-02T14:30:00Z","geo":{"geometry":{"coordinates":[-58.1779457,6.7577088],"type":"Point"},"placekey":"@bv4-wj2-bkz","address":{"country_code":"GY","formatted_address":"QR5C+3RM, Public Road, Georgetown, Guyana","locality":"Georgetown","region":"Demerara-Mahaica"}},"labels":["cricket","sport"],"duration":12477,"start_local":"2024-06-02T10:30:00","end":"2024-06-02T17:57:57Z","end_local":"2024-06-02T13:57:57","updated":"2024-06-04T08:04:40Z"},{"title":"Family Fun Day","description":"Sourced from predicthq.com - Join us for a day filled with games, activities, and laughter for the whole family at our Family Fun Day event!","category":"festivals","start":"2024-05-27T13:00:00Z","geo":{"geometry":{"coordinates":[-58.1568305,6.823220699999999],"type":"Point"},"placekey":"@bv4-wt4-hdv","address":{"country_code":"GY","formatted_address":"Carifesta Avenue, Georgetown, Guyana","locality":"Georgetown","region":"Demerara-Mahaica"}},"labels":["education","family","festival"],"duration":25200,"start_local":"2024-05-27T09:00:00","end":"2024-05-27T20:00:00Z","end_local":"2024-05-27T16:00:00","updated":"2024-06-04T22:14:27Z"},{"title":"OLD BROOM INDEPENDENCE MEGA CONCERT","description":"Sourced from predicthq.com - Get ready to rock out at the Old Broom Independence Mega Concert - it's gonna be epic!","category":"concerts","start":"2024-05-26T22:00:00Z","geo":{"geometry":{"coordinates":[-57.3439108,6.2471972],"type":"Point"},"placekey":"@bv4-mqj-435","address":{"country_code":"GY","formatted_address":"Port Mourant, East Berbice-Corentyne, Guyana","locality":"Port Mourant","region":"East Berbice-Corentyne"}},"labels":["concert","music"],"duration":21540,"start_local":"2024-05-26T18:00:00","end":"2024-05-27T03:59:00Z","end_local":"2024-05-26T23:59:00","updated":"2024-06-05T10:11:01Z"},{"title":"Baderation","description":"Sourced from predicthq.com","category":"concerts","start":"2024-05-26T00:00:00Z","geo":{"geometry":{"coordinates":[-58.15512,6.80128],"type":"Point"},"placekey":"@bv4-wtb-ckf","address":{"country_code":"GY","formatted_address":"Georgetown, Demerara-Mahaica, Guyana","locality":"Georgetown","region":"Demerara-Mahaica"}},"labels":["concert","music"],"duration":10800,"start_local":"2024-05-25T20:00:00","end":"2024-05-26T03:00:00Z","end_local":"2024-05-25T23:00:00","updated":"2024-06-05T19:31:40Z"},{"title":"ELDORADO STINGINGNETTLES","description":"Sourced from predicthq.com - Eldorado Stingingnettles is a Rum Inclusive Experience like no other!!","category":"concerts","start":"2024-05-24T00:00:00Z","geo":{"geometry":{"coordinates":[-58.1551255,6.8012793],"type":"Point"},"placekey":"@bv4-wtb-ckf","address":{"country_code":"GY","formatted_address":"Georgetown, Demerara-Mahaica, Guyana","locality":"Georgetown","region":"Demerara-Mahaica"}},"labels":["concert","music"],"duration":0,"start_local":"2024-05-23T20:00:00","end":"2024-05-24T00:00:00Z","end_local":"2024-05-23T20:00:00","updated":"2024-06-12T05:27:01Z"},{"title":"Business Growth","description":"Sourced from predicthq.com - Live event on business growth, including migrating brick-and-mortar businesses online. Register for insights with industry expert Sherry Zan","category":"conferences","start":"2024-05-19T14:00:16Z","geo":{"geometry":{"coordinates":[-58.0982046,6.546425999999999],"type":"Point"},"placekey":"@bv4-www-j7q","address":{"country_code":"GY","formatted_address":"Demerara-Mahaica, Guyana","region":"Demerara-Mahaica"}},"labels":["business","conference"],"duration":7200,"start_local":"2024-05-19T10:00:16","end":"2024-05-19T16:00:16Z","end_local":"2024-05-19T12:00:16","updated":"2024-06-05T01:58:21Z"},{"title":"ACURIL 2024 Guyana","description":"Sourced from predicthq.com","category":"conferences","start":"2024-05-12T12:00:00Z","geo":{"geometry":{"coordinates":[-58.14206,6.81699],"type":"Point"},"placekey":"@bv4-wtf-nt9","address":{"country_code":"GY","formatted_address":"Dowding Street, Georgetown, Guyana","locality":"Georgetown","region":"Demerara-Mahaica"}},"labels":["business","conference"],"duration":399600,"start_local":"2024-05-12T08:00:00","end":"2024-05-17T03:00:00Z","end_local":"2024-05-16T23:00:00","updated":"2024-06-05T04:28:26Z"},{"title":"GSOGSI Information Session","description":"Sourced from predicthq.com - Join us for a fun and informative session where we'll spill all the tea on everything you need to know about GSOGSI!","category":"conferences","start":"2024-05-10T20:30:00Z","geo":{"geometry":{"coordinates":[-58.15216969999999,6.8063752],"type":"Point"},"placekey":"@bv4-wtf-zj9","address":{"country_code":"GY","formatted_address":"South Road, Georgetown, Guyana","locality":"Georgetown","region":"Demerara-Mahaica"}},"labels":["conference","science","technology"],"duration":5400,"start_local":"2024-05-10T16:30:00","end":"2024-05-10T22:00:00Z","end_local":"2024-05-10T18:00:00","updated":"2024-06-05T19:41:25Z"},{"title":"Olympus Kennels Dog Expo","description":"Sourced from predicthq.com","category":"expos","start":"2024-05-04T17:00:00Z","geo":{"geometry":{"coordinates":[-58.15598,6.81444],"type":"Point"},"placekey":"@bv4-wt5-7t9","address":{"country_code":"GY","formatted_address":"East Street, Georgetown, Guyana","locality":"Georgetown","region":"Demerara-Mahaica"}},"labels":["expo"],"duration":0,"start_local":"2024-05-04T13:00:00","end":"2024-05-04T17:00:00Z","end_local":"2024-05-04T13:00:00","updated":"2024-06-04T22:05:53Z"},{"title":"Local Content Summit 2024 (Guyana)","description":"Sourced from predicthq.com - “Creating Value. Driving Economic Expansion”","category":"conferences","start":"2024-04-16T12:00:00Z","geo":{"geometry":{"coordinates":[-58.161784,6.825067],"type":"Point"},"placekey":"@bv4-wt4-3wk","address":{"country_code":"GY","formatted_address":"Georgetown, Demerara-Mahaica, Guyana","locality":"Georgetown","region":"Demerara-Mahaica"}},"labels":["business","conference"],"duration":32400,"start_local":"2024-04-16T08:00:00","end":"2024-04-16T21:00:00Z","end_local":"2024-04-16T17:00:00","updated":"2024-06-05T10:47:36Z"}]