[{"title":"Eric Ragno - Keyboards / Rock Keyboard Player and Legends of Classic Rock","description":"Sourced from predicthq.com","category":"concerts","start":"2024-10-01T02:00:00Z","geo":{"geometry":{"coordinates":[-87.2166672,14.1000004],"type":"Point"},"placekey":"@d5p-gyb-2ff","address":{"country_code":"HN","formatted_address":"Tegucigalpa, Francisco Morazán Department, Honduras","locality":"Tegucigalpa","region":"Francisco Morazán Department"}},"labels":["concert","music"],"duration":0,"start_local":"2024-09-30T20:00:00","end":"2024-10-01T02:00:00Z","end_local":"2024-09-30T20:00:00","updated":"2024-06-11T02:54:08Z"},{"title":"Eric Ragno - Keyboards / Rock Keyboard Player and Legends of Classic Rock","description":"Sourced from predicthq.com","category":"concerts","start":"2024-09-17T02:00:00Z","geo":{"geometry":{"coordinates":[-87.2166672,14.1000004],"type":"Point"},"placekey":"@d5p-gyb-2ff","address":{"country_code":"HN","formatted_address":"Tegucigalpa, Francisco Morazán Department, Honduras","locality":"Tegucigalpa","region":"Francisco Morazán Department"}},"labels":["concert","music"],"duration":0,"start_local":"2024-09-16T20:00:00","end":"2024-09-17T02:00:00Z","end_local":"2024-09-16T20:00:00","updated":"2024-06-10T23:07:02Z"},{"title":"Eric Ragno - Keyboards / Rock Keyboard Player and Legends of Classic Rock","description":"Sourced from predicthq.com","category":"concerts","start":"2024-09-03T02:00:00Z","geo":{"geometry":{"coordinates":[-87.2166672,14.1000004],"type":"Point"},"placekey":"@d5p-gyb-2ff","address":{"country_code":"HN","formatted_address":"Tegucigalpa, Francisco Morazán Department, Honduras","locality":"Tegucigalpa","region":"Francisco Morazán Department"}},"labels":["concert","music"],"duration":0,"start_local":"2024-09-02T20:00:00","end":"2024-09-03T02:00:00Z","end_local":"2024-09-02T20:00:00","updated":"2024-06-11T09:48:11Z"},{"title":"Eric Ragno - Keyboards / Rock Keyboard Player and Legends of Classic Rock","description":"Sourced from predicthq.com","category":"concerts","start":"2024-08-06T02:00:00Z","geo":{"geometry":{"coordinates":[-87.2166672,14.1000004],"type":"Point"},"placekey":"@d5p-gyb-2ff","address":{"country_code":"HN","formatted_address":"Tegucigalpa, Francisco Morazán Department, Honduras","locality":"Tegucigalpa","region":"Francisco Morazán Department"}},"labels":["concert","music"],"duration":0,"start_local":"2024-08-05T20:00:00","end":"2024-08-06T02:00:00Z","end_local":"2024-08-05T20:00:00","updated":"2024-06-11T00:59:33Z"},{"title":"Dia del Oboe 2024","description":"Sourced from predicthq.com - El Día del Oboe es un evento dedicado al estudio del oboe. Contaremos con la presencia del Pedro Díaz, virtuoso del Oboe y Corno Inglés.","category":"performing-arts","start":"2024-08-03T14:30:00Z","geo":{"geometry":{"coordinates":[-88.01299639999999,15.4936784],"type":"Point"},"placekey":"@8h5-gb8-r8v","address":{"country_code":"HN","formatted_address":"13 Avenida Southeast, 21103 San Pedro Sula, Honduras","locality":"San Pedro Sula","postcode":"21103","region":"Cortés Department"}},"labels":["concert","music","performing-arts"],"duration":43200,"start_local":"2024-08-03T08:30:00","end":"2024-08-04T02:30:00Z","end_local":"2024-08-03T20:30:00","updated":"2024-06-04T02:51:09Z"},{"title":"The Human Augmentation Summit","description":"Sourced from predicthq.com - Join us at The Human Augmentation Summit to explore cutting-edge technologies enhancing human capabilities!","category":"conferences","start":"2024-07-22T18:00:00Z","geo":{"geometry":{"coordinates":[-86.4654173,16.3752928],"type":"Point"},"placekey":"@8hb-6b2-zzz","address":{"country_code":"HN","formatted_address":"Pristine Bay, Bay Islands Department, Honduras","locality":"Pristine Bay","region":"Bay Islands Department"}},"labels":["conference","science","technology"],"duration":536400,"start_local":"2024-07-22T12:00:00","end":"2024-07-28T23:00:00Z","end_local":"2024-07-28T17:00:00","updated":"2024-06-21T12:50:45Z"},{"title":"Eric Ragno - Keyboards / Rock Keyboard Player and Legends of Classic Rock","description":"Sourced from predicthq.com","category":"concerts","start":"2024-07-09T02:00:00Z","geo":{"geometry":{"coordinates":[-87.2166672,14.1000004],"type":"Point"},"placekey":"@d5p-gyb-2ff","address":{"country_code":"HN","formatted_address":"Tegucigalpa, Francisco Morazán Department, Honduras","locality":"Tegucigalpa","region":"Francisco Morazán Department"}},"labels":["concert","music"],"duration":0,"start_local":"2024-07-08T20:00:00","end":"2024-07-09T02:00:00Z","end_local":"2024-07-08T20:00:00","updated":"2024-06-11T04:57:11Z"},{"title":"Tu llave a Florida: Inversiones en el Mercado Inmobiliario, Estrategias de financiamiento.","description":"Sourced from predicthq.com - Descubre cómo invertir en el mercado inmobiliario de Florida y las mejores estrategias de financiamiento en nuestro evento. ¡Nose lo pierda!","category":"expos","start":"2024-07-08T21:00:00Z","geo":{"geometry":{"coordinates":[-88.0346453,15.4947212],"type":"Point"},"placekey":"@8h5-g2n-fmk","address":{"country_code":"HN","formatted_address":"Bulevar del Sur, 21104 San Pedro Sula, Honduras","locality":"San Pedro Sula","postcode":"21104","region":"Departamento de Cortés"}},"labels":["business","expo"],"duration":75600,"start_local":"2024-07-08T15:00:00","end":"2024-07-09T18:00:00Z","end_local":"2024-07-09T12:00:00","updated":"2024-06-13T01:30:53Z"},{"title":"U23 Central American Championship (W) - Round-Robin - Costa Rica U23 vs Honduras U23","description":"Sourced from predicthq.com","category":"sports","start":"2024-06-30T01:00:00Z","geo":{"geometry":{"coordinates":[-87.1781132,14.0912434],"type":"Point"},"placekey":"@d5p-gxk-5mk","address":{"country_code":"HN","formatted_address":"3RRC+FPP, Tegucigalpa, Francisco Morazán, Honduras","locality":"Tegucigalpa","region":"Francisco Morazán Department"}},"labels":["sport","volleyball"],"duration":0,"start_local":"2024-06-29T19:00:00","end":"2024-06-30T01:00:00Z","end_local":"2024-06-29T19:00:00","updated":"2024-06-02T14:09:55Z"},{"title":"U23 Central American Championship (W) - Round-Robin - Guatemala U23 vs Nicaragua U23","description":"Sourced from predicthq.com","category":"sports","start":"2024-06-29T22:30:00Z","geo":{"geometry":{"coordinates":[-87.1781132,14.0912434],"type":"Point"},"placekey":"@d5p-gxk-5mk","address":{"country_code":"HN","formatted_address":"3RRC+FPP, Tegucigalpa, Francisco Morazán, Honduras","locality":"Tegucigalpa","region":"Francisco Morazán Department"}},"labels":["sport","volleyball"],"duration":0,"start_local":"2024-06-29T16:30:00","end":"2024-06-29T22:30:00Z","end_local":"2024-06-29T16:30:00","updated":"2024-06-02T14:07:52Z"},{"title":"U23 Central American Championship (W) - Round-Robin - El Salvador U23 vs Belize U23","description":"Sourced from predicthq.com","category":"sports","start":"2024-06-29T20:00:00Z","geo":{"geometry":{"coordinates":[-87.1781132,14.0912434],"type":"Point"},"placekey":"@d5p-gxk-5mk","address":{"country_code":"HN","formatted_address":"3RRC+FPP, Tegucigalpa, Francisco Morazán, Honduras","locality":"Tegucigalpa","region":"Francisco Morazán Department"}},"labels":["sport","volleyball"],"duration":0,"start_local":"2024-06-29T14:00:00","end":"2024-06-29T20:00:00Z","end_local":"2024-06-29T14:00:00","updated":"2024-06-02T14:09:45Z"},{"title":"U23 Central American Championship (W) - Round-Robin - Honduras U23 vs Nicaragua U23","description":"Sourced from predicthq.com","category":"sports","start":"2024-06-29T01:30:00Z","geo":{"geometry":{"coordinates":[-87.1781132,14.0912434],"type":"Point"},"placekey":"@d5p-gxk-5mk","address":{"country_code":"HN","formatted_address":"3RRC+FPP, Tegucigalpa, Francisco Morazán, Honduras","locality":"Tegucigalpa","region":"Francisco Morazán Department"}},"labels":["sport","volleyball"],"duration":0,"start_local":"2024-06-28T19:30:00","end":"2024-06-29T01:30:00Z","end_local":"2024-06-28T19:30:00","updated":"2024-06-02T14:09:45Z"},{"title":"U23 Central American Championship (W) - Round-Robin - Costa Rica U23 vs Guatemala U23","description":"Sourced from predicthq.com","category":"sports","start":"2024-06-28T23:00:00Z","geo":{"geometry":{"coordinates":[-87.1781132,14.0912434],"type":"Point"},"placekey":"@d5p-gxk-5mk","address":{"country_code":"HN","formatted_address":"3RRC+FPP, Tegucigalpa, Francisco Morazán, Honduras","locality":"Tegucigalpa","region":"Francisco Morazán Department"}},"labels":["sport","volleyball"],"duration":0,"start_local":"2024-06-28T17:00:00","end":"2024-06-28T23:00:00Z","end_local":"2024-06-28T17:00:00","updated":"2024-06-02T14:08:27Z"},{"title":"U23 Central American Championship (W) - Round-Robin - El Salvador U23 vs Panama U23","description":"Sourced from predicthq.com","category":"sports","start":"2024-06-28T20:30:00Z","geo":{"geometry":{"coordinates":[-87.1781132,14.0912434],"type":"Point"},"placekey":"@d5p-gxk-5mk","address":{"country_code":"HN","formatted_address":"3RRC+FPP, Tegucigalpa, Francisco Morazán, Honduras","locality":"Tegucigalpa","region":"Francisco Morazán Department"}},"labels":["sport","volleyball"],"duration":0,"start_local":"2024-06-28T14:30:00","end":"2024-06-28T20:30:00Z","end_local":"2024-06-28T14:30:00","updated":"2024-06-02T14:09:03Z"},{"title":"U23 Central American Championship (W) - Round-Robin - Honduras U23 vs Guatemala U23","description":"Sourced from predicthq.com","category":"sports","start":"2024-06-28T01:30:00Z","geo":{"geometry":{"coordinates":[-87.1781132,14.0912434],"type":"Point"},"placekey":"@d5p-gxk-5mk","address":{"country_code":"HN","formatted_address":"3RRC+FPP, Tegucigalpa, Francisco Morazán, Honduras","locality":"Tegucigalpa","region":"Francisco Morazán Department"}},"labels":["sport","volleyball"],"duration":0,"start_local":"2024-06-27T19:30:00","end":"2024-06-28T01:30:00Z","end_local":"2024-06-27T19:30:00","updated":"2024-06-02T14:11:52Z"},{"title":"U23 Central American Championship (W) - Round-Robin - Belize U23 vs Panama U23","description":"Sourced from predicthq.com","category":"sports","start":"2024-06-27T23:00:00Z","geo":{"geometry":{"coordinates":[-87.1781132,14.0912434],"type":"Point"},"placekey":"@d5p-gxk-5mk","address":{"country_code":"HN","formatted_address":"3RRC+FPP, Tegucigalpa, Francisco Morazán, Honduras","locality":"Tegucigalpa","region":"Francisco Morazán Department"}},"labels":["sport","volleyball"],"duration":0,"start_local":"2024-06-27T17:00:00","end":"2024-06-27T23:00:00Z","end_local":"2024-06-27T17:00:00","updated":"2024-06-02T14:10:36Z"},{"title":"U23 Central American Championship (W) - Round-Robin - Costa Rica U23 vs Nicaragua U23","description":"Sourced from predicthq.com","category":"sports","start":"2024-06-27T20:30:00Z","geo":{"geometry":{"coordinates":[-87.1781132,14.0912434],"type":"Point"},"placekey":"@d5p-gxk-5mk","address":{"country_code":"HN","formatted_address":"3RRC+FPP, Tegucigalpa, Francisco Morazán, Honduras","locality":"Tegucigalpa","region":"Francisco Morazán Department"}},"labels":["sport","volleyball"],"duration":0,"start_local":"2024-06-27T14:30:00","end":"2024-06-27T20:30:00Z","end_local":"2024-06-27T14:30:00","updated":"2024-06-02T14:08:38Z"},{"title":"U23 Central American Championship (W) - Round-Robin - Honduras U23 vs Belize U23","description":"Sourced from predicthq.com","category":"sports","start":"2024-06-27T01:30:00Z","geo":{"geometry":{"coordinates":[-87.1781132,14.0912434],"type":"Point"},"placekey":"@d5p-gxk-5mk","address":{"country_code":"HN","formatted_address":"3RRC+FPP, Tegucigalpa, Francisco Morazán, Honduras","locality":"Tegucigalpa","region":"Francisco Morazán Department"}},"labels":["sport","volleyball"],"duration":0,"start_local":"2024-06-26T19:30:00","end":"2024-06-27T01:30:00Z","end_local":"2024-06-26T19:30:00","updated":"2024-06-02T14:07:52Z"},{"title":"U23 Central American Championship (W) - Round-Robin - Costa Rica U23 vs El Salvador U23","description":"Sourced from predicthq.com","category":"sports","start":"2024-06-26T23:00:00Z","geo":{"geometry":{"coordinates":[-87.1781132,14.0912434],"type":"Point"},"placekey":"@d5p-gxk-5mk","address":{"country_code":"HN","formatted_address":"3RRC+FPP, Tegucigalpa, Francisco Morazán, Honduras","locality":"Tegucigalpa","region":"Francisco Morazán Department"}},"labels":["sport","volleyball"],"duration":0,"start_local":"2024-06-26T17:00:00","end":"2024-06-26T23:00:00Z","end_local":"2024-06-26T17:00:00","updated":"2024-06-02T14:07:52Z"},{"title":"U23 Central American Championship (W) - Round-Robin - Guatemala U23 vs Panama U23","description":"Sourced from predicthq.com","category":"sports","start":"2024-06-26T20:30:00Z","geo":{"geometry":{"coordinates":[-87.1781132,14.0912434],"type":"Point"},"placekey":"@d5p-gxk-5mk","address":{"country_code":"HN","formatted_address":"3RRC+FPP, Tegucigalpa, Francisco Morazán, Honduras","locality":"Tegucigalpa","region":"Francisco Morazán Department"}},"labels":["sport","volleyball"],"duration":0,"start_local":"2024-06-26T14:30:00","end":"2024-06-26T20:30:00Z","end_local":"2024-06-26T14:30:00","updated":"2024-06-02T14:09:34Z"},{"title":"U23 Central American Championship (W) - Round-Robin - Honduras U23 vs El Salvador U23","description":"Sourced from predicthq.com","category":"sports","start":"2024-06-26T01:30:00Z","geo":{"geometry":{"coordinates":[-87.1781132,14.0912434],"type":"Point"},"placekey":"@d5p-gxk-5mk","address":{"country_code":"HN","formatted_address":"3RRC+FPP, Tegucigalpa, Francisco Morazán, Honduras","locality":"Tegucigalpa","region":"Francisco Morazán Department"}},"labels":["sport","volleyball"],"duration":0,"start_local":"2024-06-25T19:30:00","end":"2024-06-26T01:30:00Z","end_local":"2024-06-25T19:30:00","updated":"2024-06-02T14:11:52Z"},{"title":"U23 Central American Championship (W) - Round-Robin - Nicaragua U23 vs Panama U23","description":"Sourced from predicthq.com","category":"sports","start":"2024-06-25T23:00:00Z","geo":{"geometry":{"coordinates":[-87.1781132,14.0912434],"type":"Point"},"placekey":"@d5p-gxk-5mk","address":{"country_code":"HN","formatted_address":"3RRC+FPP, Tegucigalpa, Francisco Morazán, Honduras","locality":"Tegucigalpa","region":"Francisco Morazán Department"}},"labels":["sport","volleyball"],"duration":0,"start_local":"2024-06-25T17:00:00","end":"2024-06-25T23:00:00Z","end_local":"2024-06-25T17:00:00","updated":"2024-06-02T14:11:52Z"},{"title":"U23 Central American Championship (W) - Round-Robin - Costa Rica U23 vs Belize U23","description":"Sourced from predicthq.com","category":"sports","start":"2024-06-25T20:30:00Z","geo":{"geometry":{"coordinates":[-87.1781132,14.0912434],"type":"Point"},"placekey":"@d5p-gxk-5mk","address":{"country_code":"HN","formatted_address":"3RRC+FPP, Tegucigalpa, Francisco Morazán, Honduras","locality":"Tegucigalpa","region":"Francisco Morazán Department"}},"labels":["sport","volleyball"],"duration":0,"start_local":"2024-06-25T14:30:00","end":"2024-06-25T20:30:00Z","end_local":"2024-06-25T14:30:00","updated":"2024-06-02T14:08:22Z"},{"title":"U23 Central American Championship (W) - Round-Robin - Guatemala U23 vs El Salvador U23","description":"Sourced from predicthq.com","category":"sports","start":"2024-06-25T01:30:00Z","geo":{"geometry":{"coordinates":[-87.1781132,14.0912434],"type":"Point"},"placekey":"@d5p-gxk-5mk","address":{"country_code":"HN","formatted_address":"3RRC+FPP, Tegucigalpa, Francisco Morazán, Honduras","locality":"Tegucigalpa","region":"Francisco Morazán Department"}},"labels":["sport","volleyball"],"duration":0,"start_local":"2024-06-24T19:30:00","end":"2024-06-25T01:30:00Z","end_local":"2024-06-24T19:30:00","updated":"2024-06-02T14:09:55Z"},{"title":"U23 Central American Championship (W) - Round-Robin - Nicaragua U23 vs Belize U23","description":"Sourced from predicthq.com","category":"sports","start":"2024-06-24T23:00:00Z","geo":{"geometry":{"coordinates":[-87.1781132,14.0912434],"type":"Point"},"placekey":"@d5p-gxk-5mk","address":{"country_code":"HN","formatted_address":"3RRC+FPP, Tegucigalpa, Francisco Morazán, Honduras","locality":"Tegucigalpa","region":"Francisco Morazán Department"}},"labels":["sport","volleyball"],"duration":0,"start_local":"2024-06-24T17:00:00","end":"2024-06-24T23:00:00Z","end_local":"2024-06-24T17:00:00","updated":"2024-06-02T14:08:27Z"},{"title":"U23 Central American Championship (W) - Round-Robin - Costa Rica U23 vs Panama U23","description":"Sourced from predicthq.com","category":"sports","start":"2024-06-24T20:30:00Z","geo":{"geometry":{"coordinates":[-87.1781132,14.0912434],"type":"Point"},"placekey":"@d5p-gxk-5mk","address":{"country_code":"HN","formatted_address":"3RRC+FPP, Tegucigalpa, Francisco Morazán, Honduras","locality":"Tegucigalpa","region":"Francisco Morazán Department"}},"labels":["sport","volleyball"],"duration":0,"start_local":"2024-06-24T14:30:00","end":"2024-06-24T20:30:00Z","end_local":"2024-06-24T14:30:00","updated":"2024-06-02T14:08:27Z"},{"title":"U23 Central American Championship (W) - Round-Robin - Honduras U23 vs Panama U23","description":"Sourced from predicthq.com","category":"sports","start":"2024-06-24T02:00:00Z","geo":{"geometry":{"coordinates":[-87.1781132,14.0912434],"type":"Point"},"placekey":"@d5p-gxk-5mk","address":{"country_code":"HN","formatted_address":"3RRC+FPP, Tegucigalpa, Francisco Morazán, Honduras","locality":"Tegucigalpa","region":"Francisco Morazán Department"}},"labels":["sport","volleyball"],"duration":0,"start_local":"2024-06-23T20:00:00","end":"2024-06-24T02:00:00Z","end_local":"2024-06-23T20:00:00","updated":"2024-06-02T14:08:22Z"},{"title":"U23 Central American Championship (W) - Round-Robin - Nicaragua U23 vs El Salvador U23","description":"Sourced from predicthq.com","category":"sports","start":"2024-06-23T23:00:00Z","geo":{"geometry":{"coordinates":[-87.1781132,14.0912434],"type":"Point"},"placekey":"@d5p-gxk-5mk","address":{"country_code":"HN","formatted_address":"3RRC+FPP, Tegucigalpa, Francisco Morazán, Honduras","locality":"Tegucigalpa","region":"Francisco Morazán Department"}},"labels":["sport","volleyball"],"duration":0,"start_local":"2024-06-23T17:00:00","end":"2024-06-23T23:00:00Z","end_local":"2024-06-23T17:00:00","updated":"2024-06-02T14:07:47Z"},{"title":"U23 Central American Championship (W) - Round-Robin - Guatemala U23 vs Belize U23","description":"Sourced from predicthq.com","category":"sports","start":"2024-06-23T20:30:00Z","geo":{"geometry":{"coordinates":[-87.1781132,14.0912434],"type":"Point"},"placekey":"@d5p-gxk-5mk","address":{"country_code":"HN","formatted_address":"3RRC+FPP, Tegucigalpa, Francisco Morazán, Honduras","locality":"Tegucigalpa","region":"Francisco Morazán Department"}},"labels":["sport","volleyball"],"duration":0,"start_local":"2024-06-23T14:30:00","end":"2024-06-23T20:30:00Z","end_local":"2024-06-23T14:30:00","updated":"2024-06-02T14:07:52Z"},{"title":"Banda MS de Sergio Lizárraga","description":"Sourced from predicthq.com","category":"concerts","start":"2024-06-16T01:00:00Z","geo":{"geometry":{"coordinates":[-88.0152465,15.5282215],"type":"Point"},"placekey":"@8h5-gbn-kpv","address":{"country_code":"HN","formatted_address":"25 Cl. NE, 21101 San Pedro Sula, Cortés, Honduras","postcode":"21101","locality":"San Pedro Sula","region":"Departamento de Cortés"}},"labels":["concert","music"],"duration":0,"start_local":"2024-06-15T19:00:00","end":"2024-06-16T01:00:00Z","end_local":"2024-06-15T19:00:00","updated":"2024-06-30T01:04:57Z"},{"title":"Fusionando Cuentos y Arte en Fundación Ruth Paz","description":"Sourced from predicthq.com - Queres conocer más acerca de esta organización, te invitamos a ingresar al siguiente enlace:  \nhttps://www.fundacionruthpaz.org/","category":"conferences","start":"2024-06-13T15:00:00Z","geo":{"geometry":{"coordinates":[-88.03034129999999,15.5003437],"type":"Point"},"placekey":"@8h5-gbv-y5f","address":{"country_code":"HN","formatted_address":"9 Avenida South, 21104 San Pedro Sula, Honduras","locality":"San Pedro Sula","postcode":"21104","region":"Cortés Department"}},"labels":["conference","performing-arts"],"duration":10800,"start_local":"2024-06-13T09:00:00","end":"2024-06-13T18:00:00Z","end_local":"2024-06-13T12:00:00","updated":"2024-05-23T03:34:50Z"},{"title":"SPORTBIZ HONDURAS 2024","description":"Sourced from predicthq.com - Congreso Latinoamericano de Sports Business - 29 & 30 de Mayo - 2024","category":"conferences","start":"2024-05-29T19:00:00Z","geo":{"geometry":{"coordinates":[-88.0152465,15.5282215],"type":"Point"},"placekey":"@8h5-gbn-kpv","address":{"country_code":"HN","formatted_address":"25 Cl. NE, 21101 San Pedro Sula, Cortés, Honduras","postcode":"21101","locality":"San Pedro Sula","region":"Departamento de Cortés"}},"labels":["business","conference"],"duration":108000,"start_local":"2024-05-29T13:00:00","end":"2024-05-31T01:00:00Z","end_local":"2024-05-30T19:00:00","updated":"2024-06-12T09:57:12Z"},{"title":"La IA en la formación universitaria: claves para futuros profesionales","description":"Sourced from predicthq.com - ¿Eres estudiante? Explora, en esta conferencia del Dr. Miguel Morales de la Universidad Galileo, cómo la IA puede transformar tu formación.","category":"conferences","start":"2024-05-28T15:00:00Z","geo":{"geometry":{"coordinates":[-88.0317232,15.5185686],"type":"Point"},"placekey":"@8h5-gbv-8sq","address":{"country_code":"HN","formatted_address":"Colonia Colombia, contiguo a Teatro Jose Francisco Saybe,, San Pedro Sula 21102, Honduras","postcode":"21102","locality":"San Pedro Sula","region":"Departamento de Cortés"}},"labels":["conference","science","technology"],"duration":5400,"start_local":"2024-05-28T09:00:00","end":"2024-05-28T16:30:00Z","end_local":"2024-05-28T10:30:00","updated":"2024-06-05T07:06:37Z"},{"title":"Eric Ragno - Keyboards / Rock Keyboard Player and Legends of Classic Rock","description":"Sourced from predicthq.com","category":"concerts","start":"2024-05-28T02:00:00Z","geo":{"geometry":{"coordinates":[-87.2166672,14.1000004],"type":"Point"},"placekey":"@d5p-gyb-2ff","address":{"country_code":"HN","formatted_address":"Tegucigalpa, Francisco Morazán Department, Honduras","locality":"Tegucigalpa","region":"Francisco Morazán Department"}},"labels":["concert","music"],"duration":0,"start_local":"2024-05-27T20:00:00","end":"2024-05-28T02:00:00Z","end_local":"2024-05-27T20:00:00","updated":"2024-06-11T21:28:43Z"},{"title":"La innovación con IA en la educación: claves para docentes universitarios","description":"Sourced from predicthq.com - Descubre cómo la IA transforma la docencia universitaria en esta conferencia del Dr. Miguel Morales de la Universidad Galileo.","category":"conferences","start":"2024-05-27T23:30:00Z","geo":{"geometry":{"coordinates":[-88.0317232,15.5185686],"type":"Point"},"placekey":"@8h5-gbv-8sq","address":{"country_code":"HN","formatted_address":"Colonia Colombia, contiguo a Teatro Jose Francisco Saybe,, San Pedro Sula 21102, Honduras","postcode":"21102","locality":"San Pedro Sula","region":"Departamento de Cortés"}},"labels":["conference","science","technology"],"duration":5400,"start_local":"2024-05-27T17:30:00","end":"2024-05-28T01:00:00Z","end_local":"2024-05-27T19:00:00","updated":"2024-06-05T15:37:26Z"},{"title":"Liga Nacional - Clausura - Final - Marathón vs Olimpia","description":"Sourced from predicthq.com","category":"sports","start":"2024-05-25T21:00:00Z","geo":{"geometry":{"coordinates":[-87.9993056,15.4955801],"type":"Point"},"placekey":"@8h5-gbd-hqz","address":{"country_code":"HN","formatted_address":"21103 San Pedro Sula, Honduras","postcode":"21103","locality":"San Pedro Sula","region":"Departamento de Cortés"}},"labels":["soccer","sport"],"duration":7146,"start_local":"2024-05-25T15:00:00","end":"2024-05-25T22:59:06Z","end_local":"2024-05-25T16:59:06","updated":"2024-05-25T23:32:05Z"},{"title":"Aprendiendo a resolver conflictos","description":"Sourced from predicthq.com - Este evento contará con la participación del Pastor Edwing Cárcamo de la Iglesia Gran Comisión Tegucigalpa.","category":"conferences","start":"2024-05-25T01:00:00Z","geo":{"geometry":{"coordinates":[-87.18345599999999,13.3065264],"type":"Point"},"placekey":"@d5n-h77-zcq","address":{"country_code":"HN","formatted_address":"Choluteca, Choluteca Department, Honduras","locality":"Choluteca","region":"Choluteca Department"}},"labels":["conference","religion"],"duration":7200,"start_local":"2024-05-24T19:00:00","end":"2024-05-25T03:00:00Z","end_local":"2024-05-24T21:00:00","updated":"2024-05-23T01:28:51Z"},{"title":"Tarde musical y entretenimiento en Asilo de Ancianos San Vicente de Paul","description":"Sourced from predicthq.com - Asilo de ancianos","category":"performing-arts","start":"2024-05-24T19:30:00Z","geo":{"geometry":{"coordinates":[-87.97167089999999,15.4806913],"type":"Point"},"placekey":"@8h5-gbc-cdv","address":{"country_code":"HN","formatted_address":"21101 San Pedro Sula, Honduras","locality":"San Pedro Sula","postcode":"21101","region":"Cortés Department"}},"labels":["community","concert","music"],"duration":10800,"start_local":"2024-05-24T13:30:00","end":"2024-05-24T22:30:00Z","end_local":"2024-05-24T16:30:00","updated":"2024-06-05T04:10:38Z"},{"title":"Limpieza vivero ICF","description":"Sourced from predicthq.com - Limpieza vivero ICF","category":"expos","start":"2024-05-24T14:00:00Z","geo":{"geometry":{"coordinates":[-86.7919009,15.770288],"type":"Point"},"placekey":"@8h5-ztf-2kz","address":{"country_code":"HN","formatted_address":"La Ceiba, Atlántida Department, Honduras","locality":"La Ceiba","region":"Atlántida Department"}},"labels":["expo","fundraiser"],"duration":14400,"start_local":"2024-05-24T08:00:00","end":"2024-05-24T18:00:00Z","end_local":"2024-05-24T12:00:00","updated":"2024-06-05T06:57:32Z"},{"title":"Semana de la Sostenibilidad 2024","description":"Sourced from predicthq.com - \"IMPULSANDO NEGOCIOS SOSTENIBLES Y SOCIEDADES RESILIENTES\"","category":"concerts","start":"2024-05-24T14:00:00Z","geo":{"geometry":{"coordinates":[-88.0174239,15.5280121],"type":"Point"},"placekey":"@8h5-gbp-9mk","address":{"country_code":"HN","formatted_address":"25 Calle, 21101 San Pedro Sula, Honduras","locality":"San Pedro Sula","postcode":"21101","region":"Cortés Department"}},"labels":["concert","fundraiser","music"],"duration":120600,"start_local":"2024-05-24T08:00:00","end":"2024-05-25T23:30:00Z","end_local":"2024-05-25T17:30:00","updated":"2024-05-23T17:06:25Z"},{"title":"Taller de Storytelling| Narrando la Innovación by Ing. Gabriela Torres","description":"Sourced from predicthq.com - Aprende a contar historias impactantes sobre innovación en el taller de Storytelling con la Ing. Gabriela Torres. ¡No te lo pierdas!","category":"conferences","start":"2024-05-23T16:00:00Z","geo":{"geometry":{"coordinates":[-87.1715002,14.065049],"type":"Point"},"placekey":"@d5p-ghc-4vz","address":{"country_code":"HN","formatted_address":"Tegucigalpa, Departamento de Francisco Morazán, Honduras","locality":"Tegucigalpa","region":"Departamento de Francisco Morazán"}},"labels":["business","conference"],"duration":3600,"start_local":"2024-05-23T10:00:00","end":"2024-05-23T17:00:00Z","end_local":"2024-05-23T11:00:00","updated":"2024-05-23T01:21:41Z"},{"title":"Fusionando Cuentos y Arte en Fundación Ruth Paz","description":"Sourced from predicthq.com - Queres conocer más acerca de esta organización, te invitamos a ingresar al siguiente enlace:  \nhttps://www.fundacionruthpaz.org/","category":"conferences","start":"2024-05-22T15:00:00Z","geo":{"geometry":{"coordinates":[-88.03034129999999,15.5003437],"type":"Point"},"placekey":"@8h5-gbv-y5f","address":{"country_code":"HN","formatted_address":"9 Avenida South, 21104 San Pedro Sula, Honduras","locality":"San Pedro Sula","postcode":"21104","region":"Cortés Department"}},"labels":["conference","performing-arts"],"duration":10800,"start_local":"2024-05-22T09:00:00","end":"2024-05-22T18:00:00Z","end_local":"2024-05-22T12:00:00","updated":"2024-06-05T06:46:44Z"},{"title":"Liga Nacional - Clausura - Final - Olimpia vs Marathón","description":"Sourced from predicthq.com","category":"sports","start":"2024-05-20T00:00:00Z","geo":{"geometry":{"coordinates":[-87.20387540000002,14.0984417],"type":"Point"},"placekey":"@d5p-gyd-4vz","address":{"country_code":"HN","formatted_address":"3QXW+9CM, Tegucigalpa, Honduras","locality":"Tegucigalpa","region":"Francisco Morazán Department"}},"labels":["soccer","sport"],"duration":7074,"start_local":"2024-05-19T18:00:00","end":"2024-05-20T01:57:54Z","end_local":"2024-05-19T19:57:54","updated":"2024-06-05T01:15:17Z"},{"title":"EXPOCONSTRUYE 2024","description":"Sourced from predicthq.com - El evento más importante del rubro de la constucción en Honduras","category":"conferences","start":"2024-05-16T15:00:00Z","geo":{"geometry":{"coordinates":[-87.17012059999999,14.0848971],"type":"Point"},"placekey":"@d5p-gxm-cdv","address":{"country_code":"HN","formatted_address":"Tegucigalpa, Francisco Morazán Department, Honduras","locality":"Tegucigalpa","region":"Francisco Morazán Department"}},"labels":["business","conference"],"duration":43200,"start_local":"2024-05-16T09:00:00","end":"2024-05-17T03:00:00Z","end_local":"2024-05-16T21:00:00","updated":"2024-06-05T10:01:19Z"},{"title":"Liga Nacional - Clausura - Semi-finals - Motagua vs Olimpia","description":"Sourced from predicthq.com","category":"sports","start":"2024-05-12T01:00:00Z","geo":{"geometry":{"coordinates":[-87.20387540000002,14.0984417],"type":"Point"},"placekey":"@d5p-gyd-4vz","address":{"country_code":"HN","formatted_address":"3QXW+9CM, Tegucigalpa, Honduras","locality":"Tegucigalpa","region":"Francisco Morazán Department"}},"labels":["soccer","sport"],"duration":7104,"start_local":"2024-05-11T19:00:00","end":"2024-05-12T02:58:24Z","end_local":"2024-05-11T20:58:24","updated":"2024-06-05T05:01:21Z"},{"title":"Liga Nacional - Clausura - Semi-finals - Marathón vs Génesis","description":"Sourced from predicthq.com","category":"sports","start":"2024-05-11T21:30:00Z","geo":{"geometry":{"coordinates":[-87.9993056,15.4955801],"type":"Point"},"placekey":"@8h5-gbd-hqz","address":{"country_code":"HN","formatted_address":"21103 San Pedro Sula, Honduras","postcode":"21103","locality":"San Pedro Sula","region":"Departamento de Cortés"}},"labels":["soccer","sport"],"duration":6877,"start_local":"2024-05-11T15:30:00","end":"2024-05-11T23:24:37Z","end_local":"2024-05-11T17:24:37","updated":"2024-05-24T09:50:25Z"},{"title":"La Ceiba Carnival","description":"Sourced from predicthq.com - Every May our little town of La Ceiba, Honduras hosts Gran Carnaval Internacional de La Ceiba, or Carnival for short. The festival, which honors Saint Isidore the Laborer, the patron saint of La Ceiba, is the second biggest carnival in the world.","category":"festivals","start":"2024-05-11T06:00:00Z","geo":{"geometry":{"coordinates":[-86.7919009,15.770288],"type":"Point"},"placekey":"@8h5-ztf-2kz","address":{"country_code":"HN","formatted_address":"La Ceiba, Atlántida Department, Honduras","locality":"La Ceiba","region":"Atlántida Department"}},"labels":["community","festival"],"duration":1295999,"start_local":"2024-05-11T00:00:00","end":"2024-05-26T05:59:59Z","end_local":"2024-05-25T23:59:59","updated":"2024-06-05T04:41:39Z"},{"title":"Liga Nacional - Clausura - Semi-finals - Olimpia vs Motagua","description":"Sourced from predicthq.com","category":"sports","start":"2024-05-09T02:06:00Z","geo":{"geometry":{"coordinates":[-87.20387540000002,14.0984417],"type":"Point"},"placekey":"@d5p-gyd-4vz","address":{"country_code":"HN","formatted_address":"3QXW+9CM, Tegucigalpa, Honduras","locality":"Tegucigalpa","region":"Francisco Morazán Department"}},"labels":["soccer","sport"],"duration":6907,"start_local":"2024-05-08T20:06:00","end":"2024-05-09T04:01:07Z","end_local":"2024-05-08T22:01:07","updated":"2024-06-04T22:35:26Z"},{"title":"Liga Nacional - Clausura - Semi-finals - Génesis vs Marathón","description":"Sourced from predicthq.com","category":"sports","start":"2024-05-09T00:00:00Z","geo":{"geometry":{"coordinates":[-87.65682220458984,14.45376610780869],"type":"Point"},"placekey":"@8h7-6x6-x89","address":{"country_code":"HN","formatted_address":"F83V+C7W, Comayagua, Honduras","locality":"Comayagua","region":"Comayagua Department"}},"labels":["soccer","sport"],"duration":6938,"start_local":"2024-05-08T18:00:00","end":"2024-05-09T01:55:38Z","end_local":"2024-05-08T19:55:38","updated":"2024-06-05T00:52:25Z"},{"title":"Liga Nacional - Clausura - Preliminary Play-offs - Olancho vs Génesis","description":"Sourced from predicthq.com","category":"sports","start":"2024-05-05T22:00:00Z","geo":{"geometry":{"coordinates":[-86.216308,14.6585826],"type":"Point"},"placekey":"@8hc-gbk-pn5","address":{"country_code":"HN","formatted_address":"MQ5M+CFP, Juticalpa, Olancho, Honduras","locality":"Juticalpa","region":"Olancho Department"}},"labels":["soccer","sport"],"duration":6977,"start_local":"2024-05-05T16:00:00","end":"2024-05-05T23:56:17Z","end_local":"2024-05-05T17:56:17","updated":"2024-06-05T14:30:42Z"},{"title":"Liga Nacional - Clausura - Preliminary Play-offs - Olimpia vs Real España","description":"Sourced from predicthq.com","category":"sports","start":"2024-05-05T01:00:00Z","geo":{"geometry":{"coordinates":[-87.20387540000002,14.0984417],"type":"Point"},"placekey":"@d5p-gyd-4vz","address":{"country_code":"HN","formatted_address":"3QXW+9CM, Tegucigalpa, Honduras","locality":"Tegucigalpa","region":"Francisco Morazán Department"}},"labels":["soccer","sport"],"duration":7030,"start_local":"2024-05-04T19:00:00","end":"2024-05-05T02:57:10Z","end_local":"2024-05-04T20:57:10","updated":"2024-06-05T03:38:29Z"},{"title":"Liga Nacional - Relegation Play-offs - Final - UPNFM vs Vida","description":"Sourced from predicthq.com","category":"sports","start":"2024-05-04T21:00:00Z","geo":{"geometry":{"coordinates":[-87.14911889999996,13.2954609],"type":"Point"},"placekey":"@d5n-h7b-649","address":{"country_code":"HN","formatted_address":"Balcanes; Parque Industrial Pacific, 7VW2+59J, Choluteca, Honduras","locality":"Choluteca","region":"Departamento de Choluteca"}},"labels":["soccer","sport"],"duration":6859,"start_local":"2024-05-04T15:00:00","end":"2024-05-04T22:54:19Z","end_local":"2024-05-04T16:54:19","updated":"2024-06-05T03:26:22Z"},{"title":"La Fiesta","description":"Sourced from predicthq.com","category":"festivals","start":"2024-05-04T06:00:00Z","geo":{"geometry":{"coordinates":[-87.1643,14.09014],"type":"Point"},"placekey":"@d5p-gxn-3wk","address":{"country_code":"HN","formatted_address":"3RRP+374, Tegucigalpa, Francisco Morazán, Honduras","locality":"Tegucigalpa","region":"Francisco Morazán Department"}},"labels":["festival","music"],"duration":86399,"start_local":"2024-05-04T00:00:00","end":"2024-05-05T05:59:59Z","end_local":"2024-05-04T23:59:59","updated":"2024-06-04T22:03:55Z"},{"title":"Liga Nacional - Clausura - Preliminary Play-offs - Génesis vs Olancho","description":"Sourced from predicthq.com","category":"sports","start":"2024-05-03T01:00:00Z","geo":{"geometry":{"coordinates":[-87.65682220458984,14.45376610780869],"type":"Point"},"placekey":"@8h7-6x6-x89","address":{"country_code":"HN","formatted_address":"F83V+C7W, Comayagua, Honduras","locality":"Comayagua","region":"Comayagua Department"}},"labels":["soccer","sport"],"duration":6819,"start_local":"2024-05-02T19:00:00","end":"2024-05-03T02:53:39Z","end_local":"2024-05-02T20:53:39","updated":"2024-06-05T07:48:20Z"},{"title":"Liga Nacional - Clausura - Preliminary Play-offs - Real España vs Olimpia","description":"Sourced from predicthq.com","category":"sports","start":"2024-05-02T01:00:00Z","geo":{"geometry":{"coordinates":[-88.0067624,15.4703282],"type":"Point"},"placekey":"@8h5-gbf-bx5","address":{"country_code":"HN","formatted_address":"FXCV+27X, 33 Calle, 21103 San Pedro Sula, Cortés, Honduras","postcode":"21103","locality":"San Pedro Sula","region":"Departamento de Cortés"}},"labels":["soccer","sport"],"duration":6654,"start_local":"2024-05-01T19:00:00","end":"2024-05-02T02:50:54Z","end_local":"2024-05-01T20:50:54","updated":"2024-06-05T02:42:47Z"},{"title":"Liga Nacional - Relegation Play-offs - Final - Vida vs UPNFM","description":"Sourced from predicthq.com","category":"sports","start":"2024-05-01T21:00:00Z","geo":{"geometry":{"coordinates":[-86.78591966629028,15.786079799670722],"type":"Point"},"placekey":"@8h5-ztd-dqf","address":{"country_code":"HN","formatted_address":"Q6R6+2X4, La Ceiba, Atlántida, Honduras","locality":"La Ceiba","region":"Atlántida Department"}},"labels":["soccer","sport"],"duration":7120,"start_local":"2024-05-01T15:00:00","end":"2024-05-01T22:58:40Z","end_local":"2024-05-01T16:58:40","updated":"2024-06-05T15:21:35Z"},{"title":"Liga Nacional - Clausura - Real Sociedad vs Real España","description":"Sourced from predicthq.com","category":"sports","start":"2024-04-28T21:30:00Z","geo":{"geometry":{"coordinates":[-85.98833531141281,15.65564862014324],"type":"Point"},"placekey":"@8hb-c6r-pqf","address":{"country_code":"HN","formatted_address":"M246+4MC, Tocoa, Colón, Honduras","locality":"Tocoa","region":"Colón Department"}},"labels":["soccer","sport"],"duration":7182,"start_local":"2024-04-28T15:30:00","end":"2024-04-28T23:29:42Z","end_local":"2024-04-28T17:29:42","updated":"2024-06-04T22:14:40Z"},{"title":"Liga Nacional - Clausura - Vida vs Motagua","description":"Sourced from predicthq.com","category":"sports","start":"2024-04-28T21:30:00Z","geo":{"geometry":{"coordinates":[-86.78591966629028,15.786079799670722],"type":"Point"},"placekey":"@8h5-ztd-dqf","address":{"country_code":"HN","formatted_address":"Q6R6+2X4, La Ceiba, Atlántida, Honduras","locality":"La Ceiba","region":"Atlántida Department"}},"labels":["soccer","sport"],"duration":7175,"start_local":"2024-04-28T15:30:00","end":"2024-04-28T23:29:35Z","end_local":"2024-04-28T17:29:35","updated":"2024-06-05T02:15:23Z"},{"title":"Liga Nacional - Clausura - Olimpia vs Victoria","description":"Sourced from predicthq.com","category":"sports","start":"2024-04-28T21:30:00Z","geo":{"geometry":{"coordinates":[-87.20387540000002,14.0984417],"type":"Point"},"placekey":"@d5p-gyd-4vz","address":{"country_code":"HN","formatted_address":"3QXW+9CM, Tegucigalpa, Honduras","locality":"Tegucigalpa","region":"Francisco Morazán Department"}},"labels":["soccer","sport"],"duration":6815,"start_local":"2024-04-28T15:30:00","end":"2024-04-28T23:23:35Z","end_local":"2024-04-28T17:23:35","updated":"2024-06-05T08:14:32Z"},{"title":"Liga Nacional - Clausura - Marathón vs Olancho","description":"Sourced from predicthq.com","category":"sports","start":"2024-04-28T21:30:00Z","geo":{"geometry":{"coordinates":[-87.9993056,15.4955801],"type":"Point"},"placekey":"@8h5-gbd-hqz","address":{"country_code":"HN","formatted_address":"21103 San Pedro Sula, Honduras","postcode":"21103","locality":"San Pedro Sula","region":"Departamento de Cortés"}},"labels":["soccer","sport"],"duration":7116,"start_local":"2024-04-28T15:30:00","end":"2024-04-28T23:28:36Z","end_local":"2024-04-28T17:28:36","updated":"2024-05-24T09:09:06Z"},{"title":"Liga Nacional - Clausura - Génesis vs UPNFM","description":"Sourced from predicthq.com","category":"sports","start":"2024-04-28T21:30:00Z","geo":{"geometry":{"coordinates":[-87.65682220458984,14.45376610780869],"type":"Point"},"placekey":"@8h7-6x6-x89","address":{"country_code":"HN","formatted_address":"F83V+C7W, Comayagua, Honduras","locality":"Comayagua","region":"Comayagua Department"}},"labels":["soccer","sport"],"duration":6962,"start_local":"2024-04-28T15:30:00","end":"2024-04-28T23:26:02Z","end_local":"2024-04-28T17:26:02","updated":"2024-06-05T08:35:25Z"},{"title":"Charla seguro medico","description":"Sourced from predicthq.com - cjjd","category":"conferences","start":"2024-04-26T15:00:00Z","geo":{"geometry":{"coordinates":[-87.1740727,14.0481371],"type":"Point"},"placekey":"@d5p-gh5-skf","address":{"country_code":"HN","formatted_address":"2RXG+77G, Tegucigalpa, Francisco Morazán, Honduras","locality":"Tegucigalpa","region":"Francisco Morazán Department"}},"labels":["conference","health"],"duration":3600,"start_local":"2024-04-26T09:00:00","end":"2024-04-26T16:00:00Z","end_local":"2024-04-26T10:00:00","updated":"2024-06-05T04:09:35Z"},{"title":"Liga Nacional - Clausura - Victoria vs Marathón","description":"Sourced from predicthq.com","category":"sports","start":"2024-04-26T01:30:00Z","geo":{"geometry":{"coordinates":[-86.78591966629028,15.786079799670722],"type":"Point"},"placekey":"@8h5-ztd-dqf","address":{"country_code":"HN","formatted_address":"Q6R6+2X4, La Ceiba, Atlántida, Honduras","locality":"La Ceiba","region":"Atlántida Department"}},"labels":["soccer","sport"],"duration":6938,"start_local":"2024-04-25T19:30:00","end":"2024-04-26T03:25:38Z","end_local":"2024-04-25T21:25:38","updated":"2024-06-05T11:24:56Z"},{"title":"Mon Laferte","description":"Sourced from predicthq.com","category":"concerts","start":"2024-04-26T01:00:00Z","geo":{"geometry":{"coordinates":[-87.1575813,14.0840971],"type":"Point"},"placekey":"@d5p-gxm-3t9","address":{"country_code":"HN","formatted_address":"Ingenieros Coliseum, Tegucigalpa, Honduras","locality":"Tegucigalpa","region":"Francisco Morazán Department"}},"labels":["concert","music"],"duration":0,"start_local":"2024-04-25T19:00:00","end":"2024-04-26T01:00:00Z","end_local":"2024-04-25T19:00:00","updated":"2024-06-27T16:43:11Z"},{"title":"Liga Nacional - Clausura - Motagua vs Real Sociedad","description":"Sourced from predicthq.com","category":"sports","start":"2024-04-25T23:15:00Z","geo":{"geometry":{"coordinates":[-87.20387540000002,14.0984417],"type":"Point"},"placekey":"@d5p-gyd-4vz","address":{"country_code":"HN","formatted_address":"3QXW+9CM, Tegucigalpa, Honduras","locality":"Tegucigalpa","region":"Francisco Morazán Department"}},"labels":["soccer","sport"],"duration":6718,"start_local":"2024-04-25T17:15:00","end":"2024-04-26T01:06:58Z","end_local":"2024-04-25T19:06:58","updated":"2024-06-05T04:04:17Z"},{"title":"Liga Nacional - Clausura - UPNFM vs Olimpia","description":"Sourced from predicthq.com","category":"sports","start":"2024-04-25T01:30:00Z","geo":{"geometry":{"coordinates":[-87.14911889999996,13.2954609],"type":"Point"},"placekey":"@d5n-h7b-649","address":{"country_code":"HN","formatted_address":"Balcanes; Parque Industrial Pacific, 7VW2+59J, Choluteca, Honduras","locality":"Choluteca","region":"Departamento de Choluteca"}},"labels":["soccer","sport"],"duration":7974,"start_local":"2024-04-24T19:30:00","end":"2024-04-25T03:42:54Z","end_local":"2024-04-24T21:42:54","updated":"2024-06-05T11:04:35Z"},{"title":"Liga Nacional - Clausura - Olancho vs Vida","description":"Sourced from predicthq.com","category":"sports","start":"2024-04-24T23:15:00Z","geo":{"geometry":{"coordinates":[-86.216308,14.6585826],"type":"Point"},"placekey":"@8hc-gbk-pn5","address":{"country_code":"HN","formatted_address":"MQ5M+CFP, Juticalpa, Olancho, Honduras","locality":"Juticalpa","region":"Olancho Department"}},"labels":["soccer","sport"],"duration":6782,"start_local":"2024-04-24T17:15:00","end":"2024-04-25T01:08:02Z","end_local":"2024-04-24T19:08:02","updated":"2024-06-05T09:16:11Z"},{"title":"Liga Nacional - Clausura - Real España vs Génesis","description":"Sourced from predicthq.com","category":"sports","start":"2024-04-24T01:00:00Z","geo":{"geometry":{"coordinates":[-88.0067624,15.4703282],"type":"Point"},"placekey":"@8h5-gbf-bx5","address":{"country_code":"HN","formatted_address":"FXCV+27X, 33 Calle, 21103 San Pedro Sula, Cortés, Honduras","postcode":"21103","locality":"San Pedro Sula","region":"Departamento de Cortés"}},"labels":["soccer","sport"],"duration":7122,"start_local":"2024-04-23T19:00:00","end":"2024-04-24T02:58:42Z","end_local":"2024-04-23T20:58:42","updated":"2024-06-05T00:45:40Z"},{"title":"Liga Nacional - Clausura - Olimpia vs Motagua","description":"Sourced from predicthq.com","category":"sports","start":"2024-04-21T23:00:00Z","geo":{"geometry":{"coordinates":[-87.20387540000002,14.0984417],"type":"Point"},"placekey":"@d5p-gyd-4vz","address":{"country_code":"HN","formatted_address":"3QXW+9CM, Tegucigalpa, Honduras","locality":"Tegucigalpa","region":"Francisco Morazán Department"}},"labels":["soccer","sport"],"duration":7278,"start_local":"2024-04-21T17:00:00","end":"2024-04-22T01:01:18Z","end_local":"2024-04-21T19:01:18","updated":"2024-06-05T02:46:30Z"},{"title":"Liga Nacional - Clausura - Génesis vs Olancho","description":"Sourced from predicthq.com","category":"sports","start":"2024-04-21T01:30:00Z","geo":{"geometry":{"coordinates":[-87.65682220458984,14.45376610780869],"type":"Point"},"placekey":"@8h7-6x6-x89","address":{"country_code":"HN","formatted_address":"F83V+C7W, Comayagua, Honduras","locality":"Comayagua","region":"Comayagua Department"}},"labels":["soccer","sport"],"duration":6887,"start_local":"2024-04-20T19:30:00","end":"2024-04-21T03:24:47Z","end_local":"2024-04-20T21:24:47","updated":"2024-06-05T06:27:44Z"},{"title":"Liga Nacional - Clausura - Real Sociedad vs Vida","description":"Sourced from predicthq.com","category":"sports","start":"2024-04-20T23:15:00Z","geo":{"geometry":{"coordinates":[-85.98833531141281,15.65564862014324],"type":"Point"},"placekey":"@8hb-c6r-pqf","address":{"country_code":"HN","formatted_address":"M246+4MC, Tocoa, Colón, Honduras","locality":"Tocoa","region":"Colón Department"}},"labels":["soccer","sport"],"duration":6828,"start_local":"2024-04-20T17:15:00","end":"2024-04-21T01:08:48Z","end_local":"2024-04-20T19:08:48","updated":"2024-06-05T06:11:12Z"},{"title":"Liga Nacional - Clausura - Marathón vs Real España","description":"Sourced from predicthq.com","category":"sports","start":"2024-04-20T21:00:00Z","geo":{"geometry":{"coordinates":[-87.9993056,15.4955801],"type":"Point"},"placekey":"@8h5-gbd-hqz","address":{"country_code":"HN","formatted_address":"21103 San Pedro Sula, Honduras","postcode":"21103","locality":"San Pedro Sula","region":"Departamento de Cortés"}},"labels":["soccer","sport"],"duration":7115,"start_local":"2024-04-20T15:00:00","end":"2024-04-20T22:58:35Z","end_local":"2024-04-20T16:58:35","updated":"2024-05-24T09:20:33Z"},{"title":"Liga Nacional - Clausura - Victoria vs UPNFM","description":"Sourced from predicthq.com","category":"sports","start":"2024-04-20T01:00:00Z","geo":{"geometry":{"coordinates":[-86.78591966629028,15.786079799670722],"type":"Point"},"placekey":"@8h5-ztd-dqf","address":{"country_code":"HN","formatted_address":"Q6R6+2X4, La Ceiba, Atlántida, Honduras","locality":"La Ceiba","region":"Atlántida Department"}},"labels":["soccer","sport"],"duration":6910,"start_local":"2024-04-19T19:00:00","end":"2024-04-20T02:55:10Z","end_local":"2024-04-19T20:55:10","updated":"2024-06-05T00:45:32Z"},{"title":"Liga Nacional - Clausura - Marathón vs Olimpia","description":"Sourced from predicthq.com","category":"sports","start":"2024-04-17T21:30:00Z","geo":{"geometry":{"coordinates":[-88.0067624,15.4703282],"type":"Point"},"placekey":"@8h5-gbf-bx5","address":{"country_code":"HN","formatted_address":"FXCV+27X, 33 Calle, 21103 San Pedro Sula, Cortés, Honduras","postcode":"21103","locality":"San Pedro Sula","region":"Departamento de Cortés"}},"labels":["soccer","sport"],"duration":7123,"start_local":"2024-04-17T15:30:00","end":"2024-04-17T23:28:43Z","end_local":"2024-04-17T17:28:43","updated":"2024-06-05T00:43:13Z"},{"title":"Liga Nacional - Clausura - Vida vs Génesis","description":"Sourced from predicthq.com","category":"sports","start":"2024-04-15T01:30:00Z","geo":{"geometry":{"coordinates":[-86.78591966629028,15.786079799670722],"type":"Point"},"placekey":"@8h5-ztd-dqf","address":{"country_code":"HN","formatted_address":"Q6R6+2X4, La Ceiba, Atlántida, Honduras","locality":"La Ceiba","region":"Atlántida Department"}},"labels":["soccer","sport"],"duration":7082,"start_local":"2024-04-14T19:30:00","end":"2024-04-15T03:28:02Z","end_local":"2024-04-14T21:28:02","updated":"2024-06-05T06:28:58Z"},{"title":"Liga Nacional - Clausura - Motagua vs UPNFM","description":"Sourced from predicthq.com","category":"sports","start":"2024-04-14T23:15:00Z","geo":{"geometry":{"coordinates":[-87.20387540000002,14.0984417],"type":"Point"},"placekey":"@d5p-gyd-4vz","address":{"country_code":"HN","formatted_address":"3QXW+9CM, Tegucigalpa, Honduras","locality":"Tegucigalpa","region":"Francisco Morazán Department"}},"labels":["soccer","sport"],"duration":6587,"start_local":"2024-04-14T17:15:00","end":"2024-04-15T01:04:47Z","end_local":"2024-04-14T19:04:47","updated":"2024-06-05T10:13:42Z"},{"title":"Liga Nacional - Clausura - Olancho vs Olimpia","description":"Sourced from predicthq.com","category":"sports","start":"2024-04-14T21:00:00Z","geo":{"geometry":{"coordinates":[-86.216308,14.6585826],"type":"Point"},"placekey":"@8hc-gbk-pn5","address":{"country_code":"HN","formatted_address":"MQ5M+CFP, Juticalpa, Olancho, Honduras","locality":"Juticalpa","region":"Olancho Department"}},"labels":["soccer","sport"],"duration":6826,"start_local":"2024-04-14T15:00:00","end":"2024-04-14T22:53:46Z","end_local":"2024-04-14T16:53:46","updated":"2024-06-05T06:41:06Z"},{"title":"Liga Nacional - Clausura - Real España vs Victoria","description":"Sourced from predicthq.com","category":"sports","start":"2024-04-14T01:15:00Z","geo":{"geometry":{"coordinates":[-88.0067624,15.4703282],"type":"Point"},"placekey":"@8h5-gbf-bx5","address":{"country_code":"HN","formatted_address":"FXCV+27X, 33 Calle, 21103 San Pedro Sula, Cortés, Honduras","postcode":"21103","locality":"San Pedro Sula","region":"Departamento de Cortés"}},"labels":["soccer","sport"],"duration":7326,"start_local":"2024-04-13T19:15:00","end":"2024-04-14T03:17:06Z","end_local":"2024-04-13T21:17:06","updated":"2024-06-05T09:22:48Z"},{"title":"Liga Nacional - Clausura - Real Sociedad vs Marathón","description":"Sourced from predicthq.com","category":"sports","start":"2024-04-13T23:00:00Z","geo":{"geometry":{"coordinates":[-85.98833531141281,15.65564862014324],"type":"Point"},"placekey":"@8hb-c6r-pqf","address":{"country_code":"HN","formatted_address":"M246+4MC, Tocoa, Colón, Honduras","locality":"Tocoa","region":"Colón Department"}},"labels":["soccer","sport"],"duration":6882,"start_local":"2024-04-13T17:00:00","end":"2024-04-14T00:54:42Z","end_local":"2024-04-13T18:54:42","updated":"2024-06-04T22:40:24Z"},{"title":"Liga Nacional - Clausura - Motagua vs Real España","description":"Sourced from predicthq.com","category":"sports","start":"2024-04-11T01:00:00Z","geo":{"geometry":{"coordinates":[-87.20387540000002,14.0984417],"type":"Point"},"placekey":"@d5p-gyd-4vz","address":{"country_code":"HN","formatted_address":"3QXW+9CM, Tegucigalpa, Honduras","locality":"Tegucigalpa","region":"Francisco Morazán Department"}},"labels":["soccer","sport"],"duration":6904,"start_local":"2024-04-10T19:00:00","end":"2024-04-11T02:55:04Z","end_local":"2024-04-10T20:55:04","updated":"2024-06-05T01:03:44Z"},{"title":"Liga Nacional - Clausura - Génesis vs Real Sociedad","description":"Sourced from predicthq.com","category":"sports","start":"2024-04-09T00:00:00Z","geo":{"geometry":{"coordinates":[-87.65682220458984,14.45376610780869],"type":"Point"},"placekey":"@8h7-6x6-x89","address":{"country_code":"HN","formatted_address":"F83V+C7W, Comayagua, Honduras","locality":"Comayagua","region":"Comayagua Department"}},"labels":["soccer","sport"],"duration":6824,"start_local":"2024-04-08T18:00:00","end":"2024-04-09T01:53:44Z","end_local":"2024-04-08T19:53:44","updated":"2024-06-05T10:21:11Z"},{"title":"Liga Nacional - Clausura - Olimpia vs Real España","description":"Sourced from predicthq.com","category":"sports","start":"2024-04-08T01:30:00Z","geo":{"geometry":{"coordinates":[-87.20387540000002,14.0984417],"type":"Point"},"placekey":"@d5p-gyd-4vz","address":{"country_code":"HN","formatted_address":"3QXW+9CM, Tegucigalpa, Honduras","locality":"Tegucigalpa","region":"Francisco Morazán Department"}},"labels":["soccer","sport"],"duration":6842,"start_local":"2024-04-07T19:30:00","end":"2024-04-08T03:24:02Z","end_local":"2024-04-07T21:24:02","updated":"2024-06-05T01:11:30Z"},{"title":"Liga Nacional - Clausura - Victoria vs Vida","description":"Sourced from predicthq.com","category":"sports","start":"2024-04-07T23:15:00Z","geo":{"geometry":{"coordinates":[-86.78591966629028,15.786079799670722],"type":"Point"},"placekey":"@8h5-ztd-dqf","address":{"country_code":"HN","formatted_address":"Q6R6+2X4, La Ceiba, Atlántida, Honduras","locality":"La Ceiba","region":"Atlántida Department"}},"labels":["soccer","sport"],"duration":7127,"start_local":"2024-04-07T17:15:00","end":"2024-04-08T01:13:47Z","end_local":"2024-04-07T19:13:47","updated":"2024-06-04T21:45:07Z"},{"title":"Liga Nacional - Clausura - Marathón vs Motagua","description":"Sourced from predicthq.com","category":"sports","start":"2024-04-07T21:00:00Z","geo":{"geometry":{"coordinates":[-87.9993056,15.4955801],"type":"Point"},"placekey":"@8h5-gbd-hqz","address":{"country_code":"HN","formatted_address":"21103 San Pedro Sula, Honduras","postcode":"21103","locality":"San Pedro Sula","region":"Departamento de Cortés"}},"labels":["soccer","sport"],"duration":6866,"start_local":"2024-04-07T15:00:00","end":"2024-04-07T22:54:26Z","end_local":"2024-04-07T16:54:26","updated":"2024-05-24T10:39:04Z"},{"title":"Liga Nacional - Clausura - UPNFM vs Olancho","description":"Sourced from predicthq.com","category":"sports","start":"2024-04-07T01:00:00Z","geo":{"geometry":{"coordinates":[-87.14911889999996,13.2954609],"type":"Point"},"placekey":"@d5n-h7b-649","address":{"country_code":"HN","formatted_address":"Balcanes; Parque Industrial Pacific, 7VW2+59J, Choluteca, Honduras","locality":"Choluteca","region":"Departamento de Choluteca"}},"labels":["soccer","sport"],"duration":15493,"start_local":"2024-04-06T19:00:00","end":"2024-04-07T05:18:13Z","end_local":"2024-04-06T23:18:13","updated":"2024-06-05T11:09:25Z"}]