[{"title":"I ❤️ Plezi (Okap)","description":"Sourced from predicthq.com - Vini pran plezi nan Okap avèk nou nan evènman I ❤️ Plezi - y'a gen anpil bagay bon nan tann pou ou!","category":"festivals","start":"2024-06-16T01:00:00Z","geo":{"geometry":{"coordinates":[-72.20676809999999,19.7370362],"type":"Point"},"placekey":"@95z-kcd-zvf","address":{"country_code":"HT","formatted_address":"Cap-Haitien, Nord Department, Haiti","locality":"Cap-Haitien","region":"Nord Department"}},"labels":["community","festival"],"duration":16200,"start_local":"2024-06-15T21:00:00","end":"2024-06-16T05:30:00Z","end_local":"2024-06-16T01:30:00","updated":"2024-06-13T01:16:40Z"},{"title":"Ligue Haïtienne - Championship - Final - Real Hope vs Ouanaminthe","description":"Sourced from predicthq.com","category":"sports","start":"2024-05-26T21:00:00Z","geo":{"geometry":{"coordinates":[-72.207589,19.7536067],"type":"Point"},"placekey":"@95z-kcm-vs5","address":{"country_code":"HT","formatted_address":"QQ3R+CXV, Cap-Haitien, Haiti","locality":"Cap-Haitien","region":"Nord Department"}},"labels":["soccer","sport"],"duration":0,"start_local":"2024-05-26T17:00:00","end":"2024-05-26T21:00:00Z","end_local":"2024-05-26T17:00:00","updated":"2024-06-12T13:59:53Z"},{"title":"Ligue Haïtienne - Championship - 3rd Place Final - Tempête vs América des Cayes","description":"Sourced from predicthq.com","category":"sports","start":"2024-05-26T19:00:00Z","geo":{"geometry":{"coordinates":[-72.207589,19.7536067],"type":"Point"},"placekey":"@95z-kcm-vs5","address":{"country_code":"HT","formatted_address":"QQ3R+CXV, Cap-Haitien, Haiti","locality":"Cap-Haitien","region":"Nord Department"}},"labels":["soccer","sport"],"duration":0,"start_local":"2024-05-26T15:00:00","end":"2024-05-26T19:00:00Z","end_local":"2024-05-26T15:00:00","updated":"2024-06-12T08:07:30Z"},{"title":"Ligue Haïtienne - Championship Round - Real Hope vs Cavaly","description":"Sourced from predicthq.com","category":"sports","start":"2024-05-22T21:00:00Z","geo":{"geometry":{"coordinates":[-72.207589,19.7536067],"type":"Point"},"placekey":"@95z-kcm-vs5","address":{"country_code":"HT","formatted_address":"QQ3R+CXV, Cap-Haitien, Haiti","locality":"Cap-Haitien","region":"Nord Department"}},"labels":["soccer","sport"],"duration":0,"start_local":"2024-05-22T17:00:00","end":"2024-05-22T21:00:00Z","end_local":"2024-05-22T17:00:00","updated":"2024-06-12T04:32:42Z"},{"title":"Ligue Haïtienne - Championship Round - Ouanaminthe vs América des Cayes","description":"Sourced from predicthq.com","category":"sports","start":"2024-05-22T19:00:00Z","geo":{"geometry":{"coordinates":[-72.207589,19.7536067],"type":"Point"},"placekey":"@95z-kcm-vs5","address":{"country_code":"HT","formatted_address":"QQ3R+CXV, Cap-Haitien, Haiti","locality":"Cap-Haitien","region":"Nord Department"}},"labels":["soccer","sport"],"duration":0,"start_local":"2024-05-22T15:00:00","end":"2024-05-22T19:00:00Z","end_local":"2024-05-22T15:00:00","updated":"2024-06-12T06:00:12Z"},{"title":"Ligue Haïtienne - Championship Round - América des Cayes vs Baltimore","description":"Sourced from predicthq.com","category":"sports","start":"2024-05-19T21:00:00Z","geo":{"geometry":{"coordinates":[-72.207589,19.7536067],"type":"Point"},"placekey":"@95z-kcm-vs5","address":{"country_code":"HT","formatted_address":"QQ3R+CXV, Cap-Haitien, Haiti","locality":"Cap-Haitien","region":"Nord Department"}},"labels":["soccer","sport"],"duration":0,"start_local":"2024-05-19T17:00:00","end":"2024-05-19T21:00:00Z","end_local":"2024-05-19T17:00:00","updated":"2024-06-12T03:41:15Z"},{"title":"Ligue Haïtienne - Championship Round - Cavaly vs Tempête","description":"Sourced from predicthq.com","category":"sports","start":"2024-05-19T19:00:00Z","geo":{"geometry":{"coordinates":[-72.207589,19.7536067],"type":"Point"},"placekey":"@95z-kcm-vs5","address":{"country_code":"HT","formatted_address":"QQ3R+CXV, Cap-Haitien, Haiti","locality":"Cap-Haitien","region":"Nord Department"}},"labels":["soccer","sport"],"duration":0,"start_local":"2024-05-19T15:00:00","end":"2024-05-19T19:00:00Z","end_local":"2024-05-19T15:00:00","updated":"2024-06-12T12:41:14Z"},{"title":"Obtention de crédit sérieux et fiable entre particulier honnête en France","description":"Sourced from predicthq.com - Venez rencontrer des particuliers honnêtes pour obtenir un crédit sérieux et fiable en France lors de notre événement!","category":"conferences","start":"2024-05-19T14:00:00Z","geo":{"geometry":{"coordinates":[-72.756633,18.4052155],"type":"Point"},"placekey":"@ckq-t2d-j7q","address":{"country_code":"HT","formatted_address":"Mayotte, Ouest Department, Haiti","locality":"Mayotte","region":"Ouest Department"}},"labels":["business","conference"],"duration":7200,"start_local":"2024-05-19T10:00:00","end":"2024-05-19T16:00:00Z","end_local":"2024-05-19T12:00:00","updated":"2024-06-05T06:13:02Z"},{"title":"Ligue Haïtienne - Championship Round - Tempête vs Real Hope","description":"Sourced from predicthq.com","category":"sports","start":"2024-05-16T21:00:00Z","geo":{"geometry":{"coordinates":[-72.207589,19.7536067],"type":"Point"},"placekey":"@95z-kcm-vs5","address":{"country_code":"HT","formatted_address":"QQ3R+CXV, Cap-Haitien, Haiti","locality":"Cap-Haitien","region":"Nord Department"}},"labels":["soccer","sport"],"duration":0,"start_local":"2024-05-16T17:00:00","end":"2024-05-16T21:00:00Z","end_local":"2024-05-16T17:00:00","updated":"2024-06-12T03:10:53Z"},{"title":"Ligue Haïtienne - Championship Round - Baltimore vs Ouanaminthe","description":"Sourced from predicthq.com","category":"sports","start":"2024-05-16T19:00:00Z","geo":{"geometry":{"coordinates":[-72.207589,19.7536067],"type":"Point"},"placekey":"@95z-kcm-vs5","address":{"country_code":"HT","formatted_address":"QQ3R+CXV, Cap-Haitien, Haiti","locality":"Cap-Haitien","region":"Nord Department"}},"labels":["soccer","sport"],"duration":0,"start_local":"2024-05-16T15:00:00","end":"2024-05-16T19:00:00Z","end_local":"2024-05-16T15:00:00","updated":"2024-06-12T00:14:09Z"},{"title":"artist ticket","description":"Sourced from predicthq.com - Artist only tickets","category":"performing-arts","start":"2024-05-04T14:00:00Z","geo":{"geometry":{"coordinates":[-72.19570449999999,19.7634036],"type":"Point"},"placekey":"@95z-kf7-hh5","address":{"country_code":"HT","formatted_address":"Cap-Haitien, Nord Department, Haiti","locality":"Cap-Haitien","region":"Nord Department"}},"labels":["concert","music","performing-arts"],"duration":64800,"start_local":"2024-05-04T10:00:00","end":"2024-05-05T08:00:00Z","end_local":"2024-05-05T04:00:00","updated":"2024-06-05T04:28:44Z"},{"title":"Ligue Haïtienne - Triomphe Liancourt vs Tempête","description":"Sourced from predicthq.com","category":"sports","start":"2024-04-28T21:00:00Z","geo":{"geometry":{"coordinates":[-72.6959447,19.1081049],"type":"Point"},"placekey":"@ckr-wpj-rtv","address":{"country_code":"HT","formatted_address":"Saint-Marc, Haiti","locality":"Saint-Marc","region":"Artibonite Department"}},"labels":["soccer","sport"],"duration":0,"start_local":"2024-04-28T17:00:00","end":"2024-04-28T21:00:00Z","end_local":"2024-04-28T17:00:00","updated":"2024-06-11T21:51:03Z"},{"title":"Ligue Haïtienne - Juventus vs América des Cayes","description":"Sourced from predicthq.com","category":"sports","start":"2024-04-28T20:00:00Z","geo":{"geometry":{"coordinates":[-73.75455737113953,18.191604639915663],"type":"Point"},"placekey":"@cks-cmg-c5z","address":{"country_code":"HT","formatted_address":"56RW+J5X, Rue Capitale, Les Cayes, Haiti","locality":"Les Cayes","region":"Sud Department"}},"labels":["soccer","sport"],"duration":0,"start_local":"2024-04-28T16:00:00","end":"2024-04-28T20:00:00Z","end_local":"2024-04-28T16:00:00","updated":"2024-06-12T17:14:44Z"},{"title":"Ligue Haïtienne - Racing Club Haitien vs Cavaly","description":"Sourced from predicthq.com","category":"sports","start":"2024-04-28T20:00:00Z","geo":{"geometry":{"coordinates":[-72.6269942522049,18.507470181924766],"type":"Point"},"placekey":"@ckr-ssc-c5z","address":{"country_code":"HT","formatted_address":"G94F+X6M, Léogâne, Haiti","locality":"Léogâne","region":"Ouest Department"}},"labels":["soccer","sport"],"duration":0,"start_local":"2024-04-28T16:00:00","end":"2024-04-28T20:00:00Z","end_local":"2024-04-28T16:00:00","updated":"2024-06-11T23:15:47Z"},{"title":"Ligue Haïtienne - Racing des Gônaïves vs FICA","description":"Sourced from predicthq.com","category":"sports","start":"2024-04-28T20:00:00Z","geo":{"geometry":{"coordinates":[-72.6829375462,19.4491216241],"type":"Point"},"placekey":"@962-33y-5mk","address":{"country_code":"HT","formatted_address":"C8X8+XM7, Gonaïves, Haiti","locality":"Gonaïves","region":"Artibonite Department"}},"labels":["soccer","sport"],"duration":0,"start_local":"2024-04-28T16:00:00","end":"2024-04-28T20:00:00Z","end_local":"2024-04-28T16:00:00","updated":"2024-06-12T00:02:32Z"},{"title":"Ligue Haïtienne - Ouanaminthe vs Capoise","description":"Sourced from predicthq.com","category":"sports","start":"2024-04-28T20:00:00Z","geo":{"geometry":{"coordinates":[-71.725889,19.539386],"type":"Point"},"placekey":"@962-g4c-6rk","address":{"country_code":"HT","formatted_address":"Ouanaminthe, Haiti","locality":"Ouanaminthe"}},"labels":["soccer","sport"],"duration":0,"start_local":"2024-04-28T16:00:00","end":"2024-04-28T20:00:00Z","end_local":"2024-04-28T16:00:00","updated":"2024-06-11T23:34:46Z"},{"title":"Ligue Haïtienne - Cosmopolites vs Rivartibonitienne","description":"Sourced from predicthq.com","category":"sports","start":"2024-04-27T21:00:00Z","geo":{"geometry":{"coordinates":[-72.6959447,19.1081049],"type":"Point"},"placekey":"@ckr-wpj-rtv","address":{"country_code":"HT","formatted_address":"Saint-Marc, Haiti","locality":"Saint-Marc","region":"Artibonite Department"}},"labels":["soccer","sport"],"duration":0,"start_local":"2024-04-27T17:00:00","end":"2024-04-27T21:00:00Z","end_local":"2024-04-27T17:00:00","updated":"2024-06-12T07:30:41Z"},{"title":"Ligue Haïtienne - Racing Club Haitien vs América des Cayes","description":"Sourced from predicthq.com","category":"sports","start":"2024-04-24T20:00:00Z","geo":{"geometry":{"coordinates":[-73.75455737113953,18.191604639915663],"type":"Point"},"placekey":"@cks-cmg-c5z","address":{"country_code":"HT","formatted_address":"56RW+J5X, Rue Capitale, Les Cayes, Haiti","locality":"Les Cayes","region":"Sud Department"}},"labels":["soccer","sport"],"duration":0,"start_local":"2024-04-24T16:00:00","end":"2024-04-24T20:00:00Z","end_local":"2024-04-24T16:00:00","updated":"2024-06-12T16:37:51Z"},{"title":"Ligue Haïtienne - Baltimore vs Cosmopolites","description":"Sourced from predicthq.com","category":"sports","start":"2024-04-21T21:00:00Z","geo":{"geometry":{"coordinates":[-72.6959447,19.1081049],"type":"Point"},"placekey":"@ckr-wpj-rtv","address":{"country_code":"HT","formatted_address":"Saint-Marc, Haiti","locality":"Saint-Marc","region":"Artibonite Department"}},"labels":["soccer","sport"],"duration":0,"start_local":"2024-04-21T17:00:00","end":"2024-04-21T21:00:00Z","end_local":"2024-04-21T17:00:00","updated":"2024-06-12T14:39:02Z"},{"title":"Ligue Haïtienne - FICA vs Real Hope","description":"Sourced from predicthq.com","category":"sports","start":"2024-04-21T20:00:00Z","geo":{"geometry":{"coordinates":[-72.207589,19.7536067],"type":"Point"},"placekey":"@95z-kcm-vs5","address":{"country_code":"HT","formatted_address":"QQ3R+CXV, Cap-Haitien, Haiti","locality":"Cap-Haitien","region":"Nord Department"}},"labels":["soccer","sport"],"duration":0,"start_local":"2024-04-21T16:00:00","end":"2024-04-21T20:00:00Z","end_local":"2024-04-21T16:00:00","updated":"2024-06-11T21:31:16Z"},{"title":"Ligue Haïtienne - América des Cayes vs Cavaly","description":"Sourced from predicthq.com","category":"sports","start":"2024-04-21T20:00:00Z","geo":{"geometry":{"coordinates":[-73.75455737113953,18.191604639915663],"type":"Point"},"placekey":"@cks-cmg-c5z","address":{"country_code":"HT","formatted_address":"56RW+J5X, Rue Capitale, Les Cayes, Haiti","locality":"Les Cayes","region":"Sud Department"}},"labels":["soccer","sport"],"duration":0,"start_local":"2024-04-21T16:00:00","end":"2024-04-21T20:00:00Z","end_local":"2024-04-21T16:00:00","updated":"2024-06-12T12:31:30Z"},{"title":"Ligue Haïtienne - Racing des Gônaïves vs Ouanaminthe","description":"Sourced from predicthq.com","category":"sports","start":"2024-04-21T20:00:00Z","geo":{"geometry":{"coordinates":[-72.6829375462,19.4491216241],"type":"Point"},"placekey":"@962-33y-5mk","address":{"country_code":"HT","formatted_address":"C8X8+XM7, Gonaïves, Haiti","locality":"Gonaïves","region":"Artibonite Department"}},"labels":["soccer","sport"],"duration":0,"start_local":"2024-04-21T16:00:00","end":"2024-04-21T20:00:00Z","end_local":"2024-04-21T16:00:00","updated":"2024-06-12T12:56:41Z"},{"title":"Ligue Haïtienne - Racing Club Haitien vs Juventus","description":"Sourced from predicthq.com","category":"sports","start":"2024-04-21T20:00:00Z","geo":{"geometry":{"coordinates":[-72.6269942522049,18.507470181924766],"type":"Point"},"placekey":"@ckr-ssc-c5z","address":{"country_code":"HT","formatted_address":"G94F+X6M, Léogâne, Haiti","locality":"Léogâne","region":"Ouest Department"}},"labels":["soccer","sport"],"duration":0,"start_local":"2024-04-21T16:00:00","end":"2024-04-21T20:00:00Z","end_local":"2024-04-21T16:00:00","updated":"2024-06-12T06:41:49Z"},{"title":"Ligue Haïtienne - Rivartibonitienne vs Tempête","description":"Sourced from predicthq.com","category":"sports","start":"2024-04-20T21:00:00Z","geo":{"geometry":{"coordinates":[-72.6959447,19.1081049],"type":"Point"},"placekey":"@ckr-wpj-rtv","address":{"country_code":"HT","formatted_address":"Saint-Marc, Haiti","locality":"Saint-Marc","region":"Artibonite Department"}},"labels":["soccer","sport"],"duration":0,"start_local":"2024-04-20T17:00:00","end":"2024-04-20T21:00:00Z","end_local":"2024-04-20T17:00:00","updated":"2024-06-12T02:27:27Z"},{"title":"Ligue Haïtienne - Rivartibonitienne vs Triomphe Liancourt","description":"Sourced from predicthq.com","category":"sports","start":"2024-04-17T21:00:00Z","geo":{"geometry":{"coordinates":[-72.6959447,19.1081049],"type":"Point"},"placekey":"@ckr-wpj-rtv","address":{"country_code":"HT","formatted_address":"Saint-Marc, Haiti","locality":"Saint-Marc","region":"Artibonite Department"}},"labels":["soccer","sport"],"duration":0,"start_local":"2024-04-17T17:00:00","end":"2024-04-17T21:00:00Z","end_local":"2024-04-17T17:00:00","updated":"2024-06-12T04:37:52Z"},{"title":"Ligue Haïtienne - Tempête vs Baltimore","description":"Sourced from predicthq.com","category":"sports","start":"2024-04-14T21:00:00Z","geo":{"geometry":{"coordinates":[-72.6959447,19.1081049],"type":"Point"},"placekey":"@ckr-wpj-rtv","address":{"country_code":"HT","formatted_address":"Saint-Marc, Haiti","locality":"Saint-Marc","region":"Artibonite Department"}},"labels":["soccer","sport"],"duration":0,"start_local":"2024-04-14T17:00:00","end":"2024-04-14T21:00:00Z","end_local":"2024-04-14T17:00:00","updated":"2024-06-12T04:52:32Z"},{"title":"Ligue Haïtienne - Real Hope vs Racing des Gônaïves","description":"Sourced from predicthq.com","category":"sports","start":"2024-04-14T20:00:00Z","geo":{"geometry":{"coordinates":[-72.20706760883331,19.61189217612216],"type":"Point"},"placekey":"@962-hx7-sqz","address":{"country_code":"HT","formatted_address":"JQ6V+837, Milot, Haiti","locality":"Milot","region":"Nord Department"}},"labels":["soccer","sport"],"duration":0,"start_local":"2024-04-14T16:00:00","end":"2024-04-14T20:00:00Z","end_local":"2024-04-14T16:00:00","updated":"2024-06-11T22:12:40Z"},{"title":"Ligue Haïtienne - Capoise vs FICA","description":"Sourced from predicthq.com","category":"sports","start":"2024-04-14T20:00:00Z","geo":{"geometry":{"coordinates":[-72.207589,19.7536067],"type":"Point"},"placekey":"@95z-kcm-vs5","address":{"country_code":"HT","formatted_address":"QQ3R+CXV, Cap-Haitien, Haiti","locality":"Cap-Haitien","region":"Nord Department"}},"labels":["soccer","sport"],"duration":0,"start_local":"2024-04-14T16:00:00","end":"2024-04-14T20:00:00Z","end_local":"2024-04-14T16:00:00","updated":"2024-06-12T03:05:48Z"},{"title":"Ligue Haïtienne - Cosmopolites vs Triomphe Liancourt","description":"Sourced from predicthq.com","category":"sports","start":"2024-04-11T21:00:00Z","geo":{"geometry":{"coordinates":[-72.6959447,19.1081049],"type":"Point"},"placekey":"@ckr-wpj-rtv","address":{"country_code":"HT","formatted_address":"Saint-Marc, Haiti","locality":"Saint-Marc","region":"Artibonite Department"}},"labels":["soccer","sport"],"duration":0,"start_local":"2024-04-11T17:00:00","end":"2024-04-11T21:00:00Z","end_local":"2024-04-11T17:00:00","updated":"2024-06-12T00:01:58Z"},{"title":"Ligue Haïtienne - Ouanaminthe vs Real Hope","description":"Sourced from predicthq.com","category":"sports","start":"2024-04-11T20:00:00Z","geo":{"geometry":{"coordinates":[-71.725889,19.539386],"type":"Point"},"placekey":"@962-g4c-6rk","address":{"country_code":"HT","formatted_address":"Ouanaminthe, Haiti","locality":"Ouanaminthe"}},"labels":["soccer","sport"],"duration":0,"start_local":"2024-04-11T16:00:00","end":"2024-04-11T20:00:00Z","end_local":"2024-04-11T16:00:00","updated":"2024-06-12T08:10:38Z"},{"title":"Ligue Haïtienne - Baltimore vs Rivartibonitienne","description":"Sourced from predicthq.com","category":"sports","start":"2024-04-10T21:00:00Z","geo":{"geometry":{"coordinates":[-72.6959447,19.1081049],"type":"Point"},"placekey":"@ckr-wpj-rtv","address":{"country_code":"HT","formatted_address":"Saint-Marc, Haiti","locality":"Saint-Marc","region":"Artibonite Department"}},"labels":["soccer","sport"],"duration":0,"start_local":"2024-04-10T17:00:00","end":"2024-04-10T21:00:00Z","end_local":"2024-04-10T17:00:00","updated":"2024-06-12T01:01:40Z"},{"title":"Ligue Haïtienne - Capoise vs Racing des Gônaïves","description":"Sourced from predicthq.com","category":"sports","start":"2024-04-10T20:00:00Z","geo":{"geometry":{"coordinates":[-72.207589,19.7536067],"type":"Point"},"placekey":"@95z-kcm-vs5","address":{"country_code":"HT","formatted_address":"QQ3R+CXV, Cap-Haitien, Haiti","locality":"Cap-Haitien","region":"Nord Department"}},"labels":["soccer","sport"],"duration":0,"start_local":"2024-04-10T16:00:00","end":"2024-04-10T20:00:00Z","end_local":"2024-04-10T16:00:00","updated":"2024-06-12T13:59:06Z"},{"title":"Ligue Haïtienne - Tempête vs Cosmopolites","description":"Sourced from predicthq.com","category":"sports","start":"2024-04-07T21:00:00Z","geo":{"geometry":{"coordinates":[-72.6959447,19.1081049],"type":"Point"},"placekey":"@ckr-wpj-rtv","address":{"country_code":"HT","formatted_address":"Saint-Marc, Haiti","locality":"Saint-Marc","region":"Artibonite Department"}},"labels":["soccer","sport"],"duration":0,"start_local":"2024-04-07T17:00:00","end":"2024-04-07T21:00:00Z","end_local":"2024-04-07T17:00:00","updated":"2024-06-11T23:20:08Z"},{"title":"Ligue Haïtienne - Real Hope vs Capoise","description":"Sourced from predicthq.com","category":"sports","start":"2024-04-07T20:00:00Z","geo":{"geometry":{"coordinates":[-72.20706760883331,19.61189217612216],"type":"Point"},"placekey":"@962-hx7-sqz","address":{"country_code":"HT","formatted_address":"JQ6V+837, Milot, Haiti","locality":"Milot","region":"Nord Department"}},"labels":["soccer","sport"],"duration":0,"start_local":"2024-04-07T16:00:00","end":"2024-04-07T20:00:00Z","end_local":"2024-04-07T16:00:00","updated":"2024-06-12T05:47:58Z"},{"title":"Ligue Haïtienne - Juventus vs Cavaly","description":"Sourced from predicthq.com","category":"sports","start":"2024-04-07T20:00:00Z","geo":{"geometry":{"coordinates":[-73.75455737113953,18.191604639915663],"type":"Point"},"placekey":"@cks-cmg-c5z","address":{"country_code":"HT","formatted_address":"56RW+J5X, Rue Capitale, Les Cayes, Haiti","locality":"Les Cayes","region":"Sud Department"}},"labels":["soccer","sport"],"duration":0,"start_local":"2024-04-07T16:00:00","end":"2024-04-07T20:00:00Z","end_local":"2024-04-07T16:00:00","updated":"2024-06-12T05:04:37Z"},{"title":"Ligue Haïtienne - FICA vs Ouanaminthe","description":"Sourced from predicthq.com","category":"sports","start":"2024-04-07T20:00:00Z","geo":{"geometry":{"coordinates":[-72.207589,19.7536067],"type":"Point"},"placekey":"@95z-kcm-vs5","address":{"country_code":"HT","formatted_address":"QQ3R+CXV, Cap-Haitien, Haiti","locality":"Cap-Haitien","region":"Nord Department"}},"labels":["soccer","sport"],"duration":0,"start_local":"2024-04-07T16:00:00","end":"2024-04-07T20:00:00Z","end_local":"2024-04-07T16:00:00","updated":"2024-06-12T07:34:17Z"},{"title":"Ligue Haïtienne - Triomphe Liancourt vs Baltimore","description":"Sourced from predicthq.com","category":"sports","start":"2024-04-06T21:00:00Z","geo":{"geometry":{"coordinates":[-72.6959447,19.1081049],"type":"Point"},"placekey":"@ckr-wpj-rtv","address":{"country_code":"HT","formatted_address":"Saint-Marc, Haiti","locality":"Saint-Marc","region":"Artibonite Department"}},"labels":["soccer","sport"],"duration":0,"start_local":"2024-04-06T17:00:00","end":"2024-04-06T21:00:00Z","end_local":"2024-04-06T17:00:00","updated":"2024-06-12T11:26:28Z"}]