[{"title":"B2B Growth Expo - Isle Of Man- Speakers Only- 02 October 2024","description":"Sourced from predicthq.com - Welcome Back! Meet New People, Grow Your Business, Be Inspired By Experts and Discover The Latest Trends!","category":"expos","start":"2024-10-02T09:00:00Z","geo":{"geometry":{"coordinates":[-4.478131699999999,54.1567328],"type":"Point"},"placekey":"@4hk-kqf-8qf","address":{"country_code":"IM","formatted_address":"Harris Promenade, Douglas IM1 2HP, Isle of Man","postcode":"IM1 2HP","locality":"Douglas","region":"Douglas"}},"labels":["business","expo"],"duration":25200,"start_local":"2024-10-02T10:00:00","end":"2024-10-02T16:00:00Z","end_local":"2024-10-02T17:00:00","updated":"2024-06-14T21:48:39Z"},{"title":"Strategies in the Workplace for Everyday Stress","description":"Sourced from predicthq.com - A Positive Health & Wellbeing Pre-Conference Workshop, delivered by members of our Forum.","category":"conferences","start":"2024-09-26T08:30:00Z","geo":{"geometry":{"coordinates":[-4.4808976,54.15047980000001],"type":"Point"},"placekey":"@4hk-kqf-gp9","address":{"country_code":"IM","formatted_address":"Prospect Hill, Douglas IM1 1EQ, Isle of Man","locality":"Douglas","postcode":"IM1 1EQ","region":"Douglas"}},"labels":["business","conference"],"duration":5400,"start_local":"2024-09-26T09:30:00","end":"2024-09-26T10:00:00Z","end_local":"2024-09-26T11:00:00","updated":"2024-07-04T22:11:04Z"},{"title":"Microgaming Isle of Man Marathon & Half Marathon","description":"Sourced from predicthq.com","category":"sports","start":"2024-08-11T08:00:00Z","geo":{"geometry":{"coordinates":[-4.384444,54.321111],"type":"Point"},"placekey":"@4hk-gjr-2rk","address":{"country_code":"IM","formatted_address":"Christian Street, Ramsey IM8, Isle of Man","locality":"Ramsey","postcode":"IM8","region":"Ramsey"}},"labels":["marathon","outdoor-sports","running","sport"],"duration":0,"start_local":"2024-08-11T09:00:00","end":"2024-08-11T08:00:00Z","end_local":"2024-08-11T09:00:00","updated":"2024-06-06T23:56:37Z"},{"title":"Manx Care Young Professional Open Day. In Partnership with Locate IOM","description":"Sourced from predicthq.com - Join us for a unique Isle of Man health and social care experience.","category":"conferences","start":"2024-08-03T12:30:00Z","geo":{"geometry":{"coordinates":[-4.5046252,54.17212379999999],"type":"Point"},"placekey":"@4hk-kqc-nkf","address":{"country_code":"IM","formatted_address":"Isle of Man IM4 4RH, Isle of Man","locality":"Isle of Man","postcode":"IM4 4RH","region":"Braddan"}},"labels":["business","conference"],"duration":25200,"start_local":"2024-08-03T13:30:00","end":"2024-08-03T19:30:00Z","end_local":"2024-08-03T20:30:00","updated":"2024-06-20T18:47:22Z"},{"title":"Dressage Painted Horse Demo","description":"Sourced from predicthq.com - Join Jo Howie Equine Therapy and NB Dressage for a fun evening of flat-work & dressage with a painted horse!","category":"conferences","start":"2024-08-02T17:00:00Z","geo":{"geometry":{"coordinates":[-4.5609788,54.13032149999999],"type":"Point"},"placekey":"@4hk-knn-wtv","address":{"country_code":"IM","formatted_address":"Isle of Man","locality":"Isle of Man"}},"labels":["conference","sport"],"duration":10800,"start_local":"2024-08-02T18:00:00","end":"2024-08-02T20:00:00Z","end_local":"2024-08-02T21:00:00","updated":"2024-06-21T17:59:30Z"},{"title":"Gran Fondo Isle of Man - Race Day Transfer","description":"Sourced from predicthq.com - Get ready for an epic day of cycling at the Gran Fondo Isle of Man - Race Day Transfer!","category":"community","start":"2024-07-28T06:00:00Z","geo":{"geometry":{"coordinates":[-4.477791799999999,54.1677007],"type":"Point"},"placekey":"@4hk-kq7-z9f","address":{"country_code":"IM","formatted_address":"A2, Douglas IM2 6DA, Isle of Man","locality":"Douglas","postcode":"IM2 6DA","region":"Douglas"}},"labels":["community","sport"],"duration":39600,"start_local":"2024-07-28T07:00:00","end":"2024-07-28T17:00:00Z","end_local":"2024-07-28T18:00:00","updated":"2024-07-04T01:01:40Z"},{"title":"Gran Fondo Isle of Man","description":"Sourced from predicthq.com","category":"sports","start":"2024-07-27T09:00:00Z","geo":{"geometry":{"coordinates":[-4.548056,54.236107],"type":"Point"},"placekey":"@4hk-kq5-kvf","address":{"country_code":"IM","formatted_address":"Isle of Man IM6, Isle of Man","locality":"Isle of Man","postcode":"IM6","region":"Michael"}},"labels":["outdoor-sports","running","sport"],"duration":0,"start_local":"2024-07-27T10:00:00","end":"2024-07-27T09:00:00Z","end_local":"2024-07-27T10:00:00","updated":"2024-06-04T00:26:53Z"},{"title":"Children's First Aid","description":"Sourced from predicthq.com - To gain an understanding of how to deal with a variety of medical\nemergencies in babies and children.","category":"conferences","start":"2024-07-24T17:00:00Z","geo":{"geometry":{"coordinates":[-4.4877263,54.1653948],"type":"Point"},"placekey":"@4hk-kq8-mzf","address":{"country_code":"IM","formatted_address":"Port-E-Chee Avenue, Douglas IM2, Isle of Man","locality":"Douglas","postcode":"IM2","region":"Douglas"}},"labels":["conference","health"],"duration":7200,"start_local":"2024-07-24T18:00:00","end":"2024-07-24T19:00:00Z","end_local":"2024-07-24T20:00:00","updated":"2024-06-27T15:30:50Z"},{"title":"Rapunzel and Tangled Themed: Fairy Tale Classic: 22nd July","description":"Sourced from predicthq.com - This workshop is a true celebration of the enchantment of Fairy Tales!","category":"festivals","start":"2024-07-22T08:30:00Z","geo":{"geometry":{"coordinates":[-4.6976863,54.2214955],"type":"Point"},"placekey":"@4hk-kpb-b8v","address":{"country_code":"IM","formatted_address":"Mill Road, Peel IM5, Isle of Man","locality":"Peel","postcode":"IM5","region":"Peel"}},"labels":["festival","performing-arts"],"duration":10800,"start_local":"2024-07-22T09:30:00","end":"2024-07-22T11:30:00Z","end_local":"2024-07-22T12:30:00","updated":"2024-06-27T13:55:24Z"},{"title":"Yn Chruinnaght Celtic Gathering","description":"Sourced from predicthq.com","category":"festivals","start":"2024-07-21T23:00:00Z","geo":{"geometry":{"coordinates":[-4.48172,54.14521],"type":"Point"},"placekey":"@4hk-kqd-p7q","address":{"country_code":"IM","formatted_address":"Douglas, Isle of Man","locality":"Douglas"}},"labels":["festival","music"],"duration":86399,"start_local":"2024-07-22T00:00:00","end":"2024-07-22T22:59:59Z","end_local":"2024-07-22T23:59:59","updated":"2024-06-24T23:06:46Z"},{"title":"1886 Supersprint Triathlon Relay","description":"Sourced from predicthq.com","category":"sports","start":"2024-07-20T23:00:00Z","geo":{"geometry":{"coordinates":[-4.38727,54.327863],"type":"Point"},"placekey":"@4hk-gjr-syv","address":{"country_code":"IM","formatted_address":"Ramsey IM8 3AP, Isle of Man","locality":"Ramsey","postcode":"IM8 3AP","region":"Ramsey"}},"labels":["bicycle","outdoor-sports","running","sport","triathlon"],"duration":86399,"start_local":"2024-07-21T00:00:00","end":"2024-07-21T22:59:59Z","end_local":"2024-07-21T23:59:59","updated":"2024-06-04T03:37:24Z"},{"title":"Mistress De funk & Pq Present: Afromanx","description":"Sourced from predicthq.com - Mistress De Funk & Pq present Afromanx - a night of our Afro-house music.","category":"concerts","start":"2024-07-20T20:00:00Z","geo":{"geometry":{"coordinates":[-4.4826969,54.1497817],"type":"Point"},"placekey":"@4hk-kqd-j35","address":{"country_code":"IM","formatted_address":"1 Hill St, Douglas, Isle of Man IM1 1EF, Isle of Man","postcode":"IM1 1EF","locality":"Douglas","region":"Douglas"}},"labels":["concert","music"],"duration":9000,"start_local":"2024-07-20T21:00:00","end":"2024-07-20T22:30:00Z","end_local":"2024-07-20T23:30:00","updated":"2024-06-29T20:03:30Z"},{"title":"Chamber Summer Drinks | Sponsored by Celton Manx","description":"Sourced from predicthq.com - Join your fellow Chamber members for drinks and a network at our popular Summer drinks event...","category":"conferences","start":"2024-07-19T15:30:00Z","geo":{"geometry":{"coordinates":[-4.4808976,54.15047980000001],"type":"Point"},"placekey":"@4hk-kqf-gp9","address":{"country_code":"IM","formatted_address":"Prospect Hill, Douglas IM1 1EQ, Isle of Man","locality":"Douglas","postcode":"IM1 1EQ","region":"Douglas"}},"labels":["business","conference"],"duration":10800,"start_local":"2024-07-19T16:30:00","end":"2024-07-19T18:30:00Z","end_local":"2024-07-19T19:30:00","updated":"2024-06-04T05:22:40Z"},{"title":"STEP IOM  - Proposed non-dom changes","description":"Sourced from predicthq.com - STEP IOM  - Proposed non-dom changes - Presented by David Whittaker","category":"conferences","start":"2024-07-18T11:30:00Z","geo":{"geometry":{"coordinates":[-4.4780445099,54.1508490414],"type":"Point"},"placekey":"@4hk-kqf-guv","address":{"country_code":"IM","formatted_address":"Loch Promenade\nDouglas\nIM1 2LX\nIsle of Man","postcode":"IM1 2LX","locality":"Douglas","region":"Isle of Man"}},"labels":["business","conference"],"duration":3600,"start_local":"2024-07-18T12:30:00","end":"2024-07-18T12:30:00Z","end_local":"2024-07-18T13:30:00","updated":"2024-06-20T15:51:23Z"},{"title":"Skill shortages; does the Isle of Man now have a strategy for success?","description":"Sourced from predicthq.com - Join us to discuss whether the Isle of Man finally has a plan in place for achieving success!","category":"conferences","start":"2024-07-11T07:30:00Z","geo":{"geometry":{"coordinates":[-4.4832664,54.1470023],"type":"Point"},"placekey":"@4hk-kqd-pqf","address":{"country_code":"IM","formatted_address":"Douglas IM1, Isle of Man","locality":"Douglas","postcode":"IM1","region":"Douglas"}},"labels":["business","conference"],"duration":7200,"start_local":"2024-07-11T08:30:00","end":"2024-07-11T09:30:00Z","end_local":"2024-07-11T10:30:00","updated":"2024-06-20T17:46:44Z"},{"title":"Carraghan","description":"Sourced from predicthq.com","category":"sports","start":"2024-07-10T18:00:00Z","geo":{"geometry":{"coordinates":[-4.5208897,54.2167847],"type":"Point"},"placekey":"@4hk-kpt-nqz","address":{"country_code":"IM","formatted_address":"Isle of Man","locality":"Isle of Man"}},"labels":["outdoor-sports","running","sport"],"duration":0,"start_local":"2024-07-10T19:00:00","end":"2024-07-10T18:00:00Z","end_local":"2024-07-10T19:00:00","updated":"2024-06-24T02:09:00Z"},{"title":"Presentation with Government CEO, Andy Ralphs and COO, Megan Mathias","description":"Sourced from predicthq.com - We are pleased to extend an invitation to our members for an insightful presentation...","category":"conferences","start":"2024-07-10T07:30:00Z","geo":{"geometry":{"coordinates":[-4.4808976,54.15047980000001],"type":"Point"},"placekey":"@4hk-kqf-gp9","address":{"country_code":"IM","formatted_address":"Prospect Hill, Douglas IM1 1EQ, Isle of Man","locality":"Douglas","postcode":"IM1 1EQ","region":"Douglas"}},"labels":["business","conference"],"duration":5400,"start_local":"2024-07-10T08:30:00","end":"2024-07-10T09:00:00Z","end_local":"2024-07-10T10:00:00","updated":"2024-06-20T15:51:23Z"},{"title":"Vaping & Young People","description":"Sourced from predicthq.com - The Isle of Man is moving rapidly towards legislation around of Vaping Products.","category":"conferences","start":"2024-07-09T16:00:00Z","geo":{"geometry":{"coordinates":[-4.4679099,54.17621880000001],"type":"Point"},"placekey":"@4hk-kq8-sbk","address":{"country_code":"IM","formatted_address":"Heywood Avenue, Onchan IM3 3AR, Isle of Man","locality":"Onchan","postcode":"IM3 3AR","region":"Onchan"}},"labels":["conference","health"],"duration":2700,"start_local":"2024-07-09T17:00:00","end":"2024-07-09T16:45:00Z","end_local":"2024-07-09T17:45:00","updated":"2024-05-30T04:53:48Z"},{"title":"Help! They want to make me a director!","description":"Sourced from predicthq.com - Calling all newly appointed, aspiring or those wanting to refresh knowledge on directorial roles and responsibilities.","category":"conferences","start":"2024-07-09T11:30:00Z","geo":{"geometry":{"coordinates":[-4.4780445099,54.1508490414],"type":"Point"},"placekey":"@4hk-kqf-guv","address":{"country_code":"IM","formatted_address":"Loch Promenade\nDouglas\nIM1 2LX\nIsle of Man","postcode":"IM1 2LX","locality":"Douglas","region":"Isle of Man"}},"labels":["business","conference"],"duration":5400,"start_local":"2024-07-09T12:30:00","end":"2024-07-09T13:00:00Z","end_local":"2024-07-09T14:00:00","updated":"2024-06-04T03:24:59Z"},{"title":"AI  supports preventative health care","description":"Sourced from predicthq.com - Discover how combined medical expertise can create a unique ecosystem for preventative healthcare using artificial intelligence.","category":"conferences","start":"2024-07-08T15:45:00Z","geo":{"geometry":{"coordinates":[-4.4827729,54.1477851],"type":"Point"},"placekey":"@4hk-kqf-cyv","address":{"country_code":"IM","formatted_address":"North Quay, Douglas IM1, Isle of Man","locality":"Douglas","postcode":"IM1","region":"Douglas"}},"labels":["conference","science","technology"],"duration":6300,"start_local":"2024-07-08T16:45:00","end":"2024-07-08T17:30:00Z","end_local":"2024-07-08T18:30:00","updated":"2024-07-04T01:13:28Z"},{"title":"Tynwald Fun Day","description":"Sourced from predicthq.com - Join us at Tynwald Fun Day for a day filled with games, food, and laughter for the whole family! Ticket price includes BBQ","category":"festivals","start":"2024-07-05T11:00:00Z","geo":{"geometry":{"coordinates":[-4.493017,54.1643921],"type":"Point"},"placekey":"@4hk-kq8-jgk","address":{"country_code":"IM","formatted_address":"Douglas IM2, Isle of Man","locality":"Douglas","postcode":"IM2","region":"Douglas"}},"labels":["community","festival"],"duration":21600,"start_local":"2024-07-05T12:00:00","end":"2024-07-05T17:00:00Z","end_local":"2024-07-05T18:00:00","updated":"2024-06-28T09:23:32Z"},{"title":"Behind the scenes - Douglas East Civic Amenity Site","description":"Sourced from predicthq.com - Join us for a Connect and Develop evening at the new civic amenity site.","category":"conferences","start":"2024-07-01T16:30:00Z","geo":{"geometry":{"coordinates":[-4.5145439,54.1429935],"type":"Point"},"placekey":"@4hk-knr-dy9","address":{"country_code":"IM","formatted_address":"Kewaigue Hill, Douglas IM2 1QH, Isle of Man","locality":"Douglas","postcode":"IM2 1QH","region":"Douglas"}},"labels":["business","conference"],"duration":3600,"start_local":"2024-07-01T17:30:00","end":"2024-07-01T17:30:00Z","end_local":"2024-07-01T18:30:00","updated":"2024-05-23T04:19:01Z"},{"title":"Start Up Bootcamp |  Jigsaw Training & Coaching Limited","description":"Sourced from predicthq.com - If you are in your first 12-18 months of business you will find value in this short workshop .","category":"conferences","start":"2024-06-28T08:30:00Z","geo":{"geometry":{"coordinates":[-4.4808976,54.15047980000001],"type":"Point"},"placekey":"@4hk-kqf-gp9","address":{"country_code":"IM","formatted_address":"Prospect Hill, Douglas IM1 1EQ, Isle of Man","locality":"Douglas","postcode":"IM1 1EQ","region":"Douglas"}},"labels":["business","conference"],"duration":7200,"start_local":"2024-06-28T09:30:00","end":"2024-06-28T10:30:00Z","end_local":"2024-06-28T11:30:00","updated":"2024-06-22T10:31:49Z"},{"title":"Next steps on the mental health path.","description":"Sourced from predicthq.com - To continue the conversation with charities and those interested in mental health support on the Island.","category":"conferences","start":"2024-06-27T16:00:00Z","geo":{"geometry":{"coordinates":[-4.4827729,54.1477851],"type":"Point"},"placekey":"@4hk-kqf-cyv","address":{"country_code":"IM","formatted_address":"North Quay, Douglas IM1, Isle of Man","locality":"Douglas","postcode":"IM1","region":"Douglas"}},"labels":["conference","health"],"duration":7200,"start_local":"2024-06-27T17:00:00","end":"2024-06-27T18:00:00Z","end_local":"2024-06-27T19:00:00","updated":"2024-06-06T03:24:09Z"},{"title":"Vaping & Young People","description":"Sourced from predicthq.com - The Isle of Man is moving rapidly towards legislation around of Vaping Products.","category":"conferences","start":"2024-06-27T15:00:00Z","geo":{"geometry":{"coordinates":[-4.6847677,54.2172048],"type":"Point"},"placekey":"@4hk-kp9-xkf","address":{"country_code":"IM","formatted_address":"Fuchsia Road, Peel IM5, Isle of Man","locality":"Peel","postcode":"IM5","region":"Peel"}},"labels":["conference","health"],"duration":2700,"start_local":"2024-06-27T16:00:00","end":"2024-06-27T15:45:00Z","end_local":"2024-06-27T16:45:00","updated":"2024-06-20T18:46:29Z"},{"title":"Presentation by The Chairman of the  IOM Employment and Equality Tribunal","description":"Sourced from predicthq.com - The Chairman will share helpful guidance about the Institutes operation with tips about representing  parties up to and including appearance","category":"conferences","start":"2024-06-26T11:30:00Z","geo":{"geometry":{"coordinates":[-4.481890599999999,54.1544988],"type":"Point"},"placekey":"@4hk-kqf-7kf","address":{"country_code":"IM","formatted_address":"Kingswood Grove, Douglas IM1 3LY, Isle of Man","locality":"Douglas","postcode":"IM1 3LY","region":"Douglas"}},"labels":["business","conference"],"duration":5400,"start_local":"2024-06-26T12:30:00","end":"2024-06-26T13:00:00Z","end_local":"2024-06-26T14:00:00","updated":"2024-05-23T04:56:05Z"},{"title":"Network and Learn | Using Neuro Linguistic Programming (NLP) in Business","description":"Sourced from predicthq.com - What is Neuro Linguistic Programming (NLP)?  Why is it an essential set of business tools?","category":"conferences","start":"2024-06-25T08:30:00Z","geo":{"geometry":{"coordinates":[-4.4808976,54.15047980000001],"type":"Point"},"placekey":"@4hk-kqf-gp9","address":{"country_code":"IM","formatted_address":"Prospect Hill, Douglas IM1 1EQ, Isle of Man","locality":"Douglas","postcode":"IM1 1EQ","region":"Douglas"}},"labels":["business","conference"],"duration":7200,"start_local":"2024-06-25T09:30:00","end":"2024-06-25T10:30:00Z","end_local":"2024-06-25T11:30:00","updated":"2024-06-04T02:49:33Z"},{"title":"The Vitality Blueprint: Hormones","description":"Sourced from predicthq.com - Discover how to optimize your hormone health and boost your vitality at The Vitality Blueprint: Hormones event!","category":"conferences","start":"2024-06-24T18:00:00Z","geo":{"geometry":{"coordinates":[-4.4805732,54.1479714],"type":"Point"},"placekey":"@4hk-kqf-ct9","address":{"country_code":"IM","formatted_address":"Ridgeway Street, Douglas IM1 1EN, Isle of Man","locality":"Douglas","postcode":"IM1 1EN","region":"Douglas"}},"labels":["conference","health"],"duration":5400,"start_local":"2024-06-24T19:00:00","end":"2024-06-24T19:30:00Z","end_local":"2024-06-24T20:30:00","updated":"2024-06-04T01:37:08Z"},{"title":"Art, Design, Media & Music Exhibition 2024 - Fri 21st June","description":"Sourced from predicthq.com - View the inspiring and thought-provoking final major projects created by our Art, Design, Media & Music Level 1 - 4 students.","category":"expos","start":"2024-06-21T11:00:00Z","geo":{"geometry":{"coordinates":[-4.478766999999999,54.17149],"type":"Point"},"placekey":"@4hk-kq7-zvf","address":{"country_code":"IM","formatted_address":"Douglas IM2, Isle of Man","locality":"Douglas","postcode":"IM2","region":"Douglas"}},"labels":["expo","performing-arts"],"duration":14400,"start_local":"2024-06-21T12:00:00","end":"2024-06-21T15:00:00Z","end_local":"2024-06-21T16:00:00","updated":"2024-06-04T09:27:58Z"},{"title":"Pillar 2 Global Minimum Tax – Income Tax Division update","description":"Sourced from predicthq.com - Get the latest news on the Pillar 2 Global Minimum Tax at our Income Tax Division update event!","category":"conferences","start":"2024-06-20T11:30:00Z","geo":{"geometry":{"coordinates":[-4.47818,54.151355],"type":"Point"},"placekey":"@4hk-kqf-grk","address":{"country_code":"IM","formatted_address":"Loch Promenade, Douglas IM1 2LX, Isle of Man","locality":"Douglas","postcode":"IM1 2LX","region":"Douglas"}},"labels":["business","conference"],"duration":3600,"start_local":"2024-06-20T12:30:00","end":"2024-06-20T12:30:00Z","end_local":"2024-06-20T13:30:00","updated":"2024-05-30T04:22:46Z"},{"title":"Art, Design, Media & Music Exhibition 2024 - Thur 20th June","description":"Sourced from predicthq.com - View the inspiring and thought-provoking final major projects created by our Art, Design, Media & Music Level 1 - 4 students.","category":"expos","start":"2024-06-20T11:00:00Z","geo":{"geometry":{"coordinates":[-4.478766999999999,54.17149],"type":"Point"},"placekey":"@4hk-kq7-zvf","address":{"country_code":"IM","formatted_address":"Douglas IM2, Isle of Man","locality":"Douglas","postcode":"IM2","region":"Douglas"}},"labels":["expo","performing-arts"],"duration":14400,"start_local":"2024-06-20T12:00:00","end":"2024-06-20T15:00:00Z","end_local":"2024-06-20T16:00:00","updated":"2024-06-04T03:52:25Z"},{"title":"Art, Design, Media & Music Exhibition 2024 - Wed 19th June","description":"Sourced from predicthq.com - View the inspiring and thought-provoking final major projects created by our Art, Design, Media & Music Level 1 - 4 students.","category":"expos","start":"2024-06-19T11:00:00Z","geo":{"geometry":{"coordinates":[-4.478766999999999,54.17149],"type":"Point"},"placekey":"@4hk-kq7-zvf","address":{"country_code":"IM","formatted_address":"Douglas IM2, Isle of Man","locality":"Douglas","postcode":"IM2","region":"Douglas"}},"labels":["expo","performing-arts"],"duration":14400,"start_local":"2024-06-19T12:00:00","end":"2024-06-19T15:00:00Z","end_local":"2024-06-19T16:00:00","updated":"2024-06-04T04:31:57Z"},{"title":"North Barrule","description":"Sourced from predicthq.com","category":"sports","start":"2024-06-18T18:00:00Z","geo":{"geometry":{"coordinates":[-4.4,54.2833333],"type":"Point"},"placekey":"@4hk-gjq-g8v","address":{"country_code":"IM","formatted_address":"Isle of Man","locality":"Isle of Man"}},"labels":["outdoor-sports","running","sport"],"duration":0,"start_local":"2024-06-18T19:00:00","end":"2024-06-18T18:00:00Z","end_local":"2024-06-18T19:00:00","updated":"2024-06-03T23:53:45Z"},{"title":"Art, Design, Media & Music Exhibition 2024 - Tues 18th June","description":"Sourced from predicthq.com - View the inspiring and thought-provoking final major projects created by our Art, Design, Media & Music Level 1 - 4 students.","category":"expos","start":"2024-06-18T11:00:00Z","geo":{"geometry":{"coordinates":[-4.478766999999999,54.17149],"type":"Point"},"placekey":"@4hk-kq7-zvf","address":{"country_code":"IM","formatted_address":"Douglas IM2, Isle of Man","locality":"Douglas","postcode":"IM2","region":"Douglas"}},"labels":["expo","performing-arts"],"duration":14400,"start_local":"2024-06-18T12:00:00","end":"2024-06-18T15:00:00Z","end_local":"2024-06-18T16:00:00","updated":"2024-06-04T09:24:10Z"},{"title":"Children's First Aid","description":"Sourced from predicthq.com - To gain an understanding of how to deal with a variety of medical\nemergencies in babies and children.","category":"conferences","start":"2024-06-17T17:00:00Z","geo":{"geometry":{"coordinates":[-4.453586,54.176862],"type":"Point"},"placekey":"@4hk-kqh-vcq","address":{"country_code":"IM","formatted_address":"School Road, Isle of Man IM3 1RD, Isle of Man","locality":"Isle of Man","postcode":"IM3 1RD","region":"Onchan"}},"labels":["conference","health"],"duration":7200,"start_local":"2024-06-17T18:00:00","end":"2024-06-17T19:00:00Z","end_local":"2024-06-17T20:00:00","updated":"2024-06-04T01:04:50Z"},{"title":"Art, Design, Media & Music Exhibition 2024 - Mon 17th June","description":"Sourced from predicthq.com - View the inspiring and thought-provoking final major projects created by our Art, Design, Media & Music Level 1 - 4 students.","category":"expos","start":"2024-06-17T11:00:00Z","geo":{"geometry":{"coordinates":[-4.478766999999999,54.17149],"type":"Point"},"placekey":"@4hk-kq7-zvf","address":{"country_code":"IM","formatted_address":"Douglas IM2, Isle of Man","locality":"Douglas","postcode":"IM2","region":"Douglas"}},"labels":["expo","performing-arts"],"duration":14400,"start_local":"2024-06-17T12:00:00","end":"2024-06-17T15:00:00Z","end_local":"2024-06-17T16:00:00","updated":"2024-06-04T03:25:19Z"},{"title":"1886 Manx Middle Distance Triathlon","description":"Sourced from predicthq.com","category":"sports","start":"2024-06-15T23:00:00Z","geo":{"geometry":{"coordinates":[-4.3856659,54.3308112],"type":"Point"},"placekey":"@4hk-gjr-wkz","address":{"country_code":"IM","formatted_address":"Park Road, Ramsey IM8, Isle of Man","locality":"Ramsey","postcode":"IM8","region":"Ramsey"}},"labels":["bicycle","outdoor-sports","running","sport","triathlon"],"duration":86399,"start_local":"2024-06-16T00:00:00","end":"2024-06-16T22:59:59Z","end_local":"2024-06-16T23:59:59","updated":"2024-06-04T07:35:49Z"},{"title":"Terence George & The Shakies - Callum Rowe & Friends - Sound Records DJ Set","description":"Sourced from predicthq.com - Join us for a musical journey featuring a fusion of alt-rock, blues, jazz & prog styled tracks. Let the rhythm & melodies sweep you away.","category":"concerts","start":"2024-06-15T18:00:00Z","geo":{"geometry":{"coordinates":[-4.7578482,54.087059],"type":"Point"},"placekey":"@4hk-kwd-xwk","address":{"country_code":"IM","formatted_address":"Kerrin Victoria, Port Erin IM9 6LN, Isle of Man","locality":"Port Erin","postcode":"IM9 6LN","region":"Port Erin"}},"labels":["concert","music"],"duration":16200,"start_local":"2024-06-15T19:00:00","end":"2024-06-15T22:30:00Z","end_local":"2024-06-15T23:30:00","updated":"2024-06-04T01:04:32Z"},{"title":"The Art of Indigo: Celebrate the Colour Blue:","description":"Sourced from predicthq.com - The Art of Indigo: Celebrate the colour blue\n\nBeat the Blues!","category":"festivals","start":"2024-06-15T09:00:00Z","geo":{"geometry":{"coordinates":[-4.6976863,54.2214955],"type":"Point"},"placekey":"@4hk-kpb-b8v","address":{"country_code":"IM","formatted_address":"Mill Road, Peel IM5, Isle of Man","locality":"Peel","postcode":"IM5","region":"Peel"}},"labels":["festival","performing-arts"],"duration":19800,"start_local":"2024-06-15T10:00:00","end":"2024-06-15T14:30:00Z","end_local":"2024-06-15T15:30:00","updated":"2024-06-04T00:56:03Z"},{"title":"Art, Design, Media & Music Exhibition 2024 - Fri 14th June","description":"Sourced from predicthq.com - View the inspiring and thought-provoking final major projects created by our Art, Design, Media & Music Level 1 - 4 students.","category":"expos","start":"2024-06-14T11:00:00Z","geo":{"geometry":{"coordinates":[-4.478766999999999,54.17149],"type":"Point"},"placekey":"@4hk-kq7-zvf","address":{"country_code":"IM","formatted_address":"Douglas IM2, Isle of Man","locality":"Douglas","postcode":"IM2","region":"Douglas"}},"labels":["expo","performing-arts"],"duration":14400,"start_local":"2024-06-14T12:00:00","end":"2024-06-14T15:00:00Z","end_local":"2024-06-14T16:00:00","updated":"2024-06-04T00:33:05Z"},{"title":"Diabetes and Me","description":"Sourced from predicthq.com - Are you a young person aged between 11 and 24 living with diabetes on the Isle of Man? Then we need you!","category":"conferences","start":"2024-06-13T17:00:00Z","geo":{"geometry":{"coordinates":[-4.506948,54.1733],"type":"Point"},"placekey":"@4hk-kqc-nnq","address":{"country_code":"IM","formatted_address":"Braddan IM4, Isle of Man","locality":"Braddan","postcode":"IM4","region":"Braddan"}},"labels":["conference","health"],"duration":7200,"start_local":"2024-06-13T18:00:00","end":"2024-06-13T19:00:00Z","end_local":"2024-06-13T20:00:00","updated":"2024-06-12T18:34:31Z"},{"title":"Art, Design, Media & Music Exhibition 2024 - Thur 13th June","description":"Sourced from predicthq.com - View the inspiring and thought-provoking final major projects created by our Art, Design, Media & Music Level 1 - 4 students.","category":"expos","start":"2024-06-13T11:00:00Z","geo":{"geometry":{"coordinates":[-4.478766999999999,54.17149],"type":"Point"},"placekey":"@4hk-kq7-zvf","address":{"country_code":"IM","formatted_address":"Douglas IM2, Isle of Man","locality":"Douglas","postcode":"IM2","region":"Douglas"}},"labels":["expo","performing-arts"],"duration":14400,"start_local":"2024-06-13T12:00:00","end":"2024-06-13T15:00:00Z","end_local":"2024-06-13T16:00:00","updated":"2024-06-03T23:41:59Z"},{"title":"Innovation Challenge 2024 Finale","description":"Sourced from predicthq.com - Join us on Thursday 13 June at the Comis Hotel, Isle of Man, for the Finale of the Innovation Challenge 2024!","category":"conferences","start":"2024-06-13T07:30:00Z","geo":{"geometry":{"coordinates":[-4.561111,54.1397696],"type":"Point"},"placekey":"@4hk-knv-snq","address":{"country_code":"IM","formatted_address":"Mount Murray Back Rd, Douglas, Isle of Man IM4 2HT, Isle of Man","postcode":"IM4 2HT","locality":"Douglas","region":"Middle"}},"labels":["conference","science","technology"],"duration":30600,"start_local":"2024-06-13T08:30:00","end":"2024-06-13T16:00:00Z","end_local":"2024-06-13T17:00:00","updated":"2024-06-04T11:57:09Z"},{"title":"Pillar 2 Global Minimum Tax – what do Chamber Members need to know?","description":"Sourced from predicthq.com - On 20 May 2024 the Treasury Minister confirmed that the Island intends to implement a Pillar 2 Qualified Domestic Top-up Tax from 1 January","category":"conferences","start":"2024-06-12T08:00:00Z","geo":{"geometry":{"coordinates":[-4.4808976,54.15047980000001],"type":"Point"},"placekey":"@4hk-kqf-gp9","address":{"country_code":"IM","formatted_address":"Prospect Hill, Douglas IM1 1EQ, Isle of Man","locality":"Douglas","postcode":"IM1 1EQ","region":"Douglas"}},"labels":["business","conference"],"duration":5400,"start_local":"2024-06-12T09:00:00","end":"2024-06-12T09:30:00Z","end_local":"2024-06-12T10:30:00","updated":"2024-05-23T04:24:32Z"},{"title":"Management Liability Insurance – Protecting Decision Makers","description":"Sourced from predicthq.com - Gain an understanding of Management Liability Insurance","category":"conferences","start":"2024-06-11T08:30:00Z","geo":{"geometry":{"coordinates":[-4.4808976,54.15047980000001],"type":"Point"},"placekey":"@4hk-kqf-gp9","address":{"country_code":"IM","formatted_address":"Prospect Hill, Douglas IM1 1EQ, Isle of Man","locality":"Douglas","postcode":"IM1 1EQ","region":"Douglas"}},"labels":["business","conference"],"duration":7200,"start_local":"2024-06-11T09:30:00","end":"2024-06-11T10:30:00Z","end_local":"2024-06-11T11:30:00","updated":"2024-06-04T03:43:50Z"},{"title":"Island Time at Kiki's: \"HIMKOK, More than Liquid\"","description":"Sourced from predicthq.com - Hosted by HIMKOK's Bar Manager, Maroš Dzurus and Head of Research and Development, Paul Aguilar. Learn, get inspired, elevate your craft!","category":"conferences","start":"2024-06-09T11:30:00Z","geo":{"geometry":{"coordinates":[-4.4798086,54.1477783],"type":"Point"},"placekey":"@4hk-kqf-d7q","address":{"country_code":"IM","formatted_address":"North Quay, Douglas IM1 4LB, Isle of Man","locality":"Douglas","postcode":"IM1 4LB","region":"Douglas"}},"labels":["conference","food"],"duration":9000,"start_local":"2024-06-09T12:30:00","end":"2024-06-09T14:00:00Z","end_local":"2024-06-09T15:00:00","updated":"2024-06-06T01:25:18Z"},{"title":"Knock Knock Knockaloe Beg Open Comedy Night","description":"Sourced from predicthq.com - Come on down to the Knockaloe Beg Farm for a giggle - or a go at stand-up comedy!","category":"performing-arts","start":"2024-05-31T18:00:00Z","geo":{"geometry":{"coordinates":[-4.703692299999999,54.2093323],"type":"Point"},"placekey":"@4hk-kp9-hh5","address":{"country_code":"IM","formatted_address":"Knockaloe Beg, Isle of Man IM5, Isle of Man","locality":"Isle of Man","postcode":"IM5","region":"Patrick"}},"labels":["concert","music","performing-arts"],"duration":7200,"start_local":"2024-05-31T19:00:00","end":"2024-05-31T20:00:00Z","end_local":"2024-05-31T21:00:00","updated":"2024-06-04T22:02:58Z"},{"title":"AEONS, Swarf Damage, and Silo","description":"Sourced from predicthq.com","category":"concerts","start":"2024-05-31T18:00:00Z","geo":{"geometry":{"coordinates":[-4.48172,54.14521],"type":"Point"},"placekey":"@4hk-kqd-p7q","address":{"country_code":"IM","formatted_address":"Douglas, Isle of Man","locality":"Douglas"}},"labels":["concert","music"],"duration":0,"start_local":"2024-05-31T19:00:00","end":"2024-05-31T18:00:00Z","end_local":"2024-05-31T19:00:00","updated":"2024-06-14T18:06:46Z"},{"title":"Network and Learn | Leadership Insights – theory and practice","description":"Sourced from predicthq.com - Designed for leaders and aspirant leaders, this workshop offers a unique blend of leadership theory and practical application.","category":"conferences","start":"2024-05-28T08:30:00Z","geo":{"geometry":{"coordinates":[-4.4808976,54.15047980000001],"type":"Point"},"placekey":"@4hk-kqf-gp9","address":{"country_code":"IM","formatted_address":"Prospect Hill, Douglas IM1 1EQ, Isle of Man","locality":"Douglas","postcode":"IM1 1EQ","region":"Douglas"}},"labels":["business","conference"],"duration":7200,"start_local":"2024-05-28T09:30:00","end":"2024-05-28T10:30:00Z","end_local":"2024-05-28T11:30:00","updated":"2024-06-05T15:02:52Z"},{"title":"Isle of Man TT Races","description":"Sourced from predicthq.com - The Isle of Man TT is the ultimate 'must see it' event for motorsport fans across the globe. Every May and June the Isle of Man, the tiny country between England and Ireland, turns into motorcycle nirvana as the world's greatest road racers gather to test themselves against the incredible 'Mountain Course' - a 37.73 mile beast of a course carved out of the island's public roads. For over 100 years the Mountain's siren call has drawn fans and riders to experience the unique atmosphere of the Isle of Man TT Festival.","category":"sports","start":"2024-05-27T09:30:00Z","geo":{"geometry":{"coordinates":[-4.4861228,54.1523372],"type":"Point"},"placekey":"@4hk-kqd-hdv","address":{"country_code":"IM","formatted_address":"Douglas IM1, Isle of Man","locality":"Douglas","postcode":"IM1","region":"Douglas"}},"labels":["entertainment","sport"],"duration":1063800,"start_local":"2024-05-27T10:30:00","end":"2024-06-08T17:00:00Z","end_local":"2024-06-08T18:00:00","updated":"2024-06-05T04:59:02Z"},{"title":"Bradda Niarbyl","description":"Sourced from predicthq.com","category":"sports","start":"2024-05-26T09:00:00Z","geo":{"geometry":{"coordinates":[-4.7647995,54.0915072],"type":"Point"},"placekey":"@4hk-kwf-f75","address":{"country_code":"IM","formatted_address":"Bradda Glen, Isle of Man IM9, Isle of Man","locality":"Isle of Man","postcode":"IM9","region":"Port Erin"}},"labels":["outdoor-sports","running","sport"],"duration":0,"start_local":"2024-05-26T10:00:00","end":"2024-05-26T09:00:00Z","end_local":"2024-05-26T10:00:00","updated":"2024-06-12T11:57:51Z"},{"title":"TRUMAN FALLS","description":"Sourced from predicthq.com - LIVE @ NOA BAKEHOUSE.","category":"community","start":"2024-05-25T18:30:00Z","geo":{"geometry":{"coordinates":[-4.4751391,54.1483968],"type":"Point"},"placekey":"@4hk-kqf-bhq","address":{"country_code":"IM","formatted_address":"Peveril Buildings, Peveril Square(Kerrin Peveril), Douglas, Isle of Man IM1 2BS, Isle of Man","postcode":"IM1 2BS","locality":"Douglas","region":"Douglas"}},"labels":["concert","music"],"duration":12600,"start_local":"2024-05-25T19:30:00","end":"2024-05-25T22:00:00Z","end_local":"2024-05-25T23:00:00","updated":"2024-06-05T01:03:50Z"},{"title":"The Vitality Blueprint series: Epigenetics & Genetics","description":"Sourced from predicthq.com - Join us for The Vitality Blueprint series: Epigenetic& Genetics, where we'll dive deep into how to optimise your health & overall wellbeing!","category":"conferences","start":"2024-05-20T18:00:00Z","geo":{"geometry":{"coordinates":[-4.4805732,54.1479714],"type":"Point"},"placekey":"@4hk-kqf-ct9","address":{"country_code":"IM","formatted_address":"Ridgeway Street, Douglas IM1 1EN, Isle of Man","locality":"Douglas","postcode":"IM1 1EN","region":"Douglas"}},"labels":["conference","health"],"duration":5400,"start_local":"2024-05-20T19:00:00","end":"2024-05-20T19:30:00Z","end_local":"2024-05-20T20:30:00","updated":"2024-06-05T11:27:57Z"},{"title":"Give it a TRYATHLON 2024 Sponsored By Standard Bank","description":"Sourced from predicthq.com - Give it a \"Try-Athlon\"  is a physically achievable fun, non-competitive fundraiser for Isle of Play.\nStarting and finishing at Fenella Beach","category":"community","start":"2024-05-19T07:00:00Z","geo":{"geometry":{"coordinates":[-4.6988138,54.2254871],"type":"Point"},"placekey":"@4hk-jb6-q4v","address":{"country_code":"IM","formatted_address":"Isle of Man IM5, Isle of Man","locality":"Isle of Man","postcode":"IM5","region":"Peel"}},"labels":["community","fundraiser","sport"],"duration":0,"start_local":"2024-05-19T08:00:00","end":"2024-05-19T07:00:00Z","end_local":"2024-05-19T08:00:00","updated":"2024-06-05T07:27:39Z"},{"title":"FREE Workshop - Managing Lower Back Pain","description":"Sourced from predicthq.com - Attend this workshop & learn the latest and greatest tips, tricks and techniques to safely and effectively manage lower back pain.","category":"conferences","start":"2024-05-18T11:30:00Z","geo":{"geometry":{"coordinates":[-4.488824699999999,54.1524468],"type":"Point"},"placekey":"@4hk-kqd-h89","address":{"country_code":"IM","formatted_address":"Westmoreland Road, Douglas IM1 4AN, Isle of Man","locality":"Douglas","postcode":"IM1 4AN","region":"Douglas"}},"labels":["conference","health"],"duration":3600,"start_local":"2024-05-18T12:30:00","end":"2024-05-18T12:30:00Z","end_local":"2024-05-18T13:30:00","updated":"2024-06-05T10:27:20Z"},{"title":"Douglas AM Ladies Day","description":"Sourced from predicthq.com - D﻿ouglas AM Ladies, it's a good day to worship the Lord!\n\nW﻿e're so looking forwards to spending time worshipping and seeking God together .","category":"conferences","start":"2024-05-18T08:00:00Z","geo":{"geometry":{"coordinates":[-4.482440700000001,54.1732542],"type":"Point"},"placekey":"@4hk-kq8-3dv","address":{"country_code":"IM","formatted_address":"Fenella Avenue, Douglas IM2, Isle of Man","locality":"Douglas","postcode":"IM2","region":"Douglas"}},"labels":["conference","religion"],"duration":9000,"start_local":"2024-05-18T09:00:00","end":"2024-05-18T10:30:00Z","end_local":"2024-05-18T11:30:00","updated":"2024-06-04T22:49:34Z"},{"title":"Europe Netball Open Challenge Event  - May 16 to May 19 2024","description":"Sourced from predicthq.com - Europe Netball Open Challenge - Eight Teams , Two Divisions, One Great Netball Event","category":"community","start":"2024-05-16T08:00:00Z","geo":{"geometry":{"coordinates":[-4.503132199999999,54.154111],"type":"Point"},"placekey":"@4hk-kqd-vpv","address":{"country_code":"IM","formatted_address":"Groves Road, Douglas IM2, Isle of Man","locality":"Douglas","postcode":"IM2","region":"Douglas"}},"labels":["community","sport"],"duration":288000,"start_local":"2024-05-16T09:00:00","end":"2024-05-19T16:00:00Z","end_local":"2024-05-19T17:00:00","updated":"2024-06-05T09:55:37Z"},{"title":"UK non-dom regime and offshore trusts – a sea change?","description":"Sourced from predicthq.com - Join us on May 15th to discuss how recent changes in the UK non-dom regime are affecting offshore trusts!","category":"conferences","start":"2024-05-15T11:30:00Z","geo":{"geometry":{"coordinates":[-4.47818,54.151355],"type":"Point"},"placekey":"@4hk-kqf-grk","address":{"country_code":"IM","formatted_address":"Loch Promenade, Douglas IM1 2LX, Isle of Man","locality":"Douglas","postcode":"IM1 2LX","region":"Douglas"}},"labels":["business","conference"],"duration":3600,"start_local":"2024-05-15T12:30:00","end":"2024-05-15T12:30:00Z","end_local":"2024-05-15T13:30:00","updated":"2024-06-05T04:00:44Z"},{"title":"Sleep and wellbeing with Isle Listen","description":"Sourced from predicthq.com - Join Isle Listen to explore the science of sleep, the impact it has on our mental health, and how we can improve our sleep and wellbeing.","category":"conferences","start":"2024-05-14T09:00:00Z","geo":{"geometry":{"coordinates":[-4.478977200000001,54.1478508],"type":"Point"},"placekey":"@4hk-kqf-d7q","address":{"country_code":"IM","formatted_address":"Market Hill, Douglas IM1 2BF, Isle of Man","locality":"Douglas","postcode":"IM1 2BF","region":"Douglas"}},"labels":["conference","health"],"duration":3600,"start_local":"2024-05-14T10:00:00","end":"2024-05-14T10:00:00Z","end_local":"2024-05-14T11:00:00","updated":"2024-06-05T21:04:26Z"},{"title":"Children's First Aid","description":"Sourced from predicthq.com - To gain an understanding of how to deal with a variety of medical\nemergencies in babies and children.","category":"conferences","start":"2024-05-13T17:00:00Z","geo":{"geometry":{"coordinates":[-4.453586,54.176862],"type":"Point"},"placekey":"@4hk-kqh-vcq","address":{"country_code":"IM","formatted_address":"School Road, Isle of Man IM3 1RD, Isle of Man","locality":"Isle of Man","postcode":"IM3 1RD","region":"Onchan"}},"labels":["conference","health"],"duration":7200,"start_local":"2024-05-13T18:00:00","end":"2024-05-13T19:00:00Z","end_local":"2024-05-13T20:00:00","updated":"2024-06-05T01:04:07Z"},{"title":"Deborah Heather, Visit Agency | 12 months in, where do we go from here?","description":"Sourced from predicthq.com - In March 2023, Deborah Heather was appointed as Chief Executive Officer at the Visit Agency.","category":"conferences","start":"2024-05-10T11:00:00Z","geo":{"geometry":{"coordinates":[-4.562376800000001,54.1467135],"type":"Point"},"placekey":"@4hk-knv-89z","address":{"country_code":"IM","formatted_address":"Mount Murray Back Road, Isle of Man IM4, Isle of Man","locality":"Isle of Man","postcode":"IM4"}},"labels":["business","conference"],"duration":7200,"start_local":"2024-05-10T12:00:00","end":"2024-05-10T13:00:00Z","end_local":"2024-05-10T14:00:00","updated":"2024-06-12T12:26:50Z"},{"title":"AI revolution","description":"Sourced from predicthq.com - Get ready for the AI revolution - join us to explore the future of artificial intelligence!","category":"conferences","start":"2024-05-09T11:30:00Z","geo":{"geometry":{"coordinates":[-4.47818,54.151355],"type":"Point"},"placekey":"@4hk-kqf-grk","address":{"country_code":"IM","formatted_address":"Loch Promenade, Douglas IM1 2LX, Isle of Man","locality":"Douglas","postcode":"IM1 2LX","region":"Douglas"}},"labels":["business","conference"],"duration":3600,"start_local":"2024-05-09T12:30:00","end":"2024-05-09T12:30:00Z","end_local":"2024-05-09T13:30:00","updated":"2024-06-05T11:39:17Z"},{"title":"Vaping & Young People","description":"Sourced from predicthq.com - The Isle of Man is moving rapidly towards legislation around of Vaping Products.","category":"conferences","start":"2024-05-08T16:30:00Z","geo":{"geometry":{"coordinates":[-4.3965545,54.3197229],"type":"Point"},"placekey":"@4hk-gjr-p35","address":{"country_code":"IM","formatted_address":"Lezayre Rd, Ramsey, Isle of Man IM8, Isle of Man","postcode":"IM8","locality":"Ramsey","region":"Garff"}},"labels":["conference","health"],"duration":2700,"start_local":"2024-05-08T17:30:00","end":"2024-05-08T17:15:00Z","end_local":"2024-05-08T18:15:00","updated":"2024-06-05T21:44:12Z"},{"title":"Manx Voices Choir under Gaia Installation","description":"Sourced from predicthq.com - Come join us for a magical evening of music and art at the Gaia Installation with the enchanting Manx Voices Choir!","category":"performing-arts","start":"2024-05-07T18:30:00Z","geo":{"geometry":{"coordinates":[-4.479551599999999,54.1544153],"type":"Point"},"placekey":"@4hk-kqf-649","address":{"country_code":"IM","formatted_address":"Finch Road, Douglas IM1, Isle of Man","locality":"Douglas","postcode":"IM1","region":"Douglas"}},"labels":["concert","music","performing-arts"],"duration":5400,"start_local":"2024-05-07T19:30:00","end":"2024-05-07T20:00:00Z","end_local":"2024-05-07T21:00:00","updated":"2024-05-21T18:33:33Z"},{"title":"Dawn Chorus in the Southern Uplands","description":"Sourced from predicthq.com - Join us for an early morning birdwatching experience in the Southern Uplands, where you can enjoy the beautiful sounds of the Dawn Chorus.","category":"conferences","start":"2024-05-05T04:15:00Z","geo":{"geometry":{"coordinates":[-4.663583399999999,54.1686169],"type":"Point"},"placekey":"@4hk-kp5-kfz","address":{"country_code":"IM","formatted_address":"Isle of Man IM5, Isle of Man","locality":"Isle of Man","postcode":"IM5","region":"Patrick"}},"labels":["conference","outdoor"],"duration":6300,"start_local":"2024-05-05T05:15:00","end":"2024-05-05T06:00:00Z","end_local":"2024-05-05T07:00:00","updated":"2024-06-05T10:20:49Z"},{"title":"Wavelengths: Songs Under the Surface","description":"Sourced from predicthq.com - Award-winning television sound recordist Chris Watson, will give a fascinating insight into life in oceans globally, with a local twist.","category":"conferences","start":"2024-05-04T18:00:00Z","geo":{"geometry":{"coordinates":[-4.4815294658,54.154537449],"type":"Point"},"placekey":"@4hk-kqf-7kf","address":{"country_code":"IM","formatted_address":"Kingswood Grove\nDouglas\nIM1 3\nIsle of Man","postcode":"IM1 3","locality":"Douglas","region":"Douglas"}},"labels":["conference","entertainment"],"duration":4500,"start_local":"2024-05-04T19:00:00","end":"2024-05-04T19:15:00Z","end_local":"2024-05-04T20:15:00","updated":"2024-06-05T08:23:40Z"},{"title":"The Bop Katz","description":"Sourced from predicthq.com - 'Rocking around the World'  The Bop Katz - a 5 piece band playing 50's/60's rock n roll, ballads and blues.  Jiving in the Aisles permitted!","category":"performing-arts","start":"2024-05-03T18:30:00Z","geo":{"geometry":{"coordinates":[-4.4808637,54.1529615],"type":"Point"},"placekey":"@4hk-kqf-7nq","address":{"country_code":"IM","formatted_address":"Finch Road, Douglas IM1 2PW, Isle of Man","locality":"Douglas","postcode":"IM1 2PW","region":"Douglas"}},"labels":["concert","music","performing-arts"],"duration":7200,"start_local":"2024-05-03T19:30:00","end":"2024-05-03T20:30:00Z","end_local":"2024-05-03T21:30:00","updated":"2024-06-05T07:43:03Z"},{"title":"Annual Members' Meeting","description":"Sourced from predicthq.com - Join us for a member evening 'Connect' event.","category":"conferences","start":"2024-05-01T16:30:00Z","geo":{"geometry":{"coordinates":[-4.4780445099,54.1508490414],"type":"Point"},"placekey":"@4hk-kqf-guv","address":{"country_code":"IM","formatted_address":"Loch Promenade\nDouglas\nIM1 2LX\nIsle of Man","postcode":"IM1 2LX","locality":"Douglas","region":"Isle of Man"}},"labels":["business","conference"],"duration":7200,"start_local":"2024-05-01T17:30:00","end":"2024-05-01T18:30:00Z","end_local":"2024-05-01T19:30:00","updated":"2024-06-05T15:32:34Z"},{"title":"\"Bitcoin: Where are we now?\"","description":"Sourced from predicthq.com - Troy Parker from Coincorner will present an hour session on the Bitcoin industry. This is a DQ sponsored event. Non-members welcome £25.","category":"conferences","start":"2024-04-30T11:30:00Z","geo":{"geometry":{"coordinates":[-4.47818,54.151355],"type":"Point"},"placekey":"@4hk-kqf-grk","address":{"country_code":"IM","formatted_address":"Loch Promenade, Douglas IM1 2LX, Isle of Man","locality":"Douglas","postcode":"IM1 2LX","region":"Douglas"}},"labels":["business","conference"],"duration":3600,"start_local":"2024-04-30T12:30:00","end":"2024-04-30T12:30:00Z","end_local":"2024-04-30T13:30:00","updated":"2024-06-05T04:57:04Z"},{"title":"Posture Perfection Workshop","description":"Sourced from predicthq.com - A brand new workshop designed to inform and share knowledge, showing you what to do to improve and maintain the perfect posture","category":"conferences","start":"2024-04-29T17:30:00Z","geo":{"geometry":{"coordinates":[-4.4878083,54.1470312],"type":"Point"},"placekey":"@4hk-kqd-f9f","address":{"country_code":"IM","formatted_address":"Old Castletown Road, Douglas IM1, Isle of Man","locality":"Douglas","postcode":"IM1","region":"Douglas"}},"labels":["conference","health"],"duration":5400,"start_local":"2024-04-29T18:30:00","end":"2024-04-29T19:00:00Z","end_local":"2024-04-29T20:00:00","updated":"2024-06-05T05:36:12Z"},{"title":"Copy of Songs for Oie Voaldyn","description":"Sourced from predicthq.com - A singing workshop celebrating the arrival of summer with facilitator John Bowker  -learn beautiful harmonies  - no experience needed","category":"concerts","start":"2024-04-28T13:00:00Z","geo":{"geometry":{"coordinates":[-4.6910032,54.22376619999999],"type":"Point"},"placekey":"@4hk-jb3-d9z","address":{"country_code":"IM","formatted_address":"Stanley Road, Peel IM5, Isle of Man","locality":"Peel","postcode":"IM5","region":"Peel"}},"labels":["concert","music"],"duration":14400,"start_local":"2024-04-28T14:00:00","end":"2024-04-28T17:00:00Z","end_local":"2024-04-28T18:00:00","updated":"2024-06-05T14:03:20Z"},{"title":"The Event Stylists Open Day","description":"Sourced from predicthq.com - Come and join us at The Event Stylists Open Day for a fun-filled day of inspiration, creativity, and all things event styling!","category":"expos","start":"2024-04-28T12:00:00Z","geo":{"geometry":{"coordinates":[-4.626176699999999,54.1941695],"type":"Point"},"placekey":"@4hk-kp7-kvf","address":{"country_code":"IM","formatted_address":"Kennaa Road, Isle of Man IM4, Isle of Man","locality":"Isle of Man","postcode":"IM4","region":"German"}},"labels":["expo","fashion"],"duration":7200,"start_local":"2024-04-28T13:00:00","end":"2024-04-28T14:00:00Z","end_local":"2024-04-28T15:00:00","updated":"2024-06-05T03:04:49Z"},{"title":"Shenanigans under Gaia Installation","description":"Sourced from predicthq.com - Get ready to sing along and enjoy the Shenanigans under the Gaia Installation - it's going to be an unforgettable night of mischief and fun","category":"performing-arts","start":"2024-04-27T18:30:00Z","geo":{"geometry":{"coordinates":[-4.479551599999999,54.1544153],"type":"Point"},"placekey":"@4hk-kqf-649","address":{"country_code":"IM","formatted_address":"Finch Road, Douglas IM1, Isle of Man","locality":"Douglas","postcode":"IM1","region":"Douglas"}},"labels":["concert","music","performing-arts"],"duration":9000,"start_local":"2024-04-27T19:30:00","end":"2024-04-27T21:00:00Z","end_local":"2024-04-27T22:00:00","updated":"2024-06-05T20:38:22Z"},{"title":"Mine's A Shanty literally performing under the Sea! with Gaia Installation","description":"Sourced from predicthq.com - Unaccompanied singing with a nautical flavour. Their programme typically includes a variety of well-known shanties to sing along to","category":"performing-arts","start":"2024-04-26T18:30:00Z","geo":{"geometry":{"coordinates":[-4.479551599999999,54.1544153],"type":"Point"},"placekey":"@4hk-kqf-649","address":{"country_code":"IM","formatted_address":"Finch Road, Douglas IM1, Isle of Man","locality":"Douglas","postcode":"IM1","region":"Douglas"}},"labels":["concert","music","performing-arts"],"duration":5400,"start_local":"2024-04-26T19:30:00","end":"2024-04-26T20:00:00Z","end_local":"2024-04-26T21:00:00","updated":"2024-06-05T13:41:10Z"},{"title":"Digital Discovery Day Isle of Man","description":"Sourced from predicthq.com - Join us for an insightful in- person CPD event, the ESM Digital Dentistry Discovery Day.","category":"conferences","start":"2024-04-26T17:00:00Z","geo":{"geometry":{"coordinates":[-4.5611757,54.1394319],"type":"Point"},"placekey":"@4hk-knv-snq","address":{"country_code":"IM","formatted_address":"Mount Murray IM4, Isle of Man","locality":"Mount Murray","postcode":"IM4","region":"Santon"}},"labels":["conference","science","technology"],"duration":93600,"start_local":"2024-04-26T18:00:00","end":"2024-04-27T19:00:00Z","end_local":"2024-04-27T20:00:00","updated":"2024-06-05T02:12:32Z"},{"title":"Learn4Life CPD Event - Sustainability","description":"Sourced from predicthq.com - Join us for the latest Learn4Life event; Upskilling CPD focussed on Sustainability for Businesses and the Workplace.","category":"conferences","start":"2024-04-26T08:30:00Z","geo":{"geometry":{"coordinates":[-4.478766999999999,54.17149],"type":"Point"},"placekey":"@4hk-kq7-zvf","address":{"country_code":"IM","formatted_address":"Douglas IM2, Isle of Man","locality":"Douglas","postcode":"IM2","region":"Douglas"}},"labels":["business","conference"],"duration":3600,"start_local":"2024-04-26T09:30:00","end":"2024-04-26T09:30:00Z","end_local":"2024-04-26T10:30:00","updated":"2024-06-05T09:59:42Z"},{"title":"Construction Isle of Man Forum 26th April 8-9am","description":"Sourced from predicthq.com - In the Construction Industry? Find out more about the newly re-vamped Government vocational support schemes from Education experts.","category":"conferences","start":"2024-04-26T07:00:00Z","geo":{"geometry":{"coordinates":[-4.4791406,54.1491252],"type":"Point"},"placekey":"@4hk-kqf-d5f","address":{"country_code":"IM","formatted_address":"Victoria Street, Douglas IM1 2LF, Isle of Man","locality":"Douglas","postcode":"IM1 2LF","region":"Douglas"}},"labels":["business","conference"],"duration":3600,"start_local":"2024-04-26T08:00:00","end":"2024-04-26T08:00:00Z","end_local":"2024-04-26T09:00:00","updated":"2024-06-05T00:59:25Z"},{"title":"Digital Transformation: Trends, Challenges and Strategies for Success","description":"Sourced from predicthq.com - This event will showcase a range of real-world case studies, to focus on the transformative\npower of digital innovation in business.","category":"conferences","start":"2024-04-25T13:00:00Z","geo":{"geometry":{"coordinates":[-4.478977200000001,54.1478508],"type":"Point"},"placekey":"@4hk-kqf-d7q","address":{"country_code":"IM","formatted_address":"Market Hill, Douglas IM1 2BF, Isle of Man","locality":"Douglas","postcode":"IM1 2BF","region":"Douglas"}},"labels":["conference","science","technology"],"duration":10800,"start_local":"2024-04-25T14:00:00","end":"2024-04-25T16:00:00Z","end_local":"2024-04-25T17:00:00","updated":"2024-06-05T10:26:08Z"},{"title":"Children's First Aid","description":"Sourced from predicthq.com - To gain an understanding of how to deal with a variety of medical\nemergencies in babies and children.","category":"conferences","start":"2024-04-24T17:00:00Z","geo":{"geometry":{"coordinates":[-4.4877263,54.1653948],"type":"Point"},"placekey":"@4hk-kq8-mzf","address":{"country_code":"IM","formatted_address":"Port-E-Chee Avenue, Douglas IM2, Isle of Man","locality":"Douglas","postcode":"IM2","region":"Douglas"}},"labels":["conference","health"],"duration":7200,"start_local":"2024-04-24T18:00:00","end":"2024-04-24T19:00:00Z","end_local":"2024-04-24T20:00:00","updated":"2024-06-05T01:46:33Z"},{"title":"Vaping & Young People","description":"Sourced from predicthq.com - The Isle of Man is moving rapidly towards legislation around of Vaping Products.","category":"conferences","start":"2024-04-23T16:00:00Z","geo":{"geometry":{"coordinates":[-4.6618509,54.0746874],"type":"Point"},"placekey":"@4hk-k83-fxq","address":{"country_code":"IM","formatted_address":"Castletown IM9 1HA, Isle of Man","locality":"Castletown","postcode":"IM9 1HA","region":"Castletown"}},"labels":["conference","health"],"duration":2700,"start_local":"2024-04-23T17:00:00","end":"2024-04-23T16:45:00Z","end_local":"2024-04-23T17:45:00","updated":"2024-06-04T23:25:22Z"},{"title":"Network and Learn | The basics of a compliance framework","description":"Sourced from predicthq.com - The session will provide guidance on where to start in designing a compliance framework, what best practice looks like .","category":"conferences","start":"2024-04-23T08:30:00Z","geo":{"geometry":{"coordinates":[-4.4808976,54.15047980000001],"type":"Point"},"placekey":"@4hk-kqf-gp9","address":{"country_code":"IM","formatted_address":"Prospect Hill, Douglas IM1 1EQ, Isle of Man","locality":"Douglas","postcode":"IM1 1EQ","region":"Douglas"}},"labels":["business","conference"],"duration":7200,"start_local":"2024-04-23T09:30:00","end":"2024-04-23T10:30:00Z","end_local":"2024-04-23T11:30:00","updated":"2024-06-05T04:33:30Z"},{"title":"The Vitality Blueprint series: Energy","description":"Sourced from predicthq.com - Join us for The Vitality Blueprint: Energy, where we'll dive deep into how to optimise your energy for overall well-being & productivity!","category":"conferences","start":"2024-04-22T18:00:00Z","geo":{"geometry":{"coordinates":[-4.4805732,54.1479714],"type":"Point"},"placekey":"@4hk-kqf-ct9","address":{"country_code":"IM","formatted_address":"Ridgeway Street, Douglas IM1 1EN, Isle of Man","locality":"Douglas","postcode":"IM1 1EN","region":"Douglas"}},"labels":["conference","health"],"duration":5400,"start_local":"2024-04-22T19:00:00","end":"2024-04-22T19:30:00Z","end_local":"2024-04-22T20:30:00","updated":"2024-06-05T05:19:35Z"},{"title":"Biskee Brisht - Indie, Folk, Pop band playing under the Gaia Installation","description":"Sourced from predicthq.com - Known for their catchy, hook-laden songs and colourful performances in both English and Manx Gaelic.  Chill out, relax and dance if you wish","category":"performing-arts","start":"2024-04-20T18:30:00Z","geo":{"geometry":{"coordinates":[-4.479551599999999,54.1544153],"type":"Point"},"placekey":"@4hk-kqf-649","address":{"country_code":"IM","formatted_address":"Finch Road, Douglas IM1, Isle of Man","locality":"Douglas","postcode":"IM1","region":"Douglas"}},"labels":["concert","music","performing-arts"],"duration":5400,"start_local":"2024-04-20T19:30:00","end":"2024-04-20T20:00:00Z","end_local":"2024-04-20T21:00:00","updated":"2024-06-05T04:05:27Z"},{"title":"Biosphere Lecture: 'Making Sustainability a Reality' with Dr Victoria Hurth","description":"Sourced from predicthq.com - Why a wellbeing economy, enabled by purpose-driven organisations and powered by meaningful work, is the solution to unsustainability.","category":"conferences","start":"2024-04-17T17:15:00Z","geo":{"geometry":{"coordinates":[-4.4815294658,54.154537449],"type":"Point"},"placekey":"@4hk-kqf-7kf","address":{"country_code":"IM","formatted_address":"Kingswood Grove\nDouglas\nIM1 3\nIsle of Man","postcode":"IM1 3","locality":"Douglas","region":"Douglas"}},"labels":["business","conference"],"duration":8100,"start_local":"2024-04-17T18:15:00","end":"2024-04-17T19:30:00Z","end_local":"2024-04-17T20:30:00","updated":"2024-06-05T08:23:29Z"},{"title":"Vaping & Young People","description":"Sourced from predicthq.com - The Isle of Man is moving rapidly towards legislation around of Vaping Products.","category":"conferences","start":"2024-04-17T17:00:00Z","geo":{"geometry":{"coordinates":[-4.4932471,54.154304],"type":"Point"},"placekey":"@4hk-kqf-jn5","address":{"country_code":"IM","formatted_address":"St.Catherine's Dr, Douglas IM1 4BE, Isle of Man","postcode":"IM1 4BE","locality":"Douglas","region":"Middle"}},"labels":["conference","health"],"duration":2700,"start_local":"2024-04-17T18:00:00","end":"2024-04-17T17:45:00Z","end_local":"2024-04-17T18:45:00","updated":"2024-06-04T22:13:01Z"},{"title":"Learn4Life CPD Event - Sustainability","description":"Sourced from predicthq.com - Join us for the latest Learn4Life event; Upskilling CPD focussed on Sustainability for Businesses and the Workplace.","category":"conferences","start":"2024-04-17T15:30:00Z","geo":{"geometry":{"coordinates":[-4.478766999999999,54.17149],"type":"Point"},"placekey":"@4hk-kq7-zvf","address":{"country_code":"IM","formatted_address":"Douglas IM2, Isle of Man","locality":"Douglas","postcode":"IM2","region":"Douglas"}},"labels":["business","conference"],"duration":3600,"start_local":"2024-04-17T16:30:00","end":"2024-04-17T16:30:00Z","end_local":"2024-04-17T17:30:00","updated":"2024-06-05T06:53:53Z"},{"title":"LEV RADAGAN","description":"Sourced from predicthq.com","category":"concerts","start":"2024-04-11T18:00:00Z","geo":{"geometry":{"coordinates":[-4.47848,54.15378],"type":"Point"},"placekey":"@4hk-kqf-5xq","address":{"country_code":"IM","formatted_address":"56 Loch Promenade, Douglas, Isle of Man IM1 2NA, Isle of Man","postcode":"IM1 2NA","locality":"Douglas","region":"Douglas"}},"labels":["concert","music"],"duration":0,"start_local":"2024-04-11T19:00:00","end":"2024-04-11T18:00:00Z","end_local":"2024-04-11T19:00:00","updated":"2024-06-12T20:16:53Z"},{"title":"The Stone Tapes Cult Cinema Screening @ The Black Dog Oven","description":"Sourced from predicthq.com - Get ready for an exploration of Nigel Kneale’s creeping dread at The Stone Tape (1972) screening with delicious fresh pizza and Q and A.","category":"performing-arts","start":"2024-04-10T17:30:00Z","geo":{"geometry":{"coordinates":[-4.697487600000001,54.2236012],"type":"Point"},"placekey":"@4hk-jb6-qvf","address":{"country_code":"IM","formatted_address":"East Quay, Peel IM5, Isle of Man","locality":"Peel","postcode":"IM5","region":"Peel"}},"labels":["concert","entertainment","music","performing-arts"],"duration":0,"start_local":"2024-04-10T18:30:00","end":"2024-04-10T17:30:00Z","end_local":"2024-04-10T18:30:00","updated":"2024-06-12T10:47:59Z"},{"title":"Children's First Aid","description":"Sourced from predicthq.com - To gain an understanding of how to deal with a variety of medical\nemergencies in babies and children.","category":"conferences","start":"2024-04-09T17:00:00Z","geo":{"geometry":{"coordinates":[-4.453586,54.176862],"type":"Point"},"placekey":"@4hk-kqh-vcq","address":{"country_code":"IM","formatted_address":"School Road, Isle of Man IM3 1RD, Isle of Man","locality":"Isle of Man","postcode":"IM3 1RD","region":"Onchan"}},"labels":["conference","health"],"duration":7200,"start_local":"2024-04-09T18:00:00","end":"2024-04-09T19:00:00Z","end_local":"2024-04-09T20:00:00","updated":"2024-06-05T10:22:14Z"}]