[{"title":"International Conference on Emerging Trends and Applications in Artificial Intelligence","description":"Sourced from predicthq.com","category":"conferences","start":"2024-09-25T06:00:00Z","geo":{"geometry":{"coordinates":[44.360338,33.270753],"type":"Point"},"placekey":"@68s-7wf-92k","address":{"country_code":"IQ","formatted_address":"Baghdad, Baghdad Governorate, Iraq","locality":"Baghdad","region":"Baghdad Governorate"}},"labels":["conference"],"duration":118800,"start_local":"2024-09-25T09:00:00","end":"2024-09-26T15:00:00Z","end_local":"2024-09-26T18:00:00","updated":"2024-05-31T22:59:02Z"},{"title":"Construct Iraq","description":"Sourced from predicthq.com - International Construction Industry Exhibition","category":"expos","start":"2024-09-23T21:00:00Z","geo":{"geometry":{"coordinates":[43.9843057,36.186994],"type":"Point"},"placekey":"@67b-gg2-6x5","address":{"country_code":"IQ","formatted_address":"Erbil, Erbil Governorate, Iraq","locality":"Erbil","region":"Erbil Governorate"}},"labels":["construction","expo","technology"],"duration":345599,"start_local":"2024-09-24T00:00:00","end":"2024-09-27T20:59:59Z","end_local":"2024-09-27T23:59:59","updated":"2024-07-02T10:12:42Z"},{"title":"Health Expo Iraq","description":"Sourced from predicthq.com","category":"expos","start":"2024-09-18T06:00:00Z","geo":{"geometry":{"coordinates":[44.36238,33.313766],"type":"Point"},"placekey":"@68s-7v9-cnq","address":{"country_code":"IQ","formatted_address":"Baghdad, Baghdad Governorate, Iraq","locality":"Baghdad","region":"Baghdad Governorate"}},"labels":["expo"],"duration":291600,"start_local":"2024-09-18T09:00:00","end":"2024-09-21T15:00:00Z","end_local":"2024-09-21T18:00:00","updated":"2024-06-02T19:26:30Z"},{"title":"Athra Syriac Symposium","description":"Sourced from predicthq.com","category":"conferences","start":"2024-09-05T06:00:00Z","geo":{"geometry":{"coordinates":[43.984553,36.24733],"type":"Point"},"placekey":"@67b-gj5-whq","address":{"country_code":"IQ","formatted_address":"Erbil, Erbil Governorate, Iraq","locality":"Erbil","region":"Erbil Governorate"}},"labels":["conference"],"duration":291600,"start_local":"2024-09-05T09:00:00","end":"2024-09-08T15:00:00Z","end_local":"2024-09-08T18:00:00","updated":"2024-06-02T13:30:43Z"},{"title":"Hawler International Technology Exhibition","description":"Sourced from predicthq.com","category":"expos","start":"2024-09-03T06:00:00Z","geo":{"geometry":{"coordinates":[43.984306,36.186994],"type":"Point"},"placekey":"@67b-gg2-6x5","address":{"country_code":"IQ","formatted_address":"5XPM+QPV, Erbil, Erbil Governorate, Iraq","locality":"Erbil","region":"Erbil Governorate"}},"labels":["expo"],"duration":291600,"start_local":"2024-09-03T09:00:00","end":"2024-09-06T15:00:00Z","end_local":"2024-09-06T18:00:00","updated":"2024-06-14T13:14:09Z"},{"title":"International Conference on Physics and Applied Mathematic Science","description":"Sourced from predicthq.com","category":"conferences","start":"2024-08-26T06:00:00Z","geo":{"geometry":{"coordinates":[44.403334,33.366783],"type":"Point"},"placekey":"@68s-7xm-2rk","address":{"country_code":"IQ","formatted_address":"Baghdad, Baghdad Governorate, Iraq","locality":"Baghdad","region":"Baghdad Governorate"}},"labels":["conference"],"duration":118800,"start_local":"2024-08-26T09:00:00","end":"2024-08-27T15:00:00Z","end_local":"2024-08-27T18:00:00","updated":"2024-05-31T23:05:46Z"},{"title":"Middle East Education, Technology, Students Congress & Exhibition","description":"Sourced from predicthq.com","category":"expos","start":"2024-07-22T21:00:00Z","geo":{"geometry":{"coordinates":[43.984306,36.186994],"type":"Point"},"placekey":"@67b-gg2-6x5","address":{"country_code":"IQ","formatted_address":"5XPM+QPV, Erbil, Erbil Governorate, Iraq","locality":"Erbil","region":"Erbil Governorate"}},"labels":["expo"],"duration":259199,"start_local":"2024-07-23T00:00:00","end":"2024-07-25T20:59:59Z","end_local":"2024-07-25T23:59:59","updated":"2024-06-14T17:22:07Z"},{"title":"International Conference on Sustainability Systems Development","description":"Sourced from predicthq.com","category":"conferences","start":"2024-07-07T06:00:00Z","geo":{"geometry":{"coordinates":[44.018632,36.14748],"type":"Point"},"placekey":"@67c-3y7-xh5","address":{"country_code":"IQ","formatted_address":"Kirkuk, Erbil, 44000, Iraq","locality":"Erbil","postcode":"44000","region":"Erbil Governorate"}},"labels":["conference"],"duration":118800,"start_local":"2024-07-07T09:00:00","end":"2024-07-08T15:00:00Z","end_local":"2024-07-08T18:00:00","updated":"2024-05-27T05:02:18Z"},{"title":"Iraqi League - Erbil vs Karbala","description":"Sourced from predicthq.com","category":"sports","start":"2024-07-05T16:30:00Z","geo":{"geometry":{"coordinates":[44.364820719,33.316547613],"type":"Point"},"placekey":"@68s-7v9-d5f","address":{"country_code":"IQ","formatted_address":"Al Mansur Street, Al Karkh, Baġdād (Bagdad), Iraq","locality":"Baġdād (Bagdad)"}},"labels":["soccer","sport"],"duration":0,"start_local":"2024-07-05T19:30:00","end":"2024-07-05T16:30:00Z","end_local":"2024-07-05T19:30:00","updated":"2024-07-03T21:04:05Z"},{"title":"Iraqi League - Al Minaa Basra vs Al Talaba","description":"Sourced from predicthq.com","category":"sports","start":"2024-07-05T16:30:00Z","geo":{"geometry":{"coordinates":[47.773887,30.524564],"type":"Point"},"placekey":"@68q-m6y-28v","address":{"country_code":"IQ","formatted_address":"al-Baṣra (Basra), Iraq","locality":"al-Baṣra (Basra)"}},"labels":["soccer","sport"],"duration":0,"start_local":"2024-07-05T19:30:00","end":"2024-07-05T16:30:00Z","end_local":"2024-07-05T19:30:00","updated":"2024-07-03T12:05:14Z"},{"title":"Iraqi League - Naft Maysan vs Al Najaf","description":"Sourced from predicthq.com","category":"sports","start":"2024-07-05T16:30:00Z","geo":{"geometry":{"coordinates":[47.1274346,31.835525],"type":"Point"},"placekey":"@68f-pxc-4gk","address":{"country_code":"IQ","formatted_address":"R4PG+6X7, Amarah, Maysan Governorate, Iraq","locality":"Amarah","region":"Maysan Governorate"}},"labels":["soccer","sport"],"duration":0,"start_local":"2024-07-05T19:30:00","end":"2024-07-05T16:30:00Z","end_local":"2024-07-05T19:30:00","updated":"2024-07-03T12:23:18Z"},{"title":"Iraqi League - Al Kahrabaa vs Newroz","description":"Sourced from predicthq.com","category":"sports","start":"2024-07-05T14:00:00Z","geo":{"geometry":{"coordinates":[44.3682822,33.3444417],"type":"Point"},"placekey":"@68s-7xk-4y9","address":{"country_code":"IQ","formatted_address":"89V9+Q8F, Baghdad, Baghdad Governorate, Iraq","locality":"Baghdad","region":"Baghdad Governorate"}},"labels":["soccer","sport"],"duration":0,"start_local":"2024-07-05T17:00:00","end":"2024-07-05T14:00:00Z","end_local":"2024-07-05T17:00:00","updated":"2024-07-03T16:03:39Z"},{"title":"Iraqi League - Naft Al-Wasat vs Baghdad","description":"Sourced from predicthq.com","category":"sports","start":"2024-07-04T16:30:00Z","geo":{"geometry":{"coordinates":[44.32759702205658,32.012156217210276],"type":"Point"},"placekey":"@68x-cwc-f2k","address":{"country_code":"IQ","formatted_address":"3888+99P, Najaf, Najaf Governorate, Iraq","locality":"Najaf","region":"Najaf Governorate"}},"labels":["soccer","sport"],"duration":0,"start_local":"2024-07-04T19:30:00","end":"2024-07-04T16:30:00Z","end_local":"2024-07-04T19:30:00","updated":"2024-07-03T12:56:46Z"},{"title":"Iraqi League - Zakho vs Al Hudod","description":"Sourced from predicthq.com","category":"sports","start":"2024-07-04T16:30:00Z","geo":{"geometry":{"coordinates":[42.67247557640076,37.14589931660037],"type":"Point"},"placekey":"@67c-hp5-hwk","address":{"country_code":"IQ","formatted_address":"Zakho, Duhok Governorate, 42002, Iraq","postcode":"42002","locality":"Zakho","region":"Duhok Governorate"}},"labels":["soccer","sport"],"duration":0,"start_local":"2024-07-04T19:30:00","end":"2024-07-04T16:30:00Z","end_local":"2024-07-04T19:30:00","updated":"2024-07-03T13:55:28Z"},{"title":"Iraqi League - Al-Qasim vs Al Quwa Al Jawiya","description":"Sourced from predicthq.com","category":"sports","start":"2024-07-04T14:00:00Z","geo":{"geometry":{"coordinates":[45.835028126,32.50244361],"type":"Point"},"placekey":"@68g-r7k-5zz","address":{"country_code":"IQ","formatted_address":"Al Kut, Iraq","locality":"Al Kut"}},"labels":["soccer","sport"],"duration":0,"start_local":"2024-07-04T17:00:00","end":"2024-07-04T14:00:00Z","end_local":"2024-07-04T17:00:00","updated":"2024-07-03T16:42:27Z"},{"title":"Iraqi League - Naft vs Al Zawra'a","description":"Sourced from predicthq.com","category":"sports","start":"2024-07-04T14:00:00Z","geo":{"geometry":{"coordinates":[44.364820719,33.316547613],"type":"Point"},"placekey":"@68s-7v9-d5f","address":{"country_code":"IQ","formatted_address":"Al Mansur Street, Al Karkh, Baġdād (Bagdad), Iraq","locality":"Baġdād (Bagdad)"}},"labels":["soccer","sport"],"duration":0,"start_local":"2024-07-04T17:00:00","end":"2024-07-04T14:00:00Z","end_local":"2024-07-04T17:00:00","updated":"2024-07-03T23:59:19Z"},{"title":"Iraqi League - Al Shorta vs Duhok","description":"Sourced from predicthq.com","category":"sports","start":"2024-07-04T14:00:00Z","geo":{"geometry":{"coordinates":[44.435470099999975,33.3249221],"type":"Point"},"placekey":"@68s-7vv-68v","address":{"country_code":"IQ","formatted_address":"Al Shaab Gymnasium, Baghdad, Iraq","locality":"Baghdad","region":"Baghdad Governorate"}},"labels":["soccer","sport"],"duration":0,"start_local":"2024-07-04T17:00:00","end":"2024-07-04T14:00:00Z","end_local":"2024-07-04T17:00:00","updated":"2024-07-03T16:11:45Z"},{"title":"Iraqi League - Al Najaf vs Al Shorta","description":"Sourced from predicthq.com","category":"sports","start":"2024-07-01T18:30:00Z","geo":{"geometry":{"coordinates":[44.32759702205658,32.012156217210276],"type":"Point"},"placekey":"@68x-cwc-f2k","address":{"country_code":"IQ","formatted_address":"3888+99P, Najaf, Najaf Governorate, Iraq","locality":"Najaf","region":"Najaf Governorate"}},"labels":["soccer","sport"],"duration":0,"start_local":"2024-07-01T21:30:00","end":"2024-07-01T18:30:00Z","end_local":"2024-07-01T21:30:00","updated":"2024-06-28T17:50:34Z"},{"title":"Iraqi League - Al Quwa Al Jawiya vs Erbil","description":"Sourced from predicthq.com","category":"sports","start":"2024-07-01T18:30:00Z","geo":{"geometry":{"coordinates":[44.435470099999975,33.3249221],"type":"Point"},"placekey":"@68s-7vv-68v","address":{"country_code":"IQ","formatted_address":"Al Shaab Gymnasium, Baghdad, Iraq","locality":"Baghdad","region":"Baghdad Governorate"}},"labels":["soccer","sport"],"duration":0,"start_local":"2024-07-01T21:30:00","end":"2024-07-01T18:30:00Z","end_local":"2024-07-01T21:30:00","updated":"2024-06-28T18:53:35Z"},{"title":"Iraqi League - Naft Al-Basra vs Naft","description":"Sourced from predicthq.com","category":"sports","start":"2024-07-01T16:15:00Z","geo":{"geometry":{"coordinates":[47.773887,30.524564],"type":"Point"},"placekey":"@68q-m6y-28v","address":{"country_code":"IQ","formatted_address":"al-Baṣra (Basra), Iraq","locality":"al-Baṣra (Basra)"}},"labels":["soccer","sport"],"duration":0,"start_local":"2024-07-01T19:15:00","end":"2024-07-01T16:15:00Z","end_local":"2024-07-01T19:15:00","updated":"2024-06-28T18:36:12Z"},{"title":"Iraqi League - Duhok vs Al Minaa Basra","description":"Sourced from predicthq.com","category":"sports","start":"2024-07-01T16:15:00Z","geo":{"geometry":{"coordinates":[42.99616992473602,36.851797062491514],"type":"Point"},"placekey":"@67c-mfv-ffz","address":{"country_code":"IQ","formatted_address":"Dohuk, Iraq","locality":"Dohuk"}},"labels":["soccer","sport"],"duration":0,"start_local":"2024-07-01T19:15:00","end":"2024-07-01T16:15:00Z","end_local":"2024-07-01T19:15:00","updated":"2024-06-28T17:50:39Z"},{"title":"Iraqi League - Newroz vs Al Zawra'a","description":"Sourced from predicthq.com","category":"sports","start":"2024-07-01T14:00:00Z","geo":{"geometry":{"coordinates":[45.428874492645264,35.54981727638134],"type":"Point"},"placekey":"@68v-ykk-4jv","address":{"country_code":"IQ","formatted_address":"as-Sulaimāniyya (Sulaymaniyah), Iraq","locality":"as-Sulaimāniyya (Sulaymaniyah)"}},"labels":["soccer","sport"],"duration":0,"start_local":"2024-07-01T17:00:00","end":"2024-07-01T14:00:00Z","end_local":"2024-07-01T17:00:00","updated":"2024-06-28T11:21:33Z"},{"title":"Iraqi League - Naft Maysan vs Al Karkh","description":"Sourced from predicthq.com","category":"sports","start":"2024-06-30T16:15:00Z","geo":{"geometry":{"coordinates":[47.1274346,31.835525],"type":"Point"},"placekey":"@68f-pxc-4gk","address":{"country_code":"IQ","formatted_address":"R4PG+6X7, Amarah, Maysan Governorate, Iraq","locality":"Amarah","region":"Maysan Governorate"}},"labels":["soccer","sport"],"duration":0,"start_local":"2024-06-30T19:15:00","end":"2024-06-30T16:15:00Z","end_local":"2024-06-30T19:15:00","updated":"2024-06-28T11:17:35Z"},{"title":"Iraqi League - Al Talaba vs Al-Qasim","description":"Sourced from predicthq.com","category":"sports","start":"2024-06-30T16:15:00Z","geo":{"geometry":{"coordinates":[44.435470099999975,33.3249221],"type":"Point"},"placekey":"@68s-7vv-68v","address":{"country_code":"IQ","formatted_address":"Al Shaab Gymnasium, Baghdad, Iraq","locality":"Baghdad","region":"Baghdad Governorate"}},"labels":["soccer","sport"],"duration":0,"start_local":"2024-06-30T19:15:00","end":"2024-06-30T16:15:00Z","end_local":"2024-06-30T19:15:00","updated":"2024-06-28T17:52:01Z"},{"title":"Iraqi League - Karbala vs Baghdad","description":"Sourced from predicthq.com","category":"sports","start":"2024-06-30T14:00:00Z","geo":{"geometry":{"coordinates":[45.428874492645264,35.54981727638134],"type":"Point"},"placekey":"@68v-ykk-4jv","address":{"country_code":"IQ","formatted_address":"as-Sulaimāniyya (Sulaymaniyah), Iraq","locality":"as-Sulaimāniyya (Sulaymaniyah)"}},"labels":["soccer","sport"],"duration":0,"start_local":"2024-06-30T17:00:00","end":"2024-06-30T14:00:00Z","end_local":"2024-06-30T17:00:00","updated":"2024-06-28T18:31:36Z"},{"title":"Iraqi League - Al Hudod vs Al Kahrabaa","description":"Sourced from predicthq.com","category":"sports","start":"2024-06-30T14:00:00Z","geo":{"geometry":{"coordinates":[44.364820719,33.316547613],"type":"Point"},"placekey":"@68s-7v9-d5f","address":{"country_code":"IQ","formatted_address":"Al Mansur Street, Al Karkh, Baġdād (Bagdad), Iraq","locality":"Baġdād (Bagdad)"}},"labels":["soccer","sport"],"duration":0,"start_local":"2024-06-30T17:00:00","end":"2024-06-30T14:00:00Z","end_local":"2024-06-30T17:00:00","updated":"2024-06-28T18:36:13Z"},{"title":"Iraqi League - Naft Al-Wasat vs Zakho","description":"Sourced from predicthq.com","category":"sports","start":"2024-06-30T14:00:00Z","geo":{"geometry":{"coordinates":[45.835028126,32.50244361],"type":"Point"},"placekey":"@68g-r7k-5zz","address":{"country_code":"IQ","formatted_address":"Al Kut, Iraq","locality":"Al Kut"}},"labels":["soccer","sport"],"duration":0,"start_local":"2024-06-30T17:00:00","end":"2024-06-30T14:00:00Z","end_local":"2024-06-30T17:00:00","updated":"2024-06-28T18:26:17Z"},{"title":"Iraqi League - Al Shorta vs Naft Al-Basra","description":"Sourced from predicthq.com","category":"sports","start":"2024-06-27T16:30:00Z","geo":{"geometry":{"coordinates":[44.435470099999975,33.3249221],"type":"Point"},"placekey":"@68s-7vv-68v","address":{"country_code":"IQ","formatted_address":"Al Shaab Gymnasium, Baghdad, Iraq","locality":"Baghdad","region":"Baghdad Governorate"}},"labels":["soccer","sport"],"duration":0,"start_local":"2024-06-27T19:30:00","end":"2024-06-27T16:30:00Z","end_local":"2024-06-27T19:30:00","updated":"2024-06-24T12:29:09Z"},{"title":"Iraqi League - Al Minaa Basra vs Naft Maysan","description":"Sourced from predicthq.com","category":"sports","start":"2024-06-27T16:30:00Z","geo":{"geometry":{"coordinates":[47.773887,30.524564],"type":"Point"},"placekey":"@68q-m6y-28v","address":{"country_code":"IQ","formatted_address":"al-Baṣra (Basra), Iraq","locality":"al-Baṣra (Basra)"}},"labels":["soccer","sport"],"duration":0,"start_local":"2024-06-27T19:30:00","end":"2024-06-27T16:30:00Z","end_local":"2024-06-27T19:30:00","updated":"2024-06-24T14:43:36Z"},{"title":"Iraqi League - Zakho vs Karbala","description":"Sourced from predicthq.com","category":"sports","start":"2024-06-27T16:30:00Z","geo":{"geometry":{"coordinates":[42.67247557640076,37.14589931660037],"type":"Point"},"placekey":"@67c-hp5-hwk","address":{"country_code":"IQ","formatted_address":"Zakho, Duhok Governorate, 42002, Iraq","postcode":"42002","locality":"Zakho","region":"Duhok Governorate"}},"labels":["soccer","sport"],"duration":0,"start_local":"2024-06-27T19:30:00","end":"2024-06-27T16:30:00Z","end_local":"2024-06-27T19:30:00","updated":"2024-06-24T16:20:17Z"},{"title":"Iraqi League - Naft vs Duhok","description":"Sourced from predicthq.com","category":"sports","start":"2024-06-27T16:30:00Z","geo":{"geometry":{"coordinates":[44.3682822,33.3444417],"type":"Point"},"placekey":"@68s-7xk-4y9","address":{"country_code":"IQ","formatted_address":"89V9+Q8F, Baghdad, Baghdad Governorate, Iraq","locality":"Baghdad","region":"Baghdad Governorate"}},"labels":["soccer","sport"],"duration":0,"start_local":"2024-06-27T19:30:00","end":"2024-06-27T16:30:00Z","end_local":"2024-06-27T19:30:00","updated":"2024-06-24T12:32:36Z"},{"title":"Iraqi League - Al Karkh vs Newroz","description":"Sourced from predicthq.com","category":"sports","start":"2024-06-27T14:00:00Z","geo":{"geometry":{"coordinates":[44.364820719,33.316547613],"type":"Point"},"placekey":"@68s-7v9-d5f","address":{"country_code":"IQ","formatted_address":"Al Mansur Street, Al Karkh, Baġdād (Bagdad), Iraq","locality":"Baġdād (Bagdad)"}},"labels":["soccer","sport"],"duration":0,"start_local":"2024-06-27T17:00:00","end":"2024-06-27T14:00:00Z","end_local":"2024-06-27T17:00:00","updated":"2024-06-24T13:52:03Z"},{"title":"Basra Oil & Gas International Exhibition","description":"Sourced from predicthq.com - The Iraq Basra Oil & Gas International Exhibition is an influential expo event showcasing the latest innovations, technologies, and solutions in the oil and gas industry. It brings together international exhibitors, industry experts, and professionals for networking opportunities and knowledge sharing in one of the largest oil-producing regions in the world.","category":"expos","start":"2024-06-26T21:00:00Z","geo":{"geometry":{"coordinates":[47.7826887,30.5656841],"type":"Point"},"placekey":"@68q-m5t-c3q","address":{"country_code":"IQ","formatted_address":"HQ8M+73G, Basrah, Iraq","locality":"Basrah","region":"Basra Governorate"}},"labels":["expo"],"duration":345599,"start_local":"2024-06-27T00:00:00","end":"2024-06-30T20:59:59Z","end_local":"2024-06-30T23:59:59","updated":"2024-06-30T07:14:04Z"},{"title":"Iraqi League - Al Kahrabaa vs Al Talaba","description":"Sourced from predicthq.com","category":"sports","start":"2024-06-26T18:00:00Z","geo":{"geometry":{"coordinates":[44.3682822,33.3444417],"type":"Point"},"placekey":"@68s-7xk-4y9","address":{"country_code":"IQ","formatted_address":"89V9+Q8F, Baghdad, Baghdad Governorate, Iraq","locality":"Baghdad","region":"Baghdad Governorate"}},"labels":["soccer","sport"],"duration":0,"start_local":"2024-06-26T21:00:00","end":"2024-06-26T18:00:00Z","end_local":"2024-06-26T21:00:00","updated":"2024-06-24T14:28:18Z"},{"title":"Iraqi League - Erbil vs Al Najaf","description":"Sourced from predicthq.com","category":"sports","start":"2024-06-26T16:30:00Z","geo":{"geometry":{"coordinates":[44.0114211,36.1726941],"type":"Point"},"placekey":"@67b-ghj-99f","address":{"country_code":"IQ","formatted_address":"Erbil, Erbil Governorate, 71926, Iraq","postcode":"71926","locality":"Erbil","region":"Erbil Governorate"}},"labels":["soccer","sport"],"duration":0,"start_local":"2024-06-26T19:30:00","end":"2024-06-26T16:30:00Z","end_local":"2024-06-26T19:30:00","updated":"2024-06-24T17:38:23Z"},{"title":"Iraqi League - Baghdad vs Al Quwa Al Jawiya","description":"Sourced from predicthq.com","category":"sports","start":"2024-06-26T16:30:00Z","geo":{"geometry":{"coordinates":[44.435470099999975,33.3249221],"type":"Point"},"placekey":"@68s-7vv-68v","address":{"country_code":"IQ","formatted_address":"Al Shaab Gymnasium, Baghdad, Iraq","locality":"Baghdad","region":"Baghdad Governorate"}},"labels":["soccer","sport"],"duration":0,"start_local":"2024-06-26T19:30:00","end":"2024-06-26T16:30:00Z","end_local":"2024-06-26T19:30:00","updated":"2024-06-24T17:34:07Z"},{"title":"Iraqi League - Al Zawra'a vs Al Hudod","description":"Sourced from predicthq.com","category":"sports","start":"2024-06-26T15:00:00Z","geo":{"geometry":{"coordinates":[44.3682822,33.3444417],"type":"Point"},"placekey":"@68s-7xk-4y9","address":{"country_code":"IQ","formatted_address":"89V9+Q8F, Baghdad, Baghdad Governorate, Iraq","locality":"Baghdad","region":"Baghdad Governorate"}},"labels":["soccer","sport"],"duration":0,"start_local":"2024-06-26T18:00:00","end":"2024-06-26T15:00:00Z","end_local":"2024-06-26T18:00:00","updated":"2024-06-24T18:07:21Z"},{"title":"Iraqi League - Al-Qasim vs Naft Al-Wasat","description":"Sourced from predicthq.com","category":"sports","start":"2024-06-26T14:00:00Z","geo":{"geometry":{"coordinates":[45.835028126,32.50244361],"type":"Point"},"placekey":"@68g-r7k-5zz","address":{"country_code":"IQ","formatted_address":"Al Kut, Iraq","locality":"Al Kut"}},"labels":["soccer","sport"],"duration":0,"start_local":"2024-06-26T17:00:00","end":"2024-06-26T14:00:00Z","end_local":"2024-06-26T17:00:00","updated":"2024-06-24T12:25:30Z"},{"title":"وەرگێڕانی ئەدەبی لە نێوان زمانی کوردی و زمانە ئەوروپییەکان","description":"Sourced from predicthq.com - کۆنفرانس","category":"conferences","start":"2024-06-24T15:00:00Z","geo":{"geometry":{"coordinates":[44.02789529999999,36.183755],"type":"Point"},"placekey":"@67b-gh7-c5z","address":{"country_code":"IQ","formatted_address":"Erbil, Erbil Governorate, Iraq","locality":"Erbil","region":"Erbil Governorate"}},"labels":["community","conference"],"duration":5400,"start_local":"2024-06-24T18:00:00","end":"2024-06-24T16:30:00Z","end_local":"2024-06-24T19:30:00","updated":"2024-06-20T15:39:50Z"},{"title":"Iraqi League - Duhok vs Erbil","description":"Sourced from predicthq.com","category":"sports","start":"2024-06-23T16:30:00Z","geo":{"geometry":{"coordinates":[42.99616992473602,36.851797062491514],"type":"Point"},"placekey":"@67c-mfv-ffz","address":{"country_code":"IQ","formatted_address":"Dohuk, Iraq","locality":"Dohuk"}},"labels":["soccer","sport"],"duration":0,"start_local":"2024-06-23T19:30:00","end":"2024-06-23T16:30:00Z","end_local":"2024-06-23T19:30:00","updated":"2024-06-20T18:15:11Z"},{"title":"Iraqi League - Naft Maysan vs Zakho","description":"Sourced from predicthq.com","category":"sports","start":"2024-06-23T16:30:00Z","geo":{"geometry":{"coordinates":[47.1274346,31.835525],"type":"Point"},"placekey":"@68f-pxc-4gk","address":{"country_code":"IQ","formatted_address":"R4PG+6X7, Amarah, Maysan Governorate, Iraq","locality":"Amarah","region":"Maysan Governorate"}},"labels":["soccer","sport"],"duration":0,"start_local":"2024-06-23T19:30:00","end":"2024-06-23T16:30:00Z","end_local":"2024-06-23T19:30:00","updated":"2024-06-20T18:26:37Z"},{"title":"Iraqi League - Al Shorta vs Al Talaba","description":"Sourced from predicthq.com","category":"sports","start":"2024-06-23T16:30:00Z","geo":{"geometry":{"coordinates":[44.435470099999975,33.3249221],"type":"Point"},"placekey":"@68s-7vv-68v","address":{"country_code":"IQ","formatted_address":"Al Shaab Gymnasium, Baghdad, Iraq","locality":"Baghdad","region":"Baghdad Governorate"}},"labels":["soccer","sport"],"duration":0,"start_local":"2024-06-23T19:30:00","end":"2024-06-23T16:30:00Z","end_local":"2024-06-23T19:30:00","updated":"2024-06-20T17:44:34Z"},{"title":"Iraqi League - Newroz vs Al Najaf","description":"Sourced from predicthq.com","category":"sports","start":"2024-06-23T13:45:00Z","geo":{"geometry":{"coordinates":[45.428874492645264,35.54981727638134],"type":"Point"},"placekey":"@68v-ykk-4jv","address":{"country_code":"IQ","formatted_address":"as-Sulaimāniyya (Sulaymaniyah), Iraq","locality":"as-Sulaimāniyya (Sulaymaniyah)"}},"labels":["soccer","sport"],"duration":0,"start_local":"2024-06-23T16:45:00","end":"2024-06-23T13:45:00Z","end_local":"2024-06-23T16:45:00","updated":"2024-06-20T17:45:59Z"},{"title":"Iraqi League - Al Quwa Al Jawiya vs Naft","description":"Sourced from predicthq.com","category":"sports","start":"2024-06-23T13:45:00Z","geo":{"geometry":{"coordinates":[44.364820719,33.316547613],"type":"Point"},"placekey":"@68s-7v9-d5f","address":{"country_code":"IQ","formatted_address":"Al Mansur Street, Al Karkh, Baġdād (Bagdad), Iraq","locality":"Baġdād (Bagdad)"}},"labels":["soccer","sport"],"duration":0,"start_local":"2024-06-23T16:45:00","end":"2024-06-23T13:45:00Z","end_local":"2024-06-23T16:45:00","updated":"2024-06-20T18:35:53Z"},{"title":"Iraqi League - Baghdad vs Al Kahrabaa","description":"Sourced from predicthq.com","category":"sports","start":"2024-06-22T16:30:00Z","geo":{"geometry":{"coordinates":[44.435470099999975,33.3249221],"type":"Point"},"placekey":"@68s-7vv-68v","address":{"country_code":"IQ","formatted_address":"Al Shaab Gymnasium, Baghdad, Iraq","locality":"Baghdad","region":"Baghdad Governorate"}},"labels":["soccer","sport"],"duration":0,"start_local":"2024-06-22T19:30:00","end":"2024-06-22T16:30:00Z","end_local":"2024-06-22T19:30:00","updated":"2024-06-20T18:15:11Z"},{"title":"Iraqi League - Naft Al-Basra vs Al-Qasim","description":"Sourced from predicthq.com","category":"sports","start":"2024-06-22T16:30:00Z","geo":{"geometry":{"coordinates":[47.773887,30.524564],"type":"Point"},"placekey":"@68q-m6y-28v","address":{"country_code":"IQ","formatted_address":"al-Baṣra (Basra), Iraq","locality":"al-Baṣra (Basra)"}},"labels":["soccer","sport"],"duration":0,"start_local":"2024-06-22T19:30:00","end":"2024-06-22T16:30:00Z","end_local":"2024-06-22T19:30:00","updated":"2024-06-20T18:30:06Z"},{"title":"Iraqi League - Al Hudod vs Al Minaa Basra","description":"Sourced from predicthq.com","category":"sports","start":"2024-06-22T13:45:00Z","geo":{"geometry":{"coordinates":[44.364820719,33.316547613],"type":"Point"},"placekey":"@68s-7v9-d5f","address":{"country_code":"IQ","formatted_address":"Al Mansur Street, Al Karkh, Baġdād (Bagdad), Iraq","locality":"Baġdād (Bagdad)"}},"labels":["soccer","sport"],"duration":0,"start_local":"2024-06-22T16:45:00","end":"2024-06-22T13:45:00Z","end_local":"2024-06-22T16:45:00","updated":"2024-06-20T17:47:25Z"},{"title":"Iraqi League - Karbala vs Al Karkh","description":"Sourced from predicthq.com","category":"sports","start":"2024-06-22T13:45:00Z","geo":{"geometry":{"coordinates":[45.428874492645264,35.54981727638134],"type":"Point"},"placekey":"@68v-ykk-4jv","address":{"country_code":"IQ","formatted_address":"as-Sulaimāniyya (Sulaymaniyah), Iraq","locality":"as-Sulaimāniyya (Sulaymaniyah)"}},"labels":["soccer","sport"],"duration":0,"start_local":"2024-06-22T16:45:00","end":"2024-06-22T13:45:00Z","end_local":"2024-06-22T16:45:00","updated":"2024-06-20T17:43:18Z"},{"title":"Iraqi League - Naft Al-Wasat vs Al Zawra'a","description":"Sourced from predicthq.com","category":"sports","start":"2024-06-22T13:45:00Z","geo":{"geometry":{"coordinates":[45.835028126,32.50244361],"type":"Point"},"placekey":"@68g-r7k-5zz","address":{"country_code":"IQ","formatted_address":"Al Kut, Iraq","locality":"Al Kut"}},"labels":["soccer","sport"],"duration":0,"start_local":"2024-06-22T16:45:00","end":"2024-06-22T13:45:00Z","end_local":"2024-06-22T16:45:00","updated":"2024-06-20T17:43:18Z"},{"title":"Iraqi League - Naft Al-Basra vs Al Quwa Al Jawiya","description":"Sourced from predicthq.com","category":"sports","start":"2024-06-19T16:30:00Z","geo":{"geometry":{"coordinates":[47.773887,30.524564],"type":"Point"},"placekey":"@68q-m6y-28v","address":{"country_code":"IQ","formatted_address":"al-Baṣra (Basra), Iraq","locality":"al-Baṣra (Basra)"}},"labels":["soccer","sport"],"duration":0,"start_local":"2024-06-19T19:30:00","end":"2024-06-19T16:30:00Z","end_local":"2024-06-19T19:30:00","updated":"2024-06-14T23:35:23Z"},{"title":"Iraqi League - Zakho vs Al Shorta","description":"Sourced from predicthq.com","category":"sports","start":"2024-06-19T16:30:00Z","geo":{"geometry":{"coordinates":[42.67247557640076,37.14589931660037],"type":"Point"},"placekey":"@67c-hp5-hwk","address":{"country_code":"IQ","formatted_address":"Zakho, Duhok Governorate, 42002, Iraq","postcode":"42002","locality":"Zakho","region":"Duhok Governorate"}},"labels":["soccer","sport"],"duration":0,"start_local":"2024-06-19T19:30:00","end":"2024-06-19T16:30:00Z","end_local":"2024-06-19T19:30:00","updated":"2024-06-14T14:09:05Z"},{"title":"Iraqi League - Al Talaba vs Duhok","description":"Sourced from predicthq.com","category":"sports","start":"2024-06-19T16:30:00Z","geo":{"geometry":{"coordinates":[44.435470099999975,33.3249221],"type":"Point"},"placekey":"@68s-7vv-68v","address":{"country_code":"IQ","formatted_address":"Al Shaab Gymnasium, Baghdad, Iraq","locality":"Baghdad","region":"Baghdad Governorate"}},"labels":["soccer","sport"],"duration":0,"start_local":"2024-06-19T19:30:00","end":"2024-06-19T16:30:00Z","end_local":"2024-06-19T19:30:00","updated":"2024-06-14T15:13:11Z"},{"title":"Iraqi League - Erbil vs Naft Maysan","description":"Sourced from predicthq.com","category":"sports","start":"2024-06-19T13:45:00Z","geo":{"geometry":{"coordinates":[44.0114211,36.1726941],"type":"Point"},"placekey":"@67b-ghj-99f","address":{"country_code":"IQ","formatted_address":"Erbil, Erbil Governorate, 71926, Iraq","postcode":"71926","locality":"Erbil","region":"Erbil Governorate"}},"labels":["soccer","sport"],"duration":0,"start_local":"2024-06-19T16:45:00","end":"2024-06-19T13:45:00Z","end_local":"2024-06-19T16:45:00","updated":"2024-06-14T12:51:20Z"},{"title":"Iraqi League - Naft vs Newroz","description":"Sourced from predicthq.com","category":"sports","start":"2024-06-19T13:45:00Z","geo":{"geometry":{"coordinates":[44.364820719,33.316547613],"type":"Point"},"placekey":"@68s-7v9-d5f","address":{"country_code":"IQ","formatted_address":"Al Mansur Street, Al Karkh, Baġdād (Bagdad), Iraq","locality":"Baġdād (Bagdad)"}},"labels":["soccer","sport"],"duration":0,"start_local":"2024-06-19T16:45:00","end":"2024-06-19T13:45:00Z","end_local":"2024-06-19T16:45:00","updated":"2024-06-14T18:03:41Z"},{"title":"Iraqi League - Al Minaa Basra vs Naft Al-Wasat","description":"Sourced from predicthq.com","category":"sports","start":"2024-06-18T16:30:00Z","geo":{"geometry":{"coordinates":[47.773887,30.524564],"type":"Point"},"placekey":"@68q-m6y-28v","address":{"country_code":"IQ","formatted_address":"al-Baṣra (Basra), Iraq","locality":"al-Baṣra (Basra)"}},"labels":["soccer","sport"],"duration":0,"start_local":"2024-06-18T19:30:00","end":"2024-06-18T16:30:00Z","end_local":"2024-06-18T19:30:00","updated":"2024-06-14T13:37:07Z"},{"title":"Iraqi League - Al Zawra'a vs Karbala","description":"Sourced from predicthq.com","category":"sports","start":"2024-06-18T16:30:00Z","geo":{"geometry":{"coordinates":[44.3682822,33.3444417],"type":"Point"},"placekey":"@68s-7xk-4y9","address":{"country_code":"IQ","formatted_address":"89V9+Q8F, Baghdad, Baghdad Governorate, Iraq","locality":"Baghdad","region":"Baghdad Governorate"}},"labels":["soccer","sport"],"duration":0,"start_local":"2024-06-18T19:30:00","end":"2024-06-18T16:30:00Z","end_local":"2024-06-18T19:30:00","updated":"2024-06-14T23:13:09Z"},{"title":"Iraqi League - Al Najaf vs Al Hudod","description":"Sourced from predicthq.com","category":"sports","start":"2024-06-18T16:30:00Z","geo":{"geometry":{"coordinates":[44.32759702205658,32.012156217210276],"type":"Point"},"placekey":"@68x-cwc-f2k","address":{"country_code":"IQ","formatted_address":"3888+99P, Najaf, Najaf Governorate, Iraq","locality":"Najaf","region":"Najaf Governorate"}},"labels":["soccer","sport"],"duration":0,"start_local":"2024-06-18T19:30:00","end":"2024-06-18T16:30:00Z","end_local":"2024-06-18T19:30:00","updated":"2024-06-14T12:51:51Z"},{"title":"Iraqi League - Al Karkh vs Al Kahrabaa","description":"Sourced from predicthq.com","category":"sports","start":"2024-06-18T13:45:00Z","geo":{"geometry":{"coordinates":[44.364820719,33.316547613],"type":"Point"},"placekey":"@68s-7v9-d5f","address":{"country_code":"IQ","formatted_address":"Al Mansur Street, Al Karkh, Baġdād (Bagdad), Iraq","locality":"Baġdād (Bagdad)"}},"labels":["soccer","sport"],"duration":0,"start_local":"2024-06-18T16:45:00","end":"2024-06-18T13:45:00Z","end_local":"2024-06-18T16:45:00","updated":"2024-06-14T16:01:47Z"},{"title":"Iraqi League - Al-Qasim vs Baghdad","description":"Sourced from predicthq.com","category":"sports","start":"2024-06-18T13:45:00Z","geo":{"geometry":{"coordinates":[45.835028126,32.50244361],"type":"Point"},"placekey":"@68g-r7k-5zz","address":{"country_code":"IQ","formatted_address":"Al Kut, Iraq","locality":"Al Kut"}},"labels":["soccer","sport"],"duration":0,"start_local":"2024-06-18T16:45:00","end":"2024-06-18T13:45:00Z","end_local":"2024-06-18T16:45:00","updated":"2024-06-14T14:09:05Z"},{"title":"Iraqi League - Zakho vs Al Quwa Al Jawiya","description":"Sourced from predicthq.com","category":"sports","start":"2024-06-15T15:00:00Z","geo":{"geometry":{"coordinates":[42.67247557640076,37.14589931660037],"type":"Point"},"placekey":"@67c-hp5-hwk","address":{"country_code":"IQ","formatted_address":"Zakho, Duhok Governorate, 42002, Iraq","postcode":"42002","locality":"Zakho","region":"Duhok Governorate"}},"labels":["soccer","sport"],"duration":0,"start_local":"2024-06-15T18:00:00","end":"2024-06-15T15:00:00Z","end_local":"2024-06-15T18:00:00","updated":"2024-06-11T02:49:15Z"},{"title":"14 June | ١٤ حزيران - Brides of the Rain - عرائس المطر - بوکەکانی باران","description":"Sourced from predicthq.com - دیالۆگی مۆسیقی نێوان کولتوورەکان | حوار موسيقي بين الثقافات | A musical dialogue between cultures","category":"performing-arts","start":"2024-06-14T16:00:00Z","geo":{"geometry":{"coordinates":[45.402622,35.5678362],"type":"Point"},"placekey":"@68v-yks-yd9","address":{"country_code":"IQ","formatted_address":"Sulaymaniyah, Sulaymaniyah Governorate, Iraq","locality":"Sulaymaniyah","region":"Sulaymaniyah Governorate"}},"labels":["concert","music","performing-arts"],"duration":5400,"start_local":"2024-06-14T19:00:00","end":"2024-06-14T17:30:00Z","end_local":"2024-06-14T20:30:00","updated":"2024-06-06T01:38:59Z"},{"title":"Iraqi League - Erbil vs Al Talaba","description":"Sourced from predicthq.com","category":"sports","start":"2024-06-14T15:00:00Z","geo":{"geometry":{"coordinates":[44.0114211,36.1726941],"type":"Point"},"placekey":"@67b-ghj-99f","address":{"country_code":"IQ","formatted_address":"Erbil, Erbil Governorate, 71926, Iraq","postcode":"71926","locality":"Erbil","region":"Erbil Governorate"}},"labels":["soccer","sport"],"duration":0,"start_local":"2024-06-14T18:00:00","end":"2024-06-14T15:00:00Z","end_local":"2024-06-14T18:00:00","updated":"2024-06-10T23:57:52Z"},{"title":"13 June | ١٣ حزيران - Brides of the Rain - عرائس المطر - بوکەکانی باران","description":"Sourced from predicthq.com - دیالۆگی مۆسیقی نێوان کولتوورەکان | حوار موسيقي بين الثقافات | A musical dialogue between cultures","category":"performing-arts","start":"2024-06-13T16:00:00Z","geo":{"geometry":{"coordinates":[45.402622,35.5678362],"type":"Point"},"placekey":"@68v-yks-yd9","address":{"country_code":"IQ","formatted_address":"Sulaymaniyah, Sulaymaniyah Governorate, Iraq","locality":"Sulaymaniyah","region":"Sulaymaniyah Governorate"}},"labels":["concert","music","performing-arts"],"duration":5400,"start_local":"2024-06-13T19:00:00","end":"2024-06-13T17:30:00Z","end_local":"2024-06-13T20:30:00","updated":"2024-06-06T01:14:01Z"},{"title":"12 June | ١٢ حزيران - Brides of the Rain - عرائس المطر -  بوکەکانی باران","description":"Sourced from predicthq.com - دیالۆگی مۆسیقی نێوان کولتوورەکان | حوار موسيقي بين الثقافات | A musical dialogue between cultures","category":"performing-arts","start":"2024-06-12T16:00:00Z","geo":{"geometry":{"coordinates":[45.402622,35.5678362],"type":"Point"},"placekey":"@68v-yks-yd9","address":{"country_code":"IQ","formatted_address":"Sulaymaniyah, Sulaymaniyah Governorate, Iraq","locality":"Sulaymaniyah","region":"Sulaymaniyah Governorate"}},"labels":["concert","music","performing-arts"],"duration":5400,"start_local":"2024-06-12T19:00:00","end":"2024-06-12T17:30:00Z","end_local":"2024-06-12T20:30:00","updated":"2024-06-06T00:41:23Z"},{"title":"AFC World Cup Qualifiers - 2nd Round - Iraq vs Vietnam","description":"Sourced from predicthq.com","category":"sports","start":"2024-06-11T18:00:00Z","geo":{"geometry":{"coordinates":[47.779780714,30.439927592],"type":"Point"},"placekey":"@68m-cfn-xnq","address":{"country_code":"IQ","formatted_address":"al-Baṣra (Basra), Iraq","locality":"al-Baṣra (Basra)"}},"labels":["soccer","sport"],"duration":7028,"start_local":"2024-06-11T21:00:00","end":"2024-06-11T19:57:08Z","end_local":"2024-06-11T22:57:08","updated":"2024-06-12T03:07:13Z"},{"title":"Iraqi League - Al Talaba vs Newroz","description":"Sourced from predicthq.com","category":"sports","start":"2024-06-08T15:00:00Z","geo":{"geometry":{"coordinates":[44.435470099999975,33.3249221],"type":"Point"},"placekey":"@68s-7vv-68v","address":{"country_code":"IQ","formatted_address":"Al Shaab Gymnasium, Baghdad, Iraq","locality":"Baghdad","region":"Baghdad Governorate"}},"labels":["soccer","sport"],"duration":0,"start_local":"2024-06-08T18:00:00","end":"2024-06-08T15:00:00Z","end_local":"2024-06-08T18:00:00","updated":"2024-06-12T05:10:47Z"},{"title":"Iraqi League - Al Kahrabaa vs Erbil","description":"Sourced from predicthq.com","category":"sports","start":"2024-06-07T15:00:00Z","geo":{"geometry":{"coordinates":[44.3682822,33.3444417],"type":"Point"},"placekey":"@68s-7xk-4y9","address":{"country_code":"IQ","formatted_address":"89V9+Q8F, Baghdad, Baghdad Governorate, Iraq","locality":"Baghdad","region":"Baghdad Governorate"}},"labels":["soccer","sport"],"duration":0,"start_local":"2024-06-07T18:00:00","end":"2024-06-07T15:00:00Z","end_local":"2024-06-07T18:00:00","updated":"2024-06-11T23:01:37Z"},{"title":"Iraqi League - Karbala vs Al Talaba","description":"Sourced from predicthq.com","category":"sports","start":"2024-06-04T13:45:00Z","geo":{"geometry":{"coordinates":[45.835028126,32.50244361],"type":"Point"},"placekey":"@68g-r7k-5zz","address":{"country_code":"IQ","formatted_address":"Al Kut, Iraq","locality":"Al Kut"}},"labels":["soccer","sport"],"duration":0,"start_local":"2024-06-04T16:45:00","end":"2024-06-04T13:45:00Z","end_local":"2024-06-04T16:45:00","updated":"2024-06-12T02:15:30Z"},{"title":"OIGA TECH - Iraq Oil and Gas Technology Exhibition","description":"Sourced from predicthq.com","category":"expos","start":"2024-06-01T06:00:00Z","geo":{"geometry":{"coordinates":[44.36238,33.313766],"type":"Point"},"placekey":"@68s-7v9-cnq","address":{"country_code":"IQ","formatted_address":"Baghdad, Baghdad Governorate, Iraq","locality":"Baghdad","region":"Baghdad Governorate"}},"labels":["expo"],"duration":205200,"start_local":"2024-06-01T09:00:00","end":"2024-06-03T15:00:00Z","end_local":"2024-06-03T18:00:00","updated":"2024-05-31T23:09:37Z"},{"title":"Iraqi League - Al Zawra'a vs Al Minaa Basra","description":"Sourced from predicthq.com","category":"sports","start":"2024-05-31T17:45:00Z","geo":{"geometry":{"coordinates":[44.3682822,33.3444417],"type":"Point"},"placekey":"@68s-7xk-4y9","address":{"country_code":"IQ","formatted_address":"89V9+Q8F, Baghdad, Baghdad Governorate, Iraq","locality":"Baghdad","region":"Baghdad Governorate"}},"labels":["soccer","sport"],"duration":0,"start_local":"2024-05-31T20:45:00","end":"2024-05-31T17:45:00Z","end_local":"2024-05-31T20:45:00","updated":"2024-06-12T17:27:17Z"},{"title":"Iraqi League - Al Najaf vs Zakho","description":"Sourced from predicthq.com","category":"sports","start":"2024-05-31T15:30:00Z","geo":{"geometry":{"coordinates":[44.32759702205658,32.012156217210276],"type":"Point"},"placekey":"@68x-cwc-f2k","address":{"country_code":"IQ","formatted_address":"3888+99P, Najaf, Najaf Governorate, Iraq","locality":"Najaf","region":"Najaf Governorate"}},"labels":["soccer","sport"],"duration":0,"start_local":"2024-05-31T18:30:00","end":"2024-05-31T15:30:00Z","end_local":"2024-05-31T18:30:00","updated":"2024-06-12T19:37:20Z"},{"title":"Iraqi League - Naft vs Karbala","description":"Sourced from predicthq.com","category":"sports","start":"2024-05-31T15:30:00Z","geo":{"geometry":{"coordinates":[44.435470099999975,33.3249221],"type":"Point"},"placekey":"@68s-7vv-68v","address":{"country_code":"IQ","formatted_address":"Al Shaab Gymnasium, Baghdad, Iraq","locality":"Baghdad","region":"Baghdad Governorate"}},"labels":["soccer","sport"],"duration":0,"start_local":"2024-05-31T18:30:00","end":"2024-05-31T15:30:00Z","end_local":"2024-05-31T18:30:00","updated":"2024-06-12T03:25:47Z"},{"title":"Iraqi League - Newroz vs Al Quwa Al Jawiya","description":"Sourced from predicthq.com","category":"sports","start":"2024-05-31T13:15:00Z","geo":{"geometry":{"coordinates":[45.428874492645264,35.54981727638134],"type":"Point"},"placekey":"@68v-ykk-4jv","address":{"country_code":"IQ","formatted_address":"as-Sulaimāniyya (Sulaymaniyah), Iraq","locality":"as-Sulaimāniyya (Sulaymaniyah)"}},"labels":["soccer","sport"],"duration":0,"start_local":"2024-05-31T16:15:00","end":"2024-05-31T13:15:00Z","end_local":"2024-05-31T16:15:00","updated":"2024-06-12T13:11:10Z"},{"title":"Iraqi League - Al Talaba vs Naft Al-Wasat","description":"Sourced from predicthq.com","category":"sports","start":"2024-05-30T17:30:00Z","geo":{"geometry":{"coordinates":[44.45326434752996,33.35324272486608],"type":"Point"},"placekey":"@68s-7vs-8sq","address":{"country_code":"IQ","formatted_address":"Bor Said Street, Baġdād (Bagdad), Iraq","locality":"Baġdād (Bagdad)"}},"labels":["soccer","sport"],"duration":0,"start_local":"2024-05-30T20:30:00","end":"2024-05-30T17:30:00Z","end_local":"2024-05-30T20:30:00","updated":"2024-06-12T05:45:04Z"},{"title":"Iraqi League - Naft Maysan vs Al Shorta","description":"Sourced from predicthq.com","category":"sports","start":"2024-05-30T15:00:00Z","geo":{"geometry":{"coordinates":[47.1274346,31.835525],"type":"Point"},"placekey":"@68f-pxc-4gk","address":{"country_code":"IQ","formatted_address":"R4PG+6X7, Amarah, Maysan Governorate, Iraq","locality":"Amarah","region":"Maysan Governorate"}},"labels":["soccer","sport"],"duration":0,"start_local":"2024-05-30T18:00:00","end":"2024-05-30T15:00:00Z","end_local":"2024-05-30T18:00:00","updated":"2024-06-12T05:41:01Z"},{"title":"Iraqi League - Erbil vs Naft Al-Basra","description":"Sourced from predicthq.com","category":"sports","start":"2024-05-30T15:00:00Z","geo":{"geometry":{"coordinates":[44.0114211,36.1726941],"type":"Point"},"placekey":"@67b-ghj-99f","address":{"country_code":"IQ","formatted_address":"Erbil, Erbil Governorate, 71926, Iraq","postcode":"71926","locality":"Erbil","region":"Erbil Governorate"}},"labels":["soccer","sport"],"duration":0,"start_local":"2024-05-30T18:00:00","end":"2024-05-30T15:00:00Z","end_local":"2024-05-30T18:00:00","updated":"2024-06-12T12:00:22Z"},{"title":"Iraqi League - Al Kahrabaa vs Duhok","description":"Sourced from predicthq.com","category":"sports","start":"2024-05-29T16:00:00Z","geo":{"geometry":{"coordinates":[44.3682822,33.3444417],"type":"Point"},"placekey":"@68s-7xk-4y9","address":{"country_code":"IQ","formatted_address":"89V9+Q8F, Baghdad, Baghdad Governorate, Iraq","locality":"Baghdad","region":"Baghdad Governorate"}},"labels":["soccer","sport"],"duration":0,"start_local":"2024-05-29T19:00:00","end":"2024-05-29T16:00:00Z","end_local":"2024-05-29T19:00:00","updated":"2024-06-11T22:24:15Z"},{"title":"Iraqi League - Al-Qasim vs Al Hudod","description":"Sourced from predicthq.com","category":"sports","start":"2024-05-29T16:00:00Z","geo":{"geometry":{"coordinates":[44.01797890663147,32.58798510467791],"type":"Point"},"placekey":"@68s-886-td9","address":{"country_code":"IQ","formatted_address":"حي الحسين مقابل البناء الجاهز قرب، ملعب قديم، شارع حي الحسين، Karbala', Karbala Governorate, 56001, Iraq","postcode":"56001","locality":"Karbala'","region":"Karbala Governorate"}},"labels":["soccer","sport"],"duration":0,"start_local":"2024-05-29T19:00:00","end":"2024-05-29T16:00:00Z","end_local":"2024-05-29T19:00:00","updated":"2024-06-11T22:20:16Z"},{"title":"Iraqi League - Al Karkh vs Baghdad","description":"Sourced from predicthq.com","category":"sports","start":"2024-05-29T13:15:00Z","geo":{"geometry":{"coordinates":[44.364820719,33.316547613],"type":"Point"},"placekey":"@68s-7v9-d5f","address":{"country_code":"IQ","formatted_address":"Al Mansur Street, Al Karkh, Baġdād (Bagdad), Iraq","locality":"Baġdād (Bagdad)"}},"labels":["soccer","sport"],"duration":0,"start_local":"2024-05-29T16:15:00","end":"2024-05-29T13:15:00Z","end_local":"2024-05-29T16:15:00","updated":"2024-06-12T18:35:21Z"},{"title":"Iraqi League - Al Quwa Al Jawiya vs Al Zawra'a","description":"Sourced from predicthq.com","category":"sports","start":"2024-05-27T17:00:00Z","geo":{"geometry":{"coordinates":[44.45326434752996,33.35324272486608],"type":"Point"},"placekey":"@68s-7vs-8sq","address":{"country_code":"IQ","formatted_address":"Bor Said Street, Baġdād (Bagdad), Iraq","locality":"Baġdād (Bagdad)"}},"labels":["soccer","sport"],"duration":0,"start_local":"2024-05-27T20:00:00","end":"2024-05-27T17:00:00Z","end_local":"2024-05-27T20:00:00","updated":"2024-06-12T11:17:24Z"},{"title":"Iraqi League - Zakho vs Naft","description":"Sourced from predicthq.com","category":"sports","start":"2024-05-27T15:00:00Z","geo":{"geometry":{"coordinates":[42.67247557640076,37.14589931660037],"type":"Point"},"placekey":"@67c-hp5-hwk","address":{"country_code":"IQ","formatted_address":"Zakho, Duhok Governorate, 42002, Iraq","postcode":"42002","locality":"Zakho","region":"Duhok Governorate"}},"labels":["soccer","sport"],"duration":0,"start_local":"2024-05-27T18:00:00","end":"2024-05-27T15:00:00Z","end_local":"2024-05-27T18:00:00","updated":"2024-06-12T11:26:11Z"},{"title":"Iraqi League - Karbala vs Al Najaf","description":"Sourced from predicthq.com","category":"sports","start":"2024-05-27T15:00:00Z","geo":{"geometry":{"coordinates":[44.01797890663147,32.58798510467791],"type":"Point"},"placekey":"@68s-886-td9","address":{"country_code":"IQ","formatted_address":"حي الحسين مقابل البناء الجاهز قرب، ملعب قديم، شارع حي الحسين، Karbala', Karbala Governorate, 56001, Iraq","postcode":"56001","locality":"Karbala'","region":"Karbala Governorate"}},"labels":["soccer","sport"],"duration":0,"start_local":"2024-05-27T18:00:00","end":"2024-05-27T15:00:00Z","end_local":"2024-05-27T18:00:00","updated":"2024-06-12T06:27:34Z"},{"title":"Iraqi League - Baghdad vs Erbil","description":"Sourced from predicthq.com","category":"sports","start":"2024-05-26T15:00:00Z","geo":{"geometry":{"coordinates":[44.45326434752996,33.35324272486608],"type":"Point"},"placekey":"@68s-7vs-8sq","address":{"country_code":"IQ","formatted_address":"Bor Said Street, Baġdād (Bagdad), Iraq","locality":"Baġdād (Bagdad)"}},"labels":["soccer","sport"],"duration":0,"start_local":"2024-05-26T18:00:00","end":"2024-05-26T15:00:00Z","end_local":"2024-05-26T18:00:00","updated":"2024-06-11T22:38:43Z"},{"title":"Iraqi League - Al Hudod vs Al Talaba","description":"Sourced from predicthq.com","category":"sports","start":"2024-05-26T13:00:00Z","geo":{"geometry":{"coordinates":[44.364820719,33.316547613],"type":"Point"},"placekey":"@68s-7v9-d5f","address":{"country_code":"IQ","formatted_address":"Al Mansur Street, Al Karkh, Baġdād (Bagdad), Iraq","locality":"Baġdād (Bagdad)"}},"labels":["soccer","sport"],"duration":0,"start_local":"2024-05-26T16:00:00","end":"2024-05-26T13:00:00Z","end_local":"2024-05-26T16:00:00","updated":"2024-06-11T21:20:47Z"},{"title":"Iraqi League - Newroz vs Naft Maysan","description":"Sourced from predicthq.com","category":"sports","start":"2024-05-26T13:00:00Z","geo":{"geometry":{"coordinates":[45.428874492645264,35.54981727638134],"type":"Point"},"placekey":"@68v-ykk-4jv","address":{"country_code":"IQ","formatted_address":"as-Sulaimāniyya (Sulaymaniyah), Iraq","locality":"as-Sulaimāniyya (Sulaymaniyah)"}},"labels":["soccer","sport"],"duration":0,"start_local":"2024-05-26T16:00:00","end":"2024-05-26T13:00:00Z","end_local":"2024-05-26T16:00:00","updated":"2024-06-12T17:26:21Z"},{"title":"Iraqi League - Naft Al-Wasat vs Al Karkh","description":"Sourced from predicthq.com","category":"sports","start":"2024-05-25T17:30:00Z","geo":{"geometry":{"coordinates":[44.32759702205658,32.012156217210276],"type":"Point"},"placekey":"@68x-cwc-f2k","address":{"country_code":"IQ","formatted_address":"3888+99P, Najaf, Najaf Governorate, Iraq","locality":"Najaf","region":"Najaf Governorate"}},"labels":["soccer","sport"],"duration":0,"start_local":"2024-05-25T20:30:00","end":"2024-05-25T17:30:00Z","end_local":"2024-05-25T20:30:00","updated":"2024-06-12T02:04:27Z"},{"title":"Iraqi League - Al Kahrabaa vs Al Minaa Basra","description":"Sourced from predicthq.com","category":"sports","start":"2024-05-25T17:30:00Z","geo":{"geometry":{"coordinates":[44.3682822,33.3444417],"type":"Point"},"placekey":"@68s-7xk-4y9","address":{"country_code":"IQ","formatted_address":"89V9+Q8F, Baghdad, Baghdad Governorate, Iraq","locality":"Baghdad","region":"Baghdad Governorate"}},"labels":["soccer","sport"],"duration":0,"start_local":"2024-05-25T20:30:00","end":"2024-05-25T17:30:00Z","end_local":"2024-05-25T20:30:00","updated":"2024-06-12T18:14:13Z"},{"title":"Iraqi League - Al Shorta vs Al-Qasim","description":"Sourced from predicthq.com","category":"sports","start":"2024-05-25T15:00:00Z","geo":{"geometry":{"coordinates":[44.435470099999975,33.3249221],"type":"Point"},"placekey":"@68s-7vv-68v","address":{"country_code":"IQ","formatted_address":"Al Shaab Gymnasium, Baghdad, Iraq","locality":"Baghdad","region":"Baghdad Governorate"}},"labels":["soccer","sport"],"duration":0,"start_local":"2024-05-25T18:00:00","end":"2024-05-25T15:00:00Z","end_local":"2024-05-25T18:00:00","updated":"2024-06-12T08:19:53Z"},{"title":"Iraqi League - Duhok vs Naft Al-Basra","description":"Sourced from predicthq.com","category":"sports","start":"2024-05-25T15:00:00Z","geo":{"geometry":{"coordinates":[42.99616992473602,36.851797062491514],"type":"Point"},"placekey":"@67c-mfv-ffz","address":{"country_code":"IQ","formatted_address":"Dohuk, Iraq","locality":"Dohuk"}},"labels":["soccer","sport"],"duration":0,"start_local":"2024-05-25T18:00:00","end":"2024-05-25T15:00:00Z","end_local":"2024-05-25T18:00:00","updated":"2024-06-12T06:57:23Z"},{"title":"Iraqi League - Zakho vs Erbil","description":"Sourced from predicthq.com","category":"sports","start":"2024-05-22T17:15:00Z","geo":{"geometry":{"coordinates":[42.67247557640076,37.14589931660037],"type":"Point"},"placekey":"@67c-hp5-hwk","address":{"country_code":"IQ","formatted_address":"Zakho, Duhok Governorate, 42002, Iraq","postcode":"42002","locality":"Zakho","region":"Duhok Governorate"}},"labels":["soccer","sport"],"duration":0,"start_local":"2024-05-22T20:15:00","end":"2024-05-22T17:15:00Z","end_local":"2024-05-22T20:15:00","updated":"2024-06-12T01:18:42Z"},{"title":"Iraqi League - Duhok vs Al Zawra'a","description":"Sourced from predicthq.com","category":"sports","start":"2024-05-22T17:15:00Z","geo":{"geometry":{"coordinates":[42.99616992473602,36.851797062491514],"type":"Point"},"placekey":"@67c-mfv-ffz","address":{"country_code":"IQ","formatted_address":"Dohuk, Iraq","locality":"Dohuk"}},"labels":["soccer","sport"],"duration":0,"start_local":"2024-05-22T20:15:00","end":"2024-05-22T17:15:00Z","end_local":"2024-05-22T20:15:00","updated":"2024-06-12T11:14:26Z"},{"title":"Iraqi League - Karbala vs Naft Maysan","description":"Sourced from predicthq.com","category":"sports","start":"2024-05-22T15:15:00Z","geo":{"geometry":{"coordinates":[44.32759702205658,32.012156217210276],"type":"Point"},"placekey":"@68x-cwc-f2k","address":{"country_code":"IQ","formatted_address":"3888+99P, Najaf, Najaf Governorate, Iraq","locality":"Najaf","region":"Najaf Governorate"}},"labels":["soccer","sport"],"duration":0,"start_local":"2024-05-22T18:15:00","end":"2024-05-22T15:15:00Z","end_local":"2024-05-22T18:15:00","updated":"2024-06-11T20:51:09Z"},{"title":"Iraqi League - Al Quwa Al Jawiya vs Al Kahrabaa","description":"Sourced from predicthq.com","category":"sports","start":"2024-05-22T15:15:00Z","geo":{"geometry":{"coordinates":[44.435470099999975,33.3249221],"type":"Point"},"placekey":"@68s-7vv-68v","address":{"country_code":"IQ","formatted_address":"Al Shaab Gymnasium, Baghdad, Iraq","locality":"Baghdad","region":"Baghdad Governorate"}},"labels":["soccer","sport"],"duration":0,"start_local":"2024-05-22T18:15:00","end":"2024-05-22T15:15:00Z","end_local":"2024-05-22T18:15:00","updated":"2024-06-12T17:16:25Z"},{"title":"Iraqi League - Naft Al-Wasat vs Al Najaf","description":"Sourced from predicthq.com","category":"sports","start":"2024-05-21T17:15:00Z","geo":{"geometry":{"coordinates":[44.32759702205658,32.012156217210276],"type":"Point"},"placekey":"@68x-cwc-f2k","address":{"country_code":"IQ","formatted_address":"3888+99P, Najaf, Najaf Governorate, Iraq","locality":"Najaf","region":"Najaf Governorate"}},"labels":["soccer","sport"],"duration":0,"start_local":"2024-05-21T20:15:00","end":"2024-05-21T17:15:00Z","end_local":"2024-05-21T20:15:00","updated":"2024-06-12T16:06:03Z"},{"title":"Iraqi League - Naft Al-Basra vs Al Talaba","description":"Sourced from predicthq.com","category":"sports","start":"2024-05-21T17:15:00Z","geo":{"geometry":{"coordinates":[47.7775722,30.552329],"type":"Point"},"placekey":"@68q-m65-dgk","address":{"country_code":"IQ","formatted_address":"al-Baṣra (Basra), Iraq","locality":"al-Baṣra (Basra)"}},"labels":["soccer","sport"],"duration":0,"start_local":"2024-05-21T20:15:00","end":"2024-05-21T17:15:00Z","end_local":"2024-05-21T20:15:00","updated":"2024-06-11T23:18:50Z"},{"title":"Iraqi League - Al Shorta vs Al Karkh","description":"Sourced from predicthq.com","category":"sports","start":"2024-05-21T15:15:00Z","geo":{"geometry":{"coordinates":[44.435470099999975,33.3249221],"type":"Point"},"placekey":"@68s-7vv-68v","address":{"country_code":"IQ","formatted_address":"Al Shaab Gymnasium, Baghdad, Iraq","locality":"Baghdad","region":"Baghdad Governorate"}},"labels":["soccer","sport"],"duration":0,"start_local":"2024-05-21T18:15:00","end":"2024-05-21T15:15:00Z","end_local":"2024-05-21T18:15:00","updated":"2024-06-12T10:32:40Z"},{"title":"Iraqi League - Al Minaa Basra vs Baghdad","description":"Sourced from predicthq.com","category":"sports","start":"2024-05-21T13:00:00Z","geo":{"geometry":{"coordinates":[47.7775722,30.552329],"type":"Point"},"placekey":"@68q-m65-dgk","address":{"country_code":"IQ","formatted_address":"al-Baṣra (Basra), Iraq","locality":"al-Baṣra (Basra)"}},"labels":["soccer","sport"],"duration":0,"start_local":"2024-05-21T16:00:00","end":"2024-05-21T13:00:00Z","end_local":"2024-05-21T16:00:00","updated":"2024-06-11T23:46:58Z"},{"title":"14th ERBIL BUILD EXPO - International Building, Construction,Electricity an","description":"Sourced from predicthq.com - https://erbilbuilding.com/","category":"expos","start":"2024-05-21T08:00:00Z","geo":{"geometry":{"coordinates":[43.9852101,36.1910915],"type":"Point"},"placekey":"@67b-gfz-rp9","address":{"country_code":"IQ","formatted_address":"Erbil, Erbil Governorate, Iraq","locality":"Erbil","region":"Erbil Governorate"}},"labels":["expo"],"duration":289800,"start_local":"2024-05-21T11:00:00","end":"2024-05-24T16:30:00Z","end_local":"2024-05-24T19:30:00","updated":"2024-07-02T12:02:31Z"},{"title":"Iraqi League - Naft vs Al-Qasim","description":"Sourced from predicthq.com","category":"sports","start":"2024-05-20T15:15:00Z","geo":{"geometry":{"coordinates":[44.435470099999975,33.3249221],"type":"Point"},"placekey":"@68s-7vv-68v","address":{"country_code":"IQ","formatted_address":"Al Shaab Gymnasium, Baghdad, Iraq","locality":"Baghdad","region":"Baghdad Governorate"}},"labels":["soccer","sport"],"duration":0,"start_local":"2024-05-20T18:15:00","end":"2024-05-20T15:15:00Z","end_local":"2024-05-20T18:15:00","updated":"2024-06-12T20:20:29Z"},{"title":"Iraqi League - Al Hudod vs Newroz","description":"Sourced from predicthq.com","category":"sports","start":"2024-05-20T13:00:00Z","geo":{"geometry":{"coordinates":[44.364820719,33.316547613],"type":"Point"},"placekey":"@68s-7v9-d5f","address":{"country_code":"IQ","formatted_address":"Al Mansur Street, Al Karkh, Baġdād (Bagdad), Iraq","locality":"Baġdād (Bagdad)"}},"labels":["soccer","sport"],"duration":0,"start_local":"2024-05-20T16:00:00","end":"2024-05-20T13:00:00Z","end_local":"2024-05-20T16:00:00","updated":"2024-06-12T03:38:32Z"},{"title":"International Conference of Applied Computing & Smart Cities","description":"Sourced from predicthq.com","category":"conferences","start":"2024-05-20T06:00:00Z","geo":{"geometry":{"coordinates":[44.027688,36.10446],"type":"Point"},"placekey":"@67c-3y9-8jv","address":{"country_code":"IQ","formatted_address":"Erbil, Kurdistan Region, Iraq","locality":"Erbil","region":"Kurdistan Region"}},"labels":["conference"],"duration":32400,"start_local":"2024-05-20T09:00:00","end":"2024-05-20T15:00:00Z","end_local":"2024-05-20T18:00:00","updated":"2024-05-31T22:59:43Z"},{"title":"Iraqi League - Al Minaa Basra vs Al Quwa Al Jawiya","description":"Sourced from predicthq.com","category":"sports","start":"2024-05-18T17:30:00Z","geo":{"geometry":{"coordinates":[47.7775722,30.552329],"type":"Point"},"placekey":"@68q-m65-dgk","address":{"country_code":"IQ","formatted_address":"al-Baṣra (Basra), Iraq","locality":"al-Baṣra (Basra)"}},"labels":["soccer","sport"],"duration":0,"start_local":"2024-05-18T20:30:00","end":"2024-05-18T17:30:00Z","end_local":"2024-05-18T20:30:00","updated":"2024-06-12T12:38:11Z"},{"title":"Iraqi League - Al Najaf vs Duhok","description":"Sourced from predicthq.com","category":"sports","start":"2024-05-18T15:15:00Z","geo":{"geometry":{"coordinates":[44.32759702205658,32.012156217210276],"type":"Point"},"placekey":"@68x-cwc-f2k","address":{"country_code":"IQ","formatted_address":"3888+99P, Najaf, Najaf Governorate, Iraq","locality":"Najaf","region":"Najaf Governorate"}},"labels":["soccer","sport"],"duration":0,"start_local":"2024-05-18T18:15:00","end":"2024-05-18T15:15:00Z","end_local":"2024-05-18T18:15:00","updated":"2024-06-12T02:59:27Z"},{"title":"Iraqi League - Al Zawra'a vs Zakho","description":"Sourced from predicthq.com","category":"sports","start":"2024-05-18T15:15:00Z","geo":{"geometry":{"coordinates":[44.3682822,33.3444417],"type":"Point"},"placekey":"@68s-7xk-4y9","address":{"country_code":"IQ","formatted_address":"89V9+Q8F, Baghdad, Baghdad Governorate, Iraq","locality":"Baghdad","region":"Baghdad Governorate"}},"labels":["soccer","sport"],"duration":0,"start_local":"2024-05-18T18:15:00","end":"2024-05-18T15:15:00Z","end_local":"2024-05-18T18:15:00","updated":"2024-06-14T23:15:05Z"},{"title":"Iraqi League - Naft Maysan vs Al Talaba","description":"Sourced from predicthq.com","category":"sports","start":"2024-05-18T13:00:00Z","geo":{"geometry":{"coordinates":[47.1274346,31.835525],"type":"Point"},"placekey":"@68f-pxc-4gk","address":{"country_code":"IQ","formatted_address":"R4PG+6X7, Amarah, Maysan Governorate, Iraq","locality":"Amarah","region":"Maysan Governorate"}},"labels":["soccer","sport"],"duration":0,"start_local":"2024-05-18T16:00:00","end":"2024-05-18T13:00:00Z","end_local":"2024-05-18T16:00:00","updated":"2024-06-11T21:29:37Z"},{"title":"Iraqi League - Karbala vs Al Shorta","description":"Sourced from predicthq.com","category":"sports","start":"2024-05-17T17:30:00Z","geo":{"geometry":{"coordinates":[44.01797890663147,32.58798510467791],"type":"Point"},"placekey":"@68s-886-td9","address":{"country_code":"IQ","formatted_address":"حي الحسين مقابل البناء الجاهز قرب، ملعب قديم، شارع حي الحسين، Karbala', Karbala Governorate, 56001, Iraq","postcode":"56001","locality":"Karbala'","region":"Karbala Governorate"}},"labels":["soccer","sport"],"duration":0,"start_local":"2024-05-17T20:30:00","end":"2024-05-17T17:30:00Z","end_local":"2024-05-17T20:30:00","updated":"2024-06-12T10:47:59Z"},{"title":"Iraqi League - Baghdad vs Naft Al-Basra","description":"Sourced from predicthq.com","category":"sports","start":"2024-05-17T15:15:00Z","geo":{"geometry":{"coordinates":[44.384525644,33.315022432],"type":"Point"},"placekey":"@68s-7vg-j9z","address":{"country_code":"IQ","formatted_address":"Baġdād (Bagdad), Iraq","locality":"Baġdād (Bagdad)"}},"labels":["soccer","sport"],"duration":0,"start_local":"2024-05-17T18:15:00","end":"2024-05-17T15:15:00Z","end_local":"2024-05-17T18:15:00","updated":"2024-06-12T06:03:11Z"},{"title":"Iraqi League - Erbil vs Al Hudod","description":"Sourced from predicthq.com","category":"sports","start":"2024-05-17T15:15:00Z","geo":{"geometry":{"coordinates":[44.0114211,36.1726941],"type":"Point"},"placekey":"@67b-ghj-99f","address":{"country_code":"IQ","formatted_address":"Erbil, Erbil Governorate, 71926, Iraq","postcode":"71926","locality":"Erbil","region":"Erbil Governorate"}},"labels":["soccer","sport"],"duration":0,"start_local":"2024-05-17T18:15:00","end":"2024-05-17T15:15:00Z","end_local":"2024-05-17T18:15:00","updated":"2024-06-12T07:21:47Z"},{"title":"Iraqi League - Al Karkh vs Naft","description":"Sourced from predicthq.com","category":"sports","start":"2024-05-17T13:00:00Z","geo":{"geometry":{"coordinates":[44.364820719,33.316547613],"type":"Point"},"placekey":"@68s-7v9-d5f","address":{"country_code":"IQ","formatted_address":"Al Mansur Street, Al Karkh, Baġdād (Bagdad), Iraq","locality":"Baġdād (Bagdad)"}},"labels":["soccer","sport"],"duration":0,"start_local":"2024-05-17T16:00:00","end":"2024-05-17T13:00:00Z","end_local":"2024-05-17T16:00:00","updated":"2024-06-12T09:44:00Z"},{"title":"Iraqi League - Al Kahrabaa vs Al-Qasim","description":"Sourced from predicthq.com","category":"sports","start":"2024-05-16T15:15:00Z","geo":{"geometry":{"coordinates":[44.3682822,33.3444417],"type":"Point"},"placekey":"@68s-7xk-4y9","address":{"country_code":"IQ","formatted_address":"89V9+Q8F, Baghdad, Baghdad Governorate, Iraq","locality":"Baghdad","region":"Baghdad Governorate"}},"labels":["soccer","sport"],"duration":0,"start_local":"2024-05-16T18:15:00","end":"2024-05-16T15:15:00Z","end_local":"2024-05-16T18:15:00","updated":"2024-06-12T02:40:28Z"},{"title":"Iraqi League - Newroz vs Naft Al-Wasat","description":"Sourced from predicthq.com","category":"sports","start":"2024-05-16T13:00:00Z","geo":{"geometry":{"coordinates":[45.428874492645264,35.54981727638134],"type":"Point"},"placekey":"@68v-ykk-4jv","address":{"country_code":"IQ","formatted_address":"as-Sulaimāniyya (Sulaymaniyah), Iraq","locality":"as-Sulaimāniyya (Sulaymaniyah)"}},"labels":["soccer","sport"],"duration":0,"start_local":"2024-05-16T16:00:00","end":"2024-05-16T13:00:00Z","end_local":"2024-05-16T16:00:00","updated":"2024-06-12T05:00:16Z"},{"title":"L'Europe en Bande Dessinée","description":"Sourced from predicthq.com - Exposition","category":"conferences","start":"2024-05-16T11:00:00Z","geo":{"geometry":{"coordinates":[43.99921579999999,36.1936643],"type":"Point"},"placekey":"@67b-ghf-c89","address":{"country_code":"IQ","formatted_address":"Erbil, Erbil Governorate, Iraq","locality":"Erbil","region":"Erbil Governorate"}},"labels":["conference","performing-arts"],"duration":14400,"start_local":"2024-05-16T14:00:00","end":"2024-05-16T15:00:00Z","end_local":"2024-05-16T18:00:00","updated":"2024-06-05T08:32:06Z"},{"title":"Iraqi League - Al Talaba vs Al Zawra'a","description":"Sourced from predicthq.com","category":"sports","start":"2024-05-14T17:30:00Z","geo":{"geometry":{"coordinates":[44.435470099999975,33.3249221],"type":"Point"},"placekey":"@68s-7vv-68v","address":{"country_code":"IQ","formatted_address":"Al Shaab Gymnasium, Baghdad, Iraq","locality":"Baghdad","region":"Baghdad Governorate"}},"labels":["soccer","sport"],"duration":0,"start_local":"2024-05-14T20:30:00","end":"2024-05-14T17:30:00Z","end_local":"2024-05-14T20:30:00","updated":"2024-06-12T06:36:59Z"},{"title":"Iraqi League - Al Quwa Al Jawiya vs Al Najaf","description":"Sourced from predicthq.com","category":"sports","start":"2024-05-14T15:00:00Z","geo":{"geometry":{"coordinates":[44.45326434752996,33.35324272486608],"type":"Point"},"placekey":"@68s-7vs-8sq","address":{"country_code":"IQ","formatted_address":"Bor Said Street, Baġdād (Bagdad), Iraq","locality":"Baġdād (Bagdad)"}},"labels":["soccer","sport"],"duration":0,"start_local":"2024-05-14T18:00:00","end":"2024-05-14T15:00:00Z","end_local":"2024-05-14T18:00:00","updated":"2024-06-11T23:11:37Z"},{"title":"Iraqi League - Duhok vs Newroz","description":"Sourced from predicthq.com","category":"sports","start":"2024-05-13T19:00:00Z","geo":{"geometry":{"coordinates":[42.99616992473602,36.851797062491514],"type":"Point"},"placekey":"@67c-mfv-ffz","address":{"country_code":"IQ","formatted_address":"Dohuk, Iraq","locality":"Dohuk"}},"labels":["soccer","sport"],"duration":0,"start_local":"2024-05-13T22:00:00","end":"2024-05-13T19:00:00Z","end_local":"2024-05-13T22:00:00","updated":"2024-06-12T12:40:31Z"},{"title":"Iraqi League - Naft Al-Basra vs Karbala","description":"Sourced from predicthq.com","category":"sports","start":"2024-05-13T17:30:00Z","geo":{"geometry":{"coordinates":[47.7775722,30.552329],"type":"Point"},"placekey":"@68q-m65-dgk","address":{"country_code":"IQ","formatted_address":"al-Baṣra (Basra), Iraq","locality":"al-Baṣra (Basra)"}},"labels":["soccer","sport"],"duration":0,"start_local":"2024-05-13T20:30:00","end":"2024-05-13T17:30:00Z","end_local":"2024-05-13T20:30:00","updated":"2024-06-12T19:39:54Z"},{"title":"Iraqi League - Al Shorta vs Baghdad","description":"Sourced from predicthq.com","category":"sports","start":"2024-05-13T15:00:00Z","geo":{"geometry":{"coordinates":[44.435470099999975,33.3249221],"type":"Point"},"placekey":"@68s-7vv-68v","address":{"country_code":"IQ","formatted_address":"Al Shaab Gymnasium, Baghdad, Iraq","locality":"Baghdad","region":"Baghdad Governorate"}},"labels":["soccer","sport"],"duration":0,"start_local":"2024-05-13T18:00:00","end":"2024-05-13T15:00:00Z","end_local":"2024-05-13T18:00:00","updated":"2024-06-11T23:29:21Z"},{"title":"Iraqi League - Naft Maysan vs Al Hudod","description":"Sourced from predicthq.com","category":"sports","start":"2024-05-13T15:00:00Z","geo":{"geometry":{"coordinates":[47.1274346,31.835525],"type":"Point"},"placekey":"@68f-pxc-4gk","address":{"country_code":"IQ","formatted_address":"R4PG+6X7, Amarah, Maysan Governorate, Iraq","locality":"Amarah","region":"Maysan Governorate"}},"labels":["soccer","sport"],"duration":0,"start_local":"2024-05-13T18:00:00","end":"2024-05-13T15:00:00Z","end_local":"2024-05-13T18:00:00","updated":"2024-06-12T02:04:24Z"},{"title":"Iraqi League - Zakho vs Al Karkh","description":"Sourced from predicthq.com","category":"sports","start":"2024-05-13T12:45:00Z","geo":{"geometry":{"coordinates":[42.67247557640076,37.14589931660037],"type":"Point"},"placekey":"@67c-hp5-hwk","address":{"country_code":"IQ","formatted_address":"Zakho, Duhok Governorate, 42002, Iraq","postcode":"42002","locality":"Zakho","region":"Duhok Governorate"}},"labels":["soccer","sport"],"duration":0,"start_local":"2024-05-13T15:45:00","end":"2024-05-13T12:45:00Z","end_local":"2024-05-13T15:45:00","updated":"2024-06-12T11:23:24Z"},{"title":"Iraqi League - Al-Qasim vs Al Minaa Basra","description":"Sourced from predicthq.com","category":"sports","start":"2024-05-12T17:30:00Z","geo":{"geometry":{"coordinates":[44.01797890663147,32.58798510467791],"type":"Point"},"placekey":"@68s-886-td9","address":{"country_code":"IQ","formatted_address":"حي الحسين مقابل البناء الجاهز قرب، ملعب قديم، شارع حي الحسين، Karbala', Karbala Governorate, 56001, Iraq","postcode":"56001","locality":"Karbala'","region":"Karbala Governorate"}},"labels":["soccer","sport"],"duration":0,"start_local":"2024-05-12T20:30:00","end":"2024-05-12T17:30:00Z","end_local":"2024-05-12T20:30:00","updated":"2024-06-12T14:43:56Z"},{"title":"Iraqi League - Naft Al-Wasat vs Al Kahrabaa","description":"Sourced from predicthq.com","category":"sports","start":"2024-05-12T15:15:00Z","geo":{"geometry":{"coordinates":[44.32759702205658,32.012156217210276],"type":"Point"},"placekey":"@68x-cwc-f2k","address":{"country_code":"IQ","formatted_address":"3888+99P, Najaf, Najaf Governorate, Iraq","locality":"Najaf","region":"Najaf Governorate"}},"labels":["soccer","sport"],"duration":0,"start_local":"2024-05-12T18:15:00","end":"2024-05-12T15:15:00Z","end_local":"2024-05-12T18:15:00","updated":"2024-06-11T23:39:20Z"},{"title":"Iraqi League - Naft vs Erbil","description":"Sourced from predicthq.com","category":"sports","start":"2024-05-12T13:00:00Z","geo":{"geometry":{"coordinates":[44.45326434752996,33.35324272486608],"type":"Point"},"placekey":"@68s-7vs-8sq","address":{"country_code":"IQ","formatted_address":"Bor Said Street, Baġdād (Bagdad), Iraq","locality":"Baġdād (Bagdad)"}},"labels":["soccer","sport"],"duration":0,"start_local":"2024-05-12T16:00:00","end":"2024-05-12T13:00:00Z","end_local":"2024-05-12T16:00:00","updated":"2024-06-12T14:42:14Z"},{"title":"Iraqi League - Al Zawra'a vs Naft Maysan","description":"Sourced from predicthq.com","category":"sports","start":"2024-05-09T19:30:00Z","geo":{"geometry":{"coordinates":[44.3682822,33.3444417],"type":"Point"},"placekey":"@68s-7xk-4y9","address":{"country_code":"IQ","formatted_address":"89V9+Q8F, Baghdad, Baghdad Governorate, Iraq","locality":"Baghdad","region":"Baghdad Governorate"}},"labels":["soccer","sport"],"duration":0,"start_local":"2024-05-09T22:30:00","end":"2024-05-09T19:30:00Z","end_local":"2024-05-09T22:30:00","updated":"2024-06-12T01:36:23Z"},{"title":"Iraqi League - Al Minaa Basra vs Naft","description":"Sourced from predicthq.com","category":"sports","start":"2024-05-09T17:15:00Z","geo":{"geometry":{"coordinates":[47.7775722,30.552329],"type":"Point"},"placekey":"@68q-m65-dgk","address":{"country_code":"IQ","formatted_address":"al-Baṣra (Basra), Iraq","locality":"al-Baṣra (Basra)"}},"labels":["soccer","sport"],"duration":0,"start_local":"2024-05-09T20:15:00","end":"2024-05-09T17:15:00Z","end_local":"2024-05-09T20:15:00","updated":"2024-06-12T10:47:59Z"},{"title":"Iraqi League - Karbala vs Duhok","description":"Sourced from predicthq.com","category":"sports","start":"2024-05-09T15:00:00Z","geo":{"geometry":{"coordinates":[44.01797890663147,32.58798510467791],"type":"Point"},"placekey":"@68s-886-td9","address":{"country_code":"IQ","formatted_address":"حي الحسين مقابل البناء الجاهز قرب، ملعب قديم، شارع حي الحسين، Karbala', Karbala Governorate, 56001, Iraq","postcode":"56001","locality":"Karbala'","region":"Karbala Governorate"}},"labels":["soccer","sport"],"duration":0,"start_local":"2024-05-09T18:00:00","end":"2024-05-09T15:00:00Z","end_local":"2024-05-09T18:00:00","updated":"2024-06-12T10:33:04Z"},{"title":"Iraqi League - Baghdad vs Zakho","description":"Sourced from predicthq.com","category":"sports","start":"2024-05-09T15:00:00Z","geo":{"geometry":{"coordinates":[44.45326434752996,33.35324272486608],"type":"Point"},"placekey":"@68s-7vs-8sq","address":{"country_code":"IQ","formatted_address":"Bor Said Street, Baġdād (Bagdad), Iraq","locality":"Baġdād (Bagdad)"}},"labels":["soccer","sport"],"duration":0,"start_local":"2024-05-09T18:00:00","end":"2024-05-09T15:00:00Z","end_local":"2024-05-09T18:00:00","updated":"2024-06-12T01:10:08Z"},{"title":"Iraqi League - Al Hudod vs Al Quwa Al Jawiya","description":"Sourced from predicthq.com","category":"sports","start":"2024-05-09T12:45:00Z","geo":{"geometry":{"coordinates":[44.364820719,33.316547613],"type":"Point"},"placekey":"@68s-7v9-d5f","address":{"country_code":"IQ","formatted_address":"Al Mansur Street, Al Karkh, Baġdād (Bagdad), Iraq","locality":"Baġdād (Bagdad)"}},"labels":["soccer","sport"],"duration":0,"start_local":"2024-05-09T15:45:00","end":"2024-05-09T12:45:00Z","end_local":"2024-05-09T15:45:00","updated":"2024-06-12T06:57:06Z"},{"title":"Iraqi League - Al Kahrabaa vs Al Shorta","description":"Sourced from predicthq.com","category":"sports","start":"2024-05-08T19:30:00Z","geo":{"geometry":{"coordinates":[44.3682822,33.3444417],"type":"Point"},"placekey":"@68s-7xk-4y9","address":{"country_code":"IQ","formatted_address":"89V9+Q8F, Baghdad, Baghdad Governorate, Iraq","locality":"Baghdad","region":"Baghdad Governorate"}},"labels":["soccer","sport"],"duration":0,"start_local":"2024-05-08T22:30:00","end":"2024-05-08T19:30:00Z","end_local":"2024-05-08T22:30:00","updated":"2024-06-12T13:59:25Z"},{"title":"Iraqi League - Al Najaf vs Al Talaba","description":"Sourced from predicthq.com","category":"sports","start":"2024-05-08T17:15:00Z","geo":{"geometry":{"coordinates":[44.32759702205658,32.012156217210276],"type":"Point"},"placekey":"@68x-cwc-f2k","address":{"country_code":"IQ","formatted_address":"3888+99P, Najaf, Najaf Governorate, Iraq","locality":"Najaf","region":"Najaf Governorate"}},"labels":["soccer","sport"],"duration":0,"start_local":"2024-05-08T20:15:00","end":"2024-05-08T17:15:00Z","end_local":"2024-05-08T20:15:00","updated":"2024-06-12T01:44:39Z"},{"title":"Iraqi League - Naft Al-Basra vs Naft Al-Wasat","description":"Sourced from predicthq.com","category":"sports","start":"2024-05-08T15:00:00Z","geo":{"geometry":{"coordinates":[47.7775722,30.552329],"type":"Point"},"placekey":"@68q-m65-dgk","address":{"country_code":"IQ","formatted_address":"al-Baṣra (Basra), Iraq","locality":"al-Baṣra (Basra)"}},"labels":["soccer","sport"],"duration":0,"start_local":"2024-05-08T18:00:00","end":"2024-05-08T15:00:00Z","end_local":"2024-05-08T18:00:00","updated":"2024-06-12T17:43:31Z"},{"title":"Iraqi League - Newroz vs Al-Qasim","description":"Sourced from predicthq.com","category":"sports","start":"2024-05-08T12:45:00Z","geo":{"geometry":{"coordinates":[45.428874492645264,35.54981727638134],"type":"Point"},"placekey":"@68v-ykk-4jv","address":{"country_code":"IQ","formatted_address":"as-Sulaimāniyya (Sulaymaniyah), Iraq","locality":"as-Sulaimāniyya (Sulaymaniyah)"}},"labels":["soccer","sport"],"duration":0,"start_local":"2024-05-08T15:45:00","end":"2024-05-08T12:45:00Z","end_local":"2024-05-08T15:45:00","updated":"2024-06-11T22:09:37Z"},{"title":"Iraqi League - Al Karkh vs Erbil","description":"Sourced from predicthq.com","category":"sports","start":"2024-05-08T12:45:00Z","geo":{"geometry":{"coordinates":[44.364820719,33.316547613],"type":"Point"},"placekey":"@68s-7v9-d5f","address":{"country_code":"IQ","formatted_address":"Al Mansur Street, Al Karkh, Baġdād (Bagdad), Iraq","locality":"Baġdād (Bagdad)"}},"labels":["soccer","sport"],"duration":0,"start_local":"2024-05-08T15:45:00","end":"2024-05-08T12:45:00Z","end_local":"2024-05-08T15:45:00","updated":"2024-06-12T13:04:27Z"},{"title":"L'impact des réseaux sociaux et des médias sur la langue kurde","description":"Sourced from predicthq.com - کاریگەری میدیایی دیجیتاڵی و تۆڕە کۆمەڵایەتییەکان لەسەر زمانی کوردی","category":"conferences","start":"2024-05-07T14:30:00Z","geo":{"geometry":{"coordinates":[43.99921579999999,36.1936643],"type":"Point"},"placekey":"@67b-ghf-c89","address":{"country_code":"IQ","formatted_address":"Erbil, Erbil Governorate, Iraq","locality":"Erbil","region":"Erbil Governorate"}},"labels":["community","conference"],"duration":5400,"start_local":"2024-05-07T17:30:00","end":"2024-05-07T16:00:00Z","end_local":"2024-05-07T19:00:00","updated":"2024-06-05T10:30:52Z"},{"title":"The International Conference of Pharmaceutical & Applied Medical Sciences","description":"Sourced from predicthq.com","category":"conferences","start":"2024-05-07T06:00:00Z","geo":{"geometry":{"coordinates":[44.027688,36.10446],"type":"Point"},"placekey":"@67c-3y9-8jv","address":{"country_code":"IQ","formatted_address":"Erbil, Kurdistan Region, Iraq","locality":"Erbil","region":"Kurdistan Region"}},"labels":["conference"],"duration":32400,"start_local":"2024-05-07T09:00:00","end":"2024-05-07T15:00:00Z","end_local":"2024-05-07T18:00:00","updated":"2024-06-05T02:58:30Z"},{"title":"International Conference on Computer Science and Software Engineering","description":"Sourced from predicthq.com","category":"conferences","start":"2024-05-07T06:00:00Z","geo":{"geometry":{"coordinates":[42.986957,36.861548],"type":"Point"},"placekey":"@67c-mfr-swk","address":{"country_code":"IQ","formatted_address":"Duhok, Duhok Governorate, Iraq","locality":"Duhok","region":"Duhok Governorate"}},"labels":["conference"],"duration":205200,"start_local":"2024-05-07T09:00:00","end":"2024-05-09T15:00:00Z","end_local":"2024-05-09T18:00:00","updated":"2024-06-04T22:33:22Z"},{"title":"Iraqi League - Al Quwa Al Jawiya vs Al Karkh","description":"Sourced from predicthq.com","category":"sports","start":"2024-05-05T17:15:00Z","geo":{"geometry":{"coordinates":[44.435470099999975,33.3249221],"type":"Point"},"placekey":"@68s-7vv-68v","address":{"country_code":"IQ","formatted_address":"Al Shaab Gymnasium, Baghdad, Iraq","locality":"Baghdad","region":"Baghdad Governorate"}},"labels":["soccer","sport"],"duration":0,"start_local":"2024-05-05T20:15:00","end":"2024-05-05T17:15:00Z","end_local":"2024-05-05T20:15:00","updated":"2024-06-12T02:09:39Z"},{"title":"Iraqi League - Duhok vs Al Hudod","description":"Sourced from predicthq.com","category":"sports","start":"2024-05-05T15:00:00Z","geo":{"geometry":{"coordinates":[42.99616992473602,36.851797062491514],"type":"Point"},"placekey":"@67c-mfv-ffz","address":{"country_code":"IQ","formatted_address":"Dohuk, Iraq","locality":"Dohuk"}},"labels":["soccer","sport"],"duration":0,"start_local":"2024-05-05T18:00:00","end":"2024-05-05T15:00:00Z","end_local":"2024-05-05T18:00:00","updated":"2024-06-12T02:17:38Z"},{"title":"Iraqi League - Erbil vs Al Minaa Basra","description":"Sourced from predicthq.com","category":"sports","start":"2024-05-05T15:00:00Z","geo":{"geometry":{"coordinates":[44.0114211,36.1726941],"type":"Point"},"placekey":"@67b-ghj-99f","address":{"country_code":"IQ","formatted_address":"Erbil, Erbil Governorate, 71926, Iraq","postcode":"71926","locality":"Erbil","region":"Erbil Governorate"}},"labels":["soccer","sport"],"duration":0,"start_local":"2024-05-05T18:00:00","end":"2024-05-05T15:00:00Z","end_local":"2024-05-05T18:00:00","updated":"2024-06-12T02:08:05Z"},{"title":"Iraqi League - Naft vs Naft Maysan","description":"Sourced from predicthq.com","category":"sports","start":"2024-05-05T12:45:00Z","geo":{"geometry":{"coordinates":[44.45326434752996,33.35324272486608],"type":"Point"},"placekey":"@68s-7vs-8sq","address":{"country_code":"IQ","formatted_address":"Bor Said Street, Baġdād (Bagdad), Iraq","locality":"Baġdād (Bagdad)"}},"labels":["soccer","sport"],"duration":0,"start_local":"2024-05-05T15:45:00","end":"2024-05-05T12:45:00Z","end_local":"2024-05-05T15:45:00","updated":"2024-06-12T04:37:43Z"},{"title":"Iraqi League - Al Talaba vs Baghdad","description":"Sourced from predicthq.com","category":"sports","start":"2024-05-05T12:45:00Z","geo":{"geometry":{"coordinates":[44.435470099999975,33.3249221],"type":"Point"},"placekey":"@68s-7vv-68v","address":{"country_code":"IQ","formatted_address":"Al Shaab Gymnasium, Baghdad, Iraq","locality":"Baghdad","region":"Baghdad Governorate"}},"labels":["soccer","sport"],"duration":0,"start_local":"2024-05-05T15:45:00","end":"2024-05-05T12:45:00Z","end_local":"2024-05-05T15:45:00","updated":"2024-06-12T10:08:58Z"},{"title":"The National University of Science and Technology International Conference for Engineering Sciences","description":"Sourced from predicthq.com","category":"conferences","start":"2024-05-05T06:00:00Z","geo":{"geometry":{"coordinates":[46.220391,31.050623],"type":"Point"},"placekey":"@68h-cp9-xqz","address":{"country_code":"IQ","formatted_address":"Nasiriyah, Dhi Qar Governorate, Iraq","locality":"Nasiriyah","region":"Dhi Qar Governorate"}},"labels":["conference"],"duration":118800,"start_local":"2024-05-05T09:00:00","end":"2024-05-06T15:00:00Z","end_local":"2024-05-06T18:00:00","updated":"2024-06-05T09:16:11Z"},{"title":"Iraqi League - Al Kahrabaa vs Al Najaf","description":"Sourced from predicthq.com","category":"sports","start":"2024-05-04T19:15:00Z","geo":{"geometry":{"coordinates":[44.3682822,33.3444417],"type":"Point"},"placekey":"@68s-7xk-4y9","address":{"country_code":"IQ","formatted_address":"89V9+Q8F, Baghdad, Baghdad Governorate, Iraq","locality":"Baghdad","region":"Baghdad Governorate"}},"labels":["soccer","sport"],"duration":0,"start_local":"2024-05-04T22:15:00","end":"2024-05-04T19:15:00Z","end_local":"2024-05-04T22:15:00","updated":"2024-06-11T21:18:23Z"},{"title":"Iraqi League - Naft Al-Wasat vs Karbala","description":"Sourced from predicthq.com","category":"sports","start":"2024-05-04T17:15:00Z","geo":{"geometry":{"coordinates":[44.32759702205658,32.012156217210276],"type":"Point"},"placekey":"@68x-cwc-f2k","address":{"country_code":"IQ","formatted_address":"3888+99P, Najaf, Najaf Governorate, Iraq","locality":"Najaf","region":"Najaf Governorate"}},"labels":["soccer","sport"],"duration":0,"start_local":"2024-05-04T20:15:00","end":"2024-05-04T17:15:00Z","end_local":"2024-05-04T20:15:00","updated":"2024-06-11T21:35:28Z"},{"title":"Iraqi League - Zakho vs Naft Al-Basra","description":"Sourced from predicthq.com","category":"sports","start":"2024-05-04T15:00:00Z","geo":{"geometry":{"coordinates":[42.67247557640076,37.14589931660037],"type":"Point"},"placekey":"@67c-hp5-hwk","address":{"country_code":"IQ","formatted_address":"Zakho, Duhok Governorate, 42002, Iraq","postcode":"42002","locality":"Zakho","region":"Duhok Governorate"}},"labels":["soccer","sport"],"duration":0,"start_local":"2024-05-04T18:00:00","end":"2024-05-04T15:00:00Z","end_local":"2024-05-04T18:00:00","updated":"2024-06-12T01:06:59Z"},{"title":"Iraqi League - Al-Qasim vs Al Zawra'a","description":"Sourced from predicthq.com","category":"sports","start":"2024-05-04T12:45:00Z","geo":{"geometry":{"coordinates":[44.01797890663147,32.58798510467791],"type":"Point"},"placekey":"@68s-886-td9","address":{"country_code":"IQ","formatted_address":"حي الحسين مقابل البناء الجاهز قرب، ملعب قديم، شارع حي الحسين، Karbala', Karbala Governorate, 56001, Iraq","postcode":"56001","locality":"Karbala'","region":"Karbala Governorate"}},"labels":["soccer","sport"],"duration":0,"start_local":"2024-05-04T15:45:00","end":"2024-05-04T12:45:00Z","end_local":"2024-05-04T15:45:00","updated":"2024-06-12T02:25:55Z"},{"title":"Iraqi League - Al Shorta vs Newroz","description":"Sourced from predicthq.com","category":"sports","start":"2024-05-04T12:30:00Z","geo":{"geometry":{"coordinates":[44.435470099999975,33.3249221],"type":"Point"},"placekey":"@68s-7vv-68v","address":{"country_code":"IQ","formatted_address":"Al Shaab Gymnasium, Baghdad, Iraq","locality":"Baghdad","region":"Baghdad Governorate"}},"labels":["soccer","sport"],"duration":0,"start_local":"2024-05-04T15:30:00","end":"2024-05-04T12:30:00Z","end_local":"2024-05-04T15:30:00","updated":"2024-06-12T00:56:32Z"},{"title":"Iraqi League - Baghdad vs Duhok","description":"Sourced from predicthq.com","category":"sports","start":"2024-05-01T19:30:00Z","geo":{"geometry":{"coordinates":[44.45326434752996,33.35324272486608],"type":"Point"},"placekey":"@68s-7vs-8sq","address":{"country_code":"IQ","formatted_address":"Bor Said Street, Baġdād (Bagdad), Iraq","locality":"Baġdād (Bagdad)"}},"labels":["soccer","sport"],"duration":0,"start_local":"2024-05-01T22:30:00","end":"2024-05-01T19:30:00Z","end_local":"2024-05-01T22:30:00","updated":"2024-06-12T06:11:41Z"},{"title":"Iraqi League - Al Zawra'a vs Erbil","description":"Sourced from predicthq.com","category":"sports","start":"2024-05-01T15:00:00Z","geo":{"geometry":{"coordinates":[44.3682822,33.3444417],"type":"Point"},"placekey":"@68s-7xk-4y9","address":{"country_code":"IQ","formatted_address":"89V9+Q8F, Baghdad, Baghdad Governorate, Iraq","locality":"Baghdad","region":"Baghdad Governorate"}},"labels":["soccer","sport"],"duration":0,"start_local":"2024-05-01T18:00:00","end":"2024-05-01T15:00:00Z","end_local":"2024-05-01T18:00:00","updated":"2024-06-12T08:49:02Z"},{"title":"Iraqi League - Newroz vs Naft Al-Basra","description":"Sourced from predicthq.com","category":"sports","start":"2024-05-01T12:30:00Z","geo":{"geometry":{"coordinates":[45.428874492645264,35.54981727638134],"type":"Point"},"placekey":"@68v-ykk-4jv","address":{"country_code":"IQ","formatted_address":"as-Sulaimāniyya (Sulaymaniyah), Iraq","locality":"as-Sulaimāniyya (Sulaymaniyah)"}},"labels":["soccer","sport"],"duration":0,"start_local":"2024-05-01T15:30:00","end":"2024-05-01T12:30:00Z","end_local":"2024-05-01T15:30:00","updated":"2024-06-12T00:57:37Z"},{"title":"Iraqi League - Al Hudod vs Naft Al-Wasat","description":"Sourced from predicthq.com","category":"sports","start":"2024-05-01T12:30:00Z","geo":{"geometry":{"coordinates":[44.364820719,33.316547613],"type":"Point"},"placekey":"@68s-7v9-d5f","address":{"country_code":"IQ","formatted_address":"Al Mansur Street, Al Karkh, Baġdād (Bagdad), Iraq","locality":"Baġdād (Bagdad)"}},"labels":["soccer","sport"],"duration":0,"start_local":"2024-05-01T15:30:00","end":"2024-05-01T12:30:00Z","end_local":"2024-05-01T15:30:00","updated":"2024-06-12T18:37:38Z"},{"title":"Iraqi League - Al Najaf vs Al Karkh","description":"Sourced from predicthq.com","category":"sports","start":"2024-04-30T19:30:00Z","geo":{"geometry":{"coordinates":[44.32759702205658,32.012156217210276],"type":"Point"},"placekey":"@68x-cwc-f2k","address":{"country_code":"IQ","formatted_address":"3888+99P, Najaf, Najaf Governorate, Iraq","locality":"Najaf","region":"Najaf Governorate"}},"labels":["soccer","sport"],"duration":0,"start_local":"2024-04-30T22:30:00","end":"2024-04-30T19:30:00Z","end_local":"2024-04-30T22:30:00","updated":"2024-06-12T06:42:25Z"},{"title":"Iraqi League - Al Shorta vs Al Quwa Al Jawiya","description":"Sourced from predicthq.com","category":"sports","start":"2024-04-30T17:15:00Z","geo":{"geometry":{"coordinates":[44.435470099999975,33.3249221],"type":"Point"},"placekey":"@68s-7vv-68v","address":{"country_code":"IQ","formatted_address":"Al Shaab Gymnasium, Baghdad, Iraq","locality":"Baghdad","region":"Baghdad Governorate"}},"labels":["soccer","sport"],"duration":0,"start_local":"2024-04-30T20:15:00","end":"2024-04-30T17:15:00Z","end_local":"2024-04-30T20:15:00","updated":"2024-06-12T15:03:28Z"},{"title":"Iraqi League - Zakho vs Al Minaa Basra","description":"Sourced from predicthq.com","category":"sports","start":"2024-04-30T15:00:00Z","geo":{"geometry":{"coordinates":[42.67247557640076,37.14589931660037],"type":"Point"},"placekey":"@67c-hp5-hwk","address":{"country_code":"IQ","formatted_address":"Zakho, Duhok Governorate, 42002, Iraq","postcode":"42002","locality":"Zakho","region":"Duhok Governorate"}},"labels":["soccer","sport"],"duration":0,"start_local":"2024-04-30T18:00:00","end":"2024-04-30T15:00:00Z","end_local":"2024-04-30T18:00:00","updated":"2024-06-12T16:27:39Z"},{"title":"Iraqi League - Naft Maysan vs Al-Qasim","description":"Sourced from predicthq.com","category":"sports","start":"2024-04-30T15:00:00Z","geo":{"geometry":{"coordinates":[47.1274346,31.835525],"type":"Point"},"placekey":"@68f-pxc-4gk","address":{"country_code":"IQ","formatted_address":"R4PG+6X7, Amarah, Maysan Governorate, Iraq","locality":"Amarah","region":"Maysan Governorate"}},"labels":["soccer","sport"],"duration":0,"start_local":"2024-04-30T18:00:00","end":"2024-04-30T15:00:00Z","end_local":"2024-04-30T18:00:00","updated":"2024-06-12T09:20:52Z"},{"title":"Iraqi League - Karbala vs Al Kahrabaa","description":"Sourced from predicthq.com","category":"sports","start":"2024-04-30T12:30:00Z","geo":{"geometry":{"coordinates":[44.01797890663147,32.58798510467791],"type":"Point"},"placekey":"@68s-886-td9","address":{"country_code":"IQ","formatted_address":"حي الحسين مقابل البناء الجاهز قرب، ملعب قديم، شارع حي الحسين، Karbala', Karbala Governorate, 56001, Iraq","postcode":"56001","locality":"Karbala'","region":"Karbala Governorate"}},"labels":["soccer","sport"],"duration":0,"start_local":"2024-04-30T15:30:00","end":"2024-04-30T12:30:00Z","end_local":"2024-04-30T15:30:00","updated":"2024-06-12T04:39:49Z"},{"title":"Baghdad Building and Construction International Exhibition","description":"Sourced from predicthq.com","category":"expos","start":"2024-04-29T06:00:00Z","geo":{"geometry":{"coordinates":[44.364885,33.314524],"type":"Point"},"placekey":"@68s-7v9-975","address":{"country_code":"IQ","formatted_address":"8977+HRH، بغداد،، بغداد،، Baghdad, Iraq","locality":"Baghdad","region":"Baghdad Governorate"}},"labels":["expo"],"duration":291600,"start_local":"2024-04-29T09:00:00","end":"2024-05-02T15:00:00Z","end_local":"2024-05-02T18:00:00","updated":"2024-06-05T00:44:30Z"},{"title":"Iraqi League - Baghdad vs Al Hudod","description":"Sourced from predicthq.com","category":"sports","start":"2024-04-27T17:15:00Z","geo":{"geometry":{"coordinates":[44.45326434752996,33.35324272486608],"type":"Point"},"placekey":"@68s-7vs-8sq","address":{"country_code":"IQ","formatted_address":"Bor Said Street, Baġdād (Bagdad), Iraq","locality":"Baġdād (Bagdad)"}},"labels":["soccer","sport"],"duration":0,"start_local":"2024-04-27T20:15:00","end":"2024-04-27T17:15:00Z","end_local":"2024-04-27T20:15:00","updated":"2024-06-12T17:29:57Z"},{"title":"Iraqi League - Naft Al-Basra vs Al Najaf","description":"Sourced from predicthq.com","category":"sports","start":"2024-04-27T15:00:00Z","geo":{"geometry":{"coordinates":[47.7775722,30.552329],"type":"Point"},"placekey":"@68q-m65-dgk","address":{"country_code":"IQ","formatted_address":"al-Baṣra (Basra), Iraq","locality":"al-Baṣra (Basra)"}},"labels":["soccer","sport"],"duration":0,"start_local":"2024-04-27T18:00:00","end":"2024-04-27T15:00:00Z","end_local":"2024-04-27T18:00:00","updated":"2024-06-12T17:32:26Z"},{"title":"Iraqi League - Naft Al-Wasat vs Naft Maysan","description":"Sourced from predicthq.com","category":"sports","start":"2024-04-26T15:00:00Z","geo":{"geometry":{"coordinates":[44.32759702205658,32.012156217210276],"type":"Point"},"placekey":"@68x-cwc-f2k","address":{"country_code":"IQ","formatted_address":"3888+99P, Najaf, Najaf Governorate, Iraq","locality":"Najaf","region":"Najaf Governorate"}},"labels":["soccer","sport"],"duration":0,"start_local":"2024-04-26T18:00:00","end":"2024-04-26T15:00:00Z","end_local":"2024-04-26T18:00:00","updated":"2024-06-11T21:44:21Z"},{"title":"Iraqi League - Al Karkh vs Al Zawra'a","description":"Sourced from predicthq.com","category":"sports","start":"2024-04-26T12:45:00Z","geo":{"geometry":{"coordinates":[44.364820719,33.316547613],"type":"Point"},"placekey":"@68s-7v9-d5f","address":{"country_code":"IQ","formatted_address":"Al Mansur Street, Al Karkh, Baġdād (Bagdad), Iraq","locality":"Baġdād (Bagdad)"}},"labels":["soccer","sport"],"duration":0,"start_local":"2024-04-26T15:45:00","end":"2024-04-26T12:45:00Z","end_local":"2024-04-26T15:45:00","updated":"2024-06-12T00:31:23Z"},{"title":"Iraqi League - Al-Qasim vs Duhok","description":"Sourced from predicthq.com","category":"sports","start":"2024-04-26T12:45:00Z","geo":{"geometry":{"coordinates":[45.835028126,32.50244361],"type":"Point"},"placekey":"@68g-r7k-5zz","address":{"country_code":"IQ","formatted_address":"Al Kut, Iraq","locality":"Al Kut"}},"labels":["soccer","sport"],"duration":0,"start_local":"2024-04-26T15:45:00","end":"2024-04-26T12:45:00Z","end_local":"2024-04-26T15:45:00","updated":"2024-06-12T05:39:44Z"},{"title":"Iraqi League - Naft vs Al Shorta","description":"Sourced from predicthq.com","category":"sports","start":"2024-04-25T17:15:00Z","geo":{"geometry":{"coordinates":[44.45326434752996,33.35324272486608],"type":"Point"},"placekey":"@68s-7vs-8sq","address":{"country_code":"IQ","formatted_address":"Bor Said Street, Baġdād (Bagdad), Iraq","locality":"Baġdād (Bagdad)"}},"labels":["soccer","sport"],"duration":0,"start_local":"2024-04-25T20:15:00","end":"2024-04-25T17:15:00Z","end_local":"2024-04-25T20:15:00","updated":"2024-06-12T02:55:51Z"},{"title":"Iraqi League - Al Quwa Al Jawiya vs Karbala","description":"Sourced from predicthq.com","category":"sports","start":"2024-04-25T15:00:00Z","geo":{"geometry":{"coordinates":[44.435470099999975,33.3249221],"type":"Point"},"placekey":"@68s-7vv-68v","address":{"country_code":"IQ","formatted_address":"Al Shaab Gymnasium, Baghdad, Iraq","locality":"Baghdad","region":"Baghdad Governorate"}},"labels":["soccer","sport"],"duration":0,"start_local":"2024-04-25T18:00:00","end":"2024-04-25T15:00:00Z","end_local":"2024-04-25T18:00:00","updated":"2024-06-11T21:22:35Z"},{"title":"Iraqi League - Al Minaa Basra vs Newroz","description":"Sourced from predicthq.com","category":"sports","start":"2024-04-25T15:00:00Z","geo":{"geometry":{"coordinates":[47.7775722,30.552329],"type":"Point"},"placekey":"@68q-m65-dgk","address":{"country_code":"IQ","formatted_address":"al-Baṣra (Basra), Iraq","locality":"al-Baṣra (Basra)"}},"labels":["soccer","sport"],"duration":0,"start_local":"2024-04-25T18:00:00","end":"2024-04-25T15:00:00Z","end_local":"2024-04-25T18:00:00","updated":"2024-06-12T17:33:44Z"},{"title":"Iraqi League - Al Kahrabaa vs Zakho","description":"Sourced from predicthq.com","category":"sports","start":"2024-04-25T12:45:00Z","geo":{"geometry":{"coordinates":[44.3682822,33.3444417],"type":"Point"},"placekey":"@68s-7xk-4y9","address":{"country_code":"IQ","formatted_address":"89V9+Q8F, Baghdad, Baghdad Governorate, Iraq","locality":"Baghdad","region":"Baghdad Governorate"}},"labels":["soccer","sport"],"duration":0,"start_local":"2024-04-25T15:45:00","end":"2024-04-25T12:45:00Z","end_local":"2024-04-25T15:45:00","updated":"2024-06-12T08:36:21Z"},{"title":"International Conference on Civil and Environmental Engineering Technologies","description":"Sourced from predicthq.com","category":"conferences","start":"2024-04-24T06:00:00Z","geo":{"geometry":{"coordinates":[44.375118,32.020569],"type":"Point"},"placekey":"@68x-cwq-rtv","address":{"country_code":"IQ","formatted_address":"Kufa, Najaf Governorate, Iraq","locality":"Kufa","region":"Najaf Governorate"}},"labels":["conference"],"duration":118800,"start_local":"2024-04-24T09:00:00","end":"2024-04-25T15:00:00Z","end_local":"2024-04-25T18:00:00","updated":"2024-05-28T01:12:11Z"},{"title":"Iraqi League - Al Zawra'a vs Naft Al-Basra","description":"Sourced from predicthq.com","category":"sports","start":"2024-04-23T18:15:00Z","geo":{"geometry":{"coordinates":[44.3682822,33.3444417],"type":"Point"},"placekey":"@68s-7xk-4y9","address":{"country_code":"IQ","formatted_address":"89V9+Q8F, Baghdad, Baghdad Governorate, Iraq","locality":"Baghdad","region":"Baghdad Governorate"}},"labels":["soccer","sport"],"duration":0,"start_local":"2024-04-23T21:15:00","end":"2024-04-23T18:15:00Z","end_local":"2024-04-23T21:15:00","updated":"2024-06-11T22:54:28Z"},{"title":"Iraqi League - Al Najaf vs Baghdad","description":"Sourced from predicthq.com","category":"sports","start":"2024-04-23T17:30:00Z","geo":{"geometry":{"coordinates":[44.32759702205658,32.012156217210276],"type":"Point"},"placekey":"@68x-cwc-f2k","address":{"country_code":"IQ","formatted_address":"3888+99P, Najaf, Najaf Governorate, Iraq","locality":"Najaf","region":"Najaf Governorate"}},"labels":["soccer","sport"],"duration":0,"start_local":"2024-04-23T20:30:00","end":"2024-04-23T17:30:00Z","end_local":"2024-04-23T20:30:00","updated":"2024-06-12T07:46:06Z"},{"title":"Iraqi League - Al Karkh vs Al-Qasim","description":"Sourced from predicthq.com","category":"sports","start":"2024-04-23T12:45:00Z","geo":{"geometry":{"coordinates":[44.364820719,33.316547613],"type":"Point"},"placekey":"@68s-7v9-d5f","address":{"country_code":"IQ","formatted_address":"Al Mansur Street, Al Karkh, Baġdād (Bagdad), Iraq","locality":"Baġdād (Bagdad)"}},"labels":["soccer","sport"],"duration":0,"start_local":"2024-04-23T15:45:00","end":"2024-04-23T12:45:00Z","end_local":"2024-04-23T15:45:00","updated":"2024-06-12T13:30:45Z"},{"title":"Iraqi League - Duhok vs Naft Al-Wasat","description":"Sourced from predicthq.com","category":"sports","start":"2024-04-22T15:15:00Z","geo":{"geometry":{"coordinates":[42.99616992473602,36.851797062491514],"type":"Point"},"placekey":"@67c-mfv-ffz","address":{"country_code":"IQ","formatted_address":"Dohuk, Iraq","locality":"Dohuk"}},"labels":["soccer","sport"],"duration":0,"start_local":"2024-04-22T18:15:00","end":"2024-04-22T15:15:00Z","end_local":"2024-04-22T18:15:00","updated":"2024-06-12T05:31:36Z"},{"title":"Iraqi League - Al Hudod vs Naft","description":"Sourced from predicthq.com","category":"sports","start":"2024-04-22T12:45:00Z","geo":{"geometry":{"coordinates":[44.364820719,33.316547613],"type":"Point"},"placekey":"@68s-7v9-d5f","address":{"country_code":"IQ","formatted_address":"Al Mansur Street, Al Karkh, Baġdād (Bagdad), Iraq","locality":"Baġdād (Bagdad)"}},"labels":["soccer","sport"],"duration":0,"start_local":"2024-04-22T15:45:00","end":"2024-04-22T12:45:00Z","end_local":"2024-04-22T15:45:00","updated":"2024-06-11T21:29:16Z"},{"title":"International Conference on Physics and Applied Mathematic Science","description":"Sourced from predicthq.com","category":"conferences","start":"2024-04-22T06:00:00Z","geo":{"geometry":{"coordinates":[44.403334,33.366783],"type":"Point"},"placekey":"@68s-7xm-2rk","address":{"country_code":"IQ","formatted_address":"Baghdad, Baghdad Governorate, Iraq","locality":"Baghdad","region":"Baghdad Governorate"}},"labels":["conference"],"duration":118800,"start_local":"2024-04-22T09:00:00","end":"2024-04-23T15:00:00Z","end_local":"2024-04-23T18:00:00","updated":"2024-06-05T05:14:07Z"},{"title":"Iraqi League - Erbil vs Al Shorta","description":"Sourced from predicthq.com","category":"sports","start":"2024-04-21T17:30:00Z","geo":{"geometry":{"coordinates":[44.0114211,36.1726941],"type":"Point"},"placekey":"@67b-ghj-99f","address":{"country_code":"IQ","formatted_address":"Erbil, Erbil Governorate, 71926, Iraq","postcode":"71926","locality":"Erbil","region":"Erbil Governorate"}},"labels":["soccer","sport"],"duration":0,"start_local":"2024-04-21T20:30:00","end":"2024-04-21T17:30:00Z","end_local":"2024-04-21T20:30:00","updated":"2024-06-12T01:10:49Z"},{"title":"Iraqi League - Naft Maysan vs Al Kahrabaa","description":"Sourced from predicthq.com","category":"sports","start":"2024-04-21T15:15:00Z","geo":{"geometry":{"coordinates":[47.1274346,31.835525],"type":"Point"},"placekey":"@68f-pxc-4gk","address":{"country_code":"IQ","formatted_address":"R4PG+6X7, Amarah, Maysan Governorate, Iraq","locality":"Amarah","region":"Maysan Governorate"}},"labels":["soccer","sport"],"duration":0,"start_local":"2024-04-21T18:15:00","end":"2024-04-21T15:15:00Z","end_local":"2024-04-21T18:15:00","updated":"2024-06-12T08:05:37Z"},{"title":"Iraqi League - Al Minaa Basra vs Karbala","description":"Sourced from predicthq.com","category":"sports","start":"2024-04-21T12:45:00Z","geo":{"geometry":{"coordinates":[47.7775722,30.552329],"type":"Point"},"placekey":"@68q-m65-dgk","address":{"country_code":"IQ","formatted_address":"al-Baṣra (Basra), Iraq","locality":"al-Baṣra (Basra)"}},"labels":["soccer","sport"],"duration":0,"start_local":"2024-04-21T15:45:00","end":"2024-04-21T12:45:00Z","end_local":"2024-04-21T15:45:00","updated":"2024-06-12T04:15:12Z"},{"title":"International Defence Exhibition in Iraq","description":"Sourced from predicthq.com - The International Defence Exhibition in Iraq is a prestigious expo event that showcases cutting-edge military technologies, equipment, and services. It serves as an ideal platform for industry professionals, government officials, and international defense companies to network, collaborate, and explore the latest advancements in the field of defense.","category":"expos","start":"2024-04-19T21:00:00Z","geo":{"geometry":{"coordinates":[44.364885,33.314524],"type":"Point"},"placekey":"@68s-7v9-975","address":{"country_code":"IQ","formatted_address":"8977+HRH، بغداد،، بغداد،، Baghdad, Iraq","locality":"Baghdad","region":"Baghdad Governorate"}},"labels":["expo"],"duration":345599,"start_local":"2024-04-20T00:00:00","end":"2024-04-23T20:59:59Z","end_local":"2024-04-23T23:59:59","updated":"2024-06-05T03:32:42Z"},{"title":"International Conference on Geotechnical Engineering-Iraq and Warith International Conference for Engineering Sciences","description":"Sourced from predicthq.com","category":"conferences","start":"2024-04-16T21:00:00Z","geo":{"geometry":{"coordinates":[44.074689,32.67524],"type":"Point"},"placekey":"@68s-8dt-3qz","address":{"country_code":"IQ","formatted_address":"منطقة عون (ع), كربلاء محافظة, Iraq","locality":"منطقة عون (ع)","region":"كربلاء محافظة"}},"labels":["conference"],"duration":172799,"start_local":"2024-04-17T00:00:00","end":"2024-04-18T20:59:59Z","end_local":"2024-04-18T23:59:59","updated":"2024-06-05T02:24:19Z"},{"title":"Iraqi League - Al Quwa Al Jawiya vs Naft Maysan","description":"Sourced from predicthq.com","category":"sports","start":"2024-04-15T19:00:00Z","geo":{"geometry":{"coordinates":[44.435470099999975,33.3249221],"type":"Point"},"placekey":"@68s-7vv-68v","address":{"country_code":"IQ","formatted_address":"Al Shaab Gymnasium, Baghdad, Iraq","locality":"Baghdad","region":"Baghdad Governorate"}},"labels":["soccer","sport"],"duration":0,"start_local":"2024-04-15T22:00:00","end":"2024-04-15T19:00:00Z","end_local":"2024-04-15T22:00:00","updated":"2024-06-11T22:02:59Z"},{"title":"Iraqi League - Naft Al-Basra vs Al Hudod","description":"Sourced from predicthq.com","category":"sports","start":"2024-04-15T16:30:00Z","geo":{"geometry":{"coordinates":[47.7775722,30.552329],"type":"Point"},"placekey":"@68q-m65-dgk","address":{"country_code":"IQ","formatted_address":"al-Baṣra (Basra), Iraq","locality":"al-Baṣra (Basra)"}},"labels":["soccer","sport"],"duration":0,"start_local":"2024-04-15T19:30:00","end":"2024-04-15T16:30:00Z","end_local":"2024-04-15T19:30:00","updated":"2024-06-12T08:32:08Z"},{"title":"Iraqi League - Duhok vs Al Karkh","description":"Sourced from predicthq.com","category":"sports","start":"2024-04-15T14:30:00Z","geo":{"geometry":{"coordinates":[42.99616992473602,36.851797062491514],"type":"Point"},"placekey":"@67c-mfv-ffz","address":{"country_code":"IQ","formatted_address":"Dohuk, Iraq","locality":"Dohuk"}},"labels":["soccer","sport"],"duration":0,"start_local":"2024-04-15T17:30:00","end":"2024-04-15T14:30:00Z","end_local":"2024-04-15T17:30:00","updated":"2024-06-12T14:29:07Z"},{"title":"Iraqi League - Naft vs Naft Al-Wasat","description":"Sourced from predicthq.com","category":"sports","start":"2024-04-15T12:00:00Z","geo":{"geometry":{"coordinates":[44.45326434752996,33.35324272486608],"type":"Point"},"placekey":"@68s-7vs-8sq","address":{"country_code":"IQ","formatted_address":"Bor Said Street, Baġdād (Bagdad), Iraq","locality":"Baġdād (Bagdad)"}},"labels":["soccer","sport"],"duration":0,"start_local":"2024-04-15T15:00:00","end":"2024-04-15T12:00:00Z","end_local":"2024-04-15T15:00:00","updated":"2024-06-12T12:09:16Z"},{"title":"Iraqi League - Al-Qasim vs Al Najaf","description":"Sourced from predicthq.com","category":"sports","start":"2024-04-15T12:00:00Z","geo":{"geometry":{"coordinates":[44.01797890663147,32.58798510467791],"type":"Point"},"placekey":"@68s-886-td9","address":{"country_code":"IQ","formatted_address":"حي الحسين مقابل البناء الجاهز قرب، ملعب قديم، شارع حي الحسين، Karbala', Karbala Governorate, 56001, Iraq","postcode":"56001","locality":"Karbala'","region":"Karbala Governorate"}},"labels":["soccer","sport"],"duration":0,"start_local":"2024-04-15T15:00:00","end":"2024-04-15T12:00:00Z","end_local":"2024-04-15T15:00:00","updated":"2024-06-12T00:33:29Z"},{"title":"Iraqi League - Baghdad vs Al Zawra'a","description":"Sourced from predicthq.com","category":"sports","start":"2024-04-14T17:00:00Z","geo":{"geometry":{"coordinates":[44.45326434752996,33.35324272486608],"type":"Point"},"placekey":"@68s-7vs-8sq","address":{"country_code":"IQ","formatted_address":"Bor Said Street, Baġdād (Bagdad), Iraq","locality":"Baġdād (Bagdad)"}},"labels":["soccer","sport"],"duration":0,"start_local":"2024-04-14T20:00:00","end":"2024-04-14T17:00:00Z","end_local":"2024-04-14T20:00:00","updated":"2024-06-12T02:37:25Z"},{"title":"Iraqi League - Al Shorta vs Al Minaa Basra","description":"Sourced from predicthq.com","category":"sports","start":"2024-04-14T14:30:00Z","geo":{"geometry":{"coordinates":[44.435470099999975,33.3249221],"type":"Point"},"placekey":"@68s-7vv-68v","address":{"country_code":"IQ","formatted_address":"Al Shaab Gymnasium, Baghdad, Iraq","locality":"Baghdad","region":"Baghdad Governorate"}},"labels":["soccer","sport"],"duration":0,"start_local":"2024-04-14T17:30:00","end":"2024-04-14T14:30:00Z","end_local":"2024-04-14T17:30:00","updated":"2024-06-12T05:26:35Z"},{"title":"Iraqi League - Newroz vs Zakho","description":"Sourced from predicthq.com","category":"sports","start":"2024-04-14T12:00:00Z","geo":{"geometry":{"coordinates":[45.428874492645264,35.54981727638134],"type":"Point"},"placekey":"@68v-ykk-4jv","address":{"country_code":"IQ","formatted_address":"as-Sulaimāniyya (Sulaymaniyah), Iraq","locality":"as-Sulaimāniyya (Sulaymaniyah)"}},"labels":["soccer","sport"],"duration":0,"start_local":"2024-04-14T15:00:00","end":"2024-04-14T12:00:00Z","end_local":"2024-04-14T15:00:00","updated":"2024-06-12T09:57:42Z"},{"title":"Iraqi League - Erbil vs Al-Qasim","description":"Sourced from predicthq.com","category":"sports","start":"2024-04-06T18:30:00Z","geo":{"geometry":{"coordinates":[44.45326434752996,33.35324272486608],"type":"Point"},"placekey":"@68s-7vs-8sq","address":{"country_code":"IQ","formatted_address":"Bor Said Street, Baġdād (Bagdad), Iraq","locality":"Baġdād (Bagdad)"}},"labels":["soccer","sport"],"duration":0,"start_local":"2024-04-06T21:30:00","end":"2024-04-06T18:30:00Z","end_local":"2024-04-06T21:30:00","updated":"2024-06-12T11:35:55Z"},{"title":"Iraqi League - Al Minaa Basra vs Al Karkh","description":"Sourced from predicthq.com","category":"sports","start":"2024-04-06T18:30:00Z","geo":{"geometry":{"coordinates":[47.7775722,30.552329],"type":"Point"},"placekey":"@68q-m65-dgk","address":{"country_code":"IQ","formatted_address":"al-Baṣra (Basra), Iraq","locality":"al-Baṣra (Basra)"}},"labels":["soccer","sport"],"duration":0,"start_local":"2024-04-06T21:30:00","end":"2024-04-06T18:30:00Z","end_local":"2024-04-06T21:30:00","updated":"2024-06-12T08:55:56Z"},{"title":"Iraqi League - Zakho vs Duhok","description":"Sourced from predicthq.com","category":"sports","start":"2024-04-06T18:30:00Z","geo":{"geometry":{"coordinates":[42.67247557640076,37.14589931660037],"type":"Point"},"placekey":"@67c-hp5-hwk","address":{"country_code":"IQ","formatted_address":"Zakho, Duhok Governorate, 42002, Iraq","postcode":"42002","locality":"Zakho","region":"Duhok Governorate"}},"labels":["soccer","sport"],"duration":0,"start_local":"2024-04-06T21:30:00","end":"2024-04-06T18:30:00Z","end_local":"2024-04-06T21:30:00","updated":"2024-06-12T13:24:17Z"},{"title":"Iraqi League - Al Hudod vs Karbala","description":"Sourced from predicthq.com","category":"sports","start":"2024-04-06T12:00:00Z","geo":{"geometry":{"coordinates":[44.364820719,33.316547613],"type":"Point"},"placekey":"@68s-7v9-d5f","address":{"country_code":"IQ","formatted_address":"Al Mansur Street, Al Karkh, Baġdād (Bagdad), Iraq","locality":"Baġdād (Bagdad)"}},"labels":["soccer","sport"],"duration":0,"start_local":"2024-04-06T15:00:00","end":"2024-04-06T12:00:00Z","end_local":"2024-04-06T15:00:00","updated":"2024-06-11T23:54:25Z"}]