[{"title":"ISBD Annual Conference","description":"Sourced from predicthq.com","category":"conferences","start":"2024-09-29T09:00:00Z","geo":{"geometry":{"coordinates":[-21.9322804,64.1502464],"type":"Point"},"placekey":"@avv-vvv-9zz","address":{"country_code":"IS","formatted_address":"Austurbakki 2, 101 Reykjavík, Iceland","postcode":"101","locality":"Reykjavík"}},"labels":["conference"],"duration":205200,"start_local":"2024-09-29T09:00:00","end":"2024-10-01T18:00:00Z","end_local":"2024-10-01T18:00:00","updated":"2024-05-31T23:03:46Z"},{"title":"British Indian Comedy Special - Reykjavík - Stand up Comedy in English","description":"Sourced from predicthq.com - Exciting Standup comedy show in  Reykjavík featuring hilarious comedians from BBC Podcast & Edinburgh Fringe Festival!","category":"performing-arts","start":"2024-09-21T20:00:00Z","geo":{"geometry":{"coordinates":[-21.9402967,64.14856499999999],"type":"Point"},"placekey":"@avv-vw2-cwk","address":{"country_code":"IS","formatted_address":"Naustin, 101 Reykjavík, Iceland","locality":"Reykjavík","postcode":"101","region":"Reykjavíkurborg"}},"labels":["concert","music","performing-arts"],"duration":7200,"start_local":"2024-09-21T20:00:00","end":"2024-09-21T22:00:00Z","end_local":"2024-09-21T22:00:00","updated":"2024-06-04T01:06:33Z"},{"title":"British Indian Comedy Special - Reykjavík - Stand up Comedy in English","description":"Sourced from predicthq.com - Exciting Standup comedy show in  Reykjavík featuring hilarious comedians from BBC Podcast & Edinburgh Fringe Festival!","category":"performing-arts","start":"2024-09-20T20:00:00Z","geo":{"geometry":{"coordinates":[-21.9402967,64.14856499999999],"type":"Point"},"placekey":"@avv-vw2-cwk","address":{"country_code":"IS","formatted_address":"Naustin, 101 Reykjavík, Iceland","locality":"Reykjavík","postcode":"101","region":"Reykjavíkurborg"}},"labels":["concert","music","performing-arts"],"duration":7200,"start_local":"2024-09-20T20:00:00","end":"2024-09-20T22:00:00Z","end_local":"2024-09-20T22:00:00","updated":"2024-06-04T00:32:38Z"},{"title":"Icelandic Fisheries Exhibition","description":"Sourced from predicthq.com","category":"expos","start":"2024-09-18T00:00:00Z","geo":{"geometry":{"coordinates":[-21.8995541,64.1025759],"type":"Point"},"placekey":"@avv-snb-wff","address":{"country_code":"IS","formatted_address":"Dalsmári 5, 201 Kópavogur, Iceland","postcode":"201","locality":"Kópavogur","region":"Kópavogsbær"}},"labels":["expo"],"duration":259199,"start_local":"2024-09-18T00:00:00","end":"2024-09-20T23:59:59Z","end_local":"2024-09-20T23:59:59","updated":"2024-05-31T23:03:32Z"},{"title":"Pat Braxton","description":"Sourced from predicthq.com","category":"concerts","start":"2024-09-07T19:00:00Z","geo":{"geometry":{"coordinates":[-21.9006872,64.1415805],"type":"Point"},"placekey":"@avv-vvv-qfz","address":{"country_code":"IS","formatted_address":"Laugavegur 28b, 101 Reykjavík, Iceland","postcode":"101","locality":"Reykjavík","region":"Reykjavíkurborg"}},"labels":["concert","music"],"duration":0,"start_local":"2024-09-07T19:00:00","end":"2024-09-07T19:00:00Z","end_local":"2024-09-07T19:00:00","updated":"2024-06-11T01:43:19Z"},{"title":"UEFA Nations League - League B - Iceland vs Montenegro","description":"Sourced from predicthq.com","category":"sports","start":"2024-09-06T18:45:00Z","geo":{"geometry":{"coordinates":[-21.8790318,64.1434266],"type":"Point"},"placekey":"@avv-vw4-kxq","address":{"country_code":"IS","formatted_address":"44VC+CCP, 104 Reykjavík, Iceland","postcode":"104","locality":"Reykjavík","region":"Reykjavíkurborg"}},"labels":["soccer","sport"],"duration":0,"start_local":"2024-09-06T18:45:00","end":"2024-09-06T18:45:00Z","end_local":"2024-09-06T18:45:00","updated":"2024-06-10T23:52:33Z"},{"title":"Fire and Ice ICELAND","description":"Sourced from predicthq.com","category":"sports","start":"2024-08-26T00:00:00Z","geo":{"geometry":{"coordinates":[-18.11046,65.683868],"type":"Point"},"placekey":"@avn-cpp-4jv","address":{"country_code":"IS","formatted_address":"Kotárgerði, 600 Akureyri, Iceland","locality":"Akureyri","postcode":"600","region":"Akureyrarbær"}},"labels":["outdoor-sports","running","sport"],"duration":86399,"start_local":"2024-08-26T00:00:00","end":"2024-08-26T23:59:59Z","end_local":"2024-08-26T23:59:59","updated":"2024-06-28T01:23:58Z"},{"title":"Islandsbanki Reykjavik Marathon","description":"Sourced from predicthq.com","category":"sports","start":"2024-08-24T08:30:00Z","geo":{"geometry":{"coordinates":[-21.9363365,64.1472012],"type":"Point"},"placekey":"@avv-vw2-28v","address":{"country_code":"IS","formatted_address":"Lækjargata, 101 Reykjavík, Iceland","locality":"Reykjavík","postcode":"101","region":"Reykjavíkurborg"}},"labels":["marathon","outdoor-sports","running","sport"],"duration":0,"start_local":"2024-08-24T08:30:00","end":"2024-08-24T08:30:00Z","end_local":"2024-08-24T08:30:00","updated":"2024-06-04T01:20:13Z"},{"title":"Iceland Volcano Marathon","description":"Sourced from predicthq.com","category":"sports","start":"2024-08-24T00:00:00Z","geo":{"geometry":{"coordinates":[-16.9961055,65.60386],"type":"Point"},"placekey":"@avn-fzx-r6k","address":{"country_code":"IS","formatted_address":"660 Skútustaðir, Iceland","locality":"Skútustaðir","postcode":"660","region":"Þingeyjarsveit"}},"labels":["marathon","outdoor-sports","running","sport"],"duration":86399,"start_local":"2024-08-24T00:00:00","end":"2024-08-24T23:59:59Z","end_local":"2024-08-24T23:59:59","updated":"2024-06-11T05:22:41Z"},{"title":"Nordic Planning Research Symposium","description":"Sourced from predicthq.com","category":"conferences","start":"2024-08-21T09:00:00Z","geo":{"geometry":{"coordinates":[-21.95189,64.13962],"type":"Point"},"placekey":"@avv-vw2-4vz","address":{"country_code":"IS","formatted_address":"Sæmundargata 2, 102 Reykjavík, Iceland","postcode":"102","locality":"Reykjavík","region":"Reykjavíkurborg"}},"labels":["conference"],"duration":205200,"start_local":"2024-08-21T09:00:00","end":"2024-08-23T18:00:00Z","end_local":"2024-08-23T18:00:00","updated":"2024-06-16T03:57:44Z"},{"title":"NFF Conference","description":"Sourced from predicthq.com","category":"conferences","start":"2024-08-15T09:00:00Z","geo":{"geometry":{"coordinates":[-21.95189,64.13962],"type":"Point"},"placekey":"@avv-vw2-4vz","address":{"country_code":"IS","formatted_address":"Sæmundargata 2, 102 Reykjavík, Iceland","postcode":"102","locality":"Reykjavík","region":"Reykjavíkurborg"}},"labels":["conference"],"duration":205200,"start_local":"2024-08-15T09:00:00","end":"2024-08-17T18:00:00Z","end_local":"2024-08-17T18:00:00","updated":"2024-06-16T01:51:41Z"},{"title":"Nordisk Foretags Ekonomisk Forening Conference","description":"Sourced from predicthq.com","category":"conferences","start":"2024-08-15T09:00:00Z","geo":{"geometry":{"coordinates":[-21.95189,64.13962],"type":"Point"},"placekey":"@avv-vw2-4vz","address":{"country_code":"IS","formatted_address":"Sæmundargata 2, 102 Reykjavík, Iceland","postcode":"102","locality":"Reykjavík","region":"Reykjavíkurborg"}},"labels":["conference"],"duration":205200,"start_local":"2024-08-15T09:00:00","end":"2024-08-17T18:00:00Z","end_local":"2024-08-17T18:00:00","updated":"2024-06-16T01:54:28Z"},{"title":"NordDesign Conference","description":"Sourced from predicthq.com","category":"conferences","start":"2024-08-12T09:00:00Z","geo":{"geometry":{"coordinates":[-21.95189,64.13962],"type":"Point"},"placekey":"@avv-vw2-4vz","address":{"country_code":"IS","formatted_address":"Sæmundargata 2, 102 Reykjavík, Iceland","postcode":"102","locality":"Reykjavík","region":"Reykjavíkurborg"}},"labels":["conference"],"duration":205200,"start_local":"2024-08-12T09:00:00","end":"2024-08-14T18:00:00Z","end_local":"2024-08-14T18:00:00","updated":"2024-06-01T12:07:19Z"},{"title":"Odoo Roadshow Reykjavik","description":"Sourced from predicthq.com - Discover Odoo with our experts and partners in Reykjavik","category":"conferences","start":"2024-08-08T13:00:00Z","geo":{"geometry":{"coordinates":[-21.9353029,64.1499243],"type":"Point"},"placekey":"@avv-vvv-9pv","address":{"country_code":"IS","formatted_address":"101 Reykjavík, Iceland","locality":"Reykjavík","postcode":"101","region":"Reykjavíkurborg"}},"labels":["business","conference"],"duration":10800,"start_local":"2024-08-08T13:00:00","end":"2024-08-08T16:00:00Z","end_local":"2024-08-08T16:00:00","updated":"2024-06-13T01:22:22Z"},{"title":"International Conference on Physics of Excitons and Polaritons in Semiconductors","description":"Sourced from predicthq.com","category":"conferences","start":"2024-08-06T09:00:00Z","geo":{"geometry":{"coordinates":[-21.95189,64.13962],"type":"Point"},"placekey":"@avv-vw2-4vz","address":{"country_code":"IS","formatted_address":"Sæmundargata 2, 102 Reykjavík, Iceland","postcode":"102","locality":"Reykjavík","region":"Reykjavíkurborg"}},"labels":["conference"],"duration":378000,"start_local":"2024-08-06T09:00:00","end":"2024-08-10T18:00:00Z","end_local":"2024-08-10T18:00:00","updated":"2024-05-31T22:49:03Z"},{"title":"The Rift - Iceland Gravel Race","description":"Sourced from predicthq.com","category":"sports","start":"2024-07-20T00:00:00Z","geo":{"geometry":{"coordinates":[-20.2229199,63.7511132],"type":"Point"},"placekey":"@avm-kpk-c89","address":{"country_code":"IS","formatted_address":"Hvolsvegur, 860 Hvolsvöllur, Iceland","locality":"Hvolsvöllur","postcode":"860","region":"Rangárþing eystra"}},"labels":["outdoor-sports","running","sport"],"duration":86399,"start_local":"2024-07-20T00:00:00","end":"2024-07-20T23:59:59Z","end_local":"2024-07-20T23:59:59","updated":"2024-06-04T07:03:40Z"},{"title":"UEFA Conference League - 1st Qualifying Round - Breidablik vs Tikvesh","description":"Sourced from predicthq.com","category":"sports","start":"2024-07-18T19:15:00Z","geo":{"geometry":{"coordinates":[-21.8964327,64.1042381],"type":"Point"},"placekey":"@avv-sn8-j9z","address":{"country_code":"IS","formatted_address":"4433+J7V, 201 Kópavogur, Iceland","postcode":"201","locality":"Kópavogur","region":"Kópavogsbær"}},"labels":["soccer","sport"],"duration":0,"start_local":"2024-07-18T19:15:00","end":"2024-07-18T19:15:00Z","end_local":"2024-07-18T19:15:00","updated":"2024-06-24T18:39:35Z"},{"title":"Daníel Hjálmtýsson","description":"Sourced from predicthq.com","category":"concerts","start":"2024-07-12T21:30:00Z","geo":{"geometry":{"coordinates":[-21.90069,64.14158],"type":"Point"},"placekey":"@avv-vvv-qfz","address":{"country_code":"IS","formatted_address":"Laugavegur 30, Laugavegur 30 101, 101 Reykjavík, Iceland","postcode":"101","locality":"Reykjavík","region":"Reykjavíkurborg"}},"labels":["concert","music"],"duration":0,"start_local":"2024-07-12T21:30:00","end":"2024-07-12T21:30:00Z","end_local":"2024-07-12T21:30:00","updated":"2024-06-28T22:01:42Z"},{"title":"14. Kótelettan BBQ & Music Festival 2024","description":"Sourced from predicthq.com","category":"festivals","start":"2024-07-11T20:00:00Z","geo":{"geometry":{"coordinates":[-21.01064,63.94725],"type":"Point"},"placekey":"@avm-fp3-c5z","address":{"country_code":"IS","formatted_address":"Hrísmýri, 800 Selfoss, Iceland","locality":"Selfoss","postcode":"800","region":"Sveitarfélagið Árborg"}},"labels":["festival","music"],"duration":244800,"start_local":"2024-07-11T20:00:00","end":"2024-07-14T16:00:00Z","end_local":"2024-07-14T16:00:00","updated":"2024-06-04T11:19:44Z"},{"title":"UEFA Conference League - 1st Qualifying Round - Stjarnan vs Linfield","description":"Sourced from predicthq.com","category":"sports","start":"2024-07-11T19:00:00Z","geo":{"geometry":{"coordinates":[-21.92898988723755,64.08742258860043],"type":"Point"},"placekey":"@avv-skq-s5z","address":{"country_code":"IS","formatted_address":"Lækjarfit 7, 210 Garðabær, Iceland","postcode":"210","locality":"Garðabær","region":"Garðabær"}},"labels":["soccer","sport"],"duration":0,"start_local":"2024-07-11T19:00:00","end":"2024-07-11T19:00:00Z","end_local":"2024-07-11T19:00:00","updated":"2024-06-22T05:52:23Z"},{"title":"UEFA Conference League - 1st Qualifying Round - Valur vs Vllaznia Shkodër","description":"Sourced from predicthq.com","category":"sports","start":"2024-07-11T19:00:00Z","geo":{"geometry":{"coordinates":[-21.923550367,64.132849796],"type":"Point"},"placekey":"@avv-vvw-9s5","address":{"country_code":"IS","formatted_address":"105, Hlíðarendi, 102 Reykjavík, Iceland","postcode":"102","locality":"Reykjavík","region":"Reykjavíkurborg"}},"labels":["soccer","sport"],"duration":0,"start_local":"2024-07-11T19:00:00","end":"2024-07-11T19:00:00Z","end_local":"2024-07-11T19:00:00","updated":"2024-06-24T19:04:12Z"},{"title":"UEFA Champions League - 1st Qualifying Round - Víkingur Reykjavík vs Shamrock Rovers","description":"Sourced from predicthq.com","category":"sports","start":"2024-07-09T18:45:00Z","geo":{"geometry":{"coordinates":[-21.8535851465,64.1173281587],"type":"Point"},"placekey":"@avv-sng-92k","address":{"country_code":"IS","formatted_address":"Traðarland 1, 108 Reykjavík, Iceland","postcode":"108","locality":"Reykjavík","region":"Reykjavíkurborg"}},"labels":["soccer","sport"],"duration":0,"start_local":"2024-07-09T18:45:00","end":"2024-07-09T18:45:00Z","end_local":"2024-07-09T18:45:00","updated":"2024-06-24T18:41:31Z"},{"title":"Dyrfjallahlaup","description":"Sourced from predicthq.com","category":"sports","start":"2024-07-06T00:00:00Z","geo":{"geometry":{"coordinates":[-13.8178252,65.5279078],"type":"Point"},"placekey":"@aw4-cyd-4qf","address":{"country_code":"IS","formatted_address":"720, 720 Borgarfjörður Eystri, Iceland","locality":"Borgarfjörður Eystri","postcode":"720","region":"Múlaþing"}},"labels":["outdoor-sports","running","sport"],"duration":86399,"start_local":"2024-07-06T00:00:00","end":"2024-07-06T23:59:59Z","end_local":"2024-07-06T23:59:59","updated":"2024-06-04T01:58:38Z"},{"title":"Matt Robidoux","description":"Sourced from predicthq.com","category":"concerts","start":"2024-07-04T19:00:00Z","geo":{"geometry":{"coordinates":[-21.93175,64.1447],"type":"Point"},"placekey":"@avv-vvz-yy9","address":{"country_code":"IS","formatted_address":"Óðinsgata 2, 101 Reykjavík, Iceland","postcode":"101","locality":"Reykjavík","region":"Reykjavíkurborg"}},"labels":["concert","music"],"duration":0,"start_local":"2024-07-04T19:00:00","end":"2024-07-04T19:00:00Z","end_local":"2024-07-04T19:00:00","updated":"2024-06-28T00:13:57Z"},{"title":"L’Odyssée des baleines","description":"Sourced from predicthq.com - Venez voir, écouter, reconnaître et toucher les baleines !","category":"conferences","start":"2024-06-29T14:30:00Z","geo":{"geometry":{"coordinates":[-21.943947,64.150526],"type":"Point"},"placekey":"@avv-vw2-8n5","address":{"country_code":"IS","formatted_address":"Tryggvagata, 101 Reykjavík, Iceland","locality":"Reykjavík","postcode":"101","region":"Reykjavíkurborg"}},"labels":["conference","education","family"],"duration":0,"start_local":"2024-06-29T14:30:00","end":"2024-06-29T14:30:00Z","end_local":"2024-06-29T14:30:00","updated":"2024-06-06T00:37:39Z"},{"title":"the Immigrants are Coming! • Reykjavík • stand up comedy in English","description":"Sourced from predicthq.com - This show is not for the easily offended. It’s comedy at its best, 2 comedians who are unapologetically honest, woke and hilarious!","category":"performing-arts","start":"2024-06-26T20:00:00Z","geo":{"geometry":{"coordinates":[-21.9337768,64.1469955],"type":"Point"},"placekey":"@avv-vw2-2kz","address":{"country_code":"IS","formatted_address":"Ingólfsstræti, 101 Reykjavík, Iceland","locality":"Reykjavík","postcode":"101","region":"Reykjavíkurborg"}},"labels":["concert","music","performing-arts"],"duration":7200,"start_local":"2024-06-26T20:00:00","end":"2024-06-26T22:00:00Z","end_local":"2024-06-26T22:00:00","updated":"2024-06-04T04:58:32Z"},{"title":"“Cétacé”, dit la baleine","description":"Sourced from predicthq.com - Nous profitons de la présentation de la biologiste Valérie Chosson sur les baleines pour proposer aux enfants une heure du conte.","category":"concerts","start":"2024-06-26T16:30:00Z","geo":{"geometry":{"coordinates":[-21.943947,64.150526],"type":"Point"},"placekey":"@avv-vw2-8n5","address":{"country_code":"IS","formatted_address":"Tryggvagata, 101 Reykjavík, Iceland","locality":"Reykjavík","postcode":"101","region":"Reykjavíkurborg"}},"labels":["concert","education","family","music"],"duration":3600,"start_local":"2024-06-26T16:30:00","end":"2024-06-26T17:30:00Z","end_local":"2024-06-26T17:30:00","updated":"2024-06-06T02:12:38Z"},{"title":"the Immigrants are Coming! • Vestmannaeyjum • stand up comedy in English","description":"Sourced from predicthq.com - This show is not for the easily offended. It’s comedy at its best, 2 comedians who are unapologetically honest, woke and hilarious!","category":"performing-arts","start":"2024-06-25T20:00:00Z","geo":{"geometry":{"coordinates":[-20.2727795,63.43367689999999],"type":"Point"},"placekey":"@avq-pxr-ghq","address":{"country_code":"IS","formatted_address":"Strembugata, 900 Vestmannaeyjabær, Iceland","locality":"Vestmannaeyjabær","postcode":"900","region":"Vestmannaeyjabær"}},"labels":["concert","music","performing-arts"],"duration":7200,"start_local":"2024-06-25T20:00:00","end":"2024-06-25T22:00:00Z","end_local":"2024-06-25T22:00:00","updated":"2024-06-11T05:06:16Z"},{"title":"ARI ÁRELÍUS","description":"Sourced from predicthq.com","category":"concerts","start":"2024-06-25T20:00:00Z","geo":{"geometry":{"coordinates":[-14.40657,65.25977],"type":"Point"},"placekey":"@avx-4rq-t9z","address":{"country_code":"IS","formatted_address":"Kaupvangur 17, 700 Egilsstaðir, Iceland","postcode":"700","locality":"Egilsstaðir"}},"labels":["concert","music"],"duration":0,"start_local":"2024-06-25T20:00:00","end":"2024-06-25T20:00:00Z","end_local":"2024-06-25T20:00:00","updated":"2024-06-11T20:02:41Z"},{"title":"ModRE'24: International Model-Driven Requirements Engineering Workshop","description":"Sourced from predicthq.com","category":"expos","start":"2024-06-25T09:00:00Z","geo":{"geometry":{"coordinates":[-21.926896,64.123722],"type":"Point"},"placekey":"@avv-vvw-fzz","address":{"country_code":"IS","formatted_address":"1 Menntavegur, 101 Reykjavík, Iceland","postcode":"101","locality":"Reykjavík"}},"labels":["expo"],"duration":32400,"start_local":"2024-06-25T09:00:00","end":"2024-06-25T18:00:00Z","end_local":"2024-06-25T18:00:00","updated":"2024-05-24T11:16:22Z"},{"title":"the Immigrants are Coming! • Höfn • stand up comedy in English","description":"Sourced from predicthq.com - This show is not for the easily offended. It’s comedy at its best, 2 comedians who are unapologetically honest, woke and hilarious!","category":"performing-arts","start":"2024-06-24T20:00:00Z","geo":{"geometry":{"coordinates":[-15.2020301,64.2508368],"type":"Point"},"placekey":"@avx-dhv-y7q","address":{"country_code":"IS","formatted_address":"780 Höfn í Hornafirði, Iceland","locality":"Höfn í Hornafirði","postcode":"780","region":"Sveitarfélagið Hornafjörður"}},"labels":["concert","music","performing-arts"],"duration":7200,"start_local":"2024-06-24T20:00:00","end":"2024-06-24T22:00:00Z","end_local":"2024-06-24T22:00:00","updated":"2024-06-04T01:25:40Z"},{"title":"Iceland  Meditates with Gurudev Sri Sri Ravi Shankar","description":"Sourced from predicthq.com - Join us in Iceland for a peaceful free meditation session with Gurudev Sri Sri Ravi Shankar!","category":"conferences","start":"2024-06-24T19:00:00Z","geo":{"geometry":{"coordinates":[-21.9393431,64.1443599],"type":"Point"},"placekey":"@avv-vvz-wc5","address":{"country_code":"IS","formatted_address":"Fríkirkjuvegur, 101 Reykjavík, Iceland","locality":"Reykjavík","postcode":"101","region":"Reykjavíkurborg"}},"labels":["conference","religion"],"duration":5400,"start_local":"2024-06-24T19:00:00","end":"2024-06-24T20:30:00Z","end_local":"2024-06-24T20:30:00","updated":"2024-06-13T01:44:35Z"},{"title":"Þjóðhátíðardagur Québec - Saint Jean-Baptiste","description":"Sourced from predicthq.com - Komið og fagnið Saint-Jean Baptiste hjá Alliance Française í Reykjavík kl.18:00- 19:30!","category":"festivals","start":"2024-06-24T18:00:00Z","geo":{"geometry":{"coordinates":[-21.943947,64.150526],"type":"Point"},"placekey":"@avv-vw2-8n5","address":{"country_code":"IS","formatted_address":"Tryggvagata, 101 Reykjavík, Iceland","locality":"Reykjavík","postcode":"101","region":"Reykjavíkurborg"}},"labels":["community","festival"],"duration":5400,"start_local":"2024-06-24T18:00:00","end":"2024-06-24T19:30:00Z","end_local":"2024-06-24T19:30:00","updated":"2024-06-06T01:39:20Z"},{"title":"International Requirements Engineering Conference","description":"Sourced from predicthq.com","category":"conferences","start":"2024-06-24T09:00:00Z","geo":{"geometry":{"coordinates":[-21.926896,64.123722],"type":"Point"},"placekey":"@avv-vvw-fzz","address":{"country_code":"IS","formatted_address":"1 Menntavegur, 101 Reykjavík, Iceland","postcode":"101","locality":"Reykjavík"}},"labels":["conference"],"duration":378000,"start_local":"2024-06-24T09:00:00","end":"2024-06-28T18:00:00Z","end_local":"2024-06-28T18:00:00","updated":"2024-05-24T08:26:00Z"},{"title":"Re4web3","description":"Sourced from predicthq.com","category":"expos","start":"2024-06-24T09:00:00Z","geo":{"geometry":{"coordinates":[-21.926896,64.123722],"type":"Point"},"placekey":"@avv-vvw-fzz","address":{"country_code":"IS","formatted_address":"1 Menntavegur, 101 Reykjavík, Iceland","postcode":"101","locality":"Reykjavík"}},"labels":["expo"],"duration":378000,"start_local":"2024-06-24T09:00:00","end":"2024-06-28T18:00:00Z","end_local":"2024-06-28T18:00:00","updated":"2024-05-24T08:36:43Z"},{"title":"ARI ÁRELÍUS","description":"Sourced from predicthq.com","category":"concerts","start":"2024-06-23T21:00:00Z","geo":{"geometry":{"coordinates":[-23.1888599,66.0611061],"type":"Point"},"placekey":"@avw-5gz-nnq","address":{"country_code":"IS","formatted_address":"Neðstakaupstað, 400 Ísafjörður, Iceland","postcode":"400","locality":"Ísafjörður","region":"Ísafjarðarbær"}},"labels":["concert","music"],"duration":0,"start_local":"2024-06-23T21:00:00","end":"2024-06-23T21:00:00Z","end_local":"2024-06-23T21:00:00","updated":"2024-06-11T03:08:36Z"},{"title":"the Immigrants are Coming! • Neskaupstaður • stand up comedy in English","description":"Sourced from predicthq.com - This show is not for the easily offended. It’s comedy at its best, 2 comedians who are unapologetically honest, woke and hilarious!","category":"performing-arts","start":"2024-06-23T19:00:00Z","geo":{"geometry":{"coordinates":[-13.6831098,65.14735920000001],"type":"Point"},"placekey":"@avx-4zy-rhq","address":{"country_code":"IS","formatted_address":"Egilsbraut, 740 Neskaupstaður, Iceland","locality":"Neskaupstaður","postcode":"740","region":"Fjarðabyggð"}},"labels":["concert","music","performing-arts"],"duration":7200,"start_local":"2024-06-23T19:00:00","end":"2024-06-23T21:00:00Z","end_local":"2024-06-23T21:00:00","updated":"2024-06-04T05:32:02Z"},{"title":"Jeff Mailfert","description":"Sourced from predicthq.com","category":"concerts","start":"2024-06-22T17:00:00Z","geo":{"geometry":{"coordinates":[-21.92506,64.14489],"type":"Point"},"placekey":"@avv-vvt-wff","address":{"country_code":"IS","formatted_address":"Laugavegur 18, 101 Reykjavík, Iceland","postcode":"101","locality":"Reykjavík"}},"labels":["concert","music"],"duration":0,"start_local":"2024-06-22T17:00:00","end":"2024-06-22T17:00:00Z","end_local":"2024-06-22T17:00:00","updated":"2024-06-11T07:24:38Z"},{"title":"The HRing Iceland","description":"Sourced from predicthq.com","category":"sports","start":"2024-06-21T22:00:00Z","geo":{"geometry":{"coordinates":[-21.9407552,64.1469868],"type":"Point"},"placekey":"@avv-vw2-cyv","address":{"country_code":"IS","formatted_address":"101 Reykjavík, Iceland","locality":"Reykjavík","postcode":"101","region":"Reykjavíkurborg"}},"labels":["outdoor-sports","running","sport"],"duration":0,"start_local":"2024-06-21T22:00:00","end":"2024-06-21T22:00:00Z","end_local":"2024-06-21T22:00:00","updated":"2024-06-04T03:08:18Z"},{"title":"Jeff Mailfert","description":"Sourced from predicthq.com","category":"concerts","start":"2024-06-21T17:30:00Z","geo":{"geometry":{"coordinates":[-22.09542,64.30776],"type":"Point"},"placekey":"@avv-v8g-bzf","address":{"country_code":"IS","formatted_address":"8W53+4R4, 300 Akranes, Iceland","postcode":"300","locality":"Akranes","region":"Akraneskaupstaður"}},"labels":["concert","music"],"duration":0,"start_local":"2024-06-21T17:30:00","end":"2024-06-21T17:30:00Z","end_local":"2024-06-21T17:30:00","updated":"2024-07-05T17:33:15Z"},{"title":"the Immigrants are Coming! • Akureyri • stand up comedy in English","description":"Sourced from predicthq.com - This show is not for the easily offended. It’s comedy at its best, 2 comedians who are unapologetically honest, woke and hilarious!","category":"performing-arts","start":"2024-06-20T21:00:00Z","geo":{"geometry":{"coordinates":[-18.0895728,65.6813442],"type":"Point"},"placekey":"@avn-cpp-t9z","address":{"country_code":"IS","formatted_address":"Hafnarstræti, 600 Akureyri, Iceland","locality":"Akureyri","postcode":"600","region":"Akureyrarbær"}},"labels":["concert","music","performing-arts"],"duration":7200,"start_local":"2024-06-20T21:00:00","end":"2024-06-20T23:00:00Z","end_local":"2024-06-20T23:00:00","updated":"2024-06-04T07:32:52Z"},{"title":"Suzuki Midnight Sun Run","description":"Sourced from predicthq.com","category":"sports","start":"2024-06-20T21:00:00Z","geo":{"geometry":{"coordinates":[-21.8748309,64.1468877],"type":"Point"},"placekey":"@avv-vw2-vfz","address":{"country_code":"IS","formatted_address":"Sundlaugavegur, 105 Reykjavík, Iceland","locality":"Reykjavík","postcode":"105","region":"Reykjavíkurborg"}},"labels":["marathon","outdoor-sports","running","sport"],"duration":0,"start_local":"2024-06-20T21:00:00","end":"2024-06-20T21:00:00Z","end_local":"2024-06-20T21:00:00","updated":"2024-06-04T07:15:35Z"},{"title":"ARI ÁRELÍUS","description":"Sourced from predicthq.com","category":"concerts","start":"2024-06-20T20:00:00Z","geo":{"geometry":{"coordinates":[-21.94076,64.14699],"type":"Point"},"placekey":"@avv-vw2-cyv","address":{"country_code":"IS","formatted_address":"Tryggvagata 14, 101 Reykjavík, Iceland","postcode":"101","locality":"Reykjavík","region":"Reykjavíkurborg"}},"labels":["concert","music"],"duration":0,"start_local":"2024-06-20T20:00:00","end":"2024-06-20T20:00:00Z","end_local":"2024-06-20T20:00:00","updated":"2024-07-04T20:17:36Z"},{"title":"International Seaweed Conference Europe & USA","description":"Sourced from predicthq.com","category":"conferences","start":"2024-06-18T09:00:00Z","geo":{"geometry":{"coordinates":[-21.94659,64.13817],"type":"Point"},"placekey":"@avv-vw2-7dv","address":{"country_code":"IS","formatted_address":"Sæmundargata, 102 Reykjavík, Iceland","locality":"Reykjavík","postcode":"102","region":"Reykjavíkurborg"}},"labels":["conference"],"duration":205200,"start_local":"2024-06-18T09:00:00","end":"2024-06-20T18:00:00Z","end_local":"2024-06-20T18:00:00","updated":"2024-06-03T20:24:16Z"},{"title":"Við Djúpið Music Festival","description":"Sourced from predicthq.com","category":"festivals","start":"2024-06-17T00:00:00Z","geo":{"geometry":{"coordinates":[-23.11639,66.07348],"type":"Point"},"placekey":"@avw-548-vj9","address":{"country_code":"IS","formatted_address":"Austurvegur 11, 400 Ísafjörður, Iceland","postcode":"400","locality":"Ísafjörður","region":"Ísafjarðarbær"}},"labels":["festival","music"],"duration":518399,"start_local":"2024-06-17T00:00:00","end":"2024-06-22T23:59:59Z","end_local":"2024-06-22T23:59:59","updated":"2024-06-04T00:34:18Z"},{"title":"Baudelaire og Parísardepurð – Le Spleen de Paris","description":"Sourced from predicthq.com - Baudelaire og Parísardepurð – Le Spleen de Paris / Ásdís Magnúsdóttir","category":"conferences","start":"2024-06-12T20:30:00Z","geo":{"geometry":{"coordinates":[-21.943947,64.150526],"type":"Point"},"placekey":"@avv-vw2-8n5","address":{"country_code":"IS","formatted_address":"Tryggvagata, 101 Reykjavík, Iceland","locality":"Reykjavík","postcode":"101","region":"Reykjavíkurborg"}},"labels":["community","conference"],"duration":5400,"start_local":"2024-06-12T20:30:00","end":"2024-06-12T22:00:00Z","end_local":"2024-06-12T22:00:00","updated":"2024-05-30T01:36:55Z"},{"title":"Wellbeing Economy Forum","description":"Sourced from predicthq.com","category":"conferences","start":"2024-06-11T09:00:00Z","geo":{"geometry":{"coordinates":[-21.9322804,64.1502464],"type":"Point"},"placekey":"@avv-vvv-9zz","address":{"country_code":"IS","formatted_address":"Austurbakki 2, 101 Reykjavík, Iceland","postcode":"101","locality":"Reykjavík"}},"labels":["conference"],"duration":118800,"start_local":"2024-06-11T09:00:00","end":"2024-06-12T18:00:00Z","end_local":"2024-06-12T18:00:00","updated":"2024-06-04T04:41:17Z"},{"title":"Jeff Mailfert","description":"Sourced from predicthq.com","category":"concerts","start":"2024-06-08T19:00:00Z","geo":{"geometry":{"coordinates":[-14.40657,65.25977],"type":"Point"},"placekey":"@avx-4rq-t9z","address":{"country_code":"IS","formatted_address":"Kaupvangur 17, 700 Egilsstaðir, Iceland","postcode":"700","locality":"Egilsstaðir"}},"labels":["concert","music"],"duration":0,"start_local":"2024-06-08T19:00:00","end":"2024-06-08T19:00:00Z","end_local":"2024-06-08T19:00:00","updated":"2024-06-22T19:04:07Z"},{"title":"Hengill Ultra Trail","description":"Sourced from predicthq.com","category":"sports","start":"2024-06-07T08:00:00Z","geo":{"geometry":{"coordinates":[-21.1797206,63.9994548],"type":"Point"},"placekey":"@avm-fvt-syv","address":{"country_code":"IS","formatted_address":"810 Hveragerði, Iceland","locality":"Hveragerði","postcode":"810","region":"Hveragerðisbær"}},"labels":["outdoor-sports","running","sport"],"duration":0,"start_local":"2024-06-07T08:00:00","end":"2024-06-07T08:00:00Z","end_local":"2024-06-07T08:00:00","updated":"2024-06-04T08:00:57Z"},{"title":"The Nordic Research Symposium on Science Education","description":"Sourced from predicthq.com","category":"conferences","start":"2024-06-05T09:00:00Z","geo":{"geometry":{"coordinates":[-21.95189,64.13962],"type":"Point"},"placekey":"@avv-vw2-4vz","address":{"country_code":"IS","formatted_address":"Sæmundargata 2, 102 Reykjavík, Iceland","postcode":"102","locality":"Reykjavík","region":"Reykjavíkurborg"}},"labels":["conference"],"duration":205200,"start_local":"2024-06-05T09:00:00","end":"2024-06-07T18:00:00Z","end_local":"2024-06-07T18:00:00","updated":"2024-06-04T02:24:06Z"},{"title":"Un centre culturel basque à Djúpavik","description":"Sourced from predicthq.com - Table ronde en présence de Denis Laborde, Xabier Agote, Enara Novillo et Elísabet Gunnarsdóttir.","category":"conferences","start":"2024-06-04T20:30:00Z","geo":{"geometry":{"coordinates":[-21.943947,64.150526],"type":"Point"},"placekey":"@avv-vw2-8n5","address":{"country_code":"IS","formatted_address":"Tryggvagata, 101 Reykjavík, Iceland","locality":"Reykjavík","postcode":"101","region":"Reykjavíkurborg"}},"labels":["community","conference"],"duration":5400,"start_local":"2024-06-04T20:30:00","end":"2024-06-04T22:00:00Z","end_local":"2024-06-04T22:00:00","updated":"2024-06-03T20:31:56Z"},{"title":"NordYrk Conference","description":"Sourced from predicthq.com","category":"conferences","start":"2024-06-03T09:00:00Z","geo":{"geometry":{"coordinates":[-21.95189,64.13962],"type":"Point"},"placekey":"@avv-vw2-4vz","address":{"country_code":"IS","formatted_address":"Sæmundargata 2, 102 Reykjavík, Iceland","postcode":"102","locality":"Reykjavík","region":"Reykjavíkurborg"}},"labels":["conference"],"duration":205200,"start_local":"2024-06-03T09:00:00","end":"2024-06-05T18:00:00Z","end_local":"2024-06-05T18:00:00","updated":"2024-06-02T05:37:53Z"},{"title":"Election for Icelandic Presidency","description":"Sourced from predicthq.com - Halla TÓMASDÓTTIR\t33.94\nKatrín JAKOBSDÓTTIR\t25.03\nHalla Hrund LOGADÓTTIR\t15.58\nJon GNARR\t10.03\nBaldur ÞÓRHALLSSON\t8.36\nArnar ÞÓR JÓNSSON\t5.05\n\nAt Stake in this Election: \n\n\n\n\nThe Presidency of Iceland \n\n\n\n\nGovernment Structure:  \n\n\n\n\nChief of State: President Guðni Thorlacius JÓHANNESON (since 1 August 2016) \n\n\n\n\n\n\nHead of Government: Prime Minister Bjarni BENEDIKTSSON (since 9 April 2024) \n\n\n\n\n\n\nAssembly: unicameral Parliament (Alþingi) with 63 seats \n\n\n\n\nElectoral System:  \n\n\n\n\nThe President is directly elected by simple majority vote and may serve unlimited 4-year terms. \n\n\n\n\n\n\nThe parliamentary majority leader is appointed Prime Minister following legislative elections. \n\n\n\n\n\n\n In Parliament, all 63 members are directly elected via closed-list proportional representation vote. All members serve 4-year terms, and there are no term limits. \n\n\n\n\nLast Election: \n\n\nIn the 2020 presidential election, Guðni JÓHANNESON won with 92.2% of the vote, defeating Sturla JÓNSSON. Voter turnout was 66.93%. \n\n\nInformation for Voters: \n\n\nFyrir kjósendur / For voters (in Icelandic and English) \n\n\nKey Deadlines: \n\n\n\n\n\n\nCandidate filing deadline: 26 April 2024 \n\n\n\n\n\n\nVoter registration deadline: N/A; voter registration is passive and the voter roll is updated by 24 April 2024. \n\n\n\n\nMain Candidates in this Election: \n\n\n\n\nArnar Þór JÓNSSON \n\n\n\n\n\n\nÁsdís Rán GUNNARSDÓTTIR \n\n\n\n\n\n\nÁstthór MAGNÚSSON WIUM \n\n\n\n\n\n\nBaldur ÞÓRHALLSSON \n\n\n\n\n\n\nEiríkur Ingi JÓHANNSSON \n\n\n\n\n\n\nHalla Hrund LOGADÓTTIR \n\n\n\n\n\n\nHalla TÓMASDÓTTIR \n\n\n\n\n\n\nHelga ÞÓRISDÓTTIR \n\n\n\n\n\n\nJón GNARR \n\n\n\n\n\n\nKatrín JAKOBSDÓTTIR \n\n\n\n\n\n\nSteinunn Ólína ÞORSTEINSDÓTTIR \n\n\n\n\n\n\nViktor TRAUSTASON \n\n\n\n\nAll presidential candidates run as independents. \n\n\nPopulation and Registered Voters: \n\n\n\n\nPopulation: 382,000 (2022 est.) \n\n\n\n\n\n\nRegistered Voters: 276,593 (2022) \n\n\n\n\n\n\nGender Data: \n\n\n\n\nFemale Population: 186,200 (2022 est.) \n\n\n\n\n\n\nCEDAW Status: Signed 24 July 1980, Ratified 18 June 1985 \n\n\n\n\n\n\nGender Quota: No \n\n\n\n\n\n\nFemale Candidates in this election: Yes \n\n\n\n\n\n\nNumber of Female Legislators (pre-election): 30 out of 63 (47.6%) in Parliament \n\n\n\n\n\n\nHuman Development Index (HDI) Position: 0.959, Very High, Rank 3 (2022) \n\n\n\n\n\n\nSocial Institutions and Gender Index (SIGI) Categorization: Not available \n\n\n\n\nDisability Data: \n\n\n\n\nCRPD Status: Signed 30 March 2007, Ratified 23 September 2016 \n\n\n\n\n\n\nProjected population with a disability: 61,120 (2022 est.) \n\n\n\n\nIFES Resources: \n\n\n\n\nDoes IFES have a presence in Iceland: No \n\n\n\n\n\n\nElection Access: Yes \n\n\n\n\n\n\nElection Judgements:  Yes, 5 judgments and 12 resources","category":"politics","start":"2024-06-01T00:00:00Z","geo":{"geometry":{"coordinates":[-19.020835,64.963051],"type":"Point"},"address":{"country_code":"IS","formatted_address":"Iceland"}},"labels":["election","politics","president"],"duration":86399,"start_local":"2024-06-01T00:00:00","end":"2024-06-01T23:59:59Z","end_local":"2024-06-01T23:59:59","updated":"2024-06-13T15:58:17Z"},{"title":"Úrvalsdeild - Final - Valur vs Grindavík","description":"Sourced from predicthq.com","category":"sports","start":"2024-05-29T19:15:00Z","geo":{"geometry":{"coordinates":[-21.9225642307234,64.13309426408456],"type":"Point"},"placekey":"@avv-vvw-9s5","address":{"country_code":"IS","formatted_address":"Hlíðarendi, 102 Reykjavík, Iceland","locality":"Reykjavík","postcode":"102","region":"Reykjavíkurborg"}},"labels":["basketball","sport"],"duration":0,"start_local":"2024-05-29T19:15:00","end":"2024-05-29T19:15:00Z","end_local":"2024-05-29T19:15:00","updated":"2024-06-11T20:53:51Z"},{"title":"The Third Iceland Geothermal Conference","description":"Sourced from predicthq.com","category":"conferences","start":"2024-05-28T09:00:00Z","geo":{"geometry":{"coordinates":[-21.9322804,64.1502464],"type":"Point"},"placekey":"@avv-vvv-9zz","address":{"country_code":"IS","formatted_address":"Austurbakki 2, 101 Reykjavík, Iceland","postcode":"101","locality":"Reykjavík"}},"labels":["conference"],"duration":205200,"start_local":"2024-05-28T09:00:00","end":"2024-05-30T18:00:00Z","end_local":"2024-05-30T18:00:00","updated":"2024-06-05T07:14:56Z"},{"title":"Kiasmos","description":"Sourced from predicthq.com","category":"concerts","start":"2024-05-27T19:00:00Z","geo":{"geometry":{"coordinates":[-21.9333,64.1469],"type":"Point"},"placekey":"@avv-vw2-2kz","address":{"country_code":"IS","formatted_address":"Ingólfsstræti 2a, 101 Reykjavík, Iceland","postcode":"101","locality":"Reykjavík","region":"Reykjavíkurborg"}},"labels":["concert","music"],"duration":0,"start_local":"2024-05-27T19:00:00","end":"2024-05-27T19:00:00Z","end_local":"2024-05-27T19:00:00","updated":"2024-06-12T17:21:18Z"},{"title":"Úrvalsdeild - Final - Grindavík vs Valur","description":"Sourced from predicthq.com","category":"sports","start":"2024-05-26T19:15:00Z","geo":{"geometry":{"coordinates":[-21.898011,64.102612],"type":"Point"},"placekey":"@avv-snb-wff","address":{"country_code":"IS","formatted_address":"4432+4RG, Dalsmári 5, 201 Kópavogur, Iceland","postcode":"201","locality":"Kópavogur","region":"Kópavogsbær"}},"labels":["basketball","sport"],"duration":0,"start_local":"2024-05-26T19:15:00","end":"2024-05-26T19:15:00Z","end_local":"2024-05-26T19:15:00","updated":"2024-06-12T10:22:03Z"},{"title":"Myrdalshlaupid","description":"Sourced from predicthq.com","category":"sports","start":"2024-05-25T11:00:00Z","geo":{"geometry":{"coordinates":[-18.9974395,63.4176505],"type":"Point"},"placekey":"@avk-v8j-9vf","address":{"country_code":"IS","formatted_address":"Sléttuvegur, 870 Vík, Iceland","locality":"Vík","postcode":"870","region":"Mýrdalshreppur"}},"labels":["outdoor-sports","running","sport"],"duration":0,"start_local":"2024-05-25T11:00:00","end":"2024-05-25T11:00:00Z","end_local":"2024-05-25T11:00:00","updated":"2024-06-12T03:12:33Z"},{"title":"Myvatn Marathon","description":"Sourced from predicthq.com","category":"sports","start":"2024-05-25T10:00:00Z","geo":{"geometry":{"coordinates":[-16.9961055,65.60386],"type":"Point"},"placekey":"@avn-fzx-r6k","address":{"country_code":"IS","formatted_address":"660 Skútustaðir, Iceland","locality":"Skútustaðir","postcode":"660","region":"Þingeyjarsveit"}},"labels":["marathon","outdoor-sports","running","sport"],"duration":0,"start_local":"2024-05-25T10:00:00","end":"2024-05-25T10:00:00Z","end_local":"2024-05-25T10:00:00","updated":"2024-06-12T00:43:53Z"},{"title":"Hildur","description":"Sourced from predicthq.com","category":"concerts","start":"2024-05-24T20:00:00Z","geo":{"geometry":{"coordinates":[-21.9090403,64.1119424],"type":"Point"},"placekey":"@avv-sn8-t9z","address":{"country_code":"IS","formatted_address":"Hamraborg 6, 200 Kópavogur, Iceland","postcode":"200","locality":"Kópavogur","region":"Kópavogsbær"}},"labels":["concert","music"],"duration":0,"start_local":"2024-05-24T20:00:00","end":"2024-05-24T20:00:00Z","end_local":"2024-05-24T20:00:00","updated":"2024-06-12T09:08:38Z"},{"title":"Úrvalsdeild - Final - Valur vs Grindavík","description":"Sourced from predicthq.com","category":"sports","start":"2024-05-23T19:15:00Z","geo":{"geometry":{"coordinates":[-21.9225642307234,64.13309426408456],"type":"Point"},"placekey":"@avv-vvw-9s5","address":{"country_code":"IS","formatted_address":"Hlíðarendi, 102 Reykjavík, Iceland","locality":"Reykjavík","postcode":"102","region":"Reykjavíkurborg"}},"labels":["basketball","sport"],"duration":0,"start_local":"2024-05-23T19:15:00","end":"2024-05-23T19:15:00Z","end_local":"2024-05-23T19:15:00","updated":"2024-06-12T00:22:04Z"},{"title":"Úrvalsdeild - Final - Grindavík vs Valur","description":"Sourced from predicthq.com","category":"sports","start":"2024-05-20T19:15:00Z","geo":{"geometry":{"coordinates":[-21.898011,64.102612],"type":"Point"},"placekey":"@avv-snb-wff","address":{"country_code":"IS","formatted_address":"4432+4RG, Dalsmári 5, 201 Kópavogur, Iceland","postcode":"201","locality":"Kópavogur","region":"Kópavogsbær"}},"labels":["basketball","sport"],"duration":0,"start_local":"2024-05-20T19:15:00","end":"2024-05-20T19:15:00Z","end_local":"2024-05-20T19:15:00","updated":"2024-06-12T04:13:48Z"},{"title":"Jónfrí & Julian Civilian í Iðnó","description":"Sourced from predicthq.com - Verið velkomin á útgáfutónleika Jónfrí þar sem við höldum uppá útgáfu plötunnar Draumur um Bronco. Indie sveitin Julian Civilian spilar líka","category":"performing-arts","start":"2024-05-17T21:00:00Z","geo":{"geometry":{"coordinates":[-21.94,64.14583329999999],"type":"Point"},"placekey":"@avv-vvz-xt9","address":{"country_code":"IS","formatted_address":"Vonarstræti, 101 Reykjavík, Iceland","locality":"Reykjavík","postcode":"101","region":"Reykjavíkurborg"}},"labels":["concert","music","performing-arts"],"duration":9000,"start_local":"2024-05-17T21:00:00","end":"2024-05-17T23:30:00Z","end_local":"2024-05-17T23:30:00","updated":"2024-05-31T22:54:28Z"},{"title":"Úrvalsdeild - Final - Valur vs Grindavík","description":"Sourced from predicthq.com","category":"sports","start":"2024-05-17T19:15:00Z","geo":{"geometry":{"coordinates":[-21.9225642307234,64.13309426408456],"type":"Point"},"placekey":"@avv-vvw-9s5","address":{"country_code":"IS","formatted_address":"Hlíðarendi, 102 Reykjavík, Iceland","locality":"Reykjavík","postcode":"102","region":"Reykjavíkurborg"}},"labels":["basketball","sport"],"duration":0,"start_local":"2024-05-17T19:15:00","end":"2024-05-17T19:15:00Z","end_local":"2024-05-17T19:15:00","updated":"2024-06-11T21:17:49Z"},{"title":"XXX Rottweiler Hundar","description":"Sourced from predicthq.com","category":"concerts","start":"2024-05-17T18:00:00Z","geo":{"geometry":{"coordinates":[-21.8767212,64.1401852],"type":"Point"},"placekey":"@avv-vw5-b8v","address":{"country_code":"IS","formatted_address":"8 Engjavegur, 104 Reykjavík, Iceland","postcode":"104","locality":"Reykjavík","region":"Capital Region"}},"labels":["concert","music"],"duration":0,"start_local":"2024-05-17T18:00:00","end":"2024-05-17T18:00:00Z","end_local":"2024-05-17T18:00:00","updated":"2024-06-12T08:00:55Z"},{"title":"Úrvalsdeild - Semi-finals - Valur vs Njardvík","description":"Sourced from predicthq.com","category":"sports","start":"2024-05-14T20:15:00Z","geo":{"geometry":{"coordinates":[-21.9225642307234,64.13309426408456],"type":"Point"},"placekey":"@avv-vvw-9s5","address":{"country_code":"IS","formatted_address":"Hlíðarendi, 102 Reykjavík, Iceland","locality":"Reykjavík","postcode":"102","region":"Reykjavíkurborg"}},"labels":["basketball","sport"],"duration":0,"start_local":"2024-05-14T20:15:00","end":"2024-05-14T20:15:00Z","end_local":"2024-05-14T20:15:00","updated":"2024-06-12T15:58:41Z"},{"title":"Úrvalsdeild - Semi-finals - Grindavík vs Keflavík","description":"Sourced from predicthq.com","category":"sports","start":"2024-05-14T19:15:00Z","geo":{"geometry":{"coordinates":[-21.898011,64.102612],"type":"Point"},"placekey":"@avv-snb-wff","address":{"country_code":"IS","formatted_address":"4432+4RG, Dalsmári 5, 201 Kópavogur, Iceland","postcode":"201","locality":"Kópavogur","region":"Kópavogsbær"}},"labels":["basketball","sport"],"duration":0,"start_local":"2024-05-14T19:15:00","end":"2024-05-14T19:15:00Z","end_local":"2024-05-14T19:15:00","updated":"2024-06-12T02:32:22Z"},{"title":"Conversation with CCP Games Developers","description":"Sourced from predicthq.com - Meet the female developers of CCP Games!  Join us for a cocktail hour and networking event featuring inspiring women at CCP.","category":"conferences","start":"2024-05-14T16:00:00Z","geo":{"geometry":{"coordinates":[-21.9468127,64.136256],"type":"Point"},"placekey":"@avv-vw2-3dv","address":{"country_code":"IS","formatted_address":"Bjargargata, 102 Reykjavík, Iceland","locality":"Reykjavík","postcode":"102","region":"Reykjavíkurborg"}},"labels":["conference","entertainment"],"duration":7200,"start_local":"2024-05-14T16:00:00","end":"2024-05-14T18:00:00Z","end_local":"2024-05-14T18:00:00","updated":"2024-06-05T07:50:01Z"},{"title":"LS Retail International Conference and expo","description":"Sourced from predicthq.com","category":"expos","start":"2024-05-13T09:00:00Z","geo":{"geometry":{"coordinates":[-21.9322804,64.1502464],"type":"Point"},"placekey":"@avv-vvv-9zz","address":{"country_code":"IS","formatted_address":"Austurbakki 2, 101 Reykjavík, Iceland","postcode":"101","locality":"Reykjavík"}},"labels":["expo"],"duration":205200,"start_local":"2024-05-13T09:00:00","end":"2024-05-15T18:00:00Z","end_local":"2024-05-15T18:00:00","updated":"2024-06-12T00:25:43Z"},{"title":"Úrvalsdeild - Semi-finals - Keflavík vs Grindavík","description":"Sourced from predicthq.com","category":"sports","start":"2024-05-12T19:15:00Z","geo":{"geometry":{"coordinates":[-21.905053,64.093784],"type":"Point"},"placekey":"@avv-sn9-qs5","address":{"country_code":"IS","formatted_address":"Skólabraut 8, 210 Garðabær, Iceland","postcode":"210","locality":"Garðabær","region":"Garðabær"}},"labels":["basketball","sport"],"duration":0,"start_local":"2024-05-12T19:15:00","end":"2024-05-12T19:15:00Z","end_local":"2024-05-12T19:15:00","updated":"2024-06-11T22:30:48Z"},{"title":"Daníel Hjálmtýsson","description":"Sourced from predicthq.com","category":"concerts","start":"2024-05-11T20:00:00Z","geo":{"geometry":{"coordinates":[-21.93776,64.1473],"type":"Point"},"placekey":"@avv-vw2-d9z","address":{"country_code":"IS","formatted_address":"Austurstræti 20 101, Austurstræti 20, 101 Reykjavík, Iceland","postcode":"101","locality":"Reykjavík","region":"Reykjavíkurborg"}},"labels":["concert","music"],"duration":0,"start_local":"2024-05-11T20:00:00","end":"2024-05-11T20:00:00Z","end_local":"2024-05-11T20:00:00","updated":"2024-06-12T00:49:26Z"},{"title":"Úrvalsdeild - Semi-finals - Njardvík vs Valur","description":"Sourced from predicthq.com","category":"sports","start":"2024-05-11T19:15:00Z","geo":{"geometry":{"coordinates":[-22.544392,63.987481],"type":"Point"},"placekey":"@avv-ndw-fvf","address":{"country_code":"IS","formatted_address":"Íþróttahús Njarðvíkur, Norðurstígur 2, 260 Njarðvík, Iceland","postcode":"260","locality":"Njarðvík","region":"Reykjanesbær"}},"labels":["basketball","sport"],"duration":0,"start_local":"2024-05-11T19:15:00","end":"2024-05-11T19:15:00Z","end_local":"2024-05-11T19:15:00","updated":"2024-06-12T05:31:05Z"},{"title":"Barrett Martin, Duke Garwood, and Daníel Hjálmtýsson","description":"Sourced from predicthq.com","category":"concerts","start":"2024-05-10T20:00:00Z","geo":{"geometry":{"coordinates":[-21.9226645,64.1468071],"type":"Point"},"placekey":"@avv-vvv-c89","address":{"country_code":"IS","formatted_address":"Skúlagata 28, 101 Reykjavík, Iceland","postcode":"101","locality":"Reykjavík","region":"Reykjavíkurborg"}},"labels":["concert","music"],"duration":0,"start_local":"2024-05-10T20:00:00","end":"2024-05-10T20:00:00Z","end_local":"2024-05-10T20:00:00","updated":"2024-06-12T06:51:26Z"},{"title":"Friction","description":"Sourced from predicthq.com","category":"concerts","start":"2024-05-10T19:00:00Z","geo":{"geometry":{"coordinates":[-21.9402,64.14872],"type":"Point"},"placekey":"@avv-vw2-cwk","address":{"country_code":"IS","formatted_address":"Tryggvagata 22, 101 Reykjavík, Iceland","postcode":"101","locality":"Reykjavík","region":"Reykjavíkurborg"}},"labels":["concert","music"],"duration":0,"start_local":"2024-05-10T19:00:00","end":"2024-05-10T19:00:00Z","end_local":"2024-05-10T19:00:00","updated":"2024-06-16T00:25:18Z"},{"title":"Úrvalsdeild - Semi-finals - Grindavík vs Keflavík","description":"Sourced from predicthq.com","category":"sports","start":"2024-05-08T19:15:00Z","geo":{"geometry":{"coordinates":[-21.898011,64.102612],"type":"Point"},"placekey":"@avv-snb-wff","address":{"country_code":"IS","formatted_address":"4432+4RG, Dalsmári 5, 201 Kópavogur, Iceland","postcode":"201","locality":"Kópavogur","region":"Kópavogsbær"}},"labels":["basketball","sport"],"duration":0,"start_local":"2024-05-08T19:15:00","end":"2024-05-08T19:15:00Z","end_local":"2024-05-08T19:15:00","updated":"2024-06-12T06:57:09Z"},{"title":"Úrvalsdeild - Semi-finals - Valur vs Njardvík","description":"Sourced from predicthq.com","category":"sports","start":"2024-05-07T19:15:00Z","geo":{"geometry":{"coordinates":[-21.9225642307234,64.13309426408456],"type":"Point"},"placekey":"@avv-vvw-9s5","address":{"country_code":"IS","formatted_address":"Hlíðarendi, 102 Reykjavík, Iceland","locality":"Reykjavík","postcode":"102","region":"Reykjavíkurborg"}},"labels":["basketball","sport"],"duration":0,"start_local":"2024-05-07T19:15:00","end":"2024-05-07T19:15:00Z","end_local":"2024-05-07T19:15:00","updated":"2024-06-12T05:12:30Z"},{"title":"IATA Ground Handling Conference","description":"Sourced from predicthq.com","category":"conferences","start":"2024-05-07T09:00:00Z","geo":{"geometry":{"coordinates":[-21.9322804,64.1502464],"type":"Point"},"placekey":"@avv-vvv-9zz","address":{"country_code":"IS","formatted_address":"Austurbakki 2, 101 Reykjavík, Iceland","postcode":"101","locality":"Reykjavík"}},"labels":["conference"],"duration":205200,"start_local":"2024-05-07T09:00:00","end":"2024-05-09T18:00:00Z","end_local":"2024-05-09T18:00:00","updated":"2024-06-05T08:51:40Z"},{"title":"Úrvalsdeild - Semi-finals - Keflavík vs Grindavík","description":"Sourced from predicthq.com","category":"sports","start":"2024-05-04T19:15:00Z","geo":{"geometry":{"coordinates":[-21.905053,64.093784],"type":"Point"},"placekey":"@avv-sn9-qs5","address":{"country_code":"IS","formatted_address":"Skólabraut 8, 210 Garðabær, Iceland","postcode":"210","locality":"Garðabær","region":"Garðabær"}},"labels":["basketball","sport"],"duration":0,"start_local":"2024-05-04T19:15:00","end":"2024-05-04T19:15:00Z","end_local":"2024-05-04T19:15:00","updated":"2024-06-12T06:30:37Z"},{"title":"The Puffin Run","description":"Sourced from predicthq.com","category":"sports","start":"2024-05-04T00:00:00Z","geo":{"geometry":{"coordinates":[-20.267321,63.437679],"type":"Point"},"placekey":"@avq-pxr-73q","address":{"country_code":"IS","formatted_address":"900 Vestmannaeyjabær, Iceland","locality":"Vestmannaeyjabær","postcode":"900","region":"Vestmannaeyjabær"}},"labels":["outdoor-sports","running","sport"],"duration":86399,"start_local":"2024-05-04T00:00:00","end":"2024-05-04T23:59:59Z","end_local":"2024-05-04T23:59:59","updated":"2024-06-05T10:19:40Z"},{"title":"Úrvalsdeild - Semi-finals - Njardvík vs Valur","description":"Sourced from predicthq.com","category":"sports","start":"2024-05-03T19:15:00Z","geo":{"geometry":{"coordinates":[-22.544392,63.987481],"type":"Point"},"placekey":"@avv-ndw-fvf","address":{"country_code":"IS","formatted_address":"Íþróttahús Njarðvíkur, Norðurstígur 2, 260 Njarðvík, Iceland","postcode":"260","locality":"Njarðvík","region":"Reykjanesbær"}},"labels":["basketball","sport"],"duration":0,"start_local":"2024-05-03T19:15:00","end":"2024-05-03T19:15:00Z","end_local":"2024-05-03T19:15:00","updated":"2024-06-12T05:36:01Z"},{"title":"Curawaka","description":"Sourced from predicthq.com","category":"concerts","start":"2024-05-02T19:00:00Z","geo":{"geometry":{"coordinates":[-21.93991,64.14583],"type":"Point"},"placekey":"@avv-vvz-xt9","address":{"country_code":"IS","formatted_address":"Vonarstræti 3, 101 Reykjavík, Iceland","postcode":"101","locality":"Reykjavík","region":"Reykjavíkurborg"}},"labels":["concert","music"],"duration":0,"start_local":"2024-05-02T19:00:00","end":"2024-05-02T19:00:00Z","end_local":"2024-05-02T19:00:00","updated":"2024-06-11T21:34:00Z"},{"title":"Úrvalsdeild - Semi-finals - Grindavík vs Keflavík","description":"Sourced from predicthq.com","category":"sports","start":"2024-04-30T19:15:00Z","geo":{"geometry":{"coordinates":[-21.898011,64.102612],"type":"Point"},"placekey":"@avv-snb-wff","address":{"country_code":"IS","formatted_address":"4432+4RG, Dalsmári 5, 201 Kópavogur, Iceland","postcode":"201","locality":"Kópavogur","region":"Kópavogsbær"}},"labels":["basketball","sport"],"duration":0,"start_local":"2024-04-30T19:15:00","end":"2024-04-30T19:15:00Z","end_local":"2024-04-30T19:15:00","updated":"2024-06-12T14:58:40Z"},{"title":"Úrvalsdeild - Semi-finals - Valur vs Njardvík","description":"Sourced from predicthq.com","category":"sports","start":"2024-04-29T20:15:00Z","geo":{"geometry":{"coordinates":[-21.9225642307234,64.13309426408456],"type":"Point"},"placekey":"@avv-vvw-9s5","address":{"country_code":"IS","formatted_address":"Hlíðarendi, 102 Reykjavík, Iceland","locality":"Reykjavík","postcode":"102","region":"Reykjavíkurborg"}},"labels":["basketball","sport"],"duration":0,"start_local":"2024-04-29T20:15:00","end":"2024-04-29T20:15:00Z","end_local":"2024-04-29T20:15:00","updated":"2024-06-12T15:14:22Z"},{"title":"Reykjavik Spring Marathon","description":"Sourced from predicthq.com","category":"sports","start":"2024-04-27T09:00:00Z","geo":{"geometry":{"coordinates":[-21.8341474,64.1188421],"type":"Point"},"placekey":"@avv-sng-zvf","address":{"country_code":"IS","formatted_address":"Rafstöðvarvegur, 110 Sveitarfélagið, Iceland","locality":"Sveitarfélagið","postcode":"110","region":"Reykjavíkurborg"}},"labels":["marathon","outdoor-sports","running","sport"],"duration":0,"start_local":"2024-04-27T09:00:00","end":"2024-04-27T09:00:00Z","end_local":"2024-04-27T09:00:00","updated":"2024-06-05T06:27:23Z"},{"title":"INSPIRE Iceland 2024","description":"Sourced from predicthq.com - No matter your nationality, your age or  financial status...\nthere is a place for you in the INSPIRE Global Sisterhood. Join us!","category":"conferences","start":"2024-04-26T18:00:00Z","geo":{"geometry":{"coordinates":[-21.0056065,63.9372575],"type":"Point"},"placekey":"@avm-fnr-94v","address":{"country_code":"IS","formatted_address":"Eyravegur, 800 Selfoss, Iceland","locality":"Selfoss","postcode":"800","region":"Sveitarfélagið Árborg"}},"labels":["conference","religion"],"duration":82800,"start_local":"2024-04-26T18:00:00","end":"2024-04-27T17:00:00Z","end_local":"2024-04-27T17:00:00","updated":"2024-06-05T03:03:02Z"},{"title":"Úrvalsdeild - Quarter-finals - Njardvík vs Thór Thórlákshöfn","description":"Sourced from predicthq.com","category":"sports","start":"2024-04-25T19:15:00Z","geo":{"geometry":{"coordinates":[-22.544392,63.987481],"type":"Point"},"placekey":"@avv-ndw-fvf","address":{"country_code":"IS","formatted_address":"Íþróttahús Njarðvíkur, Norðurstígur 2, 260 Njarðvík, Iceland","postcode":"260","locality":"Njarðvík","region":"Reykjanesbær"}},"labels":["basketball","sport"],"duration":0,"start_local":"2024-04-25T19:15:00","end":"2024-04-25T19:15:00Z","end_local":"2024-04-25T19:15:00","updated":"2024-06-11T22:25:37Z"},{"title":"Iceland Writers Retreat","description":"Sourced from predicthq.com","category":"conferences","start":"2024-04-24T09:00:00Z","geo":{"geometry":{"coordinates":[-21.910111,64.144203],"type":"Point"},"placekey":"@avv-vvv-nkf","address":{"country_code":"IS","formatted_address":"Þórunnartún, 105 Reykjavík, Iceland","locality":"Reykjavík","postcode":"105","region":"Reykjavíkurborg"}},"labels":["conference"],"duration":378000,"start_local":"2024-04-24T09:00:00","end":"2024-04-28T18:00:00Z","end_local":"2024-04-28T18:00:00","updated":"2024-06-05T10:32:54Z"},{"title":"Nordic Commercial Law Days","description":"Sourced from predicthq.com","category":"conferences","start":"2024-04-24T09:00:00Z","geo":{"geometry":{"coordinates":[-21.95189,64.13962],"type":"Point"},"placekey":"@avv-vw2-4vz","address":{"country_code":"IS","formatted_address":"Sæmundargata 2, 102 Reykjavík, Iceland","postcode":"102","locality":"Reykjavík","region":"Reykjavíkurborg"}},"labels":["conference"],"duration":205200,"start_local":"2024-04-24T09:00:00","end":"2024-04-26T18:00:00Z","end_local":"2024-04-26T18:00:00","updated":"2024-06-05T20:00:50Z"},{"title":"Úrvalsdeild - Quarter-finals - Álftanes vs Keflavík","description":"Sourced from predicthq.com","category":"sports","start":"2024-04-23T19:00:00Z","geo":{"geometry":{"coordinates":[-22.01692125557094,64.10475867829447],"type":"Point"},"placekey":"@avv-skn-4sq","address":{"country_code":"IS","formatted_address":"Garðabær, Iceland","locality":"Garðabær"}},"labels":["basketball","sport"],"duration":0,"start_local":"2024-04-23T19:00:00","end":"2024-04-23T19:00:00Z","end_local":"2024-04-23T19:00:00","updated":"2024-06-12T10:26:50Z"},{"title":"Úrvalsdeild - Quarter-finals - Thór Thórlákshöfn vs Njardvík","description":"Sourced from predicthq.com","category":"sports","start":"2024-04-22T19:30:00Z","geo":{"geometry":{"coordinates":[-21.381806866327043,63.85282035061119],"type":"Point"},"placekey":"@avv-syv-5pv","address":{"country_code":"IS","formatted_address":"Hafnarberg 41, 815 Thorlakshofn, Iceland","postcode":"815","locality":"Thorlakshofn","region":"Sveitarfélagið Ölfus"}},"labels":["basketball","sport"],"duration":0,"start_local":"2024-04-22T19:30:00","end":"2024-04-22T19:30:00Z","end_local":"2024-04-22T19:30:00","updated":"2024-06-12T09:27:33Z"},{"title":"Úrvalsdeild - Quarter-finals - Höttur vs Valur","description":"Sourced from predicthq.com","category":"sports","start":"2024-04-22T19:00:00Z","geo":{"geometry":{"coordinates":[-14.394952,65.267434],"type":"Point"},"placekey":"@avx-4rq-n5z","address":{"country_code":"IS","formatted_address":"Tjarnarbraut 26, 700 Egilsstaðir, Iceland","postcode":"700","locality":"Egilsstaðir","region":"Múlaþing"}},"labels":["basketball","sport"],"duration":0,"start_local":"2024-04-22T19:00:00","end":"2024-04-22T19:00:00Z","end_local":"2024-04-22T19:00:00","updated":"2024-06-12T13:24:17Z"},{"title":"Zucchero","description":"Sourced from predicthq.com","category":"concerts","start":"2024-04-21T20:00:00Z","geo":{"geometry":{"coordinates":[-21.9328757,64.1504749],"type":"Point"},"placekey":"@avv-vvv-9zz","address":{"country_code":"IS","formatted_address":"Austurbakki 2, 101 Reykjavík, Iceland","postcode":"101","locality":"Reykjavík"}},"labels":["concert","music"],"duration":0,"start_local":"2024-04-21T20:00:00","end":"2024-04-21T20:00:00Z","end_local":"2024-04-21T20:00:00","updated":"2024-06-28T00:00:04Z"},{"title":"Ljóðrænn og kraftmikill er saxófónninn | Klassík í Salnum","description":"Sourced from predicthq.com","category":"concerts","start":"2024-04-21T13:30:00Z","geo":{"geometry":{"coordinates":[-21.90902,64.11189],"type":"Point"},"placekey":"@avv-sn8-t9z","address":{"country_code":"IS","formatted_address":"Hamraborg, 200 Kópavogur, Iceland","locality":"Kópavogur","postcode":"200","region":"Kópavogsbær"}},"labels":["concert","music"],"duration":0,"start_local":"2024-04-21T13:30:00","end":"2024-04-21T13:30:00Z","end_local":"2024-04-21T13:30:00","updated":"2024-05-22T14:21:22Z"},{"title":"Úrvalsdeild - Quarter-finals - Keflavík vs Álftanes","description":"Sourced from predicthq.com","category":"sports","start":"2024-04-19T19:30:00Z","geo":{"geometry":{"coordinates":[-21.905053,64.093784],"type":"Point"},"placekey":"@avv-sn9-qs5","address":{"country_code":"IS","formatted_address":"Skólabraut 8, 210 Garðabær, Iceland","postcode":"210","locality":"Garðabær","region":"Garðabær"}},"labels":["basketball","sport"],"duration":0,"start_local":"2024-04-19T19:30:00","end":"2024-04-19T19:30:00Z","end_local":"2024-04-19T19:30:00","updated":"2024-06-11T23:00:27Z"},{"title":"Úrvalsdeild - Quarter-finals - Grindavík vs Tindastóll","description":"Sourced from predicthq.com","category":"sports","start":"2024-04-19T19:00:00Z","geo":{"geometry":{"coordinates":[-21.898011,64.102612],"type":"Point"},"placekey":"@avv-snb-wff","address":{"country_code":"IS","formatted_address":"4432+4RG, Dalsmári 5, 201 Kópavogur, Iceland","postcode":"201","locality":"Kópavogur","region":"Kópavogsbær"}},"labels":["basketball","sport"],"duration":0,"start_local":"2024-04-19T19:00:00","end":"2024-04-19T19:00:00Z","end_local":"2024-04-19T19:00:00","updated":"2024-06-12T03:54:10Z"},{"title":"Úrvalsdeild - Quarter-finals - Njardvík vs Thór Thórlákshöfn","description":"Sourced from predicthq.com","category":"sports","start":"2024-04-18T19:30:00Z","geo":{"geometry":{"coordinates":[-22.544392,63.987481],"type":"Point"},"placekey":"@avv-ndw-fvf","address":{"country_code":"IS","formatted_address":"Íþróttahús Njarðvíkur, Norðurstígur 2, 260 Njarðvík, Iceland","postcode":"260","locality":"Njarðvík","region":"Reykjanesbær"}},"labels":["basketball","sport"],"duration":0,"start_local":"2024-04-18T19:30:00","end":"2024-04-18T19:30:00Z","end_local":"2024-04-18T19:30:00","updated":"2024-06-12T19:04:08Z"},{"title":"Úrvalsdeild - Quarter-finals - Valur vs Höttur","description":"Sourced from predicthq.com","category":"sports","start":"2024-04-18T19:00:00Z","geo":{"geometry":{"coordinates":[-21.9225642307234,64.13309426408456],"type":"Point"},"placekey":"@avv-vvw-9s5","address":{"country_code":"IS","formatted_address":"Hlíðarendi, 102 Reykjavík, Iceland","locality":"Reykjavík","postcode":"102","region":"Reykjavíkurborg"}},"labels":["basketball","sport"],"duration":0,"start_local":"2024-04-18T19:00:00","end":"2024-04-18T19:00:00Z","end_local":"2024-04-18T19:00:00","updated":"2024-06-12T14:33:43Z"},{"title":"Dig into DEIB with WTI and RIKK: DEIB Backlash sponsored by Marel","description":"Sourced from predicthq.com - Dig into DEIB: Backlash-- panel will explore the strong backlash against diversity, equity, inclusion and belonging (DEIB) around the world.","category":"conferences","start":"2024-04-18T16:00:00Z","geo":{"geometry":{"coordinates":[-21.9503903,64.13989579999999],"type":"Point"},"placekey":"@avv-vw2-575","address":{"country_code":"IS","formatted_address":"Sæmundargata, 102 Reykjavík, Iceland","locality":"Reykjavík","postcode":"102","region":"Reykjavíkurborg"}},"labels":["business","conference"],"duration":3600,"start_local":"2024-04-18T16:00:00","end":"2024-04-18T17:00:00Z","end_local":"2024-04-18T17:00:00","updated":"2024-06-05T04:40:34Z"},{"title":"Fossavatnsgangan","description":"Sourced from predicthq.com","category":"sports","start":"2024-04-18T00:00:00Z","geo":{"geometry":{"coordinates":[-23.1250684,66.074878],"type":"Point"},"placekey":"@avw-542-33q","address":{"country_code":"IS","formatted_address":"400 Ísafjörður, Iceland","locality":"Ísafjörður","postcode":"400","region":"Ísafjarðarbær"}},"labels":["outdoor-sports","running","sport"],"duration":259199,"start_local":"2024-04-18T00:00:00","end":"2024-04-20T23:59:59Z","end_local":"2024-04-20T23:59:59","updated":"2024-06-05T00:27:07Z"},{"title":"Bistro Boy and X.U.L","description":"Sourced from predicthq.com","category":"concerts","start":"2024-04-17T19:30:00Z","geo":{"geometry":{"coordinates":[-21.9328757,64.1504749],"type":"Point"},"placekey":"@avv-vvv-9zz","address":{"country_code":"IS","formatted_address":"Austurbakki 2, 101 Reykjavík, Iceland","postcode":"101","locality":"Reykjavík","region":"Reykjavíkurborg"}},"labels":["concert","music"],"duration":0,"start_local":"2024-04-17T19:30:00","end":"2024-04-17T19:30:00Z","end_local":"2024-04-17T19:30:00","updated":"2024-06-12T02:57:59Z"},{"title":"Datacloud ESG Summit","description":"Sourced from predicthq.com","category":"conferences","start":"2024-04-17T09:00:00Z","geo":{"geometry":{"coordinates":[-21.9322804,64.1502464],"type":"Point"},"placekey":"@avv-vvv-9zz","address":{"country_code":"IS","formatted_address":"Austurbakki 2, 101 Reykjavík, Iceland","postcode":"101","locality":"Reykjavík"}},"labels":["conference"],"duration":118800,"start_local":"2024-04-17T09:00:00","end":"2024-04-18T18:00:00Z","end_local":"2024-04-18T18:00:00","updated":"2024-06-05T13:22:28Z"},{"title":"Úrvalsdeild - Quarter-finals - Tindastóll vs Grindavík","description":"Sourced from predicthq.com","category":"sports","start":"2024-04-15T19:30:00Z","geo":{"geometry":{"coordinates":[-19.643824,65.742724],"type":"Point"},"placekey":"@avm-7b7-t35","address":{"country_code":"IS","formatted_address":"Skagfirðingabraut 22, 550 Sauðárkrókur, Iceland","postcode":"550","locality":"Sauðárkrókur","region":"Skagafjörður"}},"labels":["basketball","sport"],"duration":0,"start_local":"2024-04-15T19:30:00","end":"2024-04-15T19:30:00Z","end_local":"2024-04-15T19:30:00","updated":"2024-06-12T05:15:42Z"},{"title":"Úrvalsdeild - Quarter-finals - Álftanes vs Keflavík","description":"Sourced from predicthq.com","category":"sports","start":"2024-04-15T19:00:00Z","geo":{"geometry":{"coordinates":[-22.01692125557094,64.10475867829447],"type":"Point"},"placekey":"@avv-skn-4sq","address":{"country_code":"IS","formatted_address":"Garðabær, Iceland","locality":"Garðabær"}},"labels":["basketball","sport"],"duration":0,"start_local":"2024-04-15T19:00:00","end":"2024-04-15T19:00:00Z","end_local":"2024-04-15T19:00:00","updated":"2024-06-12T05:06:37Z"},{"title":"Úrvalsdeild - Quarter-finals - Thór Thórlákshöfn vs Njardvík","description":"Sourced from predicthq.com","category":"sports","start":"2024-04-14T19:30:00Z","geo":{"geometry":{"coordinates":[-21.381806866327043,63.85282035061119],"type":"Point"},"placekey":"@avv-syv-5pv","address":{"country_code":"IS","formatted_address":"Hafnarberg 41, 815 Thorlakshofn, Iceland","postcode":"815","locality":"Thorlakshofn","region":"Sveitarfélagið Ölfus"}},"labels":["basketball","sport"],"duration":0,"start_local":"2024-04-14T19:30:00","end":"2024-04-14T19:30:00Z","end_local":"2024-04-14T19:30:00","updated":"2024-06-12T00:27:37Z"},{"title":"Úrvalsdeild - Quarter-finals - Höttur vs Valur","description":"Sourced from predicthq.com","category":"sports","start":"2024-04-14T19:00:00Z","geo":{"geometry":{"coordinates":[-14.394952,65.267434],"type":"Point"},"placekey":"@avx-4rq-n5z","address":{"country_code":"IS","formatted_address":"Tjarnarbraut 26, 700 Egilsstaðir, Iceland","postcode":"700","locality":"Egilsstaðir","region":"Múlaþing"}},"labels":["basketball","sport"],"duration":0,"start_local":"2024-04-14T19:00:00","end":"2024-04-14T19:00:00Z","end_local":"2024-04-14T19:00:00","updated":"2024-06-12T07:18:33Z"},{"title":"Sustainability Conference","description":"Sourced from predicthq.com","category":"conferences","start":"2024-04-12T09:00:00Z","geo":{"geometry":{"coordinates":[-18.12232,65.685463],"type":"Point"},"placekey":"@avn-cps-cbk","address":{"country_code":"IS","formatted_address":"Norðurslóð, 600 Akureyri, Iceland","postcode":"600","locality":"Akureyri","region":"Akureyrarbær"}},"labels":["conference"],"duration":32400,"start_local":"2024-04-12T09:00:00","end":"2024-04-12T18:00:00Z","end_local":"2024-04-12T18:00:00","updated":"2024-05-31T22:52:44Z"},{"title":"Úrvalsdeild - Quarter-finals - Grindavík vs Tindastóll","description":"Sourced from predicthq.com","category":"sports","start":"2024-04-11T19:30:00Z","geo":{"geometry":{"coordinates":[-21.898011,64.102612],"type":"Point"},"placekey":"@avv-snb-wff","address":{"country_code":"IS","formatted_address":"4432+4RG, Dalsmári 5, 201 Kópavogur, Iceland","postcode":"201","locality":"Kópavogur","region":"Kópavogsbær"}},"labels":["basketball","sport"],"duration":0,"start_local":"2024-04-11T19:30:00","end":"2024-04-11T19:30:00Z","end_local":"2024-04-11T19:30:00","updated":"2024-06-12T13:13:46Z"},{"title":"Úrvalsdeild - Quarter-finals - Keflavík vs Álftanes","description":"Sourced from predicthq.com","category":"sports","start":"2024-04-11T19:00:00Z","geo":{"geometry":{"coordinates":[-21.905053,64.093784],"type":"Point"},"placekey":"@avv-sn9-qs5","address":{"country_code":"IS","formatted_address":"Skólabraut 8, 210 Garðabær, Iceland","postcode":"210","locality":"Garðabær","region":"Garðabær"}},"labels":["basketball","sport"],"duration":0,"start_local":"2024-04-11T19:00:00","end":"2024-04-11T19:00:00Z","end_local":"2024-04-11T19:00:00","updated":"2024-06-12T04:48:52Z"},{"title":"Úrvalsdeild - Quarter-finals - Valur vs Höttur","description":"Sourced from predicthq.com","category":"sports","start":"2024-04-10T20:15:00Z","geo":{"geometry":{"coordinates":[-21.9225642307234,64.13309426408456],"type":"Point"},"placekey":"@avv-vvw-9s5","address":{"country_code":"IS","formatted_address":"Hlíðarendi, 102 Reykjavík, Iceland","locality":"Reykjavík","postcode":"102","region":"Reykjavíkurborg"}},"labels":["basketball","sport"],"duration":0,"start_local":"2024-04-10T20:15:00","end":"2024-04-10T20:15:00Z","end_local":"2024-04-10T20:15:00","updated":"2024-06-12T08:44:29Z"},{"title":"Úrvalsdeild - Quarter-finals - Njardvík vs Thór Thórlákshöfn","description":"Sourced from predicthq.com","category":"sports","start":"2024-04-10T19:30:00Z","geo":{"geometry":{"coordinates":[-22.544392,63.987481],"type":"Point"},"placekey":"@avv-ndw-fvf","address":{"country_code":"IS","formatted_address":"Íþróttahús Njarðvíkur, Norðurstígur 2, 260 Njarðvík, Iceland","postcode":"260","locality":"Njarðvík","region":"Reykjanesbær"}},"labels":["basketball","sport"],"duration":0,"start_local":"2024-04-10T19:30:00","end":"2024-04-10T19:30:00Z","end_local":"2024-04-10T19:30:00","updated":"2024-06-12T08:53:05Z"},{"title":"Volume invites Carbon","description":"Sourced from predicthq.com","category":"concerts","start":"2024-04-09T22:00:00Z","geo":{"geometry":{"coordinates":[-21.94,64.1458333],"type":"Point"},"placekey":"@avv-vvz-xt9","address":{"country_code":"IS","formatted_address":"Vonarstræti, 101 Reykjavík, Iceland","locality":"Reykjavík","postcode":"101","region":"Reykjavíkurborg"}},"labels":["concert","music"],"duration":18000,"start_local":"2024-04-09T22:00:00","end":"2024-04-10T03:00:00Z","end_local":"2024-04-10T03:00:00","updated":"2024-06-04T23:34:12Z"},{"title":"Copy of Starfskynningar MA vor 24","description":"Sourced from predicthq.com - Starfskynningar","category":"conferences","start":"2024-04-06T11:30:00Z","geo":{"geometry":{"coordinates":[-18.0921084,65.6775225],"type":"Point"},"placekey":"@avn-cpp-tsq","address":{"country_code":"IS","formatted_address":"Eyrarlandsvegur, 600 Akureyri, Iceland","locality":"Akureyri","postcode":"600","region":"Akureyrarbær"}},"labels":["conference","education","family"],"duration":345600,"start_local":"2024-04-06T11:30:00","end":"2024-04-10T11:30:00Z","end_local":"2024-04-10T11:30:00","updated":"2024-06-04T22:09:12Z"}]