[{"title":"CoSteer Launch in Jersey","description":"Sourced from predicthq.com - Join us for the exciting launch of CoSteer in Jersey, where we'll steer towards success together!","category":"conferences","start":"2024-09-30T07:30:00Z","geo":{"geometry":{"coordinates":[-2.102194,49.182572],"type":"Point"},"placekey":"@4f7-b4t-syv","address":{"country_code":"JE","formatted_address":"Block 3, Ground Floor, Forum 4, Grenville St, St Helier, Jersey JE2 4UF, Jersey","postcode":"JE2 4UF","locality":"Saint Helier","region":"St Helier"}},"labels":["business","conference"],"duration":7200,"start_local":"2024-09-30T08:30:00","end":"2024-09-30T09:30:00Z","end_local":"2024-09-30T10:30:00","updated":"2024-06-26T08:11:21Z"},{"title":"Vintage Tea and Guided Tour of 16 New Street","description":"Sourced from predicthq.com - Enjoy a cream tea in the splendour of  16 New Street Georgian House, followed by a guided tour of the house with the Living History Cook.","category":"conferences","start":"2024-09-28T09:30:00Z","geo":{"geometry":{"coordinates":[-2.1067813,49.1852098],"type":"Point"},"placekey":"@4f7-b4t-wtv","address":{"country_code":"JE","formatted_address":"New St, St Helier, Jersey JE2 3WP, Jersey","postcode":"JE2 3WP","locality":"Saint Helier","region":"St Helier"}},"labels":["conference","food"],"duration":5400,"start_local":"2024-09-28T10:30:00","end":"2024-09-28T11:00:00Z","end_local":"2024-09-28T12:00:00","updated":"2024-06-27T13:57:38Z"},{"title":"Infection Prevention & Control for Community Health Care Workers","description":"Sourced from predicthq.com - To enable staff to understand and demonstrate the required expectations for effective and safe Infection Prevention & Control  practice","category":"conferences","start":"2024-09-24T13:00:00Z","geo":{"geometry":{"coordinates":[-2.1775575000000345,49.1862203],"type":"Point"},"placekey":"@4f7-b39-btv","address":{"country_code":"JE","formatted_address":"A13, Jersey JE3, Jersey, Channel Islands","locality":"Jersey","postcode":"JE3","region":"St Brelade"}},"labels":["conference","health"],"duration":3600,"start_local":"2024-09-24T14:00:00","end":"2024-09-24T14:00:00Z","end_local":"2024-09-24T15:00:00","updated":"2024-06-04T01:13:37Z"},{"title":"4AM KRU LIVE  * WATERSPLASH * JERSEY","description":"Sourced from predicthq.com - Off Grid are extremely proud to announce the biggest music event this summer in Jersey !!!","category":"concerts","start":"2024-09-21T21:00:00Z","geo":{"geometry":{"coordinates":[-2.224029,49.210256],"type":"Point"},"placekey":"@4f7-b2n-bc5","address":{"country_code":"JE","formatted_address":"Jersey, St. Peter, Jersey, Channel Islands","locality":"Jersey","region":"St. Peter"}},"labels":["concert","music"],"duration":14400,"start_local":"2024-09-21T22:00:00","end":"2024-09-22T01:00:00Z","end_local":"2024-09-22T02:00:00","updated":"2024-06-07T02:34:15Z"},{"title":"Jersey Eating Disorders Support 40th Anniversary Conference","description":"Sourced from predicthq.com - Come celebrate 40 years of support for eating disorders in Jersey at our in-person conference!","category":"conferences","start":"2024-09-20T08:30:00Z","geo":{"geometry":{"coordinates":[-2.1085977,49.1829076],"type":"Point"},"placekey":"@4f7-b4t-t5f","address":{"country_code":"JE","formatted_address":"Liberation Square, St Helier, Jersey JE1 3UF, Jersey","postcode":"JE1 3UF","locality":"Saint Helier","region":"St Helier"}},"labels":["conference","health"],"duration":25200,"start_local":"2024-09-20T09:30:00","end":"2024-09-20T15:30:00Z","end_local":"2024-09-20T16:30:00","updated":"2024-06-04T01:21:40Z"},{"title":"Alexforbes Festival of Financial Wellbeing","description":"Sourced from predicthq.com - Join us on Thursday 19 September at Jersey Museum for our Festival of Financial Wellbeing. Meet our experts & find your financial sweetspot.","category":"festivals","start":"2024-09-19T16:00:00Z","geo":{"geometry":{"coordinates":[-2.107261400000001,49.18251859999999],"type":"Point"},"placekey":"@4f7-b4t-tjv","address":{"country_code":"JE","formatted_address":"Pier Road, Saint Helier JE1 4HF, Jersey, Channel Islands","locality":"Saint Helier","postcode":"JE1 4HF","region":"St Helier"}},"labels":["business","festival"],"duration":14400,"start_local":"2024-09-19T17:00:00","end":"2024-09-19T20:00:00Z","end_local":"2024-09-19T21:00:00","updated":"2024-07-03T19:38:24Z"},{"title":"PRIDE IN SPORT Lunch & Learn with Liberate Jersey","description":"Sourced from predicthq.com - Developed in partnership with Liberate Jersey, this workshop promotes diversity, inclusion and equality in sport and physical activity.","category":"conferences","start":"2024-09-17T11:10:00Z","geo":{"geometry":{"coordinates":[-2.104443,49.1865337],"type":"Point"},"placekey":"@4f7-b4t-vmk","address":{"country_code":"JE","formatted_address":"78-80 Halkett Place, Saint Helier JE2 3RQ, Jersey, Channel Islands","postcode":"JE2 3RQ","locality":"Saint Helier","region":"St Helier"}},"labels":["conference","sport"],"duration":3600,"start_local":"2024-09-17T12:10:00","end":"2024-09-17T12:10:00Z","end_local":"2024-09-17T13:10:00","updated":"2024-06-02T05:00:05Z"},{"title":"Dementia Jersey Half Marathon","description":"Sourced from predicthq.com","category":"sports","start":"2024-09-08T08:00:00Z","geo":{"geometry":{"coordinates":[-2.0850697,49.1738727],"type":"Point"},"placekey":"@4f7-b8t-nqz","address":{"country_code":"JE","formatted_address":"Florence Boot Cottages, Jersey JE2, Jersey, Channel Islands","locality":"Jersey","postcode":"JE2","region":"St Clement"}},"labels":["marathon","outdoor-sports","running","sport"],"duration":0,"start_local":"2024-09-08T09:00:00","end":"2024-09-08T08:00:00Z","end_local":"2024-09-08T09:00:00","updated":"2024-07-04T07:02:47Z"},{"title":"Parish 13","description":"Sourced from predicthq.com","category":"concerts","start":"2024-09-06T19:30:00Z","geo":{"geometry":{"coordinates":[-2.0210178,49.1998482],"type":"Point"},"placekey":"@4f7-bpw-cyv","address":{"country_code":"JE","formatted_address":"Gorey Pier, Jersey JE3 6DR, Jersey","postcode":"JE3 6DR","locality":"Jersey","region":"St Martin"}},"labels":["concert","music"],"duration":0,"start_local":"2024-09-06T20:30:00","end":"2024-09-06T19:30:00Z","end_local":"2024-09-06T20:30:00","updated":"2024-06-11T07:49:00Z"},{"title":"Nova Movando","description":"Sourced from predicthq.com - A night out at the Splash with Jersey's National Dance Company","category":"performing-arts","start":"2024-08-31T19:00:00Z","geo":{"geometry":{"coordinates":[-2.223806999999999,49.2111494],"type":"Point"},"placekey":"@4f7-b2n-bc5","address":{"country_code":"JE","formatted_address":"Route de la Marette, Jersey JE3 7FQ, Jersey, Channel Islands","locality":"Jersey","postcode":"JE3 7FQ","region":"St. Peter"}},"labels":["concert","music","performing-arts"],"duration":12600,"start_local":"2024-08-31T20:00:00","end":"2024-08-31T22:30:00Z","end_local":"2024-08-31T23:30:00","updated":"2024-07-04T12:29:00Z"},{"title":"Defence in depth: Wartime fortifications along the hills of St Ouen’s Bay","description":"Sourced from predicthq.com - Enjoy great views and discover fascinating concrete traces of defences on this walk with historian Ian Ronayne","category":"community","start":"2024-08-31T13:00:00Z","geo":{"geometry":{"coordinates":[-2.201900500000001,49.23256380000001],"type":"Point"},"placekey":"@4f7-b2v-m49","address":{"country_code":"JE","formatted_address":"Jersey, Jersey, Channel Islands","locality":"Jersey"}},"labels":["community","outdoor","sport"],"duration":10800,"start_local":"2024-08-31T14:00:00","end":"2024-08-31T16:00:00Z","end_local":"2024-08-31T17:00:00","updated":"2024-06-04T03:12:45Z"},{"title":"Weekender Jersey","description":"Sourced from predicthq.com - Weekender Festival is an exhilarating annual event that brings together music lovers from all over for a sun-soaked weekend of live performances by renowned artists, pulsating beats, and an array of captivating activities, offering an unforgettable experience of vibrant energy and unbridled joy. It is a celebration of life, friendship, and the shared love for music, set against a breathtaking backdrop surrounded by water and lush landscapes.","category":"festivals","start":"2024-08-30T23:00:00Z","geo":{"geometry":{"coordinates":[-2.0959747,49.231012],"type":"Point"},"placekey":"@4f7-b4w-gtv","address":{"country_code":"JE","formatted_address":"A8, Trinity, Jersey, Channel Islands","locality":"Trinity","region":"Bailiwick of Jersey"}},"labels":["entertainment","festival","music"],"duration":172799,"start_local":"2024-08-31T00:00:00","end":"2024-09-01T22:59:59Z","end_local":"2024-09-01T23:59:59","updated":"2024-06-02T01:29:22Z"},{"title":"Nova Movando","description":"Sourced from predicthq.com - A night out at the Splash with Jersey's National Dance Company","category":"performing-arts","start":"2024-08-30T19:00:00Z","geo":{"geometry":{"coordinates":[-2.223806999999999,49.2111494],"type":"Point"},"placekey":"@4f7-b2n-bc5","address":{"country_code":"JE","formatted_address":"Route de la Marette, Jersey JE3 7FQ, Jersey, Channel Islands","locality":"Jersey","postcode":"JE3 7FQ","region":"St. Peter"}},"labels":["concert","music","performing-arts"],"duration":12600,"start_local":"2024-08-30T20:00:00","end":"2024-08-30T22:30:00Z","end_local":"2024-08-30T23:30:00","updated":"2024-07-04T07:47:18Z"},{"title":"TTW Presents - Carousel (Saturday Evening)","description":"Sourced from predicthq.com - Join us for a Theatrical Evening at TTW's  Summer Production of Carousel! A classic musical put on with exceptional talent!","category":"performing-arts","start":"2024-08-24T18:30:00Z","geo":{"geometry":{"coordinates":[-2.115017,49.1985936],"type":"Point"},"placekey":"@4f7-b4n-x89","address":{"country_code":"JE","formatted_address":"Jersey JE2, Jersey, Channel Islands","locality":"Jersey","postcode":"JE2","region":"St Helier"}},"labels":["concert","music","performing-arts"],"duration":7200,"start_local":"2024-08-24T19:30:00","end":"2024-08-24T20:30:00Z","end_local":"2024-08-24T21:30:00","updated":"2024-07-04T22:29:42Z"},{"title":"TTW Presents - Carousel (Saturday Matinee)","description":"Sourced from predicthq.com - Join us for a Theatrical Evening at TTW's  Summer Production of Carousel! A classic musical put on with exceptional talent!","category":"performing-arts","start":"2024-08-24T13:30:00Z","geo":{"geometry":{"coordinates":[-2.115017,49.1985936],"type":"Point"},"placekey":"@4f7-b4n-x89","address":{"country_code":"JE","formatted_address":"Jersey JE2, Jersey, Channel Islands","locality":"Jersey","postcode":"JE2","region":"St Helier"}},"labels":["concert","music","performing-arts"],"duration":7200,"start_local":"2024-08-24T14:30:00","end":"2024-08-24T15:30:00Z","end_local":"2024-08-24T16:30:00","updated":"2024-07-05T00:53:59Z"},{"title":"TTW Presents - Carousel (Friday Evening)","description":"Sourced from predicthq.com - Join us for a Theatrical Evening at TTW's  Summer Production of Carousel! A classic musical put on with exceptional talent!","category":"performing-arts","start":"2024-08-23T18:30:00Z","geo":{"geometry":{"coordinates":[-2.115017,49.1985936],"type":"Point"},"placekey":"@4f7-b4n-x89","address":{"country_code":"JE","formatted_address":"Jersey JE2, Jersey, Channel Islands","locality":"Jersey","postcode":"JE2","region":"St Helier"}},"labels":["concert","music","performing-arts"],"duration":7200,"start_local":"2024-08-23T19:30:00","end":"2024-08-23T20:30:00Z","end_local":"2024-08-23T21:30:00","updated":"2024-07-05T11:33:45Z"},{"title":"TTW Presents - Carousel (Friday Evening)","description":"Sourced from predicthq.com - Join us for a Theatrical Evening at TTW's  Summer Production of Carousel! A classic musical put on with exceptional talent!","category":"performing-arts","start":"2024-08-22T18:30:00Z","geo":{"geometry":{"coordinates":[-2.115017,49.1985936],"type":"Point"},"placekey":"@4f7-b4n-x89","address":{"country_code":"JE","formatted_address":"Jersey JE2, Jersey, Channel Islands","locality":"Jersey","postcode":"JE2","region":"St Helier"}},"labels":["concert","music","performing-arts"],"duration":7200,"start_local":"2024-08-22T19:30:00","end":"2024-08-22T20:30:00Z","end_local":"2024-08-22T21:30:00","updated":"2024-06-27T02:34:37Z"},{"title":"Citco Round the Island Race","description":"Sourced from predicthq.com - A race around Jersey for IRC and YTC Cruisers, Sportsboats, Quarter Tonners and Sport Cats","category":"community","start":"2024-08-11T07:30:00Z","geo":{"geometry":{"coordinates":[-2.168574000000035,49.18503490000001],"type":"Point"},"placekey":"@4f7-b39-bhq","address":{"country_code":"JE","formatted_address":"Jersey JE3 8AD, Jersey, Channel Islands","locality":"Jersey","postcode":"JE3 8AD","region":"St Brelade"}},"labels":["community","outdoor","sport"],"duration":45000,"start_local":"2024-08-11T08:30:00","end":"2024-08-11T20:00:00Z","end_local":"2024-08-11T21:00:00","updated":"2024-06-20T11:44:59Z"},{"title":"Vintage Tea and Guided Tour of 16 New Street","description":"Sourced from predicthq.com - Enjoy a cream tea in the splendour of  16 New Street Georgian House, followed by a guided tour of the house with the Living History Cook.","category":"conferences","start":"2024-08-10T13:30:00Z","geo":{"geometry":{"coordinates":[-2.1067813,49.1852098],"type":"Point"},"placekey":"@4f7-b4t-wtv","address":{"country_code":"JE","formatted_address":"New St, St Helier, Jersey JE2 3WP, Jersey","postcode":"JE2 3WP","locality":"Saint Helier","region":"St Helier"}},"labels":["conference","food"],"duration":5400,"start_local":"2024-08-10T14:30:00","end":"2024-08-10T15:00:00Z","end_local":"2024-08-10T16:00:00","updated":"2024-06-27T02:07:20Z"},{"title":"Archaeology Festival 2024 - Neolithic Landscape Project","description":"Sourced from predicthq.com - Neolithic Neighbours Pop-up exhibition and display at Ville ès Nouaux dolmen","category":"festivals","start":"2024-08-10T09:00:00Z","geo":{"geometry":{"coordinates":[-2.1311197,49.19767960000001],"type":"Point"},"placekey":"@4f7-b4r-mrk","address":{"country_code":"JE","formatted_address":"Jersey, Jersey, Channel Islands","locality":"Jersey"}},"labels":["community","festival"],"duration":7200,"start_local":"2024-08-10T10:00:00","end":"2024-08-10T11:00:00Z","end_local":"2024-08-10T12:00:00","updated":"2024-07-05T00:07:06Z"},{"title":"PENDULUM * JERSEY * SAT 3RD AUGUST 2024","description":"Sourced from predicthq.com - VA deliver the biggest headline show this year in Jersey","category":"concerts","start":"2024-08-03T20:00:00Z","geo":{"geometry":{"coordinates":[-2.224029,49.210256],"type":"Point"},"placekey":"@4f7-b2n-bc5","address":{"country_code":"JE","formatted_address":"Jersey, St. Peter, Jersey, Channel Islands","locality":"Jersey","region":"St. Peter"}},"labels":["concert","music"],"duration":18000,"start_local":"2024-08-03T21:00:00","end":"2024-08-04T01:00:00Z","end_local":"2024-08-04T02:00:00","updated":"2024-06-20T09:58:22Z"},{"title":"Round the Rock Ultra","description":"Sourced from predicthq.com","category":"sports","start":"2024-08-03T06:00:00Z","geo":{"geometry":{"coordinates":[-2.1091041,49.181635],"type":"Point"},"placekey":"@4f7-b4t-t7q","address":{"country_code":"JE","formatted_address":"Jersey, Jersey, Channel Islands","locality":"Jersey"}},"labels":["marathon","outdoor-sports","running","sport"],"duration":0,"start_local":"2024-08-03T07:00:00","end":"2024-08-03T06:00:00Z","end_local":"2024-08-03T07:00:00","updated":"2024-06-27T00:51:04Z"},{"title":"JH Members: 'The Prince and the Poisoner' extended talk and book signing","description":"Sourced from predicthq.com - JH Members are invited to join guest speaker & American author Dan Morrison, as he shares his daring new book The Prince and the Poisoner.","category":"conferences","start":"2024-08-01T17:00:00Z","geo":{"geometry":{"coordinates":[-2.1079266000000416,49.1828211],"type":"Point"},"placekey":"@4f7-b4t-tjv","address":{"country_code":"JE","formatted_address":"Mulcaster Street, Saint Helier JE2 3NJ, Jersey, Channel Islands","locality":"Saint Helier","postcode":"JE2 3NJ","region":"St Helier"}},"labels":["community","conference"],"duration":5400,"start_local":"2024-08-01T18:00:00","end":"2024-08-01T18:30:00Z","end_local":"2024-08-01T19:30:00","updated":"2024-07-05T06:57:20Z"},{"title":"JH Members' Event: Coffee, Cookies and a Crime in Calcutta","description":"Sourced from predicthq.com - JH Members are invited to a special lunchtime learning with guest speaker & American author Dan Morrison, as he shares his daring new book.","category":"conferences","start":"2024-08-01T12:00:00Z","geo":{"geometry":{"coordinates":[-2.1079266000000416,49.1828211],"type":"Point"},"placekey":"@4f7-b4t-tjv","address":{"country_code":"JE","formatted_address":"Mulcaster Street, Saint Helier JE2 3NJ, Jersey, Channel Islands","locality":"Saint Helier","postcode":"JE2 3NJ","region":"St Helier"}},"labels":["community","conference"],"duration":3600,"start_local":"2024-08-01T13:00:00","end":"2024-08-01T13:00:00Z","end_local":"2024-08-01T14:00:00","updated":"2024-07-04T01:18:03Z"},{"title":"Archaeology Festival  - Meet the Collections & Conservation Lab","description":"Sourced from predicthq.com - Come and 'Meet the Collections' and see some of the archaeology treasures and recent finds that are not usually on display....","category":"conferences","start":"2024-07-27T08:30:00Z","geo":{"geometry":{"coordinates":[-2.0974308,49.2100625],"type":"Point"},"placekey":"@4f7-b4p-49z","address":{"country_code":"JE","formatted_address":"Jersey JE3, Jersey, Channel Islands","locality":"Jersey","postcode":"JE3","region":"St Helier"}},"labels":["community","conference"],"duration":12600,"start_local":"2024-07-27T09:30:00","end":"2024-07-27T12:00:00Z","end_local":"2024-07-27T13:00:00","updated":"2024-07-04T13:36:17Z"},{"title":"THE FINAL DROP FT. SKANTIA & OKO PLUS MUCH MORE","description":"Sourced from predicthq.com - After nearly 8 years Vanguard DNB deliver their final ever event at one of Jersey most iconic venues","category":"concerts","start":"2024-07-26T20:00:00Z","geo":{"geometry":{"coordinates":[-2.1029162,49.1850748],"type":"Point"},"placekey":"@4f7-b4t-vj9","address":{"country_code":"JE","formatted_address":"Beresford St, St Helier, Jersey JE2 4LJ, Jersey","postcode":"JE2 4LJ","locality":"Saint Helier","region":"St Helier"}},"labels":["concert","music"],"duration":18000,"start_local":"2024-07-26T21:00:00","end":"2024-07-27T01:00:00Z","end_local":"2024-07-27T02:00:00","updated":"2024-06-04T09:51:50Z"},{"title":"Archaeology Festival 2024 - A talk with Dr Matt Pope","description":"Sourced from predicthq.com - Dr Matt Pope discusses 'Recent and proposed field and lab research work in Jersey'","category":"conferences","start":"2024-07-26T18:30:00Z","geo":{"geometry":{"coordinates":[-2.1070341,49.1819824],"type":"Point"},"placekey":"@4f7-b4t-v9f","address":{"country_code":"JE","formatted_address":"Pier Road, Saint Helier JE1 4HF, Jersey, Channel Islands","locality":"Saint Helier","postcode":"JE1 4HF","region":"St Helier"}},"labels":["community","conference"],"duration":5400,"start_local":"2024-07-26T19:30:00","end":"2024-07-26T20:00:00Z","end_local":"2024-07-26T21:00:00","updated":"2024-07-04T03:56:30Z"},{"title":"Blues At The Club Hotel & Spa","description":"Sourced from predicthq.com - Enjoy an arrival drink on the glorious  Cocktail Terrace then a three course meal plus show in the elegant Champagne Suite","category":"concerts","start":"2024-07-26T18:00:00Z","geo":{"geometry":{"coordinates":[-2.1023851,49.1814229],"type":"Point"},"placekey":"@4f7-b4t-syv","address":{"country_code":"JE","formatted_address":"Saint Helier JE2 4UH, Jersey, Channel Islands","postcode":"JE2 4UH","locality":"Saint Helier","region":"St Helier"}},"labels":["concert","music"],"duration":14400,"start_local":"2024-07-26T19:00:00","end":"2024-07-26T22:00:00Z","end_local":"2024-07-26T23:00:00","updated":"2024-07-05T04:36:46Z"},{"title":"Burn to Shine by Patricia Allio","description":"Sourced from predicthq.com - ArtHouse Jersey is delighted to present an extraordinary new film work by artist Patricia Allio.","category":"performing-arts","start":"2024-07-25T18:00:00Z","geo":{"geometry":{"coordinates":[-2.107261400000001,49.18251859999999],"type":"Point"},"placekey":"@4f7-b4t-tjv","address":{"country_code":"JE","formatted_address":"Pier Road, Saint Helier JE1 4HF, Jersey, Channel Islands","locality":"Saint Helier","postcode":"JE1 4HF","region":"St Helier"}},"labels":["concert","entertainment","music","performing-arts"],"duration":5400,"start_local":"2024-07-25T19:00:00","end":"2024-07-25T19:30:00Z","end_local":"2024-07-25T20:30:00","updated":"2024-06-04T06:46:49Z"},{"title":"FREE Breakfast Briefing on Essential Strategic Workforce Planning","description":"Sourced from predicthq.com - Effective strategic workforce planning is crucial for maximizing organisational efficiency and staying competitive.","category":"conferences","start":"2024-07-23T07:30:00Z","geo":{"geometry":{"coordinates":[-2.1113998,49.1834297],"type":"Point"},"placekey":"@4f7-b4t-t9z","address":{"country_code":"JE","formatted_address":"Saint Helier JE2 3BQ, Jersey, Channel Islands","locality":"Saint Helier","postcode":"JE2 3BQ","region":"St Helier"}},"labels":["business","conference"],"duration":2700,"start_local":"2024-07-23T08:30:00","end":"2024-07-23T08:15:00Z","end_local":"2024-07-23T09:15:00","updated":"2024-07-04T00:30:02Z"},{"title":"Parish 13","description":"Sourced from predicthq.com","category":"concerts","start":"2024-07-20T19:30:00Z","geo":{"geometry":{"coordinates":[-2.1789756,49.1762505],"type":"Point"},"placekey":"@4f7-b38-w8v","address":{"country_code":"JE","formatted_address":"Le Mont du Ouaisne, Jersey JE3 8AW, Jersey","postcode":"JE3 8AW","locality":"Jersey","region":"Saint-Brélade"}},"labels":["concert","music"],"duration":0,"start_local":"2024-07-20T20:30:00","end":"2024-07-20T19:30:00Z","end_local":"2024-07-20T20:30:00","updated":"2024-06-10T23:54:54Z"},{"title":"Archaeology Festival 2024  presents 'Pig Rearing in Jersey'","description":"Sourced from predicthq.com - Pig rearing in Jersey and the sites they lived in.","category":"festivals","start":"2024-07-20T09:15:00Z","geo":{"geometry":{"coordinates":[-2.1416997,49.22181799999999],"type":"Point"},"placekey":"@4f7-b4y-rp9","address":{"country_code":"JE","formatted_address":"Jersey JE3, Jersey, Channel Islands","locality":"Jersey","postcode":"JE3","region":"St Lawrence"}},"labels":["festival","fundraiser"],"duration":46800,"start_local":"2024-07-20T10:15:00","end":"2024-07-20T22:15:00Z","end_local":"2024-07-20T23:15:00","updated":"2024-07-04T01:56:44Z"},{"title":"Commodre's Cup and Cook Salver","description":"Sourced from predicthq.com - A race to St Malo","category":"community","start":"2024-07-20T08:00:00Z","geo":{"geometry":{"coordinates":[-2.168574000000035,49.18503490000001],"type":"Point"},"placekey":"@4f7-b39-bhq","address":{"country_code":"JE","formatted_address":"Jersey JE3 8AD, Jersey, Channel Islands","locality":"Jersey","postcode":"JE3 8AD","region":"St Brelade"}},"labels":["community","outdoor","sport"],"duration":50400,"start_local":"2024-07-20T09:00:00","end":"2024-07-20T22:00:00Z","end_local":"2024-07-20T23:00:00","updated":"2024-06-28T08:08:48Z"},{"title":"Stroll In Jersey Twilight Walk Gronez 1","description":"Sourced from predicthq.com - Join us for a leisurely evening walk in the beautiful Gronez area of Jersey at twilight!","category":"community","start":"2024-07-19T19:00:00Z","geo":{"geometry":{"coordinates":[-2.245867300000001,49.25283450000001],"type":"Point"},"placekey":"@4f7-b58-7yv","address":{"country_code":"JE","formatted_address":"Jersey, Jersey, Channel Islands","locality":"Jersey"}},"labels":["community","outdoor","sport"],"duration":8100,"start_local":"2024-07-19T20:00:00","end":"2024-07-19T21:15:00Z","end_local":"2024-07-19T22:15:00","updated":"2024-06-04T01:43:12Z"},{"title":"Jérôme Bel by Jérôme Bel","description":"Sourced from predicthq.com - The English language premiere of “Jérôme Bel” by the French choreographer Jérôme Bel,  performed by and in collaboration with Terry O'Connor","category":"performing-arts","start":"2024-07-19T18:30:00Z","geo":{"geometry":{"coordinates":[-2.1994295,49.2458733],"type":"Point"},"placekey":"@4f7-b55-249","address":{"country_code":"JE","formatted_address":"Mont de la Grève de Lecq, Jersey JE3 2DT, Jersey, Channel Islands","locality":"Jersey","postcode":"JE3 2DT","region":"Sainte-Marie"}},"labels":["concert","music","performing-arts"],"duration":7200,"start_local":"2024-07-19T19:30:00","end":"2024-07-19T20:30:00Z","end_local":"2024-07-19T21:30:00","updated":"2024-06-11T04:22:45Z"},{"title":"Council of British Archaeology Festival","description":"Sourced from predicthq.com - Presentation - Recent finds recorded in the Historic Environment Record","category":"festivals","start":"2024-07-19T18:30:00Z","geo":{"geometry":{"coordinates":[-2.1070341,49.1819824],"type":"Point"},"placekey":"@4f7-b4t-v9f","address":{"country_code":"JE","formatted_address":"Pier Road, Saint Helier JE1 4HF, Jersey, Channel Islands","locality":"Saint Helier","postcode":"JE1 4HF","region":"St Helier"}},"labels":["community","festival"],"duration":5400,"start_local":"2024-07-19T19:30:00","end":"2024-07-19T20:00:00Z","end_local":"2024-07-19T21:00:00","updated":"2024-07-05T06:58:22Z"},{"title":"AYS CONNECT - JERSEY","description":"Sourced from predicthq.com - The vision of this AYS Connect event is to gather Youth Pastors, Church leaders & team to give an overview of our new Alpha Youth Series!","category":"conferences","start":"2024-07-19T18:00:00Z","geo":{"geometry":{"coordinates":[-2.1063334,49.1851835],"type":"Point"},"placekey":"@4f7-b4t-x5z","address":{"country_code":"JE","formatted_address":"New Street, Saint Helier JE2 3RA, Jersey, Channel Islands","postcode":"JE2 3RA","locality":"Saint Helier","region":"St Helier"}},"labels":["community","conference"],"duration":7200,"start_local":"2024-07-19T19:00:00","end":"2024-07-19T20:00:00Z","end_local":"2024-07-19T21:00:00","updated":"2024-06-13T00:36:40Z"},{"title":"Générateur de Tensions & Ventilator","description":"Sourced from predicthq.com - Tension Generator & Ventilator.\nA double bill of performances by Paris-based sound artist and composer Camille Lacroix.","category":"performing-arts","start":"2024-07-18T18:00:00Z","geo":{"geometry":{"coordinates":[-2.1994295,49.2458733],"type":"Point"},"placekey":"@4f7-b55-249","address":{"country_code":"JE","formatted_address":"Mont de la Grève de Lecq, Jersey JE3 2DT, Jersey, Channel Islands","locality":"Jersey","postcode":"JE3 2DT","region":"Sainte-Marie"}},"labels":["concert","music","performing-arts"],"duration":3600,"start_local":"2024-07-18T19:00:00","end":"2024-07-18T19:00:00Z","end_local":"2024-07-18T20:00:00","updated":"2024-06-11T09:48:17Z"},{"title":"TEKEX #29","description":"Sourced from predicthq.com - Payments, Paws, Private Equity and Pitches","category":"conferences","start":"2024-07-18T16:00:00Z","geo":{"geometry":{"coordinates":[-2.1118633,49.1832722],"type":"Point"},"placekey":"@4f7-b4t-t9z","address":{"country_code":"JE","formatted_address":"La Route de la Libération, Saint-Helier JE2 3NY, Jersey, Channel Islands","locality":"Saint-Helier","postcode":"JE2 3NY","region":"St Helier"}},"labels":["conference","science","technology"],"duration":18000,"start_local":"2024-07-18T17:00:00","end":"2024-07-18T21:00:00Z","end_local":"2024-07-18T22:00:00","updated":"2024-06-18T16:17:52Z"},{"title":"The Right Advice on… Managing Absence","description":"Sourced from predicthq.com - Get ready to uncover the secrets of successfully managing absence at this in-person event at Law At Work","category":"conferences","start":"2024-07-18T08:30:00Z","geo":{"geometry":{"coordinates":[-2.1107648,49.18586759999999],"type":"Point"},"placekey":"@4f7-b4s-yd9","address":{"country_code":"JE","formatted_address":"Seale Street, Saint Helier JE2 3QG, Jersey, Channel Islands","locality":"Saint Helier","postcode":"JE2 3QG","region":"St Helier"}},"labels":["business","conference"],"duration":9000,"start_local":"2024-07-18T09:30:00","end":"2024-07-18T11:00:00Z","end_local":"2024-07-18T12:00:00","updated":"2024-06-04T02:42:46Z"},{"title":"Evita","description":"Sourced from predicthq.com - Evita the musical with music by Andrew Lloyd Webber & lyrics by Tim Rice, an amateur production by arrangement with the Really Useful Group","category":"performing-arts","start":"2024-07-17T18:30:00Z","geo":{"geometry":{"coordinates":[-2.0963962,49.23157880000001],"type":"Point"},"placekey":"@4f7-b4w-gtv","address":{"country_code":"JE","formatted_address":"La Route de la Trinité, Jersey JE3 5JP, Jersey, Channel Islands","locality":"Jersey","postcode":"JE3 5JP","region":"Trinity"}},"labels":["concert","music","performing-arts"],"duration":10800,"start_local":"2024-07-17T19:30:00","end":"2024-07-17T21:30:00Z","end_local":"2024-07-17T22:30:00","updated":"2024-06-04T11:18:05Z"},{"title":"Evita (BSL signed Performance)","description":"Sourced from predicthq.com - Evita the musical with music by Andrew Lloyd Webber & lyrics by Tim Rice, an amateur production by arrangement with the Really Useful Group","category":"performing-arts","start":"2024-07-16T18:30:00Z","geo":{"geometry":{"coordinates":[-2.0963962,49.23157880000001],"type":"Point"},"placekey":"@4f7-b4w-gtv","address":{"country_code":"JE","formatted_address":"La Route de la Trinité, Jersey JE3 5JP, Jersey, Channel Islands","locality":"Jersey","postcode":"JE3 5JP","region":"Trinity"}},"labels":["concert","music","performing-arts"],"duration":10800,"start_local":"2024-07-16T19:30:00","end":"2024-07-16T21:30:00Z","end_local":"2024-07-16T22:30:00","updated":"2024-06-16T18:36:09Z"},{"title":"Epilepsy Awareness & Buccal Midazolam","description":"Sourced from predicthq.com - Interactive course is suitable for care staff in any setting who may be required to administer Buccal Midazolam as a ‘rescue’ medication.","category":"conferences","start":"2024-07-16T13:00:00Z","geo":{"geometry":{"coordinates":[-2.1775575000000345,49.1862203],"type":"Point"},"placekey":"@4f7-b39-btv","address":{"country_code":"JE","formatted_address":"A13, Jersey JE3, Jersey, Channel Islands","locality":"Jersey","postcode":"JE3","region":"St Brelade"}},"labels":["conference","health"],"duration":5400,"start_local":"2024-07-16T14:00:00","end":"2024-07-16T14:30:00Z","end_local":"2024-07-16T15:30:00","updated":"2024-06-04T05:31:32Z"},{"title":"Evita","description":"Sourced from predicthq.com - Evita the musical with music by Andrew Lloyd Webber & lyrics by Tim Rice, an amateur production by arrangement with the Really Useful Group","category":"performing-arts","start":"2024-07-15T18:30:00Z","geo":{"geometry":{"coordinates":[-2.0963962,49.23157880000001],"type":"Point"},"placekey":"@4f7-b4w-gtv","address":{"country_code":"JE","formatted_address":"La Route de la Trinité, Jersey JE3 5JP, Jersey, Channel Islands","locality":"Jersey","postcode":"JE3 5JP","region":"Trinity"}},"labels":["concert","music","performing-arts"],"duration":10800,"start_local":"2024-07-15T19:30:00","end":"2024-07-15T21:30:00Z","end_local":"2024-07-15T22:30:00","updated":"2024-06-04T06:56:36Z"},{"title":"Evita","description":"Sourced from predicthq.com - Evita the musical with music by Andrew Lloyd Webber & lyrics by Tim Rice, an amateur production by arrangement with the Really Useful Group","category":"performing-arts","start":"2024-07-14T18:30:00Z","geo":{"geometry":{"coordinates":[-2.0963962,49.23157880000001],"type":"Point"},"placekey":"@4f7-b4w-gtv","address":{"country_code":"JE","formatted_address":"La Route de la Trinité, Jersey JE3 5JP, Jersey, Channel Islands","locality":"Jersey","postcode":"JE3 5JP","region":"Trinity"}},"labels":["concert","music","performing-arts"],"duration":10800,"start_local":"2024-07-14T19:30:00","end":"2024-07-14T21:30:00Z","end_local":"2024-07-14T22:30:00","updated":"2024-06-04T03:11:59Z"},{"title":"Evita (Relaxed Performance)","description":"Sourced from predicthq.com - Evita the musical with music by Andrew Lloyd Webber & lyrics by Tim Rice, an amateur production by arrangement with the Really Useful Group","category":"performing-arts","start":"2024-07-14T14:00:00Z","geo":{"geometry":{"coordinates":[-2.0963962,49.23157880000001],"type":"Point"},"placekey":"@4f7-b4w-gtv","address":{"country_code":"JE","formatted_address":"La Route de la Trinité, Jersey JE3 5JP, Jersey, Channel Islands","locality":"Jersey","postcode":"JE3 5JP","region":"Trinity"}},"labels":["concert","music","performing-arts"],"duration":10800,"start_local":"2024-07-14T15:00:00","end":"2024-07-14T17:00:00Z","end_local":"2024-07-14T18:00:00","updated":"2024-06-14T14:29:00Z"},{"title":"Evita","description":"Sourced from predicthq.com - Evita the musical with music by Andrew Lloyd Webber & lyrics by Tim Rice, an amateur production by arrangement with the Really Useful Group","category":"performing-arts","start":"2024-07-13T19:00:00Z","geo":{"geometry":{"coordinates":[-2.0963962,49.23157880000001],"type":"Point"},"placekey":"@4f7-b4w-gtv","address":{"country_code":"JE","formatted_address":"La Route de la Trinité, Jersey JE3 5JP, Jersey, Channel Islands","locality":"Jersey","postcode":"JE3 5JP","region":"Trinity"}},"labels":["concert","music","performing-arts"],"duration":10800,"start_local":"2024-07-13T20:00:00","end":"2024-07-13T22:00:00Z","end_local":"2024-07-13T23:00:00","updated":"2024-06-04T03:04:04Z"},{"title":"BASSTRIPPER (JERSEY DEBUT)  + SUPPORT  :  ROJO POPUP EVENT","description":"Sourced from predicthq.com - VA invite one Europe's most  sort after new underground artists who will also be playing at Tomorrowland, Let It Roll, Glastonbury and more","category":"concerts","start":"2024-07-12T21:00:00Z","geo":{"geometry":{"coordinates":[-2.1029162,49.1850748],"type":"Point"},"placekey":"@4f7-b4t-vj9","address":{"country_code":"JE","formatted_address":"Beresford St, St Helier, Jersey JE2 4LJ, Jersey","postcode":"JE2 4LJ","locality":"Saint Helier","region":"St Helier"}},"labels":["concert","music"],"duration":14400,"start_local":"2024-07-12T22:00:00","end":"2024-07-13T01:00:00Z","end_local":"2024-07-13T02:00:00","updated":"2024-06-13T01:21:21Z"},{"title":"Evita","description":"Sourced from predicthq.com - Evita the musical with music by Andrew Lloyd Webber & lyrics by Tim Rice, an amateur production by arrangement with the Really Useful Group","category":"performing-arts","start":"2024-07-12T19:00:00Z","geo":{"geometry":{"coordinates":[-2.0963962,49.23157880000001],"type":"Point"},"placekey":"@4f7-b4w-gtv","address":{"country_code":"JE","formatted_address":"La Route de la Trinité, Jersey JE3 5JP, Jersey, Channel Islands","locality":"Jersey","postcode":"JE3 5JP","region":"Trinity"}},"labels":["concert","music","performing-arts"],"duration":10800,"start_local":"2024-07-12T20:00:00","end":"2024-07-12T22:00:00Z","end_local":"2024-07-12T23:00:00","updated":"2024-06-04T00:52:08Z"},{"title":"What Shadow? (Ce Que Dit la Bouche d'Ombre) Artist Talk","description":"Sourced from predicthq.com - Hear from artists involved in the exhibition as they discuss their work and artistic processes, working individually and collaboratively","category":"conferences","start":"2024-07-12T17:30:00Z","geo":{"geometry":{"coordinates":[-2.1065065,49.1837284],"type":"Point"},"placekey":"@4f7-b4t-rzf","address":{"country_code":"JE","formatted_address":"Church Street, Saint Helier JE2 3NN, Jersey, Channel Islands","locality":"Saint Helier","postcode":"JE2 3NN","region":"St Helier"}},"labels":["conference","performing-arts"],"duration":3600,"start_local":"2024-07-12T18:30:00","end":"2024-07-12T18:30:00Z","end_local":"2024-07-12T19:30:00","updated":"2024-06-20T05:13:00Z"},{"title":"Ballet at the Opera 2024","description":"Sourced from predicthq.com - Domaine des Vaux Opera Festival presents a special performance from Ballet d'Jèrri, courtesy of Marcus and Anne Binney.","category":"performing-arts","start":"2024-07-11T18:30:00Z","geo":{"geometry":{"coordinates":[-2.1391092,49.206997],"type":"Point"},"placekey":"@4f7-b4s-gzf","address":{"country_code":"JE","formatted_address":"Rue de Bas, Jersey JE2, Jersey, Channel Islands","locality":"Jersey","postcode":"JE2","region":"Saint-Laurent"}},"labels":["concert","music","performing-arts"],"duration":0,"start_local":"2024-07-11T19:30:00","end":"2024-07-11T18:30:00Z","end_local":"2024-07-11T19:30:00","updated":"2024-06-11T02:33:05Z"},{"title":"Evita","description":"Sourced from predicthq.com - Evita the musical with music by Andrew Lloyd Webber & lyrics by Tim Rice, an amateur production by arrangement with the Really Useful Group","category":"performing-arts","start":"2024-07-11T18:30:00Z","geo":{"geometry":{"coordinates":[-2.0963962,49.23157880000001],"type":"Point"},"placekey":"@4f7-b4w-gtv","address":{"country_code":"JE","formatted_address":"La Route de la Trinité, Jersey JE3 5JP, Jersey, Channel Islands","locality":"Jersey","postcode":"JE3 5JP","region":"Trinity"}},"labels":["concert","music","performing-arts"],"duration":10800,"start_local":"2024-07-11T19:30:00","end":"2024-07-11T21:30:00Z","end_local":"2024-07-11T22:30:00","updated":"2024-06-04T07:56:18Z"},{"title":"'Summer Nights Sessions' at Mont Orgueil","description":"Sourced from predicthq.com - Join Jersey Heritage for a ‘Summer Nights Session’ experience and see Mont Orgueil Castle in a completely different light.","category":"concerts","start":"2024-07-11T18:00:00Z","geo":{"geometry":{"coordinates":[-2.0208294,49.2005612],"type":"Point"},"placekey":"@4f7-bpw-d9z","address":{"country_code":"JE","formatted_address":"Jersey JE3 6DR, Jersey, Channel Islands","locality":"Jersey","postcode":"JE3 6DR","region":"St Martin"}},"labels":["community","concert","music"],"duration":7200,"start_local":"2024-07-11T19:00:00","end":"2024-07-11T20:00:00Z","end_local":"2024-07-11T21:00:00","updated":"2024-06-28T03:42:36Z"},{"title":"The Power of Open-Source Intelligence (OSINT): Friend to Foe","description":"Sourced from predicthq.com - In today's world, data is king, but OSINT is the secret weapon! This seminar dives into the world of Open- Source Intelligence","category":"conferences","start":"2024-07-11T16:00:00Z","geo":{"geometry":{"coordinates":[-2.1112403,49.1856477],"type":"Point"},"placekey":"@4f7-b4s-yd9","address":{"country_code":"JE","formatted_address":"Seaton Place, Saint Helier JE2 3QL, Jersey, Channel Islands","locality":"Saint Helier","postcode":"JE2 3QL","region":"St Helier"}},"labels":["conference","science","technology"],"duration":5400,"start_local":"2024-07-11T17:00:00","end":"2024-07-11T17:30:00Z","end_local":"2024-07-11T18:30:00","updated":"2024-06-27T17:01:59Z"},{"title":"Great Minds Series:  Security Frameworks & Standards:  Drivers for change","description":"Sourced from predicthq.com - Join us on 11 July for a deep dive into the latest security frameworks & standards that are driving change in security tools & behaviours","category":"conferences","start":"2024-07-11T13:00:00Z","geo":{"geometry":{"coordinates":[-2.114953,49.182711],"type":"Point"},"placekey":"@4f7-b4s-vj9","address":{"country_code":"JE","formatted_address":"Saint Helier JE2 3WF, Jersey, Channel Islands","locality":"Saint Helier","postcode":"JE2 3WF","region":"St Helier"}},"labels":["conference","science","technology"],"duration":10800,"start_local":"2024-07-11T14:00:00","end":"2024-07-11T16:00:00Z","end_local":"2024-07-11T17:00:00","updated":"2024-06-27T15:34:54Z"},{"title":"Institute of Law  Open Event","description":"Sourced from predicthq.com - Come and find out how you can add value to your career with a legal qualification or CPD course. IOL offers a wide range to suit all.","category":"conferences","start":"2024-07-11T11:00:00Z","geo":{"geometry":{"coordinates":[-2.1068168,49.1826697],"type":"Point"},"placekey":"@4f7-b4t-tjv","address":{"country_code":"JE","formatted_address":"Pier Road, Saint Helier JE2 4XW, Jersey, Channel Islands","locality":"Saint Helier","postcode":"JE2 4XW","region":"St Helier"}},"labels":["business","conference"],"duration":3600,"start_local":"2024-07-11T12:00:00","end":"2024-07-11T12:00:00Z","end_local":"2024-07-11T13:00:00","updated":"2024-07-04T10:45:49Z"},{"title":"Driving Business Growth by Recognising Sustainability Opportunities","description":"Sourced from predicthq.com - Enjoy breakfast & discover the business potential of sustainability – from ESG, Comms & Transformation experts","category":"conferences","start":"2024-07-11T07:00:00Z","geo":{"geometry":{"coordinates":[-2.107736,49.18251300000001],"type":"Point"},"placekey":"@4f7-b4t-tjv","address":{"country_code":"JE","formatted_address":"Caledonia Place, Saint Helier JE2 3NG, Jersey, Channel Islands","locality":"Saint Helier","postcode":"JE2 3NG","region":"St Helier"}},"labels":["business","conference"],"duration":5400,"start_local":"2024-07-11T08:00:00","end":"2024-07-11T08:30:00Z","end_local":"2024-07-11T09:30:00","updated":"2024-06-20T15:55:03Z"},{"title":"BYP CI Career Masterclass: Follow Your Inner Compass To Break Boundaries","description":"Sourced from predicthq.com - Join us for a Career Masterclass where we'll help you tap into your inner compass to smash through boundaries and reach your full potential!","category":"conferences","start":"2024-07-10T12:00:00Z","geo":{"geometry":{"coordinates":[-2.104443,49.1865337],"type":"Point"},"placekey":"@4f7-b4t-vmk","address":{"country_code":"JE","formatted_address":"Halkett Place, Saint Helier JE2 4TU, Jersey, Channel Islands","locality":"Saint Helier","postcode":"JE2 4TU","region":"St Helier"}},"labels":["business","conference"],"duration":3600,"start_local":"2024-07-10T13:00:00","end":"2024-07-10T13:00:00Z","end_local":"2024-07-10T14:00:00","updated":"2024-07-04T01:08:35Z"},{"title":"Solving the Housing Crisis","description":"Sourced from predicthq.com - The Minister for Housing Deputy Sam Mezec will outline his work in dealing with this thorny issue for the island.","category":"conferences","start":"2024-07-10T11:00:00Z","geo":{"geometry":{"coordinates":[-2.107736,49.18251300000001],"type":"Point"},"placekey":"@4f7-b4t-tjv","address":{"country_code":"JE","formatted_address":"Caledonia Place, Saint Helier JE2 3NG, Jersey, Channel Islands","locality":"Saint Helier","postcode":"JE2 3NG","region":"St Helier"}},"labels":["business","conference"],"duration":9000,"start_local":"2024-07-10T12:00:00","end":"2024-07-10T13:30:00Z","end_local":"2024-07-10T14:30:00","updated":"2024-06-04T10:43:42Z"},{"title":"Navigating UK Real Estate Tax Complexities breakfast briefing","description":"Sourced from predicthq.com - In this breakfast briefing we will discuss common errors and issues","category":"conferences","start":"2024-07-10T07:30:00Z","geo":{"geometry":{"coordinates":[-2.1113998,49.1834297],"type":"Point"},"placekey":"@4f7-b4t-t9z","address":{"country_code":"JE","formatted_address":"Saint Helier JE2 3BQ, Jersey, Channel Islands","locality":"Saint Helier","postcode":"JE2 3BQ","region":"St Helier"}},"labels":["business","conference"],"duration":5400,"start_local":"2024-07-10T08:30:00","end":"2024-07-10T09:00:00Z","end_local":"2024-07-10T10:00:00","updated":"2024-06-27T18:01:24Z"},{"title":"Evita","description":"Sourced from predicthq.com - Evita the musical with music by Andrew Lloyd Webber & lyrics by Tim Rice, an amateur production by arrangement with the Really Useful Group","category":"performing-arts","start":"2024-07-09T18:30:00Z","geo":{"geometry":{"coordinates":[-2.0963962,49.23157880000001],"type":"Point"},"placekey":"@4f7-b4w-gtv","address":{"country_code":"JE","formatted_address":"La Route de la Trinité, Jersey JE3 5JP, Jersey, Channel Islands","locality":"Jersey","postcode":"JE3 5JP","region":"Trinity"}},"labels":["concert","music","performing-arts"],"duration":10800,"start_local":"2024-07-09T19:30:00","end":"2024-07-09T21:30:00Z","end_local":"2024-07-09T22:30:00","updated":"2024-06-04T03:18:35Z"},{"title":"Tango Calor - Milonga Music and Dance Night","description":"Sourced from predicthq.com - Get on your dancing shoes (or just kick back and enjoy the show) as we celebrate Argentina Day, with world class music from Tango Calor","category":"performing-arts","start":"2024-07-09T18:00:00Z","geo":{"geometry":{"coordinates":[-2.109709,49.185896],"type":"Point"},"placekey":"@4f7-b4t-wx5","address":{"country_code":"JE","formatted_address":"York Street, Saint Helier JE2 3RQ, Jersey, Channel Islands","locality":"Saint Helier","postcode":"JE2 3RQ","region":"St Helier"}},"labels":["concert","music","performing-arts"],"duration":7200,"start_local":"2024-07-09T19:00:00","end":"2024-07-09T20:00:00Z","end_local":"2024-07-09T21:00:00","updated":"2024-06-04T04:24:10Z"},{"title":"AI Powered Productivity - Strategising for Success","description":"Sourced from predicthq.com - Let us guide you in your digital adoption journey with a focus on AI and how it can be used to improve your organisations productivity","category":"conferences","start":"2024-07-09T07:15:00Z","geo":{"geometry":{"coordinates":[-2.107736,49.18251300000001],"type":"Point"},"placekey":"@4f7-b4t-tjv","address":{"country_code":"JE","formatted_address":"Caledonia Place, Saint Helier JE2 3NG, Jersey, Channel Islands","locality":"Saint Helier","postcode":"JE2 3NG","region":"St Helier"}},"labels":["conference","science","technology"],"duration":9900,"start_local":"2024-07-09T08:15:00","end":"2024-07-09T10:00:00Z","end_local":"2024-07-09T11:00:00","updated":"2024-06-06T01:12:51Z"},{"title":"Evita","description":"Sourced from predicthq.com - Evita the musical with music by Andrew Lloyd Webber & lyrics by Tim Rice, an amateur production by arrangement with the Really Useful Group","category":"performing-arts","start":"2024-07-08T18:30:00Z","geo":{"geometry":{"coordinates":[-2.0963962,49.23157880000001],"type":"Point"},"placekey":"@4f7-b4w-gtv","address":{"country_code":"JE","formatted_address":"La Route de la Trinité, Jersey JE3 5JP, Jersey, Channel Islands","locality":"Jersey","postcode":"JE3 5JP","region":"Trinity"}},"labels":["concert","music","performing-arts"],"duration":10800,"start_local":"2024-07-08T19:30:00","end":"2024-07-08T21:30:00Z","end_local":"2024-07-08T22:30:00","updated":"2024-06-04T00:58:08Z"},{"title":"Domaine des Vaux Opera Festival 2024","description":"Sourced from predicthq.com - Diva Opera Company bring three evenings of live opera to Jersey for a feast of music and entertainment","category":"performing-arts","start":"2024-07-08T18:30:00Z","geo":{"geometry":{"coordinates":[-2.14711520000003,49.2223001],"type":"Point"},"placekey":"@4f7-b2s-w49","address":{"country_code":"JE","formatted_address":"Jersey, Jersey, Channel Islands","locality":"Jersey"}},"labels":["concert","music","performing-arts"],"duration":10800,"start_local":"2024-07-08T19:30:00","end":"2024-07-08T21:30:00Z","end_local":"2024-07-08T22:30:00","updated":"2024-06-04T03:03:22Z"},{"title":"Mind The Gap: Allyship and Best Practice","description":"Sourced from predicthq.com - Join our facilitated discussion on how we can all work together to close diversity pay gaps in our workplaces.","category":"conferences","start":"2024-07-08T15:30:00Z","geo":{"geometry":{"coordinates":[-2.114953,49.182711],"type":"Point"},"placekey":"@4f7-b4s-vj9","address":{"country_code":"JE","formatted_address":"Saint Helier JE2 3WF, Jersey, Channel Islands","locality":"Saint Helier","postcode":"JE2 3WF","region":"St Helier"}},"labels":["community","conference"],"duration":5400,"start_local":"2024-07-08T16:30:00","end":"2024-07-08T17:00:00Z","end_local":"2024-07-08T18:00:00","updated":"2024-07-04T00:42:35Z"},{"title":"Evita","description":"Sourced from predicthq.com - Evita the musical with music by Andrew Lloyd Webber & lyrics by Tim Rice, an amateur production by arrangement with the Really Useful Group","category":"performing-arts","start":"2024-07-07T17:00:00Z","geo":{"geometry":{"coordinates":[-2.0963962,49.23157880000001],"type":"Point"},"placekey":"@4f7-b4w-gtv","address":{"country_code":"JE","formatted_address":"La Route de la Trinité, Jersey JE3 5JP, Jersey, Channel Islands","locality":"Jersey","postcode":"JE3 5JP","region":"Trinity"}},"labels":["concert","music","performing-arts"],"duration":10800,"start_local":"2024-07-07T18:00:00","end":"2024-07-07T20:00:00Z","end_local":"2024-07-07T21:00:00","updated":"2024-06-04T08:03:08Z"},{"title":"27th Waller Harris 2-Handed Triangle","description":"Sourced from predicthq.com - A three leg two-handed race","category":"community","start":"2024-07-06T07:30:00Z","geo":{"geometry":{"coordinates":[-2.168574000000035,49.18503490000001],"type":"Point"},"placekey":"@4f7-b39-bhq","address":{"country_code":"JE","formatted_address":"Jersey JE3 8AD, Jersey, Channel Islands","locality":"Jersey","postcode":"JE3 8AD","region":"St Brelade"}},"labels":["community","outdoor","sport"],"duration":225000,"start_local":"2024-07-06T08:30:00","end":"2024-07-08T22:00:00Z","end_local":"2024-07-08T23:00:00","updated":"2024-06-04T08:05:54Z"},{"title":"Jersey Coffee, Cake & Cookidoo Masterclass","description":"Sourced from predicthq.com - Join some of our local Thermomix Advisors for a Coffee (or Tea), some cake and a look at all things Cookidoo.","category":"conferences","start":"2024-07-05T11:00:00Z","geo":{"geometry":{"coordinates":[-2.1017306,49.1851403],"type":"Point"},"placekey":"@4f7-b4t-wkz","address":{"country_code":"JE","formatted_address":"Peter Street, Saint Helier JE2 4SP, Jersey, Channel Islands","locality":"Saint Helier","postcode":"JE2 4SP","region":"St Helier"}},"labels":["conference","food"],"duration":262800,"start_local":"2024-07-05T12:00:00","end":"2024-07-08T12:00:00Z","end_local":"2024-07-08T13:00:00","updated":"2024-06-06T00:48:26Z"},{"title":"Magic from before the Dawn of Time.","description":"Sourced from predicthq.com - Dr Roberts and Prof Bartle have been involved in Internet and computer games since the late 1970s. Come and hear their fascinating story!","category":"conferences","start":"2024-07-04T16:00:00Z","geo":{"geometry":{"coordinates":[-2.1021766,49.1825558],"type":"Point"},"placekey":"@4f7-b4t-syv","address":{"country_code":"JE","formatted_address":"Grenville Street, Saint Helier JE2 4UF, Jersey, Channel Islands","locality":"Saint Helier","postcode":"JE2 4UF","region":"St Helier"}},"labels":["conference","religion"],"duration":9000,"start_local":"2024-07-04T17:00:00","end":"2024-07-04T18:30:00Z","end_local":"2024-07-04T19:30:00","updated":"2024-05-30T01:00:44Z"},{"title":"Harnessing Physical Intelligence® for Leadership","description":"Sourced from predicthq.com - This event will explore the transformative power of the Physical Intelligence® methodology - Get your tickets now!","category":"conferences","start":"2024-07-04T15:00:00Z","geo":{"geometry":{"coordinates":[-2.1085977,49.1829076],"type":"Point"},"placekey":"@4f7-b4t-t5f","address":{"country_code":"JE","formatted_address":"Liberation Square, St Helier, Jersey JE1 3UF, Jersey","postcode":"JE1 3UF","locality":"Saint Helier","region":"St Helier"}},"labels":["business","conference"],"duration":7200,"start_local":"2024-07-04T16:00:00","end":"2024-07-04T17:00:00Z","end_local":"2024-07-04T18:00:00","updated":"2024-06-06T00:40:32Z"},{"title":"Working Parents Summit","description":"Sourced from predicthq.com - Join us at Jersey's first Working Parents Summit for a morning of support, advice, and networking for parents, colleagues and employers.","category":"conferences","start":"2024-07-04T08:00:00Z","geo":{"geometry":{"coordinates":[-2.1160024,49.1874494],"type":"Point"},"placekey":"@4f7-b4s-xkf","address":{"country_code":"JE","formatted_address":"Kensington Place, Saint Helier JE2 3QA, Jersey, Channel Islands","locality":"Saint Helier","postcode":"JE2 3QA","region":"St Helier"}},"labels":["conference","education","family"],"duration":9000,"start_local":"2024-07-04T09:00:00","end":"2024-07-04T10:30:00Z","end_local":"2024-07-04T11:30:00","updated":"2024-06-06T03:42:55Z"},{"title":"Voisin Law Legal Questions CPD","description":"Sourced from predicthq.com - This is your opportunity to obtain expert legal advice on all aspects of architectural practice, planning, building regulations & more.","category":"conferences","start":"2024-07-03T11:30:00Z","geo":{"geometry":{"coordinates":[-2.1118165,49.1851674],"type":"Point"},"placekey":"@4f7-b4s-xyv","address":{"country_code":"JE","formatted_address":"Esplanade, Saint Helier JE2 3QA, Jersey, Channel Islands","locality":"Saint Helier","postcode":"JE2 3QA","region":"St Helier"}},"labels":["business","conference"],"duration":6300,"start_local":"2024-07-03T12:30:00","end":"2024-07-03T13:15:00Z","end_local":"2024-07-03T14:15:00","updated":"2024-06-21T04:41:47Z"},{"title":"La Veil'ye at Hamptonne","description":"Sourced from predicthq.com - A traditional rustic folky night at Hamptonne.  Acoustic music and spoken word.","category":"concerts","start":"2024-06-29T18:00:00Z","geo":{"geometry":{"coordinates":[-2.1475815,49.2313035],"type":"Point"},"placekey":"@4f7-b4d-4y9","address":{"country_code":"JE","formatted_address":"Jersey, Jersey, Channel Islands","locality":"Jersey"}},"labels":["community","concert","music"],"duration":10800,"start_local":"2024-06-29T19:00:00","end":"2024-06-29T21:00:00Z","end_local":"2024-06-29T22:00:00","updated":"2024-06-11T01:04:25Z"},{"title":"Savills Channel Island Hobie Cat Championships 2024","description":"Sourced from predicthq.com - 33rd Channel Island Hobie Cat Championships Sponsored by Savills.","category":"community","start":"2024-06-29T08:00:00Z","geo":{"geometry":{"coordinates":[-2.1597521,49.1956962],"type":"Point"},"placekey":"@4f7-b2m-5j9","address":{"country_code":"JE","formatted_address":"Jersey JE3, Jersey, Channel Islands","locality":"Jersey","postcode":"JE3","region":"St. Peter"}},"labels":["community","sport"],"duration":93600,"start_local":"2024-06-29T09:00:00","end":"2024-06-30T10:00:00Z","end_local":"2024-06-30T11:00:00","updated":"2024-05-30T03:37:08Z"},{"title":"Improving the Consultation Process","description":"Sourced from predicthq.com - A look over consultation practise in Jersey and opportunities to improve it","category":"conferences","start":"2024-06-28T07:00:00Z","geo":{"geometry":{"coordinates":[-2.1113998,49.1834297],"type":"Point"},"placekey":"@4f7-b4t-t9z","address":{"country_code":"JE","formatted_address":"Saint Helier JE2 3BQ, Jersey, Channel Islands","locality":"Saint Helier","postcode":"JE2 3BQ","region":"St Helier"}},"labels":["business","conference"],"duration":7200,"start_local":"2024-06-28T08:00:00","end":"2024-06-28T09:00:00Z","end_local":"2024-06-28T10:00:00","updated":"2024-06-06T00:48:32Z"},{"title":"Poetry In Motion","description":"Sourced from predicthq.com - A poetry and Awareness Through Movement (ATM) experience with 'Sense of Self Somatics' creator Helen Lincoln. No prior famililarity needed.","category":"performing-arts","start":"2024-06-27T18:00:00Z","geo":{"geometry":{"coordinates":[-2.1095986,49.179495],"type":"Point"},"placekey":"@4f7-b4t-4y9","address":{"country_code":"JE","formatted_address":"Commercial Buildings, Saint Helier JE4 8PW, Jersey, Channel Islands","locality":"Saint Helier","postcode":"JE4 8PW","region":"St Helier"}},"labels":["concert","music","performing-arts"],"duration":5400,"start_local":"2024-06-27T19:00:00","end":"2024-06-27T19:30:00Z","end_local":"2024-06-27T20:30:00","updated":"2024-06-04T02:12:54Z"},{"title":"PechaKucha Night: Crafting the Experience","description":"Sourced from predicthq.com - Get ready for a night of creativity and inspiration as we showcase unique stories and ideas through fast-paced PechaKucha presentations!","category":"conferences","start":"2024-06-27T17:00:00Z","geo":{"geometry":{"coordinates":[-2.104584,49.185735],"type":"Point"},"placekey":"@4f7-b4t-vpv","address":{"country_code":"JE","formatted_address":"Halkett Place, Saint Helier JE2 4WG, Jersey, Channel Islands","locality":"Saint Helier","postcode":"JE2 4WG","region":"St Helier"}},"labels":["community","conference"],"duration":7200,"start_local":"2024-06-27T18:00:00","end":"2024-06-27T19:00:00Z","end_local":"2024-06-27T20:00:00","updated":"2024-06-13T01:20:40Z"},{"title":"Your Child's Future Starts Here: An Evening for Prospective Parents/Carers","description":"Sourced from predicthq.com - As the “Your Future Starts Here” induction days approach, we would like to extend a warm welcome to all the parents /carers of new students","category":"conferences","start":"2024-06-27T16:00:00Z","geo":{"geometry":{"coordinates":[-2.0942902,49.19230599999999],"type":"Point"},"placekey":"@4f7-b4q-bkz","address":{"country_code":"JE","formatted_address":"Maison Saint-Louis, Jersey JE2, Jersey, Channel Islands","locality":"Jersey","postcode":"JE2","region":"Saint-Sauveur"}},"labels":["conference","education","family"],"duration":12600,"start_local":"2024-06-27T17:00:00","end":"2024-06-27T19:30:00Z","end_local":"2024-06-27T20:30:00","updated":"2024-06-04T07:26:33Z"},{"title":"Revitalising Jèrriais - what next? Lessons from Wales and other contexts","description":"Sourced from predicthq.com - Professor Colin Williams draws on his wealth of experience around the world to suggest how to progress with the revitalisation of Jèrriais.","category":"conferences","start":"2024-06-27T16:00:00Z","geo":{"geometry":{"coordinates":[-2.1068168,49.1826697],"type":"Point"},"placekey":"@4f7-b4t-tjv","address":{"country_code":"JE","formatted_address":"Pier Road, Saint Helier JE2 4XW, Jersey, Channel Islands","locality":"Saint Helier","postcode":"JE2 4XW","region":"St Helier"}},"labels":["community","conference"],"duration":5400,"start_local":"2024-06-27T17:00:00","end":"2024-06-27T17:30:00Z","end_local":"2024-06-27T18:30:00","updated":"2024-06-13T00:39:44Z"},{"title":"Cake and Cabaret - St Martin","description":"Sourced from predicthq.com - Ballet d'Jèrri are excited to be partnering with ArtHouse Jersey to bring Jersey parishioners our Cake and Cabaret events!","category":"performing-arts","start":"2024-06-27T14:00:00Z","geo":{"geometry":{"coordinates":[-2.05329,49.2191353],"type":"Point"},"placekey":"@4f7-bpk-z75","address":{"country_code":"JE","formatted_address":"La Rue de la Croix au Maitre, Jersey JE3, Jersey, Channel Islands","locality":"Jersey","postcode":"JE3","region":"Saint-Martin"}},"labels":["concert","music","performing-arts"],"duration":0,"start_local":"2024-06-27T15:00:00","end":"2024-06-27T14:00:00Z","end_local":"2024-06-27T15:00:00","updated":"2024-06-11T02:32:30Z"},{"title":"ADHD & BURNOUT","description":"Sourced from predicthq.com - Join us for a discussion on managing ADHD and avoiding burnout - let's share tips and support each other!","category":"conferences","start":"2024-06-26T17:00:00Z","geo":{"geometry":{"coordinates":[-2.1045494,49.1784382],"type":"Point"},"placekey":"@4f7-b8v-2tv","address":{"country_code":"JE","formatted_address":"Green Street, Saint Helier JE2 4UG, Jersey, Channel Islands","locality":"Saint Helier","postcode":"JE2 4UG","region":"St Helier"}},"labels":["conference","health"],"duration":7200,"start_local":"2024-06-26T18:00:00","end":"2024-06-26T19:00:00Z","end_local":"2024-06-26T20:00:00","updated":"2024-06-20T03:54:33Z"},{"title":"iManage and Litera Seminar","description":"Sourced from predicthq.com - Join us at our latest Seminar where iManage and Litera will be sharing how AI is integrating with their applications","category":"conferences","start":"2024-06-26T07:30:00Z","geo":{"geometry":{"coordinates":[-2.1023037,49.18183260000001],"type":"Point"},"placekey":"@4f7-b4t-syv","address":{"country_code":"JE","formatted_address":"Grenville Street, Saint Helier JE2 4UF, Jersey, Channel Islands","locality":"Saint Helier","postcode":"JE2 4UF","region":"St Helier"}},"labels":["business","conference"],"duration":9000,"start_local":"2024-06-26T08:30:00","end":"2024-06-26T10:00:00Z","end_local":"2024-06-26T11:00:00","updated":"2024-06-04T05:25:00Z"},{"title":"Productivity Conference 2024","description":"Sourced from predicthq.com - A day of insightful discussions, interactive sessions, and networking opportunities designed to help you elevate your business productivity.","category":"conferences","start":"2024-06-26T07:00:00Z","geo":{"geometry":{"coordinates":[-2.1144352,49.1831041],"type":"Point"},"placekey":"@4f7-b4s-vcq","address":{"country_code":"JE","formatted_address":"Saint Helier JE2 3WF, Jersey, Channel Islands","locality":"Saint Helier","postcode":"JE2 3WF","region":"St Helier"}},"labels":["business","conference"],"duration":36000,"start_local":"2024-06-26T08:00:00","end":"2024-06-26T17:00:00Z","end_local":"2024-06-26T18:00:00","updated":"2024-06-27T19:54:18Z"},{"title":"Playful places: how a child friendly approach to planning  could transform St Helier for all.","description":"Sourced from predicthq.com - Discover how making St Helier more child-friendly can create a fun and inclusive community for everyone to enjoy!“","category":"conferences","start":"2024-06-24T17:00:00Z","geo":{"geometry":{"coordinates":[-2.109912,49.1858617],"type":"Point"},"placekey":"@4f7-b4t-wx5","address":{"country_code":"JE","formatted_address":"Seale Street, Saint Helier JE2 3QG, Jersey, Channel Islands","locality":"Saint Helier","postcode":"JE2 3QG","region":"St Helier"}},"labels":["community","conference"],"duration":5400,"start_local":"2024-06-24T18:00:00","end":"2024-06-24T18:30:00Z","end_local":"2024-06-24T19:30:00","updated":"2024-06-20T02:24:59Z"},{"title":"Treasure Trackdown","description":"Sourced from predicthq.com - Get ready for an epic adventure at Treasure Trackdown, where you'll solve clues, crack codes, and race to find the hidden treasure!","category":"community","start":"2024-06-24T09:00:00Z","geo":{"geometry":{"coordinates":[-2.0950357,49.1884953],"type":"Point"},"placekey":"@4f7-b4q-8qf","address":{"country_code":"JE","formatted_address":"Beaulieu Park, Saint Helier JE2, Jersey, Channel Islands","locality":"Saint Helier","postcode":"JE2","region":"St Helier"}},"labels":["community","sport"],"duration":7200,"start_local":"2024-06-24T10:00:00","end":"2024-06-24T11:00:00Z","end_local":"2024-06-24T12:00:00","updated":"2024-06-20T03:19:21Z"},{"title":"Cowbridge Male Voice Choir Performance (ft. Les Amis Choir)","description":"Sourced from predicthq.com - To witness an incredible performance by the Cowbridge Male Voice Choir and Jersey's own Les Amis Choir, get your tickets today!","category":"performing-arts","start":"2024-06-22T17:00:00Z","geo":{"geometry":{"coordinates":[-2.1039864,49.1876404],"type":"Point"},"placekey":"@4f7-b4t-vxq","address":{"country_code":"JE","formatted_address":"Saint Helier JE2, Jersey, Channel Islands","locality":"Saint Helier","postcode":"JE2","region":"St Helier"}},"labels":["concert","music","performing-arts"],"duration":10800,"start_local":"2024-06-22T18:00:00","end":"2024-06-22T20:00:00Z","end_local":"2024-06-22T21:00:00","updated":"2024-06-13T00:48:31Z"},{"title":"Fête de la Musique","description":"Sourced from predicthq.com - An informal collaborative takeover with buskers, amateurs and professional musicians playing along the streets of St Helier.","category":"festivals","start":"2024-06-22T11:00:00Z","geo":{"geometry":{"coordinates":[-2.103233,49.1805019],"type":"Point"},"placekey":"@4f7-b4t-sqz","address":{"country_code":"JE","formatted_address":"La Route du Fort, Saint-Helier JE2, Jersey, Channel Islands","locality":"Saint-Helier","postcode":"JE2","region":"St Helier"}},"labels":["festival","music"],"duration":18000,"start_local":"2024-06-22T12:00:00","end":"2024-06-22T16:00:00Z","end_local":"2024-06-22T17:00:00","updated":"2024-06-21T10:26:35Z"},{"title":"Giles Robson's Blue Note Blues Sessions 2024","description":"Sourced from predicthq.com - It’s Friday night so Dance, drink and enjoy a journey through the world of the timeless blues legends interpreted by Giles Robson","category":"concerts","start":"2024-06-21T18:30:00Z","geo":{"geometry":{"coordinates":[-2.1082082,49.1843147],"type":"Point"},"placekey":"@4f7-b4t-tgk","address":{"country_code":"JE","formatted_address":"20 Broad Street, Saint Helier JE2 4WE, Jersey, Channel Islands","postcode":"JE2 4WE","locality":"Saint Helier"}},"labels":["concert","music"],"duration":12600,"start_local":"2024-06-21T19:30:00","end":"2024-06-21T22:00:00Z","end_local":"2024-06-21T23:00:00","updated":"2024-06-04T01:04:55Z"},{"title":"'Summer Nights Sessions' at Mont Orgueil","description":"Sourced from predicthq.com - Join Jersey Heritage for a ‘Summer Nights Session’ experience and see Mont Orgueil Castle in a completely different light.","category":"concerts","start":"2024-06-21T18:00:00Z","geo":{"geometry":{"coordinates":[-2.0208294,49.2005612],"type":"Point"},"placekey":"@4f7-bpw-d9z","address":{"country_code":"JE","formatted_address":"Jersey JE3 6DR, Jersey, Channel Islands","locality":"Jersey","postcode":"JE3 6DR","region":"St Martin"}},"labels":["community","concert","music"],"duration":7200,"start_local":"2024-06-21T19:00:00","end":"2024-06-21T20:00:00Z","end_local":"2024-06-21T21:00:00","updated":"2024-06-14T18:17:07Z"},{"title":"Krafty J's Festival 2024","description":"Sourced from predicthq.com - Krafty J's Biggest Festival to Date. Huge  Line-Up -2 Dance Arenas - Food Village - 80's Zone -Jersey Largest Drink Selection. Don't Miss!","category":"festivals","start":"2024-06-21T15:00:00Z","geo":{"geometry":{"coordinates":[-2.1158777,49.189135],"type":"Point"},"placekey":"@4f7-b4s-xt9","address":{"country_code":"JE","formatted_address":"Jersey, Jersey, Channel Islands","locality":"Jersey"}},"labels":["festival","food"],"duration":111600,"start_local":"2024-06-21T16:00:00","end":"2024-06-22T22:00:00Z","end_local":"2024-06-22T23:00:00","updated":"2024-06-04T00:26:53Z"},{"title":"JH Members: Lunchtime Learning - 100 Year Anniversary of Dolmen Discovery!","description":"Sourced from predicthq.com - JH Members are invited to have lunch and learn about 'the discovery of La Hougue Bie dolmen' with Curator of Archaeology, Olga Finch.","category":"conferences","start":"2024-06-20T12:00:00Z","geo":{"geometry":{"coordinates":[-2.1079266000000416,49.1828211],"type":"Point"},"placekey":"@4f7-b4t-tjv","address":{"country_code":"JE","formatted_address":"Mulcaster Street, Saint Helier JE2 3NJ, Jersey, Channel Islands","locality":"Saint Helier","postcode":"JE2 3NJ","region":"St Helier"}},"labels":["community","conference"],"duration":3600,"start_local":"2024-06-20T13:00:00","end":"2024-06-20T13:00:00Z","end_local":"2024-06-20T14:00:00","updated":"2024-06-06T00:36:14Z"},{"title":"AJA CPD: Introducing SB Joinery & Accoya / Tricoya Sustainable Timber","description":"Sourced from predicthq.com - CPD about SB Joinery's High Quality Bespoke Joinery, Mann Magowan fireproofed doors, plus Accoya and Tricoya sustainable timber products.","category":"conferences","start":"2024-06-20T11:45:00Z","geo":{"geometry":{"coordinates":[-2.109912,49.1858617],"type":"Point"},"placekey":"@4f7-b4t-wx5","address":{"country_code":"JE","formatted_address":"Seale Street, Saint Helier JE2 3QG, Jersey, Channel Islands","locality":"Saint Helier","postcode":"JE2 3QG","region":"St Helier"}},"labels":["business","conference"],"duration":5400,"start_local":"2024-06-20T12:45:00","end":"2024-06-20T13:15:00Z","end_local":"2024-06-20T14:15:00","updated":"2024-05-23T01:22:58Z"},{"title":"The Power of Open-Source Intelligence (OSINT): Friend to Foe","description":"Sourced from predicthq.com - In today's world, data is king, but OSINT is the secret weapon! This seminar dives into the world of Open- Source Intelligence","category":"conferences","start":"2024-06-20T11:00:00Z","geo":{"geometry":{"coordinates":[-2.1112403,49.1856477],"type":"Point"},"placekey":"@4f7-b4s-yd9","address":{"country_code":"JE","formatted_address":"Seaton Place, Saint Helier JE2 3QL, Jersey, Channel Islands","locality":"Saint Helier","postcode":"JE2 3QL","region":"St Helier"}},"labels":["conference","science","technology"],"duration":3600,"start_local":"2024-06-20T12:00:00","end":"2024-06-20T12:00:00Z","end_local":"2024-06-20T13:00:00","updated":"2024-06-11T00:01:31Z"},{"title":"FNHC  Half Day Conference -  People Centred Leadership","description":"Sourced from predicthq.com - Open to all leaders, not just those in healthcare.","category":"conferences","start":"2024-06-20T07:30:00Z","geo":{"geometry":{"coordinates":[-2.1085977,49.1829076],"type":"Point"},"placekey":"@4f7-b4t-t5f","address":{"country_code":"JE","formatted_address":"Liberation Square, St Helier, Jersey JE1 3UF, Jersey","postcode":"JE1 3UF","locality":"Saint Helier","region":"St Helier"}},"labels":["business","conference"],"duration":14400,"start_local":"2024-06-20T08:30:00","end":"2024-06-20T11:30:00Z","end_local":"2024-06-20T12:30:00","updated":"2024-06-13T15:45:51Z"},{"title":"West end & Musical Theatre Show | Jersey Sings! 2024","description":"Sourced from predicthq.com - Jersey Sings 2024 is delighted to announce its evening concert event: A Night at the Musicals, taking place at the Methodist Centre on 19th","category":"performing-arts","start":"2024-06-19T18:00:00Z","geo":{"geometry":{"coordinates":[-2.103988,49.187594],"type":"Point"},"placekey":"@4f7-b4t-vxq","address":{"country_code":"JE","formatted_address":"122 Halkett Pl, St Helier, Jersey JE2, Jersey","postcode":"JE2","locality":"Saint Helier","region":"St Helier"}},"labels":["concert","music"],"duration":7200,"start_local":"2024-06-19T19:00:00","end":"2024-06-19T20:00:00Z","end_local":"2024-06-19T21:00:00","updated":"2024-06-04T00:05:39Z"},{"title":"JERSEY SINGS 2024 - Schools Choir Performance","description":"Sourced from predicthq.com - Jersey Sings! is more than a concert.  It puts music at the heart of island life and is a huge showcase for the arts in Jersey.","category":"concerts","start":"2024-06-19T10:00:00Z","geo":{"geometry":{"coordinates":[-2.1155347,49.1861153],"type":"Point"},"placekey":"@4f7-b4s-v2k","address":{"country_code":"JE","formatted_address":"Esplanade, Saint Helier JE2 3QA, Jersey, Channel Islands","locality":"Saint Helier","postcode":"JE2 3QA","region":"St Helier"}},"labels":["concert","music"],"duration":9900,"start_local":"2024-06-19T11:00:00","end":"2024-06-19T12:45:00Z","end_local":"2024-06-19T13:45:00","updated":"2024-06-06T00:37:23Z"},{"title":"RiskBase Launch","description":"Sourced from predicthq.com - Learn about a revolutionary regtech product to increase compliance productivity and provide board oversight via an intuitive SaaS solution","category":"expos","start":"2024-06-18T07:30:00Z","geo":{"geometry":{"coordinates":[-2.102194,49.182572],"type":"Point"},"placekey":"@4f7-b4t-syv","address":{"country_code":"JE","formatted_address":"Block 3, Ground Floor, Forum 4, Grenville St, St Helier, Jersey JE2 4UF, Jersey","postcode":"JE2 4UF","locality":"Saint Helier","region":"St Helier"}},"labels":["business","expo"],"duration":7200,"start_local":"2024-06-18T08:30:00","end":"2024-06-18T09:30:00Z","end_local":"2024-06-18T10:30:00","updated":"2024-06-04T01:17:14Z"},{"title":"CIFO/JFSC/FIU Panel Discussion on 'Complaints Handling Good Practices'","description":"Sourced from predicthq.com - Join us for a lively discussion on complaints handling good practices with CIFO, JFSC  & FIU on June 18th at 8:30 AM!","category":"conferences","start":"2024-06-18T07:30:00Z","geo":{"geometry":{"coordinates":[-2.107736,49.182513],"type":"Point"},"placekey":"@4f7-b4t-tjv","address":{"country_code":"JE","formatted_address":"Caledonia Place, Saint Helier JE2 3NG, Jersey, Channel Islands","locality":"Saint Helier","postcode":"JE2 3NG","region":"St Helier"}},"labels":["business","conference"],"duration":7200,"start_local":"2024-06-18T08:30:00","end":"2024-06-18T09:30:00Z","end_local":"2024-06-18T10:30:00","updated":"2024-06-03T23:26:52Z"},{"title":"Star Stage Comedy Club - Rich Hall: Shot From Cannons","description":"Sourced from predicthq.com - He's back by popular demand the fabulous Rich Hall.\nVital and incredulously angry. Hilarious.” – The Scotsman\n“Blissfully funny” – Guardian","category":"performing-arts","start":"2024-06-15T19:00:00Z","geo":{"geometry":{"coordinates":[-2.1086419,49.1829189],"type":"Point"},"placekey":"@4f7-b4t-t5f","address":{"country_code":"JE","formatted_address":"Saint Helier JE1 3UF, Jersey, Channel Islands","locality":"Saint Helier","postcode":"JE1 3UF","region":"St Helier"}},"labels":["concert","music","performing-arts"],"duration":7200,"start_local":"2024-06-15T20:00:00","end":"2024-06-15T21:00:00Z","end_local":"2024-06-15T22:00:00","updated":"2024-06-04T04:07:51Z"},{"title":"Star Stage Comedy Club - Rich Hall: Shot From Cannons","description":"Sourced from predicthq.com - He's back by popular demand the fabulous Rich Hall.\nVital and incredulously angry. Hilarious.” – The Scotsman\n“Blissfully funny” – Guardian","category":"performing-arts","start":"2024-06-15T15:00:00Z","geo":{"geometry":{"coordinates":[-2.1086419,49.1829189],"type":"Point"},"placekey":"@4f7-b4t-t5f","address":{"country_code":"JE","formatted_address":"Saint Helier JE1 3UF, Jersey, Channel Islands","locality":"Saint Helier","postcode":"JE1 3UF","region":"St Helier"}},"labels":["concert","music","performing-arts"],"duration":7200,"start_local":"2024-06-15T16:00:00","end":"2024-06-15T17:00:00Z","end_local":"2024-06-15T18:00:00","updated":"2024-06-04T06:41:06Z"},{"title":"Zumba MC with Ricardo","description":"Sourced from predicthq.com - Zumba specialist coming to dance with us from Portugal","category":"concerts","start":"2024-06-15T13:00:00Z","geo":{"geometry":{"coordinates":[-2.065655,49.170362],"type":"Point"},"placekey":"@4f7-b8p-syv","address":{"country_code":"JE","formatted_address":"Jersey JE2 6QP, Jersey, Channel Islands","locality":"Jersey","postcode":"JE2 6QP","region":"St Clement"}},"labels":["concert","music","sport"],"duration":5400,"start_local":"2024-06-15T14:00:00","end":"2024-06-15T14:30:00Z","end_local":"2024-06-15T15:30:00","updated":"2024-05-30T01:01:16Z"},{"title":"Cryptic at ArtHouse Jersey","description":"Sourced from predicthq.com - A short work-in-progress performance from audio-visual artists SHHE and Konx-om-Pax following their residency with ArtHouse Jersey in June.","category":"performing-arts","start":"2024-06-14T18:00:00Z","geo":{"geometry":{"coordinates":[-2.1994295,49.2458733],"type":"Point"},"placekey":"@4f7-b55-249","address":{"country_code":"JE","formatted_address":"Mont de la Grève de Lecq, Jersey JE3 2DT, Jersey, Channel Islands","locality":"Jersey","postcode":"JE3 2DT","region":"Sainte-Marie"}},"labels":["concert","music","performing-arts"],"duration":5400,"start_local":"2024-06-14T19:00:00","end":"2024-06-14T19:30:00Z","end_local":"2024-06-14T20:30:00","updated":"2024-06-28T18:06:09Z"},{"title":"Artist Talk: William Bock - The Green Rope","description":"Sourced from predicthq.com - Artist William Bock will discuss The Green Rope project and how it can be used to create conversations and connections.","category":"conferences","start":"2024-06-13T17:00:00Z","geo":{"geometry":{"coordinates":[-2.1065065,49.1837284],"type":"Point"},"placekey":"@4f7-b4t-rzf","address":{"country_code":"JE","formatted_address":"Church Street, Saint Helier JE2 3NN, Jersey, Channel Islands","locality":"Saint Helier","postcode":"JE2 3NN","region":"St Helier"}},"labels":["conference","performing-arts"],"duration":3600,"start_local":"2024-06-13T18:00:00","end":"2024-06-13T18:00:00Z","end_local":"2024-06-13T19:00:00","updated":"2024-06-11T04:13:01Z"},{"title":"An Evening with the Honourable Juan Watterson, Speaker of House of Keys","description":"Sourced from predicthq.com - Come join us for a night with the Honourable Juan Watterson, Speaker of the House of Keys - it's going to be a great evening!","category":"conferences","start":"2024-06-13T17:00:00Z","geo":{"geometry":{"coordinates":[-2.107261400000001,49.18251859999999],"type":"Point"},"placekey":"@4f7-b4t-tjv","address":{"country_code":"JE","formatted_address":"Pier Road, Saint Helier JE1 4HF, Jersey, Channel Islands","locality":"Saint Helier","postcode":"JE1 4HF","region":"St Helier"}},"labels":["conference"],"duration":5400,"start_local":"2024-06-13T18:00:00","end":"2024-06-13T18:30:00Z","end_local":"2024-06-13T19:30:00","updated":"2024-06-06T00:37:23Z"},{"title":"The Right Advice on… Managing Poor Performance","description":"Sourced from predicthq.com - Get ready to uncover the secrets of successfully managing poor performance at this in-person event at Law At Work","category":"conferences","start":"2024-06-13T08:30:00Z","geo":{"geometry":{"coordinates":[-2.1107648,49.18586759999999],"type":"Point"},"placekey":"@4f7-b4s-yd9","address":{"country_code":"JE","formatted_address":"Seale Street, Saint Helier JE2 3QG, Jersey, Channel Islands","locality":"Saint Helier","postcode":"JE2 3QG","region":"St Helier"}},"labels":["business","conference"],"duration":9000,"start_local":"2024-06-13T09:30:00","end":"2024-06-13T11:00:00Z","end_local":"2024-06-13T12:00:00","updated":"2024-06-04T01:32:56Z"},{"title":"Smartsheet Seminar","description":"Sourced from predicthq.com - Join us at our latest Smartsheet Seminar for a session on how to master the art of productivity and collaboration using this awesome tool.","category":"conferences","start":"2024-06-12T07:30:00Z","geo":{"geometry":{"coordinates":[-2.1023037,49.18183260000001],"type":"Point"},"placekey":"@4f7-b4t-syv","address":{"country_code":"JE","formatted_address":"Grenville Street, Saint Helier JE2 4UF, Jersey, Channel Islands","locality":"Saint Helier","postcode":"JE2 4UF","region":"St Helier"}},"labels":["business","conference"],"duration":9000,"start_local":"2024-06-12T08:30:00","end":"2024-06-12T10:00:00Z","end_local":"2024-06-12T11:00:00","updated":"2024-06-04T00:58:24Z"},{"title":"Bracken Business: Volunteering with Jersey Trees for Life & National Trust","description":"Sourced from predicthq.com - Be part of Great Big Green Week with Jersey Trees for Life and National Trust Jersey as we head to Le Mourier to spruce it up for summer.","category":"conferences","start":"2024-06-09T09:00:00Z","geo":{"geometry":{"coordinates":[-2.163344,49.2507756],"type":"Point"},"placekey":"@4f7-b4b-m49","address":{"country_code":"JE","formatted_address":"Le Chemin des Hougues, Jersey JE3, Jersey, Channel Islands","locality":"Jersey","postcode":"JE3"}},"labels":["business","conference"],"duration":7200,"start_local":"2024-06-09T10:00:00","end":"2024-06-09T11:00:00Z","end_local":"2024-06-09T12:00:00","updated":"2024-06-08T09:13:40Z"},{"title":"Canaccord Genuity Jersey Half Marathon","description":"Sourced from predicthq.com - The Canaccord Genuity Jersey Half Marathon is an annual sporting event held in the beautiful island of Jersey. Participants run a challenging half marathon route, taking in stunning coastal scenery and historic landmarks.","category":"sports","start":"2024-06-08T23:00:00Z","geo":{"geometry":{"coordinates":[-2.0202908,49.1986563],"type":"Point"},"placekey":"@4f7-bpv-xnq","address":{"country_code":"JE","formatted_address":"Gorey Pier, Jersey, Jersey, Channel Islands","locality":"Jersey","region":"Saint-Martin"}},"labels":["marathon","outdoor-sports","running","sport"],"duration":86399,"start_local":"2024-06-09T00:00:00","end":"2024-06-09T22:59:59Z","end_local":"2024-06-09T23:59:59","updated":"2024-06-01T23:07:50Z"},{"title":"Sarabanda: Cuban Music - Live Concert!","description":"Sourced from predicthq.com - ¡Ven a disfrutar de la energía y la pasión de la música cubana en vivo con Sarabanda! ¡No te lo pierdas!","category":"concerts","start":"2024-06-08T20:00:00Z","geo":{"geometry":{"coordinates":[-2.1002167,49.1832853],"type":"Point"},"placekey":"@4f7-b4t-w49","address":{"country_code":"JE","formatted_address":"Saint Helier JE2 4LA, Jersey, Channel Islands","locality":"Saint Helier","postcode":"JE2 4LA","region":"St Helier"}},"labels":["concert","music"],"duration":9000,"start_local":"2024-06-08T21:00:00","end":"2024-06-08T22:30:00Z","end_local":"2024-06-08T23:30:00","updated":"2024-06-04T02:26:51Z"},{"title":"Opening Exhibition- When Marianne and Britannia Meet + AF AGM","description":"Sourced from predicthq.com - On the occasion of the celebration of the 120th anniversary of the Entente Cordiale agreements come and see an amazing exhibition.","category":"conferences","start":"2024-06-07T16:00:00Z","geo":{"geometry":{"coordinates":[-2.1068168,49.1826697],"type":"Point"},"placekey":"@4f7-b4t-tjv","address":{"country_code":"JE","formatted_address":"Pier Road, Saint Helier JE2 4XW, Jersey, Channel Islands","locality":"Saint Helier","postcode":"JE2 4XW","region":"St Helier"}},"labels":["conference","performing-arts"],"duration":10800,"start_local":"2024-06-07T17:00:00","end":"2024-06-07T19:00:00Z","end_local":"2024-06-07T20:00:00","updated":"2024-05-31T22:54:01Z"},{"title":"Jersey Coffee, Cake & Cookidoo Masterclass","description":"Sourced from predicthq.com - Join some of our local Thermomix Advisors for a Coffee (or Tea), some cake and a look at all things Cookidoo.","category":"conferences","start":"2024-06-07T11:00:00Z","geo":{"geometry":{"coordinates":[-2.1017306,49.1851403],"type":"Point"},"placekey":"@4f7-b4t-wkz","address":{"country_code":"JE","formatted_address":"Peter Street, Saint Helier JE2 4SP, Jersey, Channel Islands","locality":"Saint Helier","postcode":"JE2 4SP","region":"St Helier"}},"labels":["conference","food"],"duration":3600,"start_local":"2024-06-07T12:00:00","end":"2024-06-07T12:00:00Z","end_local":"2024-06-07T13:00:00","updated":"2024-06-04T09:11:44Z"},{"title":"The Intrepid Story","description":"Sourced from predicthq.com - Jersey Heritage are proud to host a fundraising event celebrating the world record breaking achievement of the Intrepid 232","category":"conferences","start":"2024-06-06T16:30:00Z","geo":{"geometry":{"coordinates":[-2.1100303,49.18153339999999],"type":"Point"},"placekey":"@4f7-b4t-4vz","address":{"country_code":"JE","formatted_address":"Jersey, Jersey, Channel Islands","locality":"Jersey"}},"labels":["conference","outdoor"],"duration":9000,"start_local":"2024-06-06T17:30:00","end":"2024-06-06T19:00:00Z","end_local":"2024-06-06T20:00:00","updated":"2024-06-04T08:32:11Z"},{"title":"GASTROSTOMY STUDY DAY","description":"Sourced from predicthq.com - Aimed at Care Assistants working in Child and Adult social care with the aim to increase confidence and knowledge in care of patients","category":"conferences","start":"2024-06-06T11:30:00Z","geo":{"geometry":{"coordinates":[-2.1775575000000345,49.1862203],"type":"Point"},"placekey":"@4f7-b39-btv","address":{"country_code":"JE","formatted_address":"A13, Jersey JE3, Jersey, Channel Islands","locality":"Jersey","postcode":"JE3","region":"St Brelade"}},"labels":["conference","health"],"duration":10800,"start_local":"2024-06-06T12:30:00","end":"2024-06-06T14:30:00Z","end_local":"2024-06-06T15:30:00","updated":"2024-06-04T00:20:32Z"},{"title":"Jersey Discover Thermomix (Evening Event)","description":"Sourced from predicthq.com - Launching our brand new Jersey Thermomix Studio - join us for food demonstrations, samples, news, special offers and opportunities","category":"expos","start":"2024-06-05T17:00:00Z","geo":{"geometry":{"coordinates":[-2.1045494,49.1784382],"type":"Point"},"placekey":"@4f7-b8v-2tv","address":{"country_code":"JE","formatted_address":"Green Street, Saint Helier JE2 4UG, Jersey, Channel Islands","locality":"Saint Helier","postcode":"JE2 4UG","region":"St Helier"}},"labels":["expo","food"],"duration":7200,"start_local":"2024-06-05T18:00:00","end":"2024-06-05T19:00:00Z","end_local":"2024-06-05T20:00:00","updated":"2024-05-30T01:39:30Z"},{"title":"Jersey Law Course Information event","description":"Sourced from predicthq.com - Learn all about the Jersey Law Course starting in September 2024","category":"conferences","start":"2024-06-05T11:00:00Z","geo":{"geometry":{"coordinates":[-2.1068168,49.1826697],"type":"Point"},"placekey":"@4f7-b4t-tjv","address":{"country_code":"JE","formatted_address":"Pier Road, Saint Helier JE2 4XW, Jersey, Channel Islands","locality":"Saint Helier","postcode":"JE2 4XW","region":"St Helier"}},"labels":["business","conference"],"duration":7200,"start_local":"2024-06-05T12:00:00","end":"2024-06-05T13:00:00Z","end_local":"2024-06-05T14:00:00","updated":"2024-06-04T10:09:48Z"},{"title":"Jersey Discover Thermomix (Day Event)","description":"Sourced from predicthq.com - Launching our brand new Jersey Thermomix Studio - join us for food demonstrations, samples, news, special offers and opportunities","category":"expos","start":"2024-06-05T10:00:00Z","geo":{"geometry":{"coordinates":[-2.1017306,49.1851403],"type":"Point"},"placekey":"@4f7-b4t-wkz","address":{"country_code":"JE","formatted_address":"Peter Street, Saint Helier JE2 4SP, Jersey, Channel Islands","locality":"Saint Helier","postcode":"JE2 4SP","region":"St Helier"}},"labels":["expo","food"],"duration":7200,"start_local":"2024-06-05T11:00:00","end":"2024-06-05T12:00:00Z","end_local":"2024-06-05T13:00:00","updated":"2024-05-30T01:10:27Z"},{"title":"Great Minds Series: Change Activism - An inclusive & compelling approach.","description":"Sourced from predicthq.com - How can we find inspiration as change leaders? A new model for change, to help people find their passion, purpose and plan for the better.","category":"conferences","start":"2024-06-05T07:30:00Z","geo":{"geometry":{"coordinates":[-2.1147539,49.18290289999999],"type":"Point"},"placekey":"@4f7-b4s-vj9","address":{"country_code":"JE","formatted_address":"Saint Helier JE2 3WF, Jersey, Channel Islands","locality":"Saint Helier","postcode":"JE2 3WF","region":"St Helier"}},"labels":["business","conference"],"duration":7200,"start_local":"2024-06-05T08:30:00","end":"2024-06-05T09:30:00Z","end_local":"2024-06-05T10:30:00","updated":"2024-06-04T05:18:34Z"},{"title":"Ocean Odyssey: A Journey with Nicole Stott and The Ocean Speaks","description":"Sourced from predicthq.com - Join astronaut Nicole Stott and Ocean Culture Life founders for an inspiring book signing event","category":"conferences","start":"2024-06-04T16:15:00Z","geo":{"geometry":{"coordinates":[-2.109327,49.1851953],"type":"Point"},"placekey":"@4f7-b4t-wzf","address":{"country_code":"JE","formatted_address":"Charing Cross, Saint Helier JE2 3RP, Jersey, Channel Islands","locality":"Saint Helier","postcode":"JE2 3RP","region":"St Helier"}},"labels":["conference","science","technology"],"duration":5400,"start_local":"2024-06-04T17:15:00","end":"2024-06-04T17:45:00Z","end_local":"2024-06-04T18:45:00","updated":"2024-06-04T03:55:34Z"},{"title":"Infection Prevention & Control for Community Health Care Workers","description":"Sourced from predicthq.com - To enable staff to understand and demonstrate the required expectations for effective and safe Infection Prevention & Control  practice","category":"conferences","start":"2024-06-04T13:00:00Z","geo":{"geometry":{"coordinates":[-2.1070985,49.1862542],"type":"Point"},"placekey":"@4f7-b4t-x3q","address":{"country_code":"JE","formatted_address":"Pip's Place, 15 Union St, St Helier, Jersey JE2 3RF, Jersey","postcode":"JE2 3RF","locality":"Saint Helier","region":"St Helier"}},"labels":["conference","health"],"duration":3600,"start_local":"2024-06-04T14:00:00","end":"2024-06-04T14:00:00Z","end_local":"2024-06-04T15:00:00","updated":"2024-06-11T22:49:31Z"},{"title":"Free St Helier guided walk Viva la revolution!","description":"Sourced from predicthq.com - Join this week's guide Monty Losh for a riotous walk around St Helier","category":"community","start":"2024-06-04T09:30:00Z","geo":{"geometry":{"coordinates":[-2.109148600000026,49.1851534],"type":"Point"},"placekey":"@4f7-b4t-wzf","address":{"country_code":"JE","formatted_address":"York Street, Saint Helier JE4 8PA, Jersey, Channel Islands","locality":"Saint Helier","postcode":"JE4 8PA","region":"St Helier"}},"labels":["community"],"duration":7200,"start_local":"2024-06-04T10:30:00","end":"2024-06-04T11:30:00Z","end_local":"2024-06-04T12:30:00","updated":"2024-06-03T21:05:53Z"},{"title":"Jersey Offshore Rowing Regatta Party","description":"Sourced from predicthq.com - Join us to unwind after a long weekend of rowing!","category":"community","start":"2024-06-02T18:00:00Z","geo":{"geometry":{"coordinates":[-2.1086419,49.18291889999999],"type":"Point"},"placekey":"@4f7-b4t-t5f","address":{"country_code":"JE","formatted_address":"Saint Helier JE1 3UF, Jersey, Channel Islands","locality":"Saint Helier","postcode":"JE1 3UF","region":"St Helier"}},"labels":["community","sport"],"duration":14400,"start_local":"2024-06-02T19:00:00","end":"2024-06-02T22:00:00Z","end_local":"2024-06-02T23:00:00","updated":"2024-05-30T03:23:32Z"},{"title":"Motown, Soul & Disco Charity Night","description":"Sourced from predicthq.com - Dance the night away. Join us for a fantastic night of music at The Best Western Royal Hotel with the help of DJ’s Rex & Gary. (No Food)","category":"community","start":"2024-06-01T19:00:00Z","geo":{"geometry":{"coordinates":[-2.1033848,49.1898986],"type":"Point"},"placekey":"@4f7-b4q-92k","address":{"country_code":"JE","formatted_address":"David Place, Saint Helier JE2 4TB, Jersey, Channel Islands","locality":"Saint Helier","postcode":"JE2 4TB","region":"St Helier"}},"labels":["concert","music"],"duration":12600,"start_local":"2024-06-01T20:00:00","end":"2024-06-01T22:30:00Z","end_local":"2024-06-01T23:30:00","updated":"2024-06-04T00:31:34Z"},{"title":"Rich Allo -  Only Me -Album Launch, supported by Kacey Godfray","description":"Sourced from predicthq.com - For one night only, join Rich Allo for an evening of powerful anthems and uplifting stories, as he performs live, his new album, 'Only Me'","category":"concerts","start":"2024-06-01T18:00:00Z","geo":{"geometry":{"coordinates":[-2.109912,49.1858617],"type":"Point"},"placekey":"@4f7-b4t-wx5","address":{"country_code":"JE","formatted_address":"50 York Street, St Helier, Jersey JE4 8PA, Jersey","postcode":"JE4 8PA","locality":"Saint Helier","region":"St Helier"}},"labels":["concert","music"],"duration":9900,"start_local":"2024-06-01T19:00:00","end":"2024-06-01T20:45:00Z","end_local":"2024-06-01T21:45:00","updated":"2024-05-31T23:29:53Z"},{"title":"Seigneurs, Surf and Sandpipers #Lovenature Festival","description":"Sourced from predicthq.com - Enjoy an interesting and exciting walk around St Ouen’s Bay","category":"festivals","start":"2024-06-01T13:00:00Z","geo":{"geometry":{"coordinates":[-2.2249006,49.21487219999999],"type":"Point"},"placekey":"@4f7-b2m-psq","address":{"country_code":"JE","formatted_address":"Jersey JE4 5RL, Jersey, Channel Islands","locality":"Jersey","postcode":"JE4 5RL","region":"St. Peter"}},"labels":["festival","outdoor"],"duration":5400,"start_local":"2024-06-01T14:00:00","end":"2024-06-01T14:30:00Z","end_local":"2024-06-01T15:30:00","updated":"2024-06-04T10:35:07Z"},{"title":"Magical Music from the Movies with Georgi Mottram - Children's Concert","description":"Sourced from predicthq.com - Children of all ages are invited to dress up and join us for a Disney Musical Extravaganza at 16 New Street with  ‘Princess' Georgi Mottram.","category":"concerts","start":"2024-06-01T13:00:00Z","geo":{"geometry":{"coordinates":[-2.1067813,49.1852098],"type":"Point"},"placekey":"@4f7-b4t-wtv","address":{"country_code":"JE","formatted_address":"New St, St Helier, Jersey JE2 3WP, Jersey","postcode":"JE2 3WP","locality":"Saint Helier","region":"St Helier"}},"labels":["concert","education","family","music"],"duration":2700,"start_local":"2024-06-01T14:00:00","end":"2024-06-01T13:45:00Z","end_local":"2024-06-01T14:45:00","updated":"2024-06-04T02:20:00Z"},{"title":"CONNECTED","description":"Sourced from predicthq.com - Connected is a local  event . The event aims to bring togetherness in dance music to showcase Jersey talent. This is  a multi genre event","category":"festivals","start":"2024-06-01T13:00:00Z","geo":{"geometry":{"coordinates":[-2.1029162,49.1850748],"type":"Point"},"placekey":"@4f7-b4t-vj9","address":{"country_code":"JE","formatted_address":"Beresford Street, Saint Helier JE2 4WN, Jersey, Channel Islands","locality":"Saint Helier","postcode":"JE2 4WN","region":"St Helier"}},"labels":["festival","music"],"duration":43200,"start_local":"2024-06-01T14:00:00","end":"2024-06-02T01:00:00Z","end_local":"2024-06-02T02:00:00","updated":"2024-05-31T23:16:46Z"},{"title":"Nature Walk Plémont #Lovenature Festival","description":"Sourced from predicthq.com - This walk will be a slow meander discovering the landscape with an opportunity to record your observations in a journal","category":"festivals","start":"2024-06-01T09:30:00Z","geo":{"geometry":{"coordinates":[-2.2277056,49.25658920000001],"type":"Point"},"placekey":"@4f7-b58-m49","address":{"country_code":"JE","formatted_address":"Jersey, Jersey, Channel Islands","locality":"Jersey"}},"labels":["festival","outdoor"],"duration":7200,"start_local":"2024-06-01T10:30:00","end":"2024-06-01T11:30:00Z","end_local":"2024-06-01T12:30:00","updated":"2024-06-04T02:51:37Z"},{"title":"Parish 13","description":"Sourced from predicthq.com","category":"concerts","start":"2024-05-31T19:30:00Z","geo":{"geometry":{"coordinates":[-2.1586111,49.1963882],"type":"Point"},"placekey":"@4f7-b2m-5vf","address":{"country_code":"JE","formatted_address":"Grande Route des Sablons, Jersey Marine JE3 9FR, Jersey, Channel Islands","postcode":"JE3 9FR","locality":"Jersey Marine"}},"labels":["concert","music"],"duration":0,"start_local":"2024-05-31T20:30:00","end":"2024-05-31T19:30:00Z","end_local":"2024-05-31T20:30:00","updated":"2024-06-12T08:38:29Z"},{"title":"Sunset Stroll above St Ouen  #Lovenature Festival","description":"Sourced from predicthq.com - Join Neil and Alli Singleton for a wildlife and wellness walk along the lanes and footpaths of this beautiful, remote area of St Ouen","category":"festivals","start":"2024-05-31T18:30:00Z","geo":{"geometry":{"coordinates":[-2.2233903,49.2312397],"type":"Point"},"placekey":"@4f7-b3p-2zf","address":{"country_code":"JE","formatted_address":"Jersey, Jersey, Channel Islands","locality":"Jersey"}},"labels":["festival","outdoor"],"duration":7200,"start_local":"2024-05-31T19:30:00","end":"2024-05-31T20:30:00Z","end_local":"2024-05-31T21:30:00","updated":"2024-06-05T05:06:50Z"},{"title":"Wild Food Forage #Lovenature Festival","description":"Sourced from predicthq.com - Come and get lost in the wilds of St. Ouen","category":"festivals","start":"2024-05-31T15:30:00Z","geo":{"geometry":{"coordinates":[-2.2275504,49.22117540000001],"type":"Point"},"placekey":"@4f7-b2n-tvz","address":{"country_code":"JE","formatted_address":"Jersey, Jersey, Channel Islands","locality":"Jersey"}},"labels":["festival","outdoor"],"duration":7200,"start_local":"2024-05-31T16:30:00","end":"2024-05-31T17:30:00Z","end_local":"2024-05-31T18:30:00","updated":"2024-06-05T05:30:47Z"},{"title":"Wild Food Forage #Lovenature Festival","description":"Sourced from predicthq.com - Come and get lost in the wilds of St. Ouen","category":"festivals","start":"2024-05-30T15:30:00Z","geo":{"geometry":{"coordinates":[-2.2275504,49.22117540000001],"type":"Point"},"placekey":"@4f7-b2n-tvz","address":{"country_code":"JE","formatted_address":"Jersey, Jersey, Channel Islands","locality":"Jersey"}},"labels":["festival","outdoor"],"duration":7200,"start_local":"2024-05-30T16:30:00","end":"2024-05-30T17:30:00Z","end_local":"2024-05-30T18:30:00","updated":"2024-06-05T01:57:17Z"},{"title":"Cake and Cabaret - St Saviour","description":"Sourced from predicthq.com - Ballet d'Jèrri are excited to be partnering with ArtHouse Jersey to bring Jersey parishioners our Cake and Cabaret events!","category":"performing-arts","start":"2024-05-30T14:00:00Z","geo":{"geometry":{"coordinates":[-2.090768,49.1949835],"type":"Point"},"placekey":"@4f7-b4q-yqf","address":{"country_code":"JE","formatted_address":"Jersey JE2 7LJ, Jersey, Channel Islands","locality":"Jersey","postcode":"JE2 7LJ","region":"St Saviour"}},"labels":["concert","music","performing-arts"],"duration":0,"start_local":"2024-05-30T15:00:00","end":"2024-05-30T14:00:00Z","end_local":"2024-05-30T15:00:00","updated":"2024-06-13T19:54:46Z"},{"title":"Safeguarding Adults in Sport and Physical Activity","description":"Sourced from predicthq.com - This course aims to raise awareness and understanding of safeguarding adults in sport and physical activity.","category":"conferences","start":"2024-05-30T13:00:00Z","geo":{"geometry":{"coordinates":[-2.0850696999999627,49.1738727],"type":"Point"},"placekey":"@4f7-b8t-nqz","address":{"country_code":"JE","formatted_address":"Florence Boot Cottages, Jersey JE2, Jersey, Channel Islands","locality":"Jersey","postcode":"JE2","region":"St Clement"}},"labels":["conference","sport"],"duration":7200,"start_local":"2024-05-30T14:00:00","end":"2024-05-30T15:00:00Z","end_local":"2024-05-30T16:00:00","updated":"2024-06-05T04:40:17Z"},{"title":"Behind the Scenes Walk with Jon Parkes  #Lovenature Festival","description":"Sourced from predicthq.com - Join Jonny Parkes, Lands Manager for the Trust, on a ‘behind the scenes’ walk around St Ouen’s Pond, the orchid fields & other sites","category":"festivals","start":"2024-05-30T09:00:00Z","geo":{"geometry":{"coordinates":[-2.2248816,49.2151653],"type":"Point"},"placekey":"@4f7-b2m-psq","address":{"country_code":"JE","formatted_address":"Grande Route des Mielles, Jersey JE4 5RL, Jersey, Channel Islands","locality":"Jersey","postcode":"JE4 5RL","region":"St. Ouen"}},"labels":["festival","outdoor"],"duration":7200,"start_local":"2024-05-30T10:00:00","end":"2024-05-30T11:00:00Z","end_local":"2024-05-30T12:00:00","updated":"2024-06-05T06:09:20Z"},{"title":"Is Anybody Out There?","description":"Sourced from predicthq.com - An immersive performance by Highlands College Performing and Production Arts Students.","category":"performing-arts","start":"2024-05-29T18:00:00Z","geo":{"geometry":{"coordinates":[-2.0942902,49.19230599999999],"type":"Point"},"placekey":"@4f7-b4q-bkz","address":{"country_code":"JE","formatted_address":"Maison Saint-Louis, Jersey JE2, Jersey, Channel Islands","locality":"Jersey","postcode":"JE2","region":"Saint-Sauveur"}},"labels":["concert","music","performing-arts"],"duration":3600,"start_local":"2024-05-29T19:00:00","end":"2024-05-29T19:00:00Z","end_local":"2024-05-29T20:00:00","updated":"2024-06-04T23:13:23Z"},{"title":"ADHD JERSEY PRESENTS ADHD AND RELATIONSHIPS","description":"Sourced from predicthq.com - Join us at ADHD Jersey for a candid discussion on navigating relationships with ADHD - it's gonna be real, relatable, and eye-opening!","category":"conferences","start":"2024-05-29T17:00:00Z","geo":{"geometry":{"coordinates":[-2.1045494,49.1784382],"type":"Point"},"placekey":"@4f7-b8v-2tv","address":{"country_code":"JE","formatted_address":"Green Street, Saint Helier JE2 4UG, Jersey, Channel Islands","locality":"Saint Helier","postcode":"JE2 4UG","region":"St Helier"}},"labels":["conference","health"],"duration":7200,"start_local":"2024-05-29T18:00:00","end":"2024-05-29T19:00:00Z","end_local":"2024-05-29T20:00:00","updated":"2024-06-05T00:34:08Z"},{"title":"Wild Food Forage #Lovenature Festival","description":"Sourced from predicthq.com - Come and get lost in the wilds of St. Ouen","category":"festivals","start":"2024-05-29T15:30:00Z","geo":{"geometry":{"coordinates":[-2.2275504,49.22117540000001],"type":"Point"},"placekey":"@4f7-b2n-tvz","address":{"country_code":"JE","formatted_address":"Jersey, Jersey, Channel Islands","locality":"Jersey"}},"labels":["festival","outdoor"],"duration":7200,"start_local":"2024-05-29T16:30:00","end":"2024-05-29T17:30:00Z","end_local":"2024-05-29T18:30:00","updated":"2024-06-05T05:37:40Z"},{"title":"Spring Lunchtime Talk 2024","description":"Sourced from predicthq.com - The 150th Anniversary of Corbière Lighthouse , presented by Sue Hardy","category":"conferences","start":"2024-05-29T12:10:00Z","geo":{"geometry":{"coordinates":[-2.1070341,49.1819824],"type":"Point"},"placekey":"@4f7-b4t-v9f","address":{"country_code":"JE","formatted_address":"Pier Road, Saint Helier JE1 4HF, Jersey, Channel Islands","locality":"Saint Helier","postcode":"JE1 4HF","region":"St Helier"}},"labels":["conference"],"duration":2400,"start_local":"2024-05-29T13:10:00","end":"2024-05-29T12:50:00Z","end_local":"2024-05-29T13:50:00","updated":"2024-06-04T22:10:48Z"},{"title":"Women who were adventurous, black sheep or entrepreneurs","description":"Sourced from predicthq.com - Our guide Sue Gorin with introduce us to some formidable  Jersey women","category":"conferences","start":"2024-05-28T09:30:00Z","geo":{"geometry":{"coordinates":[-2.109148600000026,49.1851534],"type":"Point"},"placekey":"@4f7-b4t-wzf","address":{"country_code":"JE","formatted_address":"York Street, Saint Helier JE4 8PA, Jersey, Channel Islands","locality":"Saint Helier","postcode":"JE4 8PA","region":"St Helier"}},"labels":["business","conference"],"duration":7200,"start_local":"2024-05-28T10:30:00","end":"2024-05-28T11:30:00Z","end_local":"2024-05-28T12:30:00","updated":"2024-06-05T05:57:26Z"},{"title":"Nature Walk Grantez  #Lovenature Festival","description":"Sourced from predicthq.com - This walk will be a slow meander discovering the landscape with an opportunity to record your observations in a journal","category":"festivals","start":"2024-05-28T09:30:00Z","geo":{"geometry":{"coordinates":[-2.2233903,49.2312397],"type":"Point"},"placekey":"@4f7-b3p-2zf","address":{"country_code":"JE","formatted_address":"Jersey, Jersey, Channel Islands","locality":"Jersey"}},"labels":["festival","outdoor"],"duration":7200,"start_local":"2024-05-28T10:30:00","end":"2024-05-28T11:30:00Z","end_local":"2024-05-28T12:30:00","updated":"2024-06-05T21:31:39Z"},{"title":"Secrets of St Ouen #Lovenature Festival","description":"Sourced from predicthq.com - Enjoy a stroll through the wonderful parish of St Ouen, starting off at the former holiday camp at Plémont","category":"festivals","start":"2024-05-28T09:00:00Z","geo":{"geometry":{"coordinates":[-2.2277056,49.25658920000001],"type":"Point"},"placekey":"@4f7-b58-m49","address":{"country_code":"JE","formatted_address":"Jersey, Jersey, Channel Islands","locality":"Jersey"}},"labels":["festival","outdoor"],"duration":10800,"start_local":"2024-05-28T10:00:00","end":"2024-05-28T12:00:00Z","end_local":"2024-05-28T13:00:00","updated":"2024-06-04T22:40:50Z"},{"title":"Hugh the Bat’ Talk with the Jersey Bat Group  #Lovenature Festival","description":"Sourced from predicthq.com - Join the Jersey Bat Group at the Wetland Centre just before the sun sets in St Ouen’s Bay and learn all there is to know about bats.","category":"festivals","start":"2024-05-27T20:00:00Z","geo":{"geometry":{"coordinates":[-2.2248816,49.2151653],"type":"Point"},"placekey":"@4f7-b2m-psq","address":{"country_code":"JE","formatted_address":"Grande Route des Mielles, Jersey JE4 5RL, Jersey, Channel Islands","locality":"Jersey","postcode":"JE4 5RL","region":"St. Ouen"}},"labels":["festival","outdoor"],"duration":5400,"start_local":"2024-05-27T21:00:00","end":"2024-05-27T21:30:00Z","end_local":"2024-05-27T22:30:00","updated":"2024-06-04T22:14:52Z"},{"title":"Exploring St Ouen  #Lovenature Festival","description":"Sourced from predicthq.com - Enjoy a wonderful walk around St Ouen from Les Mielles de Morville around small lanes and back tot he Wetland Centre","category":"festivals","start":"2024-05-27T13:30:00Z","geo":{"geometry":{"coordinates":[-2.2248816,49.2151653],"type":"Point"},"placekey":"@4f7-b2m-psq","address":{"country_code":"JE","formatted_address":"Grande Route des Mielles, Jersey JE4 5RL, Jersey, Channel Islands","locality":"Jersey","postcode":"JE4 5RL","region":"St. Ouen"}},"labels":["festival","outdoor"],"duration":10800,"start_local":"2024-05-27T14:30:00","end":"2024-05-27T16:30:00Z","end_local":"2024-05-27T17:30:00","updated":"2024-06-05T03:08:22Z"},{"title":"Shoreline Exploration  #Lovenature Festival","description":"Sourced from predicthq.com - Experience a low tide wander exploring the shoreline","category":"festivals","start":"2024-05-27T13:30:00Z","geo":{"geometry":{"coordinates":[-2.2344701,49.2309928],"type":"Point"},"placekey":"@4f7-b3n-yn5","address":{"country_code":"JE","formatted_address":"Grande Route des Mielles, Jersey JE3 2FN, Jersey, Channel Islands","locality":"Jersey","postcode":"JE3 2FN","region":"St. Ouen"}},"labels":["festival","outdoor"],"duration":7200,"start_local":"2024-05-27T14:30:00","end":"2024-05-27T15:30:00Z","end_local":"2024-05-27T16:30:00","updated":"2024-06-05T03:13:40Z"},{"title":"Spring Wildlife at Plémont #Lovenature Festival","description":"Sourced from predicthq.com - Come and join Neil and Alli (Birding Tours Jersey) for a stroll at Plémont headland.","category":"festivals","start":"2024-05-27T09:00:00Z","geo":{"geometry":{"coordinates":[-2.2277056,49.25658920000001],"type":"Point"},"placekey":"@4f7-b58-m49","address":{"country_code":"JE","formatted_address":"Jersey, Jersey, Channel Islands","locality":"Jersey"}},"labels":["festival","outdoor"],"duration":7200,"start_local":"2024-05-27T10:00:00","end":"2024-05-27T11:00:00Z","end_local":"2024-05-27T12:00:00","updated":"2024-06-04T23:17:20Z"},{"title":"Vanguard Invites LATTE B2B TOXINATE (Our PENULTIMATE ever Rojo event)","description":"Sourced from predicthq.com - VA invite 2 of the most exciting new talents in Drum and Bass who recently joined HEDEX at Wembley and BOU on his UK headline Tour","category":"concerts","start":"2024-05-26T21:30:00Z","geo":{"geometry":{"coordinates":[-2.1029162,49.1850748],"type":"Point"},"placekey":"@4f7-b4t-vj9","address":{"country_code":"JE","formatted_address":"Beresford St, St Helier, Jersey JE2 4LJ, Jersey","postcode":"JE2 4LJ","locality":"Saint Helier","region":"St Helier"}},"labels":["concert","music"],"duration":12600,"start_local":"2024-05-26T22:30:00","end":"2024-05-27T01:00:00Z","end_local":"2024-05-27T02:00:00","updated":"2024-06-05T14:42:09Z"},{"title":"The 1st Bank Holiday Blues Festival at The Lido - Havre Des Pas - Jersey","description":"Sourced from predicthq.com - A Very Special Early Summer Night Out - 3 Great Acts With Full Band + Blues Disco Till 1:00am","category":"festivals","start":"2024-05-26T17:00:00Z","geo":{"geometry":{"coordinates":[-2.1008918,49.1763002],"type":"Point"},"placekey":"@4f7-b8t-x89","address":{"country_code":"JE","formatted_address":"Saint Helier JE2, Jersey, Channel Islands","locality":"Saint Helier","postcode":"JE2","region":"St Helier"}},"labels":["festival","music"],"duration":0,"start_local":"2024-05-26T18:00:00","end":"2024-05-26T17:00:00Z","end_local":"2024-05-26T18:00:00","updated":"2024-06-04T23:07:19Z"},{"title":"Wildflower and Folklore Walk in the Orchid Fields  #Lovenature Festival","description":"Sourced from predicthq.com - Get up close and personal with the beautiful orchids growing in Le Noir .","category":"festivals","start":"2024-05-26T13:30:00Z","geo":{"geometry":{"coordinates":[-2.2217527,49.2192827],"type":"Point"},"placekey":"@4f7-b2n-s5z","address":{"country_code":"JE","formatted_address":"Jersey, Jersey, Channel Islands","locality":"Jersey"}},"labels":["festival","outdoor"],"duration":3600,"start_local":"2024-05-26T14:30:00","end":"2024-05-26T14:30:00Z","end_local":"2024-05-26T15:30:00","updated":"2024-06-04T22:39:42Z"},{"title":"From sand dunes to rubbish tip and back again #Lovenature Festival","description":"Sourced from predicthq.com - Join John Pinel, former Director of Natural Jersey on a walk around Les Mielles.","category":"festivals","start":"2024-05-26T13:30:00Z","geo":{"geometry":{"coordinates":[-2.2283035,49.2260832],"type":"Point"},"placekey":"@4f7-b2n-wc5","address":{"country_code":"JE","formatted_address":"Jersey, Jersey, Channel Islands","locality":"Jersey"}},"labels":["festival","outdoor"],"duration":5400,"start_local":"2024-05-26T14:30:00","end":"2024-05-26T15:00:00Z","end_local":"2024-05-26T16:00:00","updated":"2024-06-11T23:50:44Z"},{"title":"Our landscapes, past present and future","description":"Sourced from predicthq.com - From past to present, Aaron Le Couteur reveals our coastlines story, calling for a renewed bond between humanity and nature.","category":"conferences","start":"2024-05-26T09:00:00Z","geo":{"geometry":{"coordinates":[-2.2277056,49.25658920000001],"type":"Point"},"placekey":"@4f7-b58-m49","address":{"country_code":"JE","formatted_address":"Jersey, Jersey, Channel Islands","locality":"Jersey"}},"labels":["conference","outdoor"],"duration":0,"start_local":"2024-05-26T10:00:00","end":"2024-05-26T09:00:00Z","end_local":"2024-05-26T10:00:00","updated":"2024-05-27T11:17:43Z"},{"title":"The Glorious Birdsong at Dawn  #Lovenature Festival","description":"Sourced from predicthq.com - Experiencing the dawn chorus is truly unique and rewarding, well worth the early rise!","category":"festivals","start":"2024-05-26T03:30:00Z","geo":{"geometry":{"coordinates":[-2.1915374,49.2221906],"type":"Point"},"placekey":"@4f7-b2j-skf","address":{"country_code":"JE","formatted_address":"Jersey JE3 7AY, Jersey, Channel Islands","locality":"Jersey","postcode":"JE3 7AY","region":"St. Peter"}},"labels":["festival","outdoor"],"duration":7200,"start_local":"2024-05-26T04:30:00","end":"2024-05-26T05:30:00Z","end_local":"2024-05-26T06:30:00","updated":"2024-06-05T09:34:07Z"},{"title":"La Veil'ye","description":"Sourced from predicthq.com - Join us for a traditional Jersey rustic get together. Spoken word and music. All acoustic. Wrap up warm and bring your own refreshments.","category":"performing-arts","start":"2024-05-25T18:00:00Z","geo":{"geometry":{"coordinates":[-2.1475815,49.2313035],"type":"Point"},"placekey":"@4f7-b4d-4y9","address":{"country_code":"JE","formatted_address":"Jersey, Jersey, Channel Islands","locality":"Jersey"}},"labels":["concert","music","performing-arts"],"duration":10800,"start_local":"2024-05-25T19:00:00","end":"2024-05-25T21:00:00Z","end_local":"2024-05-25T22:00:00","updated":"2024-06-11T23:22:33Z"},{"title":"Live Art - Window Design","description":"Sourced from predicthq.com - Join artist, Kelly Eastwood, in creating a beautiful, butterfly themed, window design at The Butterfly Cafe. Suitable for all ages/abilities","category":"conferences","start":"2024-05-25T12:30:00Z","geo":{"geometry":{"coordinates":[-2.1100026,49.1862669],"type":"Point"},"placekey":"@4f7-b4t-wx5","address":{"country_code":"JE","formatted_address":"The Parade, Saint Helier JE2 3QP, Jersey, Channel Islands","locality":"Saint Helier","postcode":"JE2 3QP","region":"St Helier"}},"labels":["conference","performing-arts"],"duration":1800,"start_local":"2024-05-25T13:30:00","end":"2024-05-25T13:00:00Z","end_local":"2024-05-25T14:00:00","updated":"2024-06-05T03:48:54Z"},{"title":"Artist Talk: Layla Arthur - A Paper Artist in Progress","description":"Sourced from predicthq.com - Layla May Arthur will be delivering an artist talk on her exhibition, A Paper Artist in Progress, in Arthouse Jersey's Capital House.","category":"conferences","start":"2024-05-25T11:00:00Z","geo":{"geometry":{"coordinates":[-2.1065065,49.1837284],"type":"Point"},"placekey":"@4f7-b4t-rzf","address":{"country_code":"JE","formatted_address":"Church Street, Saint Helier JE2 3NN, Jersey, Channel Islands","locality":"Saint Helier","postcode":"JE2 3NN","region":"St Helier"}},"labels":["conference","performing-arts"],"duration":3600,"start_local":"2024-05-25T12:00:00","end":"2024-05-25T12:00:00Z","end_local":"2024-05-25T13:00:00","updated":"2024-06-12T07:46:37Z"},{"title":"'Summer Nights Sessions' at Mont Orgueil","description":"Sourced from predicthq.com - Join Jersey Heritage for a ‘Summer Nights Session’ experience and see Mont Orgueil Castle in a completely different light.","category":"concerts","start":"2024-05-24T18:00:00Z","geo":{"geometry":{"coordinates":[-2.0208294,49.2005612],"type":"Point"},"placekey":"@4f7-bpw-d9z","address":{"country_code":"JE","formatted_address":"Jersey JE3 6DR, Jersey, Channel Islands","locality":"Jersey","postcode":"JE3 6DR","region":"St Martin"}},"labels":["community","concert","music"],"duration":7200,"start_local":"2024-05-24T19:00:00","end":"2024-05-24T20:00:00Z","end_local":"2024-05-24T21:00:00","updated":"2024-06-05T06:24:16Z"},{"title":"CIPD Spring Forward","description":"Sourced from predicthq.com - Get ready to spring forward in your career at the CIPD event - it's time to grow and thrive!","category":"conferences","start":"2024-05-23T10:30:00Z","geo":{"geometry":{"coordinates":[-2.1085977,49.1829076],"type":"Point"},"placekey":"@4f7-b4t-t5f","address":{"country_code":"JE","formatted_address":"Liberation Square, St Helier, Jersey JE1 3UF, Jersey","postcode":"JE1 3UF","locality":"Saint Helier","region":"St Helier"}},"labels":["business","conference"],"duration":9000,"start_local":"2024-05-23T11:30:00","end":"2024-05-23T13:00:00Z","end_local":"2024-05-23T14:00:00","updated":"2024-06-05T14:27:09Z"},{"title":"Merger & acquisition growth: navigating the legal and HR issues.","description":"Sourced from predicthq.com - How to avoid legal pitfalls and employee fallout to ensure M&A success.","category":"conferences","start":"2024-05-23T10:00:00Z","geo":{"geometry":{"coordinates":[-2.109327,49.1851953],"type":"Point"},"placekey":"@4f7-b4t-wzf","address":{"country_code":"JE","formatted_address":"Charing Cross, Saint Helier JE2 3RP, Jersey, Channel Islands","locality":"Saint Helier","postcode":"JE2 3RP","region":"St Helier"}},"labels":["business","conference"],"duration":3600,"start_local":"2024-05-23T11:00:00","end":"2024-05-23T11:00:00Z","end_local":"2024-05-23T12:00:00","updated":"2024-06-05T01:54:06Z"},{"title":"The Right Advice on… Dealing with Bullying and Harassment","description":"Sourced from predicthq.com - Get ready to uncover the secrets of successfully dealing with bullying and harassment at this in-person event at Law At Work","category":"conferences","start":"2024-05-23T08:30:00Z","geo":{"geometry":{"coordinates":[-2.1107648,49.18586759999999],"type":"Point"},"placekey":"@4f7-b4s-yd9","address":{"country_code":"JE","formatted_address":"Seale Street, Saint Helier JE2 3QG, Jersey, Channel Islands","locality":"Saint Helier","postcode":"JE2 3QG","region":"St Helier"}},"labels":["business","conference"],"duration":9000,"start_local":"2024-05-23T09:30:00","end":"2024-05-23T11:00:00Z","end_local":"2024-05-23T12:00:00","updated":"2024-06-05T05:07:51Z"},{"title":"Legends Unite: The Spurs Breakfast of Champions","description":"Sourced from predicthq.com - Experience a unique opportunity at an unforgettable morning with Tottenham Hotspur’s finest at the “Spurs Legends Breakfast”.","category":"conferences","start":"2024-05-23T07:30:00Z","geo":{"geometry":{"coordinates":[-2.2012985,49.18529700000001],"type":"Point"},"placekey":"@4f7-b43-s5z","address":{"country_code":"JE","formatted_address":"Jersey JE3, Jersey, Channel Islands","locality":"Jersey","postcode":"JE3","region":"St Brelade"}},"labels":["conference","sport"],"duration":5400,"start_local":"2024-05-23T08:30:00","end":"2024-05-23T09:00:00Z","end_local":"2024-05-23T10:00:00","updated":"2024-06-11T23:04:53Z"},{"title":"Spring Lunchtime Talks  2024","description":"Sourced from predicthq.com - Roger Vercel: A controversial French writer visits Jersey in 1946, presented by Diane Moore","category":"conferences","start":"2024-05-22T12:10:00Z","geo":{"geometry":{"coordinates":[-2.1070341,49.1819824],"type":"Point"},"placekey":"@4f7-b4t-v9f","address":{"country_code":"JE","formatted_address":"Pier Road, Saint Helier JE1 4HF, Jersey, Channel Islands","locality":"Saint Helier","postcode":"JE1 4HF","region":"St Helier"}},"labels":["conference"],"duration":2400,"start_local":"2024-05-22T13:10:00","end":"2024-05-22T12:50:00Z","end_local":"2024-05-22T13:50:00","updated":"2024-06-04T23:02:04Z"},{"title":"Epilepsy Awareness & Buccal Midazolam","description":"Sourced from predicthq.com - Interactive course is suitable for care staff in any setting who may be required to administer Buccal Midazolam as a ‘rescue’ medication.","category":"conferences","start":"2024-05-21T13:00:00Z","geo":{"geometry":{"coordinates":[-2.1775575000000345,49.1862203],"type":"Point"},"placekey":"@4f7-b39-btv","address":{"country_code":"JE","formatted_address":"A13, Jersey JE3, Jersey, Channel Islands","locality":"Jersey","postcode":"JE3","region":"St Brelade"}},"labels":["conference","health"],"duration":5400,"start_local":"2024-05-21T14:00:00","end":"2024-05-21T14:30:00Z","end_local":"2024-05-21T15:30:00","updated":"2024-06-05T01:01:21Z"},{"title":"GENIUS Dinner - with Jason Rebello","description":"Sourced from predicthq.com - An evening of dinner, popular jazz  and music with one of the finest jazzmen Jason Rebello","category":"festivals","start":"2024-05-18T17:30:00Z","geo":{"geometry":{"coordinates":[-2.108527399999957,49.18256599999999],"type":"Point"},"placekey":"@4f7-b4t-t7q","address":{"country_code":"JE","formatted_address":"Weighbridge Place, Saint Helier JE2 3QA, Jersey, Channel Islands","locality":"Saint Helier","postcode":"JE2 3QA","region":"St Helier"}},"labels":["festival","music"],"duration":16200,"start_local":"2024-05-18T18:30:00","end":"2024-05-18T22:00:00Z","end_local":"2024-05-18T23:00:00","updated":"2024-06-05T06:33:50Z"},{"title":"Behind the Wire: St Ouen’s Bay during World War One","description":"Sourced from predicthq.com - The southern part of the bay is filled today with sandy dunes and exceptional ecology but step back 100 years  and barbed wire dominated .","category":"community","start":"2024-05-18T13:00:00Z","geo":{"geometry":{"coordinates":[-2.2241973,49.19872300000001],"type":"Point"},"placekey":"@4f7-b42-92k","address":{"country_code":"JE","formatted_address":"Grande Route des Mielles, Jersey JE3 8FN, Jersey, Channel Islands","locality":"Jersey","postcode":"JE3 8FN","region":"St Brelade"}},"labels":["community","outdoor","sport"],"duration":7200,"start_local":"2024-05-18T14:00:00","end":"2024-05-18T15:00:00Z","end_local":"2024-05-18T16:00:00","updated":"2024-06-05T11:20:20Z"},{"title":"Jazz at Hamptonne","description":"Sourced from predicthq.com - Enjoy a family day out with jazz at the beautiful Hamptonne, with multiple award winning keys man Jason Rebello and sax player Tim Garland","category":"concerts","start":"2024-05-18T11:30:00Z","geo":{"geometry":{"coordinates":[-2.136369,49.2254086],"type":"Point"},"placekey":"@4f7-b4y-syv","address":{"country_code":"JE","formatted_address":"Rue de la Patente, Jersey JE3, Jersey, Channel Islands","locality":"Jersey","postcode":"JE3","region":"St Lawrence"}},"labels":["concert","music"],"duration":9000,"start_local":"2024-05-18T12:30:00","end":"2024-05-18T14:00:00Z","end_local":"2024-05-18T15:00:00","updated":"2024-06-01T11:30:54Z"},{"title":"Conversations for good  mental health and wellbeing strategy for businesses","description":"Sourced from predicthq.com - Learn how to foster a culture where employees feel safe to share experiences of poor mental health and wellbeing","category":"conferences","start":"2024-05-17T10:00:00Z","geo":{"geometry":{"coordinates":[-2.109327,49.1851953],"type":"Point"},"placekey":"@4f7-b4t-wzf","address":{"country_code":"JE","formatted_address":"Charing Cross, Saint Helier JE2 3RP, Jersey, Channel Islands","locality":"Saint Helier","postcode":"JE2 3RP","region":"St Helier"}},"labels":["business","conference"],"duration":3600,"start_local":"2024-05-17T11:00:00","end":"2024-05-17T11:00:00Z","end_local":"2024-05-17T12:00:00","updated":"2024-06-05T04:19:09Z"},{"title":"Art in the age of Artificial Intelligence","description":"Sourced from predicthq.com - Join artist Will Lakeman as he discusses the use of Artificial Intelligence and Machine Learning in visual art with curator Laura Hudson.","category":"conferences","start":"2024-05-16T17:00:00Z","geo":{"geometry":{"coordinates":[-2.105458800000001,49.18343040000001],"type":"Point"},"placekey":"@4f7-b4t-rtv","address":{"country_code":"JE","formatted_address":"Hill Street, Saint Helier JE2 4UA, Jersey, Channel Islands","locality":"Saint Helier","postcode":"JE2 4UA","region":"St Helier"}},"labels":["conference","science","technology"],"duration":3600,"start_local":"2024-05-16T18:00:00","end":"2024-05-16T18:00:00Z","end_local":"2024-05-16T19:00:00","updated":"2024-06-05T01:55:32Z"},{"title":"CIGPE -  Optimising Building Design for Low Carbon Structures","description":"Sourced from predicthq.com - Looking at decarbonising buildings","category":"conferences","start":"2024-05-16T16:30:00Z","geo":{"geometry":{"coordinates":[-2.103233,49.1805019],"type":"Point"},"placekey":"@4f7-b4t-sqz","address":{"country_code":"JE","formatted_address":"La Route du Fort, Saint-Helier JE2, Jersey, Channel Islands","locality":"Saint-Helier","postcode":"JE2","region":"St Helier"}},"labels":["business","conference"],"duration":5400,"start_local":"2024-05-16T17:30:00","end":"2024-05-16T18:00:00Z","end_local":"2024-05-16T19:00:00","updated":"2024-06-05T18:21:44Z"},{"title":"Anti-Doping Awareness for Sports Organisations Lunch & Learn","description":"Sourced from predicthq.com - This course aims to raise awareness and understanding of anti-doping in sport.","category":"conferences","start":"2024-05-16T11:10:00Z","geo":{"geometry":{"coordinates":[-2.104443,49.1865337],"type":"Point"},"placekey":"@4f7-b4t-vmk","address":{"country_code":"JE","formatted_address":"78-80 Halkett Place, Saint Helier JE2 3RQ, Jersey, Channel Islands","postcode":"JE2 3RQ","locality":"Saint Helier","region":"St Helier"}},"labels":["conference","sport"],"duration":2400,"start_local":"2024-05-16T12:10:00","end":"2024-05-16T11:50:00Z","end_local":"2024-05-16T12:50:00","updated":"2024-05-29T00:36:36Z"},{"title":"Creative Industries Conference","description":"Sourced from predicthq.com - Driving Growth Through the Creative Economy","category":"conferences","start":"2024-05-16T08:00:00Z","geo":{"geometry":{"coordinates":[-2.102734,49.187261],"type":"Point"},"placekey":"@4f7-b4t-vs5","address":{"country_code":"JE","formatted_address":"94 Bath St, St Helier, Jersey JE2 4SU, Jersey","postcode":"JE2 4SU","locality":"Saint Helier","region":"St Helier"}},"labels":["business","conference"],"duration":28800,"start_local":"2024-05-16T09:00:00","end":"2024-05-16T16:00:00Z","end_local":"2024-05-16T17:00:00","updated":"2024-06-05T21:45:23Z"},{"title":"GENIUS - Tim Garland at Wolf's Caves","description":"Sourced from predicthq.com - An intimate evening of drinks and music at a stunning house at Wolf’s Caves led by Grammy winning sax player Tim Garland.","category":"concerts","start":"2024-05-15T18:00:00Z","geo":{"geometry":{"coordinates":[-2.1287407,49.2521856],"type":"Point"},"placekey":"@4f7-b47-qpv","address":{"country_code":"JE","formatted_address":"Jersey, Jersey, Channel Islands","locality":"Jersey"}},"labels":["concert","music"],"duration":9000,"start_local":"2024-05-15T19:00:00","end":"2024-05-15T20:30:00Z","end_local":"2024-05-15T21:30:00","updated":"2024-05-29T18:06:19Z"},{"title":"Author talk - Doro - Refugee, Champion, Hero, Survivor","description":"Sourced from predicthq.com - Hear about the lifesaving actions of Sea-Watch Refugee Search and Rescue volunteer Brendan Woodhouse, as he talks about his book, Doro.","category":"conferences","start":"2024-05-15T16:45:00Z","geo":{"geometry":{"coordinates":[-2.1068168,49.1826697],"type":"Point"},"placekey":"@4f7-b4t-tjv","address":{"country_code":"JE","formatted_address":"Pier Road, Saint Helier JE2 4XW, Jersey, Channel Islands","locality":"Saint Helier","postcode":"JE2 4XW","region":"St Helier"}},"labels":["conference","fundraiser"],"duration":11700,"start_local":"2024-05-15T17:45:00","end":"2024-05-15T20:00:00Z","end_local":"2024-05-15T21:00:00","updated":"2024-06-05T03:00:16Z"},{"title":"As part of Pentabuild 2024, VELUX present - CPD Living Places","description":"Sourced from predicthq.com - We are the Indoor Generation!\n\nWe spend 90% of our time indoors. The indoor environment is 5 times more polluted than the outdoors.","category":"conferences","start":"2024-05-15T14:00:00Z","geo":{"geometry":{"coordinates":[-2.116858699999966,49.18398910000001],"type":"Point"},"placekey":"@4f7-b4s-tsq","address":{"country_code":"JE","formatted_address":"Rue de l'Étau\nSt Helier\nJE2 3WF\nJersey","postcode":"JE2 3WF","locality":"Saint Helier","region":"St Helier"}},"labels":["business","conference"],"duration":3600,"start_local":"2024-05-15T15:00:00","end":"2024-05-15T15:00:00Z","end_local":"2024-05-15T16:00:00","updated":"2024-05-28T21:42:01Z"},{"title":"AJA CPD: Sustainability & Glass","description":"Sourced from predicthq.com - IQ Glass CPD about Sustainability + Glazing gives an understanding of sustainability considerations for specification of glass facades.","category":"conferences","start":"2024-05-15T11:30:00Z","geo":{"geometry":{"coordinates":[-2.1109794,49.1858369],"type":"Point"},"placekey":"@4f7-b4s-y9z","address":{"country_code":"JE","formatted_address":"Seale Street, Saint Helier JE2 3QE, Jersey, Channel Islands","locality":"Saint Helier","postcode":"JE2 3QE","region":"St Helier"}},"labels":["business","conference"],"duration":6300,"start_local":"2024-05-15T12:30:00","end":"2024-05-15T13:15:00Z","end_local":"2024-05-15T14:15:00","updated":"2024-06-05T02:15:01Z"},{"title":"Alsecco UK CPD -  EWI Systems Windloading and Safe Design for Specifiers","description":"Sourced from predicthq.com - Join us for an interactive session on Alsecco UK's External Wall Insulation Systems, focusing on windloading and safe design for specifiers!","category":"conferences","start":"2024-05-15T10:30:00Z","geo":{"geometry":{"coordinates":[-2.116858699999966,49.18398910000001],"type":"Point"},"placekey":"@4f7-b4s-tsq","address":{"country_code":"JE","formatted_address":"Rue de l'Étau\nSt Helier\nJE2 3WF\nJersey","postcode":"JE2 3WF","locality":"Saint Helier","region":"St Helier"}},"labels":["business","conference"],"duration":3600,"start_local":"2024-05-15T11:30:00","end":"2024-05-15T11:30:00Z","end_local":"2024-05-15T12:30:00","updated":"2024-05-28T21:43:01Z"},{"title":"Actis Insulation - CPD03 Seminar","description":"Sourced from predicthq.com - Focusing on the 6 different Parts of Building Regulations and how they can all be achieved with one fully compliant system. (Actis)","category":"conferences","start":"2024-05-15T08:00:00Z","geo":{"geometry":{"coordinates":[-2.116858699999966,49.18398910000001],"type":"Point"},"placekey":"@4f7-b4s-tsq","address":{"country_code":"JE","formatted_address":"Rue de l'Étau\nSt Helier\nJE2 3WF\nJersey","postcode":"JE2 3WF","locality":"Saint Helier","region":"St Helier"}},"labels":["conference","science","technology"],"duration":2700,"start_local":"2024-05-15T09:00:00","end":"2024-05-15T08:45:00Z","end_local":"2024-05-15T09:45:00","updated":"2024-05-28T21:36:11Z"},{"title":"Liberation Chamber Gala","description":"Sourced from predicthq.com - Acclaimed international soloists play an evening of piano and strings - with option of dinner provided by The Yard","category":"concerts","start":"2024-05-14T18:30:00Z","geo":{"geometry":{"coordinates":[-2.1084226,49.1825922],"type":"Point"},"placekey":"@4f7-b4t-tjv","address":{"country_code":"JE","formatted_address":"Weighbridge Place, Saint Helier JE2 3QA, Jersey, Channel Islands","locality":"Saint Helier","postcode":"JE2 3QA","region":"St Helier"}},"labels":["concert","music"],"duration":7200,"start_local":"2024-05-14T19:30:00","end":"2024-05-14T20:30:00Z","end_local":"2024-05-14T21:30:00","updated":"2024-05-28T18:56:49Z"},{"title":"Dementia friends by Dementia Jersey","description":"Sourced from predicthq.com - Learn what it’s like to live with dementia so you can support people around you who are affected by the condition.","category":"conferences","start":"2024-05-14T11:00:00Z","geo":{"geometry":{"coordinates":[-2.109327,49.1851953],"type":"Point"},"placekey":"@4f7-b4t-wzf","address":{"country_code":"JE","formatted_address":"Charing Cross, Saint Helier JE2 3RP, Jersey, Channel Islands","locality":"Saint Helier","postcode":"JE2 3RP","region":"St Helier"}},"labels":["conference","health"],"duration":3600,"start_local":"2024-05-14T12:00:00","end":"2024-05-14T12:00:00Z","end_local":"2024-05-14T13:00:00","updated":"2024-06-05T03:06:40Z"},{"title":"Jean-Efflam Bavouzet with the Jersey Chamber Orchestra","description":"Sourced from predicthq.com - Award winning pianist Jean-Efflam Bavouzet  and the Jersey Chamber Orchestra play  Mozart's Double Piano Concerto and Haydn.","category":"concerts","start":"2024-05-11T18:30:00Z","geo":{"geometry":{"coordinates":[-2.103988,49.187594],"type":"Point"},"placekey":"@4f7-b4t-vxq","address":{"country_code":"JE","formatted_address":"122 Halkett Pl, St Helier, Jersey JE2, Jersey","postcode":"JE2","locality":"Saint Helier","region":"St Helier"}},"labels":["concert","music"],"duration":7200,"start_local":"2024-05-11T19:30:00","end":"2024-05-11T20:30:00Z","end_local":"2024-05-11T21:30:00","updated":"2024-06-04T21:39:50Z"},{"title":"Musical Walk - Seafield House","description":"Sourced from predicthq.com - Embark on a captivating musical journey through the scenic grounds of historic Seafield House, previously the home of an Austrian princess.","category":"performing-arts","start":"2024-05-09T13:30:00Z","geo":{"geometry":{"coordinates":[-2.1293199,49.194986],"type":"Point"},"placekey":"@4f7-b4r-ndv","address":{"country_code":"JE","formatted_address":"Saint Aubin's Road, Jersey JE2 3LN, Jersey, Channel Islands","locality":"Jersey","postcode":"JE2 3LN","region":"St Helier"}},"labels":["concert","music","performing-arts"],"duration":7200,"start_local":"2024-05-09T14:30:00","end":"2024-05-09T15:30:00Z","end_local":"2024-05-09T16:30:00","updated":"2024-06-05T06:02:53Z"},{"title":"Liberation Day 2024","description":"Sourced from predicthq.com - Liberation Day reenactment and service of thanksgiving","category":"festivals","start":"2024-05-09T09:30:00Z","geo":{"geometry":{"coordinates":[-2.1091238,49.1826919],"type":"Point"},"placekey":"@4f7-b4t-t5f","address":{"country_code":"JE","formatted_address":"Jersey, Jersey, Channel Islands","locality":"Jersey"}},"labels":["community","festival"],"duration":7200,"start_local":"2024-05-09T10:30:00","end":"2024-05-09T11:30:00Z","end_local":"2024-05-09T12:30:00","updated":"2024-06-02T02:04:36Z"},{"title":"Cyber incidents – ‘When Things Fall Apart'","description":"Sourced from predicthq.com - Join us for a deep dive into cyber incidents and learn how to handle them when everything goes wrong!","category":"conferences","start":"2024-05-07T11:30:00Z","geo":{"geometry":{"coordinates":[-2.102194,49.182572],"type":"Point"},"placekey":"@4f7-b4t-syv","address":{"country_code":"JE","formatted_address":"Block 3, Ground Floor, Forum 4, Grenville St, St Helier, Jersey JE2 4UF, Jersey","postcode":"JE2 4UF","locality":"Saint Helier","region":"St Helier"}},"labels":["conference","science","technology"],"duration":3600,"start_local":"2024-05-07T12:30:00","end":"2024-05-07T12:30:00Z","end_local":"2024-05-07T13:30:00","updated":"2024-06-05T09:37:52Z"},{"title":"Star Stage Comedy presents Carey Marx, Patrick Monahan, and Tez IIyas","description":"Sourced from predicthq.com - Star Stage Comedy Club presents a hilarious night with Cary Marx, Patrick Monahan, and headliner Tez IIlyas- comedy at its finest.","category":"performing-arts","start":"2024-05-04T19:00:00Z","geo":{"geometry":{"coordinates":[-2.1086419,49.1829189],"type":"Point"},"placekey":"@4f7-b4t-t5f","address":{"country_code":"JE","formatted_address":"Saint Helier JE1 3UF, Jersey, Channel Islands","locality":"Saint Helier","postcode":"JE1 3UF","region":"St Helier"}},"labels":["concert","music","performing-arts"],"duration":7200,"start_local":"2024-05-04T20:00:00","end":"2024-05-04T21:00:00Z","end_local":"2024-05-04T22:00:00","updated":"2024-06-04T22:42:40Z"},{"title":"#369 Scout Groups Indoor Table Top Sale","description":"Sourced from predicthq.com - Join us at the #369 Scout Groups Indoor Table Top Sale for a day of picking up a bargain!","category":"expos","start":"2024-05-04T09:00:00Z","geo":{"geometry":{"coordinates":[-2.096323399999999,49.2314289],"type":"Point"},"placekey":"@4f7-b4w-gtv","address":{"country_code":"JE","formatted_address":"La Route de la Trinité, Jersey JE3 5JP, Jersey, Channel Islands","locality":"Jersey","postcode":"JE3 5JP","region":"Trinity"}},"labels":["expo","fundraiser"],"duration":14400,"start_local":"2024-05-04T10:00:00","end":"2024-05-04T13:00:00Z","end_local":"2024-05-04T14:00:00","updated":"2024-06-05T05:44:27Z"},{"title":"Trail-Fest Jersey (Jersey Festival of Trail Running)","description":"Sourced from predicthq.com","category":"sports","start":"2024-05-04T07:00:00Z","geo":{"geometry":{"coordinates":[-2.2458673,49.2528345],"type":"Point"},"placekey":"@4f7-b58-7yv","address":{"country_code":"JE","formatted_address":"Jersey, Jersey, Channel Islands","locality":"Jersey"}},"labels":["festival","outdoor-sports","running","sport"],"duration":0,"start_local":"2024-05-04T08:00:00","end":"2024-05-04T07:00:00Z","end_local":"2024-05-04T08:00:00","updated":"2024-06-05T13:41:46Z"},{"title":"Double Top Ultra Marathon - Jersey","description":"Sourced from predicthq.com","category":"sports","start":"2024-05-04T07:00:00Z","geo":{"geometry":{"coordinates":[-2.103233,49.1805019],"type":"Point"},"placekey":"@4f7-b4t-sqz","address":{"country_code":"JE","formatted_address":"La Route du Fort, Saint-Helier JE2, Jersey, Channel Islands","locality":"Saint-Helier","postcode":"JE2","region":"St Helier"}},"labels":["marathon","outdoor-sports","running","sport"],"duration":0,"start_local":"2024-05-04T08:00:00","end":"2024-05-04T07:00:00Z","end_local":"2024-05-04T08:00:00","updated":"2024-06-05T00:46:31Z"},{"title":"Liberation Quality Drinks  Summer Wine & Champagne Tasting","description":"Sourced from predicthq.com - Join us for an afternoon of premium wine & champagne tasting at the Royal Yacht Hotel, 2nd May 2024","category":"expos","start":"2024-05-02T15:00:00Z","geo":{"geometry":{"coordinates":[-2.107736,49.18251300000001],"type":"Point"},"placekey":"@4f7-b4t-tjv","address":{"country_code":"JE","formatted_address":"Caledonia Place, Saint Helier JE2 3NG, Jersey, Channel Islands","locality":"Saint Helier","postcode":"JE2 3NG","region":"St Helier"}},"labels":["expo","food"],"duration":12600,"start_local":"2024-05-02T16:00:00","end":"2024-05-02T18:30:00Z","end_local":"2024-05-02T19:30:00","updated":"2024-06-05T04:12:26Z"},{"title":"The Culture of Philanthropy: Understanding Your Major Donors","description":"Sourced from predicthq.com - Join us for a conversation about fundraising with philanthropic expert Beth Breeze on 02 May at 2pm.","category":"conferences","start":"2024-05-02T13:00:00Z","geo":{"geometry":{"coordinates":[-2.107736,49.18251300000001],"type":"Point"},"placekey":"@4f7-b4t-tjv","address":{"country_code":"JE","formatted_address":"Caledonia Place, Saint Helier JE2 3NG, Jersey, Channel Islands","locality":"Saint Helier","postcode":"JE2 3NG","region":"St Helier"}},"labels":["conference","fundraiser"],"duration":7200,"start_local":"2024-05-02T14:00:00","end":"2024-05-02T15:00:00Z","end_local":"2024-05-02T16:00:00","updated":"2024-06-05T19:44:24Z"},{"title":"The Culture of Philanthropy: Unlocking Jersey’s Philanthropic Potential","description":"Sourced from predicthq.com - Join us on Thursday May 02, 09.00-11.00, to explore how Jersey can unlock its philanthropic potential at JCF's first philanthropy event.","category":"conferences","start":"2024-05-02T08:00:00Z","geo":{"geometry":{"coordinates":[-2.107736,49.18251300000001],"type":"Point"},"placekey":"@4f7-b4t-tjv","address":{"country_code":"JE","formatted_address":"Caledonia Place, Saint Helier JE2 3NG, Jersey, Channel Islands","locality":"Saint Helier","postcode":"JE2 3NG","region":"St Helier"}},"labels":["conference","fundraiser"],"duration":7200,"start_local":"2024-05-02T09:00:00","end":"2024-05-02T10:00:00Z","end_local":"2024-05-02T11:00:00","updated":"2024-06-05T13:58:48Z"},{"title":"Native Tongues: Sensing our way into abundant futures","description":"Sourced from predicthq.com - Artist and critical heritage researcher ewill discuss and share elements of their practice.","category":"conferences","start":"2024-04-30T17:00:00Z","geo":{"geometry":{"coordinates":[-2.1065065,49.1837284],"type":"Point"},"placekey":"@4f7-b4t-rzf","address":{"country_code":"JE","formatted_address":"Church Street, Saint Helier JE2 3NN, Jersey, Channel Islands","locality":"Saint Helier","postcode":"JE2 3NN","region":"St Helier"}},"labels":["community","conference"],"duration":3600,"start_local":"2024-04-30T18:00:00","end":"2024-04-30T18:00:00Z","end_local":"2024-04-30T19:00:00","updated":"2024-06-11T22:25:48Z"},{"title":"Wim Hof Breathing with Russ Allchin","description":"Sourced from predicthq.com - Free Talk: Learn About and Experience Wim Hof Breathing with Russ Allchin of Evolved Human, the Islands' Only Certified Instructor","category":"conferences","start":"2024-04-30T16:30:00Z","geo":{"geometry":{"coordinates":[-2.1090859,49.18518650000001],"type":"Point"},"placekey":"@4f7-b4t-wzf","address":{"country_code":"JE","formatted_address":"York Street, Saint Helier JE4 8PA, Jersey, Channel Islands","locality":"Saint Helier","postcode":"JE4 8PA","region":"St Helier"}},"labels":["conference","health"],"duration":3600,"start_local":"2024-04-30T17:30:00","end":"2024-04-30T17:30:00Z","end_local":"2024-04-30T18:30:00","updated":"2024-06-05T02:50:43Z"},{"title":"How can your organisation use Open Source Software","description":"Sourced from predicthq.com - We'll take a real-world look at how we should think of Open Source Software","category":"conferences","start":"2024-04-30T16:00:00Z","geo":{"geometry":{"coordinates":[-2.1111598,49.1857038],"type":"Point"},"placekey":"@4f7-b4s-yd9","address":{"country_code":"JE","formatted_address":"Seaton Place, Saint Helier JE2 3QL, Jersey, Channel Islands","locality":"Saint Helier","postcode":"JE2 3QL","region":"St Helier"}},"labels":["conference","science","technology"],"duration":7200,"start_local":"2024-04-30T17:00:00","end":"2024-04-30T18:00:00Z","end_local":"2024-04-30T19:00:00","updated":"2024-06-05T15:28:02Z"},{"title":"Demystifying AI & Automation","description":"Sourced from predicthq.com - A free beginner-friendly guide to Artificial Intelligence and automation ran by industry experts.","category":"conferences","start":"2024-04-30T09:00:00Z","geo":{"geometry":{"coordinates":[-2.107736,49.18251300000001],"type":"Point"},"placekey":"@4f7-b4t-tjv","address":{"country_code":"JE","formatted_address":"Caledonia Place, Saint Helier JE2 3NG, Jersey, Channel Islands","locality":"Saint Helier","postcode":"JE2 3NG","region":"St Helier"}},"labels":["conference","science","technology"],"duration":3600,"start_local":"2024-04-30T10:00:00","end":"2024-04-30T10:00:00Z","end_local":"2024-04-30T11:00:00","updated":"2024-06-05T04:33:08Z"},{"title":"La Veil'ye","description":"Sourced from predicthq.com - Join us for a rustic community event in the pressoir. Acoustic music, poetry, storytelling.","category":"performing-arts","start":"2024-04-27T18:00:00Z","geo":{"geometry":{"coordinates":[-2.1475815,49.2313035],"type":"Point"},"placekey":"@4f7-b4d-4y9","address":{"country_code":"JE","formatted_address":"Jersey, Jersey, Channel Islands","locality":"Jersey"}},"labels":["concert","music","performing-arts"],"duration":10800,"start_local":"2024-04-27T19:00:00","end":"2024-04-27T21:00:00Z","end_local":"2024-04-27T22:00:00","updated":"2024-06-11T21:40:43Z"},{"title":"Fund Digital Operations","description":"Sourced from predicthq.com - We are pleased to notify that the JFA will be holding the Fund Digital Operations Seminar on the 26th of April 2024 at the Royal Yacht Hotel","category":"conferences","start":"2024-04-26T07:30:00Z","geo":{"geometry":{"coordinates":[-2.107736,49.18251300000001],"type":"Point"},"placekey":"@4f7-b4t-tjv","address":{"country_code":"JE","formatted_address":"Caledonia Place, Saint Helier JE2 3NG, Jersey, Channel Islands","locality":"Saint Helier","postcode":"JE2 3NG","region":"St Helier"}},"labels":["business","conference"],"duration":5400,"start_local":"2024-04-26T08:30:00","end":"2024-04-26T09:00:00Z","end_local":"2024-04-26T10:00:00","updated":"2024-06-05T15:33:35Z"},{"title":"Blues & Cocktails @ The  Porter's Store with Giles Robson April 25th","description":"Sourced from predicthq.com - An early evening session with one of the greatest living blues harmonica players & our world class mixologists @ The Porter's Store","category":"concerts","start":"2024-04-25T16:30:00Z","geo":{"geometry":{"coordinates":[-2.1080043,49.1830702],"type":"Point"},"placekey":"@4f7-b4t-tjv","address":{"country_code":"JE","formatted_address":"Hope Street, Saint Helier JE2 3NR, Jersey, Channel Islands","locality":"Saint Helier","postcode":"JE2 3NR","region":"St Helier"}},"labels":["concert","food","music"],"duration":9000,"start_local":"2024-04-25T17:30:00","end":"2024-04-25T19:00:00Z","end_local":"2024-04-25T20:00:00","updated":"2024-06-05T02:42:52Z"},{"title":"Gamification: what is it and how to make it work for your business","description":"Sourced from predicthq.com - Learn how to use the psychology behind games to motivate people, experience how it works and why it is proving so useful to business.","category":"conferences","start":"2024-04-25T16:15:00Z","geo":{"geometry":{"coordinates":[-2.109327,49.1851953],"type":"Point"},"placekey":"@4f7-b4t-wzf","address":{"country_code":"JE","formatted_address":"Charing Cross, Saint Helier JE2 3RP, Jersey, Channel Islands","locality":"Saint Helier","postcode":"JE2 3RP","region":"St Helier"}},"labels":["business","conference"],"duration":4500,"start_local":"2024-04-25T17:15:00","end":"2024-04-25T17:30:00Z","end_local":"2024-04-25T18:30:00","updated":"2024-06-05T10:23:25Z"},{"title":"Discrimination in Schools: the Law in Theory and in Practice","description":"Sourced from predicthq.com - This session looks back at how the Discrimination Law (Jersey) came into force and examines the ongoing need to protect minority groups.","category":"conferences","start":"2024-04-25T14:00:00Z","geo":{"geometry":{"coordinates":[-2.116858699999966,49.18398910000001],"type":"Point"},"placekey":"@4f7-b4s-tsq","address":{"country_code":"JE","formatted_address":"Rue de l'Étau\nSt Helier\nJE2 3WF\nJersey","postcode":"JE2 3WF","locality":"Saint Helier","region":"St Helier"}},"labels":["conference"],"duration":3600,"start_local":"2024-04-25T15:00:00","end":"2024-04-25T15:00:00Z","end_local":"2024-04-25T16:00:00","updated":"2024-05-28T21:39:28Z"},{"title":"Effective partnership working to improve children & young persons outcomes","description":"Sourced from predicthq.com - Improving outcomes for children and young people through good partnership working between Allied Healthcare professionals, schools & parents","category":"conferences","start":"2024-04-25T12:30:00Z","geo":{"geometry":{"coordinates":[-2.116858699999966,49.18398910000001],"type":"Point"},"placekey":"@4f7-b4s-tsq","address":{"country_code":"JE","formatted_address":"Rue de l'Étau\nSt Helier\nJE2 3WF\nJersey","postcode":"JE2 3WF","locality":"Saint Helier","region":"St Helier"}},"labels":["conference","education","family"],"duration":3600,"start_local":"2024-04-25T13:30:00","end":"2024-04-25T13:30:00Z","end_local":"2024-04-25T14:30:00","updated":"2024-05-28T21:39:12Z"},{"title":"Unlocking Human Potential: Exploring Lumina Learning's Digital Psychometrics","description":"Sourced from predicthq.com - Discover the power of Lumina Learning's tech-driven, psychometric solutions and how you can use these to support your talent development.","category":"conferences","start":"2024-04-25T11:00:00Z","geo":{"geometry":{"coordinates":[-2.102194,49.182572],"type":"Point"},"placekey":"@4f7-b4t-syv","address":{"country_code":"JE","formatted_address":"Block 3, Ground Floor, Forum 4, Grenville St, St Helier, Jersey JE2 4UF, Jersey","postcode":"JE2 4UF","locality":"Saint Helier","region":"St Helier"}},"labels":["business","conference"],"duration":3600,"start_local":"2024-04-25T12:00:00","end":"2024-04-25T12:00:00Z","end_local":"2024-04-25T13:00:00","updated":"2024-06-05T13:42:36Z"},{"title":"The Right Advice on… Dealing with a Grievance","description":"Sourced from predicthq.com - Get ready to uncover the secrets of successfully dealing with a grievance at this in-person event at Law At Work","category":"conferences","start":"2024-04-25T08:30:00Z","geo":{"geometry":{"coordinates":[-2.1107648,49.18586759999999],"type":"Point"},"placekey":"@4f7-b4s-yd9","address":{"country_code":"JE","formatted_address":"Seale Street, Saint Helier JE2 3QG, Jersey, Channel Islands","locality":"Saint Helier","postcode":"JE2 3QG","region":"St Helier"}},"labels":["business","conference"],"duration":9000,"start_local":"2024-04-25T09:30:00","end":"2024-04-25T11:00:00Z","end_local":"2024-04-25T12:00:00","updated":"2024-06-11T23:59:06Z"},{"title":"Spring Lunchtime Talks 2024","description":"Sourced from predicthq.com - The Island's Owls and the Jersey Barn Owl Conservation Trust, presented by Bob Tompkins","category":"conferences","start":"2024-04-24T12:10:00Z","geo":{"geometry":{"coordinates":[-2.1070341,49.1819824],"type":"Point"},"placekey":"@4f7-b4t-v9f","address":{"country_code":"JE","formatted_address":"Pier Road, Saint Helier JE1 4HF, Jersey, Channel Islands","locality":"Saint Helier","postcode":"JE1 4HF","region":"St Helier"}},"labels":["conference","fundraiser"],"duration":2400,"start_local":"2024-04-24T13:10:00","end":"2024-04-24T12:50:00Z","end_local":"2024-04-24T13:50:00","updated":"2024-06-05T00:35:38Z"},{"title":"\"Uncharted Horizons – Voyages in Discovery for Directors\" Jerry Garrood, Principal at JTC Law.","description":"Sourced from predicthq.com - Litigation is an ever-present danger for company directors....we will discuss the process and how this can impact you as a director.","category":"conferences","start":"2024-04-24T07:30:00Z","geo":{"geometry":{"coordinates":[-2.1126498,49.18525589999999],"type":"Point"},"placekey":"@4f7-b4s-xyv","address":{"country_code":"JE","formatted_address":"Esplanade, Saint Helier JE2 3QA, Jersey, Channel Islands","locality":"Saint Helier","postcode":"JE2 3QA","region":"St Helier"}},"labels":["business","conference"],"duration":5400,"start_local":"2024-04-24T08:30:00","end":"2024-04-24T09:00:00Z","end_local":"2024-04-24T10:00:00","updated":"2024-06-05T21:40:17Z"},{"title":"Breakthroughs that speed up everything","description":"Sourced from predicthq.com - Join us for a deep dive into the 6 leadership behaviours for revolutionised productivity.","category":"conferences","start":"2024-04-24T07:30:00Z","geo":{"geometry":{"coordinates":[-2.1113998,49.1834297],"type":"Point"},"placekey":"@4f7-b4t-t9z","address":{"country_code":"JE","formatted_address":"Saint Helier JE2 3BQ, Jersey, Channel Islands","locality":"Saint Helier","postcode":"JE2 3BQ","region":"St Helier"}},"labels":["business","conference"],"duration":7200,"start_local":"2024-04-24T08:30:00","end":"2024-04-24T09:30:00Z","end_local":"2024-04-24T10:30:00","updated":"2024-06-05T17:08:25Z"},{"title":"JH Members: Shakespearean  Jèrriais","description":"Sourced from predicthq.com - Members are invited to dive into the fascinating world of Shakespeare, language and Jèrriais.","category":"conferences","start":"2024-04-23T17:00:00Z","geo":{"geometry":{"coordinates":[-2.1079266000000416,49.1828211],"type":"Point"},"placekey":"@4f7-b4t-tjv","address":{"country_code":"JE","formatted_address":"Mulcaster Street, Saint Helier JE2 3NJ, Jersey, Channel Islands","locality":"Saint Helier","postcode":"JE2 3NJ","region":"St Helier"}},"labels":["conference"],"duration":3600,"start_local":"2024-04-23T18:00:00","end":"2024-04-23T18:00:00Z","end_local":"2024-04-23T19:00:00","updated":"2024-06-05T01:23:41Z"},{"title":"Cake and Cabaret - St Mary","description":"Sourced from predicthq.com - Ballet d'Jèrri are excited to be partnering with ArtHouse Jersey to bring Jersey parishioners our Cake and Cabaret events!","category":"performing-arts","start":"2024-04-23T14:00:00Z","geo":{"geometry":{"coordinates":[-2.1830607,49.2349241],"type":"Point"},"placekey":"@4f7-b2q-psq","address":{"country_code":"JE","formatted_address":"La Rue du Pont, Jersey JE3, Jersey, Channel Islands","locality":"Jersey","postcode":"JE3"}},"labels":["concert","music","performing-arts"],"duration":0,"start_local":"2024-04-23T15:00:00","end":"2024-04-23T14:00:00Z","end_local":"2024-04-23T15:00:00","updated":"2024-06-12T13:39:55Z"},{"title":"Jersey Chamber Lunch - April 23rd 2024 kindly sponsored by Appleby","description":"Sourced from predicthq.com - The Bailiff of Jersey Sir Timothy Le Cocq is our special guest and speaker, outlining his dual role in the courts and the States Assembly","category":"conferences","start":"2024-04-23T11:00:00Z","geo":{"geometry":{"coordinates":[-2.107736,49.18251300000001],"type":"Point"},"placekey":"@4f7-b4t-tjv","address":{"country_code":"JE","formatted_address":"Caledonia Place, Saint Helier JE2 3NG, Jersey, Channel Islands","locality":"Saint Helier","postcode":"JE2 3NG","region":"St Helier"}},"labels":["business","conference"],"duration":9000,"start_local":"2024-04-23T12:00:00","end":"2024-04-23T13:30:00Z","end_local":"2024-04-23T14:30:00","updated":"2024-06-05T08:13:36Z"},{"title":"There is nothing Artificial about Intelligence","description":"Sourced from predicthq.com - Join us for a deep dive into the world of AI, where we'll explore how real intelligence is shaping our future!","category":"conferences","start":"2024-04-23T07:00:00Z","geo":{"geometry":{"coordinates":[-2.1085977,49.1829076],"type":"Point"},"placekey":"@4f7-b4t-t5f","address":{"country_code":"JE","formatted_address":"Liberation Square, St Helier, Jersey JE1 3UF, Jersey","postcode":"JE1 3UF","locality":"Saint Helier","region":"St Helier"}},"labels":["conference","science","technology"],"duration":7200,"start_local":"2024-04-23T08:00:00","end":"2024-04-23T09:00:00Z","end_local":"2024-04-23T10:00:00","updated":"2024-06-04T23:28:06Z"},{"title":"Pounds for Paws! Jspca Dog Walk","description":"Sourced from predicthq.com - Join us for a day of sun and furry fun at the beach! Walk along La Fregate beach with friends and fellow dog lovers!","category":"community","start":"2024-04-20T10:30:00Z","geo":{"geometry":{"coordinates":[-2.1162363,49.18650479999999],"type":"Point"},"placekey":"@4f7-b4s-v2k","address":{"country_code":"JE","formatted_address":"Saint Helier JE2 3QA, Jersey, Channel Islands","locality":"Saint Helier","postcode":"JE2 3QA","region":"St Helier"}},"labels":["community","fundraiser","sport"],"duration":7200,"start_local":"2024-04-20T11:30:00","end":"2024-04-20T12:30:00Z","end_local":"2024-04-20T13:30:00","updated":"2024-06-04T23:32:07Z"},{"title":"A Workshop with Music in Hospitals & Care- Delivering Music Confidently","description":"Sourced from predicthq.com - Join us for a two hour workshop designed to help you upskill and build confidence when taking live music to health and care settings.","category":"community","start":"2024-04-18T17:30:00Z","geo":{"geometry":{"coordinates":[-2.0814908,49.2025768],"type":"Point"},"placekey":"@4f7-b4x-d9z","address":{"country_code":"JE","formatted_address":"Jersey, Jersey, Channel Islands","locality":"Jersey"}},"labels":["concert","fundraiser","music"],"duration":7200,"start_local":"2024-04-18T18:30:00","end":"2024-04-18T19:30:00Z","end_local":"2024-04-18T20:30:00","updated":"2024-06-05T08:35:42Z"},{"title":"CIGPE -  Disaster Relief Management","description":"Sourced from predicthq.com - Recognised as a leading organisation helping to rebuild , RedR provides learning and development services responding to disasters","category":"conferences","start":"2024-04-18T16:30:00Z","geo":{"geometry":{"coordinates":[-2.103233,49.1805019],"type":"Point"},"placekey":"@4f7-b4t-sqz","address":{"country_code":"JE","formatted_address":"La Route du Fort, Saint-Helier JE2, Jersey, Channel Islands","locality":"Saint-Helier","postcode":"JE2","region":"St Helier"}},"labels":["business","conference"],"duration":5400,"start_local":"2024-04-18T17:30:00","end":"2024-04-18T18:00:00Z","end_local":"2024-04-18T19:00:00","updated":"2024-06-04T22:05:43Z"},{"title":"JH Members: Lunchtime Learning - Lillie Langtry","description":"Sourced from predicthq.com - JH Members are invited to have lunch and learn about the life of 'Lillie Langtry' with Head of Education, Helen Otterwell","category":"conferences","start":"2024-04-18T12:00:00Z","geo":{"geometry":{"coordinates":[-2.1079266000000416,49.1828211],"type":"Point"},"placekey":"@4f7-b4t-tjv","address":{"country_code":"JE","formatted_address":"Mulcaster Street, Saint Helier JE2 3NJ, Jersey, Channel Islands","locality":"Saint Helier","postcode":"JE2 3NJ","region":"St Helier"}},"labels":["community","conference"],"duration":3600,"start_local":"2024-04-18T13:00:00","end":"2024-04-18T13:00:00Z","end_local":"2024-04-18T14:00:00","updated":"2024-06-05T00:42:08Z"},{"title":"Hair and Beauty Showcase","description":"Sourced from predicthq.com - Celebrating Eras in Time","category":"festivals","start":"2024-04-17T16:30:00Z","geo":{"geometry":{"coordinates":[-2.0942902,49.19230599999999],"type":"Point"},"placekey":"@4f7-b4q-bkz","address":{"country_code":"JE","formatted_address":"Maison Saint-Louis, Jersey JE2, Jersey, Channel Islands","locality":"Jersey","postcode":"JE2","region":"Saint-Sauveur"}},"labels":["fashion","festival"],"duration":0,"start_local":"2024-04-17T17:30:00","end":"2024-04-17T16:30:00Z","end_local":"2024-04-17T17:30:00","updated":"2024-06-05T03:39:02Z"},{"title":"Continuum X Savant Labs Launch Event: Jersey","description":"Sourced from predicthq.com - Get ready for an epic in-person experience at the Continuum X Savant Labs Launch Event, where innovation meets excitement in the coolest way","category":"conferences","start":"2024-04-17T15:30:00Z","geo":{"geometry":{"coordinates":[-2.102194,49.182572],"type":"Point"},"placekey":"@4f7-b4t-syv","address":{"country_code":"JE","formatted_address":"Block 3, Ground Floor, Forum 4, Grenville St, St Helier, Jersey JE2 4UF, Jersey","postcode":"JE2 4UF","locality":"Saint Helier","region":"St Helier"}},"labels":["conference","science","technology"],"duration":9000,"start_local":"2024-04-17T16:30:00","end":"2024-04-17T18:00:00Z","end_local":"2024-04-17T19:00:00","updated":"2024-06-05T02:12:29Z"},{"title":"Spring Lunchtime Talks 2024","description":"Sourced from predicthq.com - Learn the intriguing story of the Le Sueur family who left the contents of their house La Ronde Porte, to the Société Jersiaise.","category":"conferences","start":"2024-04-17T12:10:00Z","geo":{"geometry":{"coordinates":[-2.1070341,49.1819824],"type":"Point"},"placekey":"@4f7-b4t-v9f","address":{"country_code":"JE","formatted_address":"Pier Road, Saint Helier JE1 4HF, Jersey, Channel Islands","locality":"Saint Helier","postcode":"JE1 4HF","region":"St Helier"}},"labels":["conference"],"duration":2400,"start_local":"2024-04-17T13:10:00","end":"2024-04-17T12:50:00Z","end_local":"2024-04-17T13:50:00","updated":"2024-06-05T06:23:34Z"},{"title":"GASTROSTOMY STUDY DAY","description":"Sourced from predicthq.com - Aimed at Care Assistants working in Child and Adult social care with the aim to increase confidence and knowledge in care of patients","category":"conferences","start":"2024-04-17T10:00:00Z","geo":{"geometry":{"coordinates":[-2.1775575000000345,49.1862203],"type":"Point"},"placekey":"@4f7-b39-btv","address":{"country_code":"JE","formatted_address":"A13, Jersey JE3, Jersey, Channel Islands","locality":"Jersey","postcode":"JE3","region":"St Brelade"}},"labels":["conference","health"],"duration":10800,"start_local":"2024-04-17T11:00:00","end":"2024-04-17T13:00:00Z","end_local":"2024-04-17T14:00:00","updated":"2024-06-04T22:49:25Z"},{"title":"Need to know series: Lasting powers of attorney and incapacity","description":"Sourced from predicthq.com - Discover the easy steps you should take now to prepare for the future.","category":"conferences","start":"2024-04-17T10:00:00Z","geo":{"geometry":{"coordinates":[-2.109327,49.1851953],"type":"Point"},"placekey":"@4f7-b4t-wzf","address":{"country_code":"JE","formatted_address":"Charing Cross, Saint Helier JE2 3RP, Jersey, Channel Islands","locality":"Saint Helier","postcode":"JE2 3RP","region":"St Helier"}},"labels":["conference","health"],"duration":3600,"start_local":"2024-04-17T11:00:00","end":"2024-04-17T11:00:00Z","end_local":"2024-04-17T12:00:00","updated":"2024-06-05T04:59:50Z"},{"title":"Epilepsy Awareness & Buccal Midazolam","description":"Sourced from predicthq.com - Interactive course suitable for care staff in any setting who may be required to administer Buccal Midazolam as a ‘rescue’ medication.","category":"conferences","start":"2024-04-17T08:00:00Z","geo":{"geometry":{"coordinates":[-2.1775575000000345,49.1862203],"type":"Point"},"placekey":"@4f7-b39-btv","address":{"country_code":"JE","formatted_address":"A13, Jersey JE3, Jersey, Channel Islands","locality":"Jersey","postcode":"JE3","region":"St Brelade"}},"labels":["conference","health"],"duration":5400,"start_local":"2024-04-17T09:00:00","end":"2024-04-17T09:30:00Z","end_local":"2024-04-17T10:30:00","updated":"2024-06-05T21:26:10Z"},{"title":"An Evening with Adrian Logan - his experiences fighting in The Falklands","description":"Sourced from predicthq.com - Join us for a captivating evening with Adrian Logan (ex Capt 3 Para) as he shares his firsthand experiences of fighting in The Falklands.","category":"conferences","start":"2024-04-16T17:30:00Z","geo":{"geometry":{"coordinates":[-2.1085977,49.1829076],"type":"Point"},"placekey":"@4f7-b4t-t5f","address":{"country_code":"JE","formatted_address":"Liberation Square, St Helier, Jersey JE1 3UF, Jersey","postcode":"JE1 3UF","locality":"Saint Helier","region":"St Helier"}},"labels":["conference"],"duration":10800,"start_local":"2024-04-16T18:30:00","end":"2024-04-16T20:30:00Z","end_local":"2024-04-16T21:30:00","updated":"2024-06-05T05:38:22Z"},{"title":"Robot Souls","description":"Sourced from predicthq.com - Dr. Eve Poole, an authority in leadership and innovation, will challenge conventional thinking on AI and the human element.","category":"conferences","start":"2024-04-16T15:00:00Z","geo":{"geometry":{"coordinates":[-2.114953,49.182711],"type":"Point"},"placekey":"@4f7-b4s-vj9","address":{"country_code":"JE","formatted_address":"Saint Helier JE2 3WF, Jersey, Channel Islands","locality":"Saint Helier","postcode":"JE2 3WF","region":"St Helier"}},"labels":["business","conference"],"duration":7200,"start_local":"2024-04-16T16:00:00","end":"2024-04-16T17:00:00Z","end_local":"2024-04-16T18:00:00","updated":"2024-06-04T23:28:30Z"},{"title":"Eid ul Fitr 2024 Celebration","description":"Sourced from predicthq.com - Jersey Islamic Centre would like to invite you  to celebrate Eid ul Fitr 2024 with joy, delicious food and festivities.","category":"festivals","start":"2024-04-14T12:30:00Z","geo":{"geometry":{"coordinates":[-2.1086419,49.18291889999999],"type":"Point"},"placekey":"@4f7-b4t-t5f","address":{"country_code":"JE","formatted_address":"Saint Helier JE1 3UF, Jersey, Channel Islands","locality":"Saint Helier","postcode":"JE1 3UF","region":"St Helier"}},"labels":["festival","religion"],"duration":12600,"start_local":"2024-04-14T13:30:00","end":"2024-04-14T16:00:00Z","end_local":"2024-04-14T17:00:00","updated":"2024-06-05T09:47:34Z"},{"title":"Storytelling Family Session","description":"Sourced from predicthq.com - Paul Journeaux will take you on a journey through the The Land and Us | La Tèrre et Nous exhibition","category":"performing-arts","start":"2024-04-14T09:30:00Z","geo":{"geometry":{"coordinates":[-2.1065065,49.1837284],"type":"Point"},"placekey":"@4f7-b4t-rzf","address":{"country_code":"JE","formatted_address":"Church Street, Saint Helier JE2 3NN, Jersey, Channel Islands","locality":"Saint Helier","postcode":"JE2 3NN","region":"St Helier"}},"labels":["concert","music","performing-arts"],"duration":3600,"start_local":"2024-04-14T10:30:00","end":"2024-04-14T10:30:00Z","end_local":"2024-04-14T11:30:00","updated":"2024-06-11T21:38:03Z"},{"title":"Drag & Cabaret Show","description":"Sourced from predicthq.com - A stunning lineup of incredible Drag Queens, who will be serving up some serious lip-sync, live vocals and slaying death drops!","category":"performing-arts","start":"2024-04-13T19:00:00Z","geo":{"geometry":{"coordinates":[-2.1067452,49.1830723],"type":"Point"},"placekey":"@4f7-b4t-rzf","address":{"country_code":"JE","formatted_address":"Mulcaster Street, Saint Helier JE2 3NJ, Jersey, Channel Islands","locality":"Saint Helier","postcode":"JE2 3NJ","region":"St Helier"}},"labels":["concert","music","performing-arts"],"duration":5400,"start_local":"2024-04-13T20:00:00","end":"2024-04-13T20:30:00Z","end_local":"2024-04-13T21:30:00","updated":"2024-06-04T23:10:41Z"},{"title":"Fest in the West - Comes to Town!","description":"Sourced from predicthq.com - Six of the best local bands combine to kick off the summer in style","category":"festivals","start":"2024-04-13T16:00:00Z","geo":{"geometry":{"coordinates":[-2.1085977,49.1829076],"type":"Point"},"placekey":"@4f7-b4t-t5f","address":{"country_code":"JE","formatted_address":"Liberation Square, St Helier, Jersey JE1 3UF, Jersey","postcode":"JE1 3UF","locality":"Saint Helier","region":"St Helier"}},"labels":["concert","music"],"duration":25200,"start_local":"2024-04-13T17:00:00","end":"2024-04-13T23:00:00Z","end_local":"2024-04-14T00:00:00","updated":"2024-06-05T03:47:57Z"},{"title":"The Nick Cousins Memorial Spring Regatta 2024(Small Craft Entry)","description":"Sourced from predicthq.com - RCIYC Spring Regatta 2024","category":"community","start":"2024-04-13T05:30:00Z","geo":{"geometry":{"coordinates":[-2.168574000000035,49.18503490000001],"type":"Point"},"placekey":"@4f7-b39-bhq","address":{"country_code":"JE","formatted_address":"Jersey JE3 8AD, Jersey, Channel Islands","locality":"Jersey","postcode":"JE3 8AD","region":"St Brelade"}},"labels":["community","outdoor","sport"],"duration":144000,"start_local":"2024-04-13T06:30:00","end":"2024-04-14T21:30:00Z","end_local":"2024-04-14T22:30:00","updated":"2024-06-04T23:07:34Z"},{"title":"Rich Allo - “Only Me” Album Launch Show - Live At The Blue Note, Jersey","description":"Sourced from predicthq.com - Jersey singer-songwriter Rich Allo will be performing a special show on the release day of his new album Only Me. Join him at The Blue Note.","category":"concerts","start":"2024-04-12T18:00:00Z","geo":{"geometry":{"coordinates":[-2.1082082,49.1843147],"type":"Point"},"placekey":"@4f7-b4t-tgk","address":{"country_code":"JE","formatted_address":"20 Broad Street, Saint Helier JE2 4WE, Jersey, Channel Islands","postcode":"JE2 4WE","locality":"Saint Helier"}},"labels":["concert","music"],"duration":0,"start_local":"2024-04-12T19:00:00","end":"2024-04-12T18:00:00Z","end_local":"2024-04-12T19:00:00","updated":"2024-06-12T05:02:59Z"},{"title":"Storytelling Family Session","description":"Sourced from predicthq.com - Paul Journeaux will take you on a journey through the The Land and Us | La Tèrre et Nous exhibition","category":"performing-arts","start":"2024-04-07T09:30:00Z","geo":{"geometry":{"coordinates":[-2.1065065,49.1837284],"type":"Point"},"placekey":"@4f7-b4t-rzf","address":{"country_code":"JE","formatted_address":"Church Street, Saint Helier JE2 3NN, Jersey, Channel Islands","locality":"Saint Helier","postcode":"JE2 3NN","region":"St Helier"}},"labels":["concert","music","performing-arts"],"duration":3600,"start_local":"2024-04-07T10:30:00","end":"2024-04-07T10:30:00Z","end_local":"2024-04-07T11:30:00","updated":"2024-06-12T06:49:29Z"}]