[{"title":"Annual Caribbean Valuation And Construction Conference","description":"Sourced from predicthq.com","category":"conferences","start":"2024-10-02T14:00:00Z","geo":{"geometry":{"coordinates":[-77.8103357,18.5218365],"type":"Point"},"placekey":"@8jm-48x-zcq","address":{"country_code":"JM","formatted_address":"Rose Hall Main Road, Montego Bay, Jamaica","locality":"Montego Bay","region":"Montego Bay"}},"labels":["conference"],"duration":118800,"start_local":"2024-10-02T09:00:00","end":"2024-10-03T23:00:00Z","end_local":"2024-10-03T18:00:00","updated":"2024-06-16T04:59:27Z"},{"title":"Bread Of Life Tabernacle Women's Conference 2024 - UNCHAINED","description":"Sourced from predicthq.com - Get ready for an empowering women's conference where we break free from chains and unleash our true potential at Bread Of Life Tabernacle","category":"conferences","start":"2024-09-27T22:00:00Z","geo":{"geometry":{"coordinates":[-77.3308989,18.4626604],"type":"Point"},"placekey":"@8jm-67w-q2k","address":{"country_code":"JM","formatted_address":"Runaway Bay, St. Ann Parish, Jamaica","locality":"Runaway Bay","region":"St. Ann Parish"}},"labels":["conference","religion"],"duration":102600,"start_local":"2024-09-27T17:00:00","end":"2024-09-29T02:30:00Z","end_local":"2024-09-28T21:30:00","updated":"2024-07-04T12:52:06Z"},{"title":"Soul Sisters Travel Presents: \"The 9th Annual Ladies Only Retreat Getaway\"","description":"Sourced from predicthq.com","category":"conferences","start":"2024-09-25T17:00:00Z","geo":{"geometry":{"coordinates":[-78.34724,18.26831],"type":"Point"},"placekey":"@8jk-m4m-5mk","address":{"country_code":"JM","formatted_address":"Negril, Westmoreland Parish, Jamaica","locality":"Negril","region":"Westmoreland Parish"}},"labels":["conference"],"duration":356400,"start_local":"2024-09-25T12:00:00","end":"2024-09-29T20:00:00Z","end_local":"2024-09-29T15:00:00","updated":"2024-06-04T01:54:13Z"},{"title":"Jamaica Bridal Expo","description":"Sourced from predicthq.com - www.jamaicabridalexpo.com    For those in the wedding industry, this is a one of a kind experience to learn and gain new perspectives.","category":"expos","start":"2024-09-22T16:30:00Z","geo":{"geometry":{"coordinates":[-77.81887,18.51635],"type":"Point"},"placekey":"@8jm-48y-dqf","address":{"country_code":"JM","formatted_address":"Rose Hall, Montego Bay, Jamaica","locality":"Montego Bay"}},"labels":["expo"],"duration":23400,"start_local":"2024-09-22T11:30:00","end":"2024-09-22T23:00:00Z","end_local":"2024-09-22T18:00:00","updated":"2024-06-04T06:34:52Z"},{"title":"Bridal Expo","description":"Sourced from predicthq.com","category":"expos","start":"2024-09-21T14:00:00Z","geo":{"geometry":{"coordinates":[-77.8211269,18.5205954],"type":"Point"},"placekey":"@8jm-3k3-wtv","address":{"country_code":"JM","formatted_address":"G59H+WQX, Montego Bay, Jamaica","locality":"Montego Bay","region":"St. James Parish"}},"labels":["expo"],"duration":118800,"start_local":"2024-09-21T09:00:00","end":"2024-09-22T23:00:00Z","end_local":"2024-09-22T18:00:00","updated":"2024-06-03T18:27:47Z"},{"title":"17th Annual Sickle Cell in Focus Conference","description":"Sourced from predicthq.com - Join us for the 17th Annual Sickle Cell in Focus Conference to learn, connect, and raise awareness about sickle cell disease!  Hybrid event!","category":"conferences","start":"2024-09-19T13:00:00Z","geo":{"geometry":{"coordinates":[-76.788007,18.002876],"type":"Point"},"placekey":"@ckw-th9-pd9","address":{"country_code":"JM","formatted_address":"81 Knutsford Boulevard, Kingston 5, Jamaica","locality":"Kingston 5","region":"St. Andrew Parish"}},"labels":["conference","health"],"duration":120600,"start_local":"2024-09-19T08:00:00","end":"2024-09-20T22:30:00Z","end_local":"2024-09-20T17:30:00","updated":"2024-07-05T11:02:53Z"},{"title":"Jaydaz","description":"Sourced from predicthq.com","category":"concerts","start":"2024-09-14T02:00:00Z","geo":{"geometry":{"coordinates":[-76.788007,18.002876],"type":"Point"},"placekey":"@ckw-th9-pd9","address":{"country_code":"JM","formatted_address":"81 Knutsford Boulevard, Kingston 5, Jamaica","locality":"Kingston 5","region":"St. Andrew Parish"}},"labels":["concert","music"],"duration":0,"start_local":"2024-09-13T21:00:00","end":"2024-09-14T02:00:00Z","end_local":"2024-09-13T21:00:00","updated":"2024-06-11T06:27:49Z"},{"title":"Jamaica - Labor Day Weekend","description":"Sourced from predicthq.com - Come celebrate Labor Day weekend in Jamaica with us - enjoy the sun, sand, and good vibes!","category":"festivals","start":"2024-08-30T20:00:00Z","geo":{"geometry":{"coordinates":[-77.9228676,18.4713814],"type":"Point"},"placekey":"@8jm-3kt-qpv","address":{"country_code":"JM","formatted_address":"Montego Bay, St. James Parish, Jamaica","locality":"Montego Bay","region":"St. James Parish"}},"labels":["community","festival"],"duration":248400,"start_local":"2024-08-30T15:00:00","end":"2024-09-02T17:00:00Z","end_local":"2024-09-02T12:00:00","updated":"2024-06-04T09:50:52Z"},{"title":"BACKYAAD: \"Food and Music Festival\"","description":"Sourced from predicthq.com - Jamaica's premium  all inclusive  event BACKYAAD  returns  on  August 25, 2024.","category":"festivals","start":"2024-08-25T21:00:00Z","geo":{"geometry":{"coordinates":[-76.8365201,17.9418753],"type":"Point"},"placekey":"@ckw-t2r-nt9","address":{"country_code":"JM","formatted_address":"Port Royal, Kingston Parish, Jamaica","locality":"Port Royal","region":"Kingston Parish"}},"labels":["festival","food"],"duration":21600,"start_local":"2024-08-25T16:00:00","end":"2024-08-26T03:00:00Z","end_local":"2024-08-25T22:00:00","updated":"2024-06-04T01:35:36Z"},{"title":"Colours Jamaica Edition","description":"Sourced from predicthq.com - The Party you get to be you, be loud, be out and be fabulous.","category":"festivals","start":"2024-08-24T05:00:00Z","geo":{"geometry":{"coordinates":[-76.8099041,18.0178743],"type":"Point"},"placekey":"@ckw-thc-mhq","address":{"country_code":"JM","formatted_address":"Kingston, St. Andrew Parish, Jamaica","locality":"Kingston","region":"St. Andrew Parish"}},"labels":["community","festival"],"duration":0,"start_local":"2024-08-24T00:00:00","end":"2024-08-24T05:00:00Z","end_local":"2024-08-24T00:00:00","updated":"2024-06-04T08:18:35Z"},{"title":"EAST - Torch N Batty Ryda Vol.3","description":"Sourced from predicthq.com - See you on Friday August 23rd!","category":"concerts","start":"2024-08-24T03:00:00Z","geo":{"geometry":{"coordinates":[-76.77558010000001,18.0031371],"type":"Point"},"placekey":"@ckw-th9-8vz","address":{"country_code":"JM","formatted_address":"Arthur Wint Drive, Kingston, Jamaica","locality":"Kingston","region":"St. Andrew Parish"}},"labels":["concert","music"],"duration":0,"start_local":"2024-08-23T22:00:00","end":"2024-08-24T03:00:00Z","end_local":"2024-08-23T22:00:00","updated":"2024-06-11T06:34:16Z"},{"title":"Beautiful","description":"Sourced from predicthq.com - Designer Nigel Ramsay unveils his latest collection, BEAUTIFUL. This exclusive event at Hope Zoo promises an unforgettable experience.","category":"concerts","start":"2024-08-18T00:00:00Z","geo":{"geometry":{"coordinates":[-76.74754820000001,18.0253819],"type":"Point"},"placekey":"@ckw-tfs-rrk","address":{"country_code":"JM","formatted_address":"Old Hope Road, Kingston, Jamaica","locality":"Kingston","region":"St. Andrew Parish"}},"labels":["concert","music"],"duration":16200,"start_local":"2024-08-17T19:00:00","end":"2024-08-18T04:30:00Z","end_local":"2024-08-17T23:30:00","updated":"2024-06-13T02:04:17Z"},{"title":"Phenomenal Girls' Symposium","description":"Sourced from predicthq.com - Get ready for a day of empowerment, inspiration, and connection at the Phenomenal Girls' Symposium!","category":"conferences","start":"2024-08-17T15:00:00Z","geo":{"geometry":{"coordinates":[-77.9067467,18.4668374],"type":"Point"},"placekey":"@8jm-42v-q4v","address":{"country_code":"JM","formatted_address":"Montego Bay, St. James Parish, Jamaica","locality":"Montego Bay","region":"St. James Parish"}},"labels":["conference","education","family"],"duration":18000,"start_local":"2024-08-17T10:00:00","end":"2024-08-17T20:00:00Z","end_local":"2024-08-17T15:00:00","updated":"2024-06-27T22:59:13Z"},{"title":"International Conference on Advances in Computer Engineering and Communication Systems","description":"Sourced from predicthq.com","category":"conferences","start":"2024-08-08T14:00:00Z","geo":{"geometry":{"coordinates":[-76.750334,18.002423],"type":"Point"},"placekey":"@ckw-tgh-389","address":{"country_code":"JM","formatted_address":"Kingston, St. Andrew Parish, Jamaica","locality":"Kingston","region":"St. Andrew Parish"}},"labels":["conference"],"duration":118800,"start_local":"2024-08-08T09:00:00","end":"2024-08-09T23:00:00Z","end_local":"2024-08-09T18:00:00","updated":"2024-06-16T01:35:50Z"},{"title":"Portland Seafood Festival","description":"Sourced from predicthq.com - Get ready to indulge in all the delicious seafood Portland has to offer at our upcoming Seafood Festival!","category":"festivals","start":"2024-08-06T15:00:00Z","geo":{"geometry":{"coordinates":[-76.553614,18.195496],"type":"Point"},"placekey":"@ckx-tfy-zj9","address":{"country_code":"JM","formatted_address":"Hope Bay, Portland Parish, Jamaica","locality":"Hope Bay","region":"Portland Parish"}},"labels":["festival","food"],"duration":46800,"start_local":"2024-08-06T10:00:00","end":"2024-08-07T04:00:00Z","end_local":"2024-08-06T23:00:00","updated":"2024-06-04T03:34:53Z"},{"title":"Old House and  Red Neckties:  The Global Launch","description":"Sourced from predicthq.com - Join us for the worldwide debut of \"Old House and Red Neckties\" at 2:00 PM on August 1, 2024 . Its  gonna be epic!","category":"conferences","start":"2024-08-01T19:00:00Z","geo":{"geometry":{"coordinates":[-76.7865697,18.0253754],"type":"Point"},"placekey":"@ckw-tfw-y7q","address":{"country_code":"JM","formatted_address":"Washington Drive, Kingston, Jamaica","locality":"Kingston","region":"St. Andrew Parish"}},"labels":["conference","entertainment"],"duration":7200,"start_local":"2024-08-01T14:00:00","end":"2024-08-01T21:00:00Z","end_local":"2024-08-01T16:00:00","updated":"2024-06-13T01:23:18Z"},{"title":"Worship Encounter","description":"Sourced from predicthq.com - Join us for a powerful night of music, prayer, and connection with God at Worship Encounter - don't miss out!","category":"concerts","start":"2024-07-27T23:00:00Z","geo":{"geometry":{"coordinates":[-77.2330037,17.9364953],"type":"Point"},"placekey":"@ckw-vz8-k9f","address":{"country_code":"JM","formatted_address":"T1, Clarendon, Jamaica","locality":"T1","region":"Clarendon"}},"labels":["concert","music","religion"],"duration":18000,"start_local":"2024-07-27T18:00:00","end":"2024-07-28T04:00:00Z","end_local":"2024-07-27T23:00:00","updated":"2024-07-05T09:35:17Z"},{"title":"A Grand Gospel Concert","description":"Sourced from predicthq.com - Get ready for an epic night of soul-stirring music and powerful performances at our A Grand Gospel Concert!","category":"performing-arts","start":"2024-07-21T23:00:00Z","geo":{"geometry":{"coordinates":[-77.4486838,18.3872592],"type":"Point"},"placekey":"@8jm-4n6-qj9","address":{"country_code":"JM","formatted_address":"Stewart Town, Trelawny Parish, Jamaica","locality":"Stewart Town","region":"Trelawny Parish"}},"labels":["concert","music","performing-arts"],"duration":14400,"start_local":"2024-07-21T18:00:00","end":"2024-07-22T03:00:00Z","end_local":"2024-07-21T22:00:00","updated":"2024-07-04T20:52:00Z"},{"title":"Reggae Sumfest 24","description":"Sourced from predicthq.com - Get ready for the ultimate Reggae Sumfest’24 experience, where the rhythm, vibes, and irie atmosphere will transport you to the heart of Jam","category":"festivals","start":"2024-07-20T04:00:00Z","geo":{"geometry":{"coordinates":[-77.8830026,18.5166355],"type":"Point"},"placekey":"@8jm-3mh-mzf","address":{"country_code":"JM","formatted_address":"Riu, Montego Bay, Jamaica","locality":"Montego Bay","region":"St. James Parish"}},"labels":["concert","music"],"duration":388800,"start_local":"2024-07-19T23:00:00","end":"2024-07-24T16:00:00Z","end_local":"2024-07-24T11:00:00","updated":"2024-06-11T02:11:20Z"},{"title":"REGGAE/SUMFEST 2024 - 6 DAYS IN JAMAICA","description":"Sourced from predicthq.com - --6 DAYS IN A LUXURY VILLA WITH FULL STAFF.  This is a group trip and each room has its separate bath. \nCall Today at 980-477-0722","category":"festivals","start":"2024-07-18T00:00:00Z","geo":{"geometry":{"coordinates":[-77.8470989,18.5167631],"type":"Point"},"placekey":"@8jm-3jy-whq","address":{"country_code":"JM","formatted_address":"St. James Parish, Jamaica","region":"St. James Parish"}},"labels":["concert","music"],"duration":442800,"start_local":"2024-07-17T19:00:00","end":"2024-07-23T03:00:00Z","end_local":"2024-07-22T22:00:00","updated":"2024-06-04T00:16:19Z"},{"title":"LAST MINUTE DEAL! JAMAICA REGGAE-SUMMER FESTIVAL 2024 - 6 DAYS IN JAMAICA","description":"Sourced from predicthq.com - -6 DAYS IN A LUXURY VILLA WITH FULL STAFF. This is a group trip and each room has its separate bath. Call Today at 980-477-0722.","category":"festivals","start":"2024-07-17T15:00:00Z","geo":{"geometry":{"coordinates":[-77.9228676,18.4713814],"type":"Point"},"placekey":"@8jm-3kt-qpv","address":{"country_code":"JM","formatted_address":"Montego Bay, St. James Parish, Jamaica","locality":"Montego Bay","region":"St. James Parish"}},"labels":["festival","music"],"duration":7200,"start_local":"2024-07-17T10:00:00","end":"2024-07-17T17:00:00Z","end_local":"2024-07-17T12:00:00","updated":"2024-06-04T06:14:36Z"},{"title":"TEMPERATURE","description":"Sourced from predicthq.com - Montego Bay jamaica's #1 Theme event 8pm-4am","category":"conferences","start":"2024-07-14T01:00:00Z","geo":{"geometry":{"coordinates":[-77.9256362,18.4740484],"type":"Point"},"placekey":"@8jm-3kt-qvf","address":{"country_code":"JM","formatted_address":"Montego Bay, St. James Parish, Jamaica","locality":"Montego Bay","region":"St. James Parish"}},"labels":["conference","science","technology"],"duration":12600,"start_local":"2024-07-13T20:00:00","end":"2024-07-14T04:30:00Z","end_local":"2024-07-13T23:30:00","updated":"2024-06-06T01:12:30Z"},{"title":"Purple Slush Family Fun Day","description":"Sourced from predicthq.com - Hey there! Get ready for a day filled with purple slushies, family fun activities, and lots of laughter at our Purple Slush Family Fun Day!","category":"festivals","start":"2024-07-13T15:00:00Z","geo":{"geometry":{"coordinates":[-76.3897733,17.8886522],"type":"Point"},"placekey":"@ckw-6gc-gzf","address":{"country_code":"JM","formatted_address":"Morant Bay, St. Thomas Parish, Jamaica","locality":"Morant Bay","region":"St. Thomas Parish"}},"labels":["education","family","festival"],"duration":43200,"start_local":"2024-07-13T10:00:00","end":"2024-07-14T03:00:00Z","end_local":"2024-07-13T22:00:00","updated":"2024-06-04T01:04:42Z"},{"title":"Dub School @ GM  Cuban Bar","description":"Sourced from predicthq.com - Dub School happens every Monday at @GM_Cuban_Bar ... Rootical vibes and atmosphere... Rain or shine....","category":"concerts","start":"2024-07-09T00:00:00Z","geo":{"geometry":{"coordinates":[-76.78087,18.0175007],"type":"Point"},"placekey":"@ckw-tfx-575","address":{"country_code":"JM","formatted_address":"82 Lady Musgrave Rd, Kingston, Jamaica","locality":"Kingston","region":"St. Andrew Parish"}},"labels":["concert","music"],"duration":21600,"start_local":"2024-07-08T19:00:00","end":"2024-07-09T06:00:00Z","end_local":"2024-07-09T01:00:00","updated":"2024-07-04T03:34:15Z"},{"title":"SOE Biennial Conference","description":"Sourced from predicthq.com","category":"conferences","start":"2024-07-08T14:00:00Z","geo":{"geometry":{"coordinates":[-76.746894,18.00599],"type":"Point"},"placekey":"@ckw-tg7-5vf","address":{"country_code":"JM","formatted_address":"Mona, Kingston, Jamaica","locality":"Kingston","region":"St. Andrew Parish"}},"labels":["conference"],"duration":205200,"start_local":"2024-07-08T09:00:00","end":"2024-07-10T23:00:00Z","end_local":"2024-07-10T18:00:00","updated":"2024-06-30T10:13:45Z"},{"title":"JAM SLAM","description":"Sourced from predicthq.com - Get ready for an epic day of Live Pro Wrestling, Kids Zone, and Musical performance by Christopher Martin at \"JAM SLAM\"","category":"performing-arts","start":"2024-07-06T15:00:00Z","geo":{"geometry":{"coordinates":[-76.7435785,18.0181764],"type":"Point"},"placekey":"@ckw-tgd-cdv","address":{"country_code":"JM","formatted_address":"Old Hope Road, Kingston, Jamaica","locality":"Kingston","region":"St. Andrew Parish"}},"labels":["concert","music","performing-arts"],"duration":43200,"start_local":"2024-07-06T10:00:00","end":"2024-07-07T03:00:00Z","end_local":"2024-07-06T22:00:00","updated":"2024-06-04T01:41:07Z"},{"title":"Kingston J.A Big Entrepreneur Business Event","description":"Sourced from predicthq.com - 6 Firgure business owners outlining how to get involved in a major business project in Kingston JA to earn Passively & Residually worldwide","category":"conferences","start":"2024-07-04T23:00:00Z","geo":{"geometry":{"coordinates":[-76.78099660000001,18.0182308],"type":"Point"},"placekey":"@ckw-tfx-5j9","address":{"country_code":"JM","formatted_address":"Hope Road, Kingston, Jamaica","locality":"Kingston","region":"St. Andrew Parish"}},"labels":["business","conference"],"duration":3600,"start_local":"2024-07-04T18:00:00","end":"2024-07-05T00:00:00Z","end_local":"2024-07-04T19:00:00","updated":"2024-07-04T21:54:41Z"},{"title":"Get In The Biz Roadshow - Kingston","description":"Sourced from predicthq.com - Join us for an interactive, one-day conference designed to level up your cannabiz!","category":"expos","start":"2024-07-02T13:30:00Z","geo":{"geometry":{"coordinates":[-76.7506533,18.00256],"type":"Point"},"placekey":"@ckw-tgh-3dv","address":{"country_code":"JM","formatted_address":"Kingston, St. Andrew Parish, Jamaica","locality":"Kingston","region":"St. Andrew Parish"}},"labels":["business","expo"],"duration":30600,"start_local":"2024-07-02T08:30:00","end":"2024-07-02T22:00:00Z","end_local":"2024-07-02T17:00:00","updated":"2024-06-13T00:38:32Z"},{"title":"Dub School @ GM  Cuban Bar","description":"Sourced from predicthq.com - Dub School happens every Monday at @GM_Cuban_Bar ... Rootical vibes and atmosphere... Rain or shine....","category":"concerts","start":"2024-07-02T00:00:00Z","geo":{"geometry":{"coordinates":[-76.78087,18.0175007],"type":"Point"},"placekey":"@ckw-tfx-575","address":{"country_code":"JM","formatted_address":"82 Lady Musgrave Rd, Kingston, Jamaica","locality":"Kingston","region":"St. Andrew Parish"}},"labels":["concert","music"],"duration":21600,"start_local":"2024-07-01T19:00:00","end":"2024-07-02T06:00:00Z","end_local":"2024-07-02T01:00:00","updated":"2024-06-27T13:50:08Z"},{"title":"Artwalk Festival ~ HeART of the City","description":"Sourced from predicthq.com - This Artwalk is your ticket to vibrant art, fascinating tours, Jamaican street food and a deeper understanding of the local culture!","category":"festivals","start":"2024-06-30T15:00:00Z","geo":{"geometry":{"coordinates":[-76.7921671,17.9661394],"type":"Point"},"placekey":"@ckw-t24-ysq","address":{"country_code":"JM","formatted_address":"Harbour Street, Kingston, Jamaica","locality":"Kingston","region":"Kingston Parish"}},"labels":["community","festival"],"duration":25200,"start_local":"2024-06-30T10:00:00","end":"2024-06-30T22:00:00Z","end_local":"2024-06-30T17:00:00","updated":"2024-06-06T01:33:05Z"},{"title":"Black River Film Festival","description":"Sourced from predicthq.com - The Black River Film Festival 2024 celebrates the art of cinema and Jamaica's rich tapestry through films. www.blackriverfilmfestival.com","category":"festivals","start":"2024-06-29T02:00:00Z","geo":{"geometry":{"coordinates":[-77.841748,18.0185246],"type":"Point"},"placekey":"@8jm-6wm-g6k","address":{"country_code":"JM","formatted_address":"Black River, St. Elizabeth Parish, Jamaica","locality":"Black River","region":"St. Elizabeth Parish"}},"labels":["festival"],"duration":176400,"start_local":"2024-06-28T21:00:00","end":"2024-07-01T03:00:00Z","end_local":"2024-06-30T22:00:00","updated":"2024-06-22T03:44:45Z"},{"title":"Black River Film Festival","description":"Sourced from predicthq.com - Get ready for a night of indie films, popcorn, and good vibes at the Black River Film Festival!","category":"festivals","start":"2024-06-28T14:00:00Z","geo":{"geometry":{"coordinates":[-77.8432545,18.0201123],"type":"Point"},"placekey":"@8jm-6wm-gtv","address":{"country_code":"JM","formatted_address":"Black River, St. Elizabeth Parish, Jamaica","locality":"Black River","region":"St. Elizabeth Parish"}},"labels":["festival"],"duration":223200,"start_local":"2024-06-28T09:00:00","end":"2024-07-01T04:00:00Z","end_local":"2024-06-30T23:00:00","updated":"2024-06-10T23:56:33Z"},{"title":"Kingston J.A Big Entrepreneur Business Event","description":"Sourced from predicthq.com - 6 Firgure business owners outlining how to get involved in a major business project in Kingston JA to earn Passively & Residually worldwide","category":"conferences","start":"2024-06-27T23:00:00Z","geo":{"geometry":{"coordinates":[-76.78099660000001,18.0182308],"type":"Point"},"placekey":"@ckw-tfx-5j9","address":{"country_code":"JM","formatted_address":"Hope Road, Kingston, Jamaica","locality":"Kingston","region":"St. Andrew Parish"}},"labels":["business","conference"],"duration":3600,"start_local":"2024-06-27T18:00:00","end":"2024-06-28T00:00:00Z","end_local":"2024-06-27T19:00:00","updated":"2024-06-28T00:36:34Z"},{"title":"Peak Performance Summit in Jamaica, June 26 & 27","description":"Sourced from predicthq.com - Join Us… Dale G. Caldwell, MBA, Ed.D. Carole Beckford Utkarsh Gosain and more speakers to be announced as we empower you to realize your Pea","category":"conferences","start":"2024-06-26T15:00:00Z","geo":{"geometry":{"coordinates":[-76.8099041,18.0178743],"type":"Point"},"placekey":"@ckw-thc-mhq","address":{"country_code":"JM","formatted_address":"Kingston, St. Andrew Parish, Jamaica","locality":"Kingston","region":"St. Andrew Parish"}},"labels":["business","conference"],"duration":68400,"start_local":"2024-06-26T10:00:00","end":"2024-06-27T10:00:00Z","end_local":"2024-06-27T05:00:00","updated":"2024-06-13T01:18:48Z"},{"title":"Dub School @ GM  Cuban Bar","description":"Sourced from predicthq.com - Dub School happens every Monday at @GM_Cuban_Bar ... Rootical vibes and atmosphere... Rain or shine....","category":"concerts","start":"2024-06-25T00:00:00Z","geo":{"geometry":{"coordinates":[-76.78087,18.0175007],"type":"Point"},"placekey":"@ckw-tfx-575","address":{"country_code":"JM","formatted_address":"82 Lady Musgrave Rd, Kingston, Jamaica","locality":"Kingston","region":"St. Andrew Parish"}},"labels":["concert","music"],"duration":21600,"start_local":"2024-06-24T19:00:00","end":"2024-06-25T06:00:00Z","end_local":"2024-06-25T01:00:00","updated":"2024-06-20T13:48:30Z"},{"title":"3rd R.E.A.P. Entrepreneurship Conference","description":"Sourced from predicthq.com - From Ideas to Impact: Strategies for Entrepreneurial Success","category":"conferences","start":"2024-06-24T14:00:00Z","geo":{"geometry":{"coordinates":[-76.788007,18.002876],"type":"Point"},"placekey":"@ckw-th9-pd9","address":{"country_code":"JM","formatted_address":"81 Knutsford Boulevard, Kingston 5, Jamaica","locality":"Kingston 5","region":"St. Andrew Parish"}},"labels":["business","conference"],"duration":25200,"start_local":"2024-06-24T09:00:00","end":"2024-06-24T21:00:00Z","end_local":"2024-06-24T16:00:00","updated":"2024-06-13T00:46:00Z"},{"title":"Cultra P, Little John, and Jah Mason","description":"Sourced from predicthq.com","category":"concerts","start":"2024-06-22T23:30:00Z","geo":{"geometry":{"coordinates":[-77.0564499,18.0364132],"type":"Point"},"placekey":"@ckw-w6t-94v","address":{"country_code":"JM","formatted_address":"St. Cathrine, Jamaica","locality":"St. Cathrine"}},"labels":["concert","music"],"duration":0,"start_local":"2024-06-22T18:30:00","end":"2024-06-22T23:30:00Z","end_local":"2024-06-22T18:30:00","updated":"2024-06-16T01:00:25Z"},{"title":"RESTORING THE FAMILY FOR KINGDOM ENHANCEMENT","description":"Sourced from predicthq.com - Get ready to experience a powerful prayer conference and life changing teaching at Push International Prayer Ministries,  Conference 2024!","category":"conferences","start":"2024-06-21T20:00:00Z","geo":{"geometry":{"coordinates":[-77.8938453,18.4762562],"type":"Point"},"placekey":"@8jm-42y-x89","address":{"country_code":"JM","formatted_address":"Montego Bay, St. James Parish, Jamaica","locality":"Montego Bay","region":"St. James Parish"}},"labels":["conference","religion"],"duration":162000,"start_local":"2024-06-21T15:00:00","end":"2024-06-23T17:00:00Z","end_local":"2024-06-23T12:00:00","updated":"2024-06-04T00:29:09Z"},{"title":"SOUND CHECK FEAT. ARMANII","description":"Sourced from predicthq.com - Armanii inna full band style at Dubwise Cafe. 7pm-11pm. Forward early!","category":"concerts","start":"2024-06-21T00:00:00Z","geo":{"geometry":{"coordinates":[-76.78087649999999,18.0175476],"type":"Point"},"placekey":"@ckw-tfx-575","address":{"country_code":"JM","formatted_address":"Lady Musgrave Road, Kingston, Jamaica","locality":"Kingston","region":"St. Andrew Parish"}},"labels":["concert","music"],"duration":14400,"start_local":"2024-06-20T19:00:00","end":"2024-06-21T04:00:00Z","end_local":"2024-06-20T23:00:00","updated":"2024-07-05T08:59:41Z"},{"title":"MoBay FunFest Jamaica","description":"Sourced from predicthq.com - Private Island Takeover at MoBay FunFest Boutique Music & Wellness Festival in Jamaica June 20-24, 2024, Princess Senses The Mangrove","category":"festivals","start":"2024-06-21T00:00:00Z","geo":{"geometry":{"coordinates":[-78.2518863,18.4157187],"type":"Point"},"placekey":"@8jm-jq8-b8v","address":{"country_code":"JM","formatted_address":"Hanover Parish, Jamaica","region":"Hanover Parish"}},"labels":["festival","music"],"duration":361800,"start_local":"2024-06-20T19:00:00","end":"2024-06-25T04:30:00Z","end_local":"2024-06-24T23:30:00","updated":"2024-06-04T00:09:44Z"},{"title":"Kingston J.A Big Entrepreneur Business Event","description":"Sourced from predicthq.com - 6 Firgure business owners outlining how to get involved in a major business project in Kingston JA to earn Passively & Residually worldwide","category":"conferences","start":"2024-06-20T23:00:00Z","geo":{"geometry":{"coordinates":[-76.78099660000001,18.0182308],"type":"Point"},"placekey":"@ckw-tfx-5j9","address":{"country_code":"JM","formatted_address":"Hope Road, Kingston, Jamaica","locality":"Kingston","region":"St. Andrew Parish"}},"labels":["business","conference"],"duration":3600,"start_local":"2024-06-20T18:00:00","end":"2024-06-21T00:00:00Z","end_local":"2024-06-20T19:00:00","updated":"2024-06-20T12:48:26Z"},{"title":"Dub School @ GM  Cuban Bar","description":"Sourced from predicthq.com - Dub School happens every Monday at @GM_Cuban_Bar ... Rootical vibes and atmosphere... Rain or shine....","category":"concerts","start":"2024-06-18T00:00:00Z","geo":{"geometry":{"coordinates":[-76.78087,18.0175007],"type":"Point"},"placekey":"@ckw-tfx-575","address":{"country_code":"JM","formatted_address":"82 Lady Musgrave Rd, Kingston, Jamaica","locality":"Kingston","region":"St. Andrew Parish"}},"labels":["concert","music"],"duration":21600,"start_local":"2024-06-17T19:00:00","end":"2024-06-18T06:00:00Z","end_local":"2024-06-18T01:00:00","updated":"2024-07-02T00:24:31Z"},{"title":"Big Business Event - Free","description":"Sourced from predicthq.com - Grow Your Entrepreneurship Skills","category":"conferences","start":"2024-06-13T23:00:00Z","geo":{"geometry":{"coordinates":[-76.7810093,18.0182232],"type":"Point"},"placekey":"@ckw-tfx-5j9","address":{"country_code":"JM","formatted_address":"Hope Road, Kingston, Jamaica","locality":"Kingston","region":"St. Andrew Parish"}},"labels":["business","conference"],"duration":7200,"start_local":"2024-06-13T18:00:00","end":"2024-06-14T01:00:00Z","end_local":"2024-06-13T20:00:00","updated":"2024-06-13T14:04:15Z"},{"title":"Kingston J.A Big Entrepreneur Business Event","description":"Sourced from predicthq.com - 6 Firgure business owners outlining how to get involved in a major business project in Kingston JA to earn Passively & Residually worldwide","category":"conferences","start":"2024-06-13T23:00:00Z","geo":{"geometry":{"coordinates":[-76.78099660000001,18.0182308],"type":"Point"},"placekey":"@ckw-tfx-5j9","address":{"country_code":"JM","formatted_address":"Hope Road, Kingston, Jamaica","locality":"Kingston","region":"St. Andrew Parish"}},"labels":["business","conference"],"duration":3600,"start_local":"2024-06-13T18:00:00","end":"2024-06-14T00:00:00Z","end_local":"2024-06-13T19:00:00","updated":"2024-06-13T09:16:37Z"},{"title":"Dub School @ GM  Cuban Bar","description":"Sourced from predicthq.com - Dub School happens every Monday at @GM_Cuban_Bar ... Rootical vibes and atmosphere... Rain or shine....","category":"concerts","start":"2024-06-11T00:00:00Z","geo":{"geometry":{"coordinates":[-76.78087,18.0175007],"type":"Point"},"placekey":"@ckw-tfx-575","address":{"country_code":"JM","formatted_address":"82 Lady Musgrave Rd, Kingston, Jamaica","locality":"Kingston","region":"St. Andrew Parish"}},"labels":["concert","music"],"duration":21600,"start_local":"2024-06-10T19:00:00","end":"2024-06-11T06:00:00Z","end_local":"2024-06-11T01:00:00","updated":"2024-06-06T04:30:55Z"},{"title":"LITTLE LONDON DAY 2024","description":"Sourced from predicthq.com - Get ready for a fun-filled day celebrating all things London at LITTLE LONDON DAY 2024!","category":"festivals","start":"2024-06-07T15:00:00Z","geo":{"geometry":{"coordinates":[-78.20773299999999,18.24402],"type":"Point"},"placekey":"@8jm-83k-6ff","address":{"country_code":"JM","formatted_address":"Little London, Westmoreland Parish, Jamaica","locality":"Little London","region":"Westmoreland Parish"}},"labels":["community","festival"],"duration":7200,"start_local":"2024-06-07T10:00:00","end":"2024-06-07T17:00:00Z","end_local":"2024-06-07T12:00:00","updated":"2024-06-04T06:46:51Z"},{"title":"Kingston J.A Big Entrepreneur Business Event","description":"Sourced from predicthq.com - 6 Firgure business owners outlining how to get involved in a major business project in Kingston JA to earn Passively & Residually worldwide","category":"conferences","start":"2024-06-06T23:00:00Z","geo":{"geometry":{"coordinates":[-76.78099660000001,18.0182308],"type":"Point"},"placekey":"@ckw-tfx-5j9","address":{"country_code":"JM","formatted_address":"Hope Road, Kingston, Jamaica","locality":"Kingston","region":"St. Andrew Parish"}},"labels":["business","conference"],"duration":3600,"start_local":"2024-06-06T18:00:00","end":"2024-06-07T00:00:00Z","end_local":"2024-06-06T19:00:00","updated":"2024-06-06T03:23:01Z"},{"title":"Dub School @ GM  Cuban Bar","description":"Sourced from predicthq.com - Dub School happens every Monday at @GM_Cuban_Bar ... Rootical vibes and atmosphere... Rain or shine....","category":"concerts","start":"2024-06-04T00:00:00Z","geo":{"geometry":{"coordinates":[-76.78087,18.0175007],"type":"Point"},"placekey":"@ckw-tfx-575","address":{"country_code":"JM","formatted_address":"82 Lady Musgrave Rd, Kingston, Jamaica","locality":"Kingston","region":"St. Andrew Parish"}},"labels":["concert","music"],"duration":21600,"start_local":"2024-06-03T19:00:00","end":"2024-06-04T06:00:00Z","end_local":"2024-06-04T01:00:00","updated":"2024-05-30T06:03:19Z"},{"title":"Awaken- The Worship Encounter","description":"Sourced from predicthq.com - Get ready to experience a powerful encounter with worship at Awaken- The Worship Encounter !","category":"concerts","start":"2024-06-01T00:00:00Z","geo":{"geometry":{"coordinates":[-76.8313615,18.0287303],"type":"Point"},"placekey":"@ckw-tgs-3nq","address":{"country_code":"JM","formatted_address":"Ken Hill Drive, Kingston, Jamaica","locality":"Kingston","region":"St. Andrew Parish"}},"labels":["concert","music","religion"],"duration":14400,"start_local":"2024-05-31T19:00:00","end":"2024-06-01T04:00:00Z","end_local":"2024-05-31T23:00:00","updated":"2024-06-15T00:18:11Z"},{"title":"Kingston J.A Big Entrepreneur Business Event","description":"Sourced from predicthq.com - 6 Firgure business owners outlining how to get involved in a major business project in Kingston JA to earn Passively & Residually worldwide","category":"conferences","start":"2024-05-30T23:00:00Z","geo":{"geometry":{"coordinates":[-76.78099660000001,18.0182308],"type":"Point"},"placekey":"@ckw-tfx-5j9","address":{"country_code":"JM","formatted_address":"Hope Road, Kingston, Jamaica","locality":"Kingston","region":"St. Andrew Parish"}},"labels":["business","conference"],"duration":3600,"start_local":"2024-05-30T18:00:00","end":"2024-05-31T00:00:00Z","end_local":"2024-05-30T19:00:00","updated":"2024-05-30T06:11:18Z"},{"title":"Poetic Trinity","description":"Sourced from predicthq.com - Join us for an evening of spoken word, music, and art at Poetic Trinity - a celebration of creativity and expression!","category":"performing-arts","start":"2024-05-30T00:00:00Z","geo":{"geometry":{"coordinates":[-76.7840677,17.9927137],"type":"Point"},"placekey":"@ckw-th4-dqf","address":{"country_code":"JM","formatted_address":"Caledonia Avenue, Kingston, Jamaica","locality":"Kingston","region":"St. Andrew Parish"}},"labels":["concert","music","performing-arts"],"duration":10800,"start_local":"2024-05-29T19:00:00","end":"2024-05-30T03:00:00Z","end_local":"2024-05-29T22:00:00","updated":"2024-06-05T21:45:04Z"},{"title":"FREEDOM TRADERS FINANCIAL TRADING 2024","description":"Sourced from predicthq.com - Get ready to level up your financial trading knowledge at FREEDOM TRADERS 2024, where you'll learn to trade stocks forex crypto like a pro!","category":"conferences","start":"2024-05-29T19:00:00Z","geo":{"geometry":{"coordinates":[-78.13556500000001,18.2234641],"type":"Point"},"placekey":"@8jm-7hb-3bk","address":{"country_code":"JM","formatted_address":"Savanna la Mar, Westmoreland Parish, Jamaica","locality":"Savanna la Mar","region":"Westmoreland Parish"}},"labels":["business","conference"],"duration":16200,"start_local":"2024-05-29T14:00:00","end":"2024-05-29T23:30:00Z","end_local":"2024-05-29T18:30:00","updated":"2024-06-05T10:15:35Z"},{"title":"Dub School @ GM  Cuban Bar","description":"Sourced from predicthq.com - Dub School happens every Monday at @GM_Cuban_Bar ... Rootical vibes and atmosphere... Rain or shine....","category":"concerts","start":"2024-05-28T00:00:00Z","geo":{"geometry":{"coordinates":[-76.78087,18.0175007],"type":"Point"},"placekey":"@ckw-tfx-575","address":{"country_code":"JM","formatted_address":"82 Lady Musgrave Rd, Kingston, Jamaica","locality":"Kingston","region":"St. Andrew Parish"}},"labels":["concert","music"],"duration":21600,"start_local":"2024-05-27T19:00:00","end":"2024-05-28T06:00:00Z","end_local":"2024-05-28T01:00:00","updated":"2024-06-05T11:05:20Z"},{"title":"FREEDOM TRADERS FINANCIAL TRADING 2024","description":"Sourced from predicthq.com - Join FREEDOM TRADERS 2024 to learn to trade stocks and learn about the crypto and forex market with fellow traders! FREE","category":"conferences","start":"2024-05-27T19:00:00Z","geo":{"geometry":{"coordinates":[-78.13556500000001,18.2234641],"type":"Point"},"placekey":"@8jm-7hb-3bk","address":{"country_code":"JM","formatted_address":"Savanna la Mar, Westmoreland Parish, Jamaica","locality":"Savanna la Mar","region":"Westmoreland Parish"}},"labels":["business","conference"],"duration":16200,"start_local":"2024-05-27T14:00:00","end":"2024-05-27T23:30:00Z","end_local":"2024-05-27T18:30:00","updated":"2024-06-05T08:48:48Z"},{"title":"West Indies vs South Africa","description":"Sourced from predicthq.com","category":"sports","start":"2024-05-26T19:00:00Z","geo":{"geometry":{"coordinates":[-76.7825217,17.9779338],"type":"Point"},"placekey":"@ckw-th3-vj9","address":{"country_code":"JM","formatted_address":"24 S Camp Rd, Kingston, Jamaica","locality":"Kingston","region":"St. Andrew Parish"}},"labels":["cricket","sport"],"duration":9975,"start_local":"2024-05-26T14:00:00","end":"2024-05-26T21:46:15Z","end_local":"2024-05-26T16:46:15","updated":"2024-05-31T23:12:17Z"},{"title":"Film & Digital Artwalk Festival","description":"Sourced from predicthq.com - Its Film and Digital day at the Kingston Creative Artwalk Festival! Screenings of documentaries, short films animation & virtual reality...","category":"festivals","start":"2024-05-26T15:00:00Z","geo":{"geometry":{"coordinates":[-76.7922195,17.9665912],"type":"Point"},"placekey":"@ckw-t24-ysq","address":{"country_code":"JM","formatted_address":"Kingston, Kingston Parish, Jamaica","locality":"Kingston","region":"Kingston Parish"}},"labels":["festival","performing-arts"],"duration":25200,"start_local":"2024-05-26T10:00:00","end":"2024-05-26T22:00:00Z","end_local":"2024-05-26T17:00:00","updated":"2024-06-05T13:21:39Z"},{"title":"West Indies vs South Africa","description":"Sourced from predicthq.com","category":"sports","start":"2024-05-25T19:00:00Z","geo":{"geometry":{"coordinates":[-76.7825217,17.9779338],"type":"Point"},"placekey":"@ckw-th3-vj9","address":{"country_code":"JM","formatted_address":"24 S Camp Rd, Kingston, Jamaica","locality":"Kingston","region":"St. Andrew Parish"}},"labels":["cricket","sport"],"duration":12328,"start_local":"2024-05-25T14:00:00","end":"2024-05-25T22:25:28Z","end_local":"2024-05-25T17:25:28","updated":"2024-05-31T22:48:40Z"},{"title":"Health Hair & Beauty Expo","description":"Sourced from predicthq.com - #HHBE returns May 25-26, 2024 at The Jamaica Pegasus Hotel!\n\n⏩ Come shop & have some fun! Discounts! Prizes! Giveaways! Speakers & Demos!","category":"expos","start":"2024-05-25T16:00:00Z","geo":{"geometry":{"coordinates":[-76.788007,18.002876],"type":"Point"},"placekey":"@ckw-th9-pd9","address":{"country_code":"JM","formatted_address":"81 Knutsford Boulevard, Kingston 5, Jamaica","locality":"Kingston 5","region":"St. Andrew Parish"}},"labels":["expo","fashion"],"duration":32400,"start_local":"2024-05-25T11:00:00","end":"2024-05-26T01:00:00Z","end_local":"2024-05-25T20:00:00","updated":"2024-05-29T00:18:12Z"},{"title":"Candid conversations:Feminism  in  Daily Practice","description":"Sourced from predicthq.com - Join our live chat with Staceyann Chin! Explore feminism beyond academia, impacting everyday life.","category":"conferences","start":"2024-05-24T23:00:00Z","geo":{"geometry":{"coordinates":[-76.8099041,18.0178743],"type":"Point"},"placekey":"@ckw-thc-mhq","address":{"country_code":"JM","formatted_address":"Kingston, St. Andrew Parish, Jamaica","locality":"Kingston","region":"St. Andrew Parish"}},"labels":["community","conference"],"duration":9000,"start_local":"2024-05-24T18:00:00","end":"2024-05-25T01:30:00Z","end_local":"2024-05-24T20:30:00","updated":"2024-05-25T11:24:02Z"},{"title":"FREEDOM TRADERS FINANCIAL TRADING 2024","description":"Sourced from predicthq.com - Join us at MICO UNIVERSITY COLLEGE for a day of learning to trade stocks and about the crypto and forex market with fellow traders! FREE","category":"conferences","start":"2024-05-24T19:00:00Z","geo":{"geometry":{"coordinates":[-76.78703329999999,17.9887648],"type":"Point"},"placekey":"@ckw-th3-rhq","address":{"country_code":"JM","formatted_address":"Marescaux Road, Kingston, Jamaica","locality":"Kingston","region":"St. Andrew Parish"}},"labels":["business","conference"],"duration":16200,"start_local":"2024-05-24T14:00:00","end":"2024-05-24T23:30:00Z","end_local":"2024-05-24T18:30:00","updated":"2024-06-05T14:55:35Z"},{"title":"Kingston J.A Big Entrepreneur Business Event","description":"Sourced from predicthq.com - 6 Firgure business owners outlining how to get involved in a major business project in Kingston JA to earn Passively & Residually worldwide","category":"conferences","start":"2024-05-23T23:00:00Z","geo":{"geometry":{"coordinates":[-76.78099660000001,18.0182308],"type":"Point"},"placekey":"@ckw-tfx-5j9","address":{"country_code":"JM","formatted_address":"Hope Road, Kingston, Jamaica","locality":"Kingston","region":"St. Andrew Parish"}},"labels":["business","conference"],"duration":3600,"start_local":"2024-05-23T18:00:00","end":"2024-05-24T00:00:00Z","end_local":"2024-05-23T19:00:00","updated":"2024-05-23T03:48:41Z"},{"title":"FREEDOM TRADERS FINANCIAL TRADING 2024","description":"Sourced from predicthq.com - Get ready to level up your financial trading knowledge at FREEDOM TRADERS 2024, where you'll learn to trade stocks forex crypto like a pro!","category":"conferences","start":"2024-05-23T19:00:00Z","geo":{"geometry":{"coordinates":[-76.7869839,17.9888139],"type":"Point"},"placekey":"@ckw-th3-rhq","address":{"country_code":"JM","formatted_address":"Marescaux Road, Kingston, Jamaica","locality":"Kingston","region":"St. Andrew Parish"}},"labels":["business","conference"],"duration":16200,"start_local":"2024-05-23T14:00:00","end":"2024-05-23T23:30:00Z","end_local":"2024-05-23T18:30:00","updated":"2024-06-05T07:28:02Z"},{"title":"West Indies vs South Africa","description":"Sourced from predicthq.com","category":"sports","start":"2024-05-23T19:00:00Z","geo":{"geometry":{"coordinates":[-76.7825217,17.9779338],"type":"Point"},"placekey":"@ckw-th3-vj9","address":{"country_code":"JM","formatted_address":"24 S Camp Rd, Kingston, Jamaica","locality":"Kingston","region":"St. Andrew Parish"}},"labels":["cricket","sport"],"duration":12697,"start_local":"2024-05-23T14:00:00","end":"2024-05-23T22:31:37Z","end_local":"2024-05-23T17:31:37","updated":"2024-06-05T15:05:49Z"},{"title":"Mindset Conference","description":"Sourced from predicthq.com - Mindset will provide the necessary and precise information on how to navigate various industries, more specifically, the music industry.","category":"conferences","start":"2024-05-22T16:00:00Z","geo":{"geometry":{"coordinates":[-76.788007,18.002876],"type":"Point"},"placekey":"@ckw-th9-pd9","address":{"country_code":"JM","formatted_address":"81 Knutsford Boulevard, Kingston 5, Jamaica","locality":"Kingston 5","region":"St. Andrew Parish"}},"labels":["conference","entertainment"],"duration":43200,"start_local":"2024-05-22T11:00:00","end":"2024-05-23T04:00:00Z","end_local":"2024-05-22T23:00:00","updated":"2024-05-29T00:03:14Z"},{"title":"Dub School @ GM  Cuban Bar","description":"Sourced from predicthq.com - Dub School happens every Monday at @GM_Cuban_Bar ... Rootical vibes and atmosphere... Rain or shine....","category":"concerts","start":"2024-05-21T00:00:00Z","geo":{"geometry":{"coordinates":[-76.78087,18.0175007],"type":"Point"},"placekey":"@ckw-tfx-575","address":{"country_code":"JM","formatted_address":"82 Lady Musgrave Rd, Kingston, Jamaica","locality":"Kingston","region":"St. Andrew Parish"}},"labels":["concert","music"],"duration":21600,"start_local":"2024-05-20T19:00:00","end":"2024-05-21T06:00:00Z","end_local":"2024-05-21T01:00:00","updated":"2024-06-04T08:24:41Z"},{"title":"Mindset Conference","description":"Sourced from predicthq.com - Mindset will provide the necessary and precise information on how to navigate various industries, more specifically, the music industry.","category":"conferences","start":"2024-05-21T00:00:00Z","geo":{"geometry":{"coordinates":[-76.788007,18.002876],"type":"Point"},"placekey":"@ckw-th9-pd9","address":{"country_code":"JM","formatted_address":"81 Knutsford Boulevard, Kingston 5, Jamaica","locality":"Kingston 5","region":"St. Andrew Parish"}},"labels":["conference","entertainment"],"duration":14400,"start_local":"2024-05-20T19:00:00","end":"2024-05-21T04:00:00Z","end_local":"2024-05-20T23:00:00","updated":"2024-05-29T00:04:32Z"},{"title":"Premier League - Final - Mount Pleasant Academy vs Cavalier","description":"Sourced from predicthq.com","category":"sports","start":"2024-05-19T23:30:00Z","geo":{"geometry":{"coordinates":[-76.77774699999998,18.0014825],"type":"Point"},"placekey":"@ckw-th9-bkz","address":{"country_code":"JM","formatted_address":"262C+HWR, Arthur Wint Dr, Kingston, Jamaica","locality":"Kingston","region":"St. Andrew Parish"}},"labels":["soccer","sport"],"duration":0,"start_local":"2024-05-19T18:30:00","end":"2024-05-19T23:30:00Z","end_local":"2024-05-19T18:30:00","updated":"2024-06-12T19:12:29Z"},{"title":"Premier League - 3rd Place Final - Waterhouse vs Arnett Gardens","description":"Sourced from predicthq.com","category":"sports","start":"2024-05-19T20:00:00Z","geo":{"geometry":{"coordinates":[-76.77774699999998,18.0014825],"type":"Point"},"placekey":"@ckw-th9-bkz","address":{"country_code":"JM","formatted_address":"262C+HWR, Arthur Wint Dr, Kingston, Jamaica","locality":"Kingston","region":"St. Andrew Parish"}},"labels":["soccer","sport"],"duration":0,"start_local":"2024-05-19T15:00:00","end":"2024-05-19T20:00:00Z","end_local":"2024-05-19T15:00:00","updated":"2024-06-12T00:38:21Z"},{"title":"Rugby Union Internationals - Friendlies 3 - Jamaica vs Bermuda","description":"Sourced from predicthq.com","category":"sports","start":"2024-05-18T20:00:00Z","geo":{"geometry":{"coordinates":[-77.08581792106615,18.175190553481528],"type":"Point"},"placekey":"@8jm-58m-qvf","address":{"country_code":"JM","formatted_address":"A1, Ewarton, Jamaica","locality":"Ewarton","region":"St. Catherine Parish"}},"labels":["rugby","sport"],"duration":0,"start_local":"2024-05-18T15:00:00","end":"2024-05-18T20:00:00Z","end_local":"2024-05-18T15:00:00","updated":"2024-06-12T03:25:22Z"},{"title":"Unruly Chefs Food & Music Pop Up","description":"Sourced from predicthq.com - Indulge in an unforgettable evening of culinary delights and soulful melodies at the Unruly Chefs Food & Music Annual Pop-Up.","category":"concerts","start":"2024-05-18T20:00:00Z","geo":{"geometry":{"coordinates":[-76.8578193,18.0414337],"type":"Point"},"placekey":"@ckw-tgr-2kz","address":{"country_code":"JM","formatted_address":"Plantation Drive, Kingston, Jamaica","locality":"Kingston","region":"St. Andrew Parish"}},"labels":["concert","food","music"],"duration":32340,"start_local":"2024-05-18T15:00:00","end":"2024-05-19T04:59:00Z","end_local":"2024-05-18T23:59:00","updated":"2024-06-12T16:05:57Z"},{"title":"SOUND CHECK FEAT RAJAH WILD","description":"Sourced from predicthq.com - Rajah Wild inna full band style at Dubwise Cafe. 7pm-11pm. Forward early!","category":"concerts","start":"2024-05-17T00:00:00Z","geo":{"geometry":{"coordinates":[-76.78087649999999,18.0175476],"type":"Point"},"placekey":"@ckw-tfx-575","address":{"country_code":"JM","formatted_address":"Lady Musgrave Road, Kingston, Jamaica","locality":"Kingston","region":"St. Andrew Parish"}},"labels":["concert","music"],"duration":14400,"start_local":"2024-05-16T19:00:00","end":"2024-05-17T04:00:00Z","end_local":"2024-05-16T23:00:00","updated":"2024-05-31T22:38:46Z"},{"title":"Live Your Life By Design Kingston Jamaica","description":"Sourced from predicthq.com - Get ready to live life on your own terms at \"Live Your Life By Design Kingston Jamaica\" event!","category":"conferences","start":"2024-05-16T23:30:00Z","geo":{"geometry":{"coordinates":[-76.7810093,18.0182232],"type":"Point"},"placekey":"@ckw-tfx-5j9","address":{"country_code":"JM","formatted_address":"Hope Road, Kingston, Jamaica","locality":"Kingston","region":"St. Andrew Parish"}},"labels":["business","conference"],"duration":7200,"start_local":"2024-05-16T18:30:00","end":"2024-05-17T01:30:00Z","end_local":"2024-05-16T20:30:00","updated":"2024-06-05T03:03:08Z"},{"title":"Kingston J.A Big Entrepreneur Business Event","description":"Sourced from predicthq.com - 6 Firgure business owners outlining how to get involved in a major business project in Kingston JA to earn Passively & Residually worldwide","category":"conferences","start":"2024-05-16T23:00:00Z","geo":{"geometry":{"coordinates":[-76.78099660000001,18.0182308],"type":"Point"},"placekey":"@ckw-tfx-5j9","address":{"country_code":"JM","formatted_address":"Hope Road, Kingston, Jamaica","locality":"Kingston","region":"St. Andrew Parish"}},"labels":["business","conference"],"duration":3600,"start_local":"2024-05-16T18:00:00","end":"2024-05-17T00:00:00Z","end_local":"2024-05-16T19:00:00","updated":"2024-06-05T03:20:20Z"},{"title":"Youths in Accounting and Auditing Conference","description":"Sourced from predicthq.com - Get ready for a day filled with networking, recruitment and insights into the world of accounting and auditing for young professionals.","category":"conferences","start":"2024-05-14T14:00:00Z","geo":{"geometry":{"coordinates":[-76.7435785,18.0181764],"type":"Point"},"placekey":"@ckw-tgd-cdv","address":{"country_code":"JM","formatted_address":"Old Hope Road, Kingston, Jamaica","locality":"Kingston","region":"St. Andrew Parish"}},"labels":["business","conference"],"duration":30600,"start_local":"2024-05-14T09:00:00","end":"2024-05-14T22:30:00Z","end_local":"2024-05-14T17:30:00","updated":"2024-06-04T22:08:04Z"},{"title":"Ladies Night LIVE MUSIC","description":"Sourced from predicthq.com - Get ready for a night of live music, drinks, and dancing exclusively for the ladies - it's Ladies Night LIVE MUSIC!","category":"community","start":"2024-05-14T02:00:00Z","geo":{"geometry":{"coordinates":[-78.33861110000001,18.2947222],"type":"Point"},"placekey":"@8jk-m4q-w8v","address":{"country_code":"JM","formatted_address":"Norman Manley Boulevard, Negril, Jamaica","locality":"Negril"}},"labels":["concert","music"],"duration":9000,"start_local":"2024-05-13T21:00:00","end":"2024-05-14T04:30:00Z","end_local":"2024-05-13T23:30:00","updated":"2024-05-28T05:36:32Z"},{"title":"Dub School @ GM  Cuban Bar","description":"Sourced from predicthq.com - Dub School happens every Monday at @GM_Cuban_Bar ... Rootical vibes and atmosphere... Rain or shine....","category":"concerts","start":"2024-05-14T00:00:00Z","geo":{"geometry":{"coordinates":[-76.78087,18.0175007],"type":"Point"},"placekey":"@ckw-tfx-575","address":{"country_code":"JM","formatted_address":"82 Lady Musgrave Rd, Kingston, Jamaica","locality":"Kingston","region":"St. Andrew Parish"}},"labels":["concert","music"],"duration":21600,"start_local":"2024-05-13T19:00:00","end":"2024-05-14T06:00:00Z","end_local":"2024-05-14T01:00:00","updated":"2024-06-05T08:43:22Z"},{"title":"CALC Jamaica Conference","description":"Sourced from predicthq.com","category":"conferences","start":"2024-05-13T14:00:00Z","geo":{"geometry":{"coordinates":[-77.571339,18.487111],"type":"Point"},"placekey":"@8jm-5jg-7nq","address":{"country_code":"JM","formatted_address":"Trelawny Parish, Jamaica","region":"Trelawny Parish"}},"labels":["conference"],"duration":205200,"start_local":"2024-05-13T09:00:00","end":"2024-05-15T23:00:00Z","end_local":"2024-05-15T18:00:00","updated":"2024-05-28T09:06:05Z"},{"title":"Premier League - Semi-finals - Cavalier vs Arnett Gardens","description":"Sourced from predicthq.com","category":"sports","start":"2024-05-13T01:00:00Z","geo":{"geometry":{"coordinates":[-76.7825217,17.9779338],"type":"Point"},"placekey":"@ckw-th3-vj9","address":{"country_code":"JM","formatted_address":"24 S Camp Rd, Kingston, Jamaica","locality":"Kingston","region":"St. Andrew Parish"}},"labels":["soccer","sport"],"duration":0,"start_local":"2024-05-12T20:00:00","end":"2024-05-13T01:00:00Z","end_local":"2024-05-12T20:00:00","updated":"2024-06-12T08:25:31Z"},{"title":"Premier League - Semi-finals - Mount Pleasant Academy vs Waterhouse","description":"Sourced from predicthq.com","category":"sports","start":"2024-05-12T22:00:00Z","geo":{"geometry":{"coordinates":[-76.7825217,17.9779338],"type":"Point"},"placekey":"@ckw-th3-vj9","address":{"country_code":"JM","formatted_address":"24 S Camp Rd, Kingston, Jamaica","locality":"Kingston","region":"St. Andrew Parish"}},"labels":["soccer","sport"],"duration":0,"start_local":"2024-05-12T17:00:00","end":"2024-05-12T22:00:00Z","end_local":"2024-05-12T17:00:00","updated":"2024-06-12T02:40:42Z"},{"title":"The Profitable Private Practice Workshop","description":"Sourced from predicthq.com - Join us for proven strategies that can help you design a plan to increase your profits, build systems & processes to achieve success.","category":"conferences","start":"2024-05-11T15:00:00Z","geo":{"geometry":{"coordinates":[-76.8099041,18.0178743],"type":"Point"},"placekey":"@ckw-thc-mhq","address":{"country_code":"JM","formatted_address":"Kingston, St. Andrew Parish, Jamaica","locality":"Kingston","region":"St. Andrew Parish"}},"labels":["business","conference"],"duration":21600,"start_local":"2024-05-11T10:00:00","end":"2024-05-11T21:00:00Z","end_local":"2024-05-11T16:00:00","updated":"2024-06-05T05:54:58Z"},{"title":"Live Your Life By Design Kingston Jamaica","description":"Sourced from predicthq.com - Get ready to live life on your own terms at \"Live Your Life By Design Kingston Jamaica\" event!","category":"conferences","start":"2024-05-09T23:30:00Z","geo":{"geometry":{"coordinates":[-76.7810093,18.0182232],"type":"Point"},"placekey":"@ckw-tfx-5j9","address":{"country_code":"JM","formatted_address":"Hope Road, Kingston, Jamaica","locality":"Kingston","region":"St. Andrew Parish"}},"labels":["business","conference"],"duration":7200,"start_local":"2024-05-09T18:30:00","end":"2024-05-10T01:30:00Z","end_local":"2024-05-09T20:30:00","updated":"2024-06-05T00:43:54Z"},{"title":"Kingston J.A Big Entrepreneur Business Event","description":"Sourced from predicthq.com - 6 Firgure business owners outlining how to get involved in a major business project in Kingston JA to earn Passively & Residually worldwide","category":"conferences","start":"2024-05-09T23:00:00Z","geo":{"geometry":{"coordinates":[-76.78099660000001,18.0182308],"type":"Point"},"placekey":"@ckw-tfx-5j9","address":{"country_code":"JM","formatted_address":"Hope Road, Kingston, Jamaica","locality":"Kingston","region":"St. Andrew Parish"}},"labels":["business","conference"],"duration":3600,"start_local":"2024-05-09T18:00:00","end":"2024-05-10T00:00:00Z","end_local":"2024-05-09T19:00:00","updated":"2024-06-05T12:45:12Z"},{"title":"Dub School @ GM  Cuban Bar","description":"Sourced from predicthq.com - Dub School happens every Monday at @GM_Cuban_Bar ... Rootical vibes and atmosphere... Rain or shine....","category":"concerts","start":"2024-05-07T00:00:00Z","geo":{"geometry":{"coordinates":[-76.78087,18.0175007],"type":"Point"},"placekey":"@ckw-tfx-575","address":{"country_code":"JM","formatted_address":"82 Lady Musgrave Rd, Kingston, Jamaica","locality":"Kingston","region":"St. Andrew Parish"}},"labels":["concert","music"],"duration":21600,"start_local":"2024-05-06T19:00:00","end":"2024-05-07T06:00:00Z","end_local":"2024-05-07T01:00:00","updated":"2024-06-05T09:06:35Z"},{"title":"Premier League - Semi-finals - Waterhouse vs Mount Pleasant Academy","description":"Sourced from predicthq.com","category":"sports","start":"2024-05-06T01:00:00Z","geo":{"geometry":{"coordinates":[-76.7825217,17.9779338],"type":"Point"},"placekey":"@ckw-th3-vj9","address":{"country_code":"JM","formatted_address":"24 S Camp Rd, Kingston, Jamaica","locality":"Kingston","region":"St. Andrew Parish"}},"labels":["soccer","sport"],"duration":0,"start_local":"2024-05-05T20:00:00","end":"2024-05-06T01:00:00Z","end_local":"2024-05-05T20:00:00","updated":"2024-06-11T23:52:02Z"},{"title":"Premier League - Semi-finals - Arnett Gardens vs Cavalier","description":"Sourced from predicthq.com","category":"sports","start":"2024-05-05T22:00:00Z","geo":{"geometry":{"coordinates":[-76.7825217,17.9779338],"type":"Point"},"placekey":"@ckw-th3-vj9","address":{"country_code":"JM","formatted_address":"24 S Camp Rd, Kingston, Jamaica","locality":"Kingston","region":"St. Andrew Parish"}},"labels":["soccer","sport"],"duration":0,"start_local":"2024-05-05T17:00:00","end":"2024-05-05T22:00:00Z","end_local":"2024-05-05T17:00:00","updated":"2024-06-12T01:37:28Z"},{"title":"Canadian Immigration Conference","description":"Sourced from predicthq.com - Join us at the Canadian Immigration Conference to learn all about moving to Canada and starting a new chapter in your life!","category":"conferences","start":"2024-05-04T15:00:00Z","geo":{"geometry":{"coordinates":[-76.7917514,17.9643398],"type":"Point"},"placekey":"@ckw-t24-z75","address":{"country_code":"JM","formatted_address":"14-20 Port Royal St, Kingston, Jamaica","locality":"Kingston","region":"Kingston Parish"}},"labels":["conference"],"duration":14400,"start_local":"2024-05-04T10:00:00","end":"2024-05-04T19:00:00Z","end_local":"2024-05-04T14:00:00","updated":"2024-06-04T21:50:29Z"},{"title":"Live Your Life By Design Kingston Jamaica","description":"Sourced from predicthq.com - Get ready to live life on your own terms at \"Live Your Life By Design Kingston Jamaica\" event!","category":"conferences","start":"2024-05-02T23:30:00Z","geo":{"geometry":{"coordinates":[-76.7810093,18.0182232],"type":"Point"},"placekey":"@ckw-tfx-5j9","address":{"country_code":"JM","formatted_address":"Hope Road, Kingston, Jamaica","locality":"Kingston","region":"St. Andrew Parish"}},"labels":["business","conference"],"duration":7200,"start_local":"2024-05-02T18:30:00","end":"2024-05-03T01:30:00Z","end_local":"2024-05-02T20:30:00","updated":"2024-06-04T22:41:15Z"},{"title":"Kingston J.A Big Entrepreneur Business Event","description":"Sourced from predicthq.com - 6 Firgure business owners outlining how to get involved in a major business project in Kingston JA to earn Passively & Residually worldwide","category":"conferences","start":"2024-05-02T23:00:00Z","geo":{"geometry":{"coordinates":[-76.78099660000001,18.0182308],"type":"Point"},"placekey":"@ckw-tfx-5j9","address":{"country_code":"JM","formatted_address":"Hope Road, Kingston, Jamaica","locality":"Kingston","region":"St. Andrew Parish"}},"labels":["business","conference"],"duration":3600,"start_local":"2024-05-02T18:00:00","end":"2024-05-03T00:00:00Z","end_local":"2024-05-02T19:00:00","updated":"2024-06-05T07:49:11Z"},{"title":"Adult Disney Trivia Night by Stage Time Trivia","description":"Sourced from predicthq.com","category":"performing-arts","start":"2024-05-02T22:30:00Z","geo":{"geometry":{"coordinates":[16.51712,17.43896],"type":"Point"},"placekey":"@b89-gb2-dqf","address":{"country_code":"JM","region":"SC"}},"labels":["movie","performing-arts"],"duration":9000,"start_local":"2024-05-02T23:30:00","end":"2024-05-03T01:00:00Z","end_local":"2024-05-03T02:00:00","updated":"2024-06-05T01:38:15Z"},{"title":"Premier League - Play-offs - Tivoli Gardens vs Waterhouse","description":"Sourced from predicthq.com","category":"sports","start":"2024-04-30T01:00:00Z","geo":{"geometry":{"coordinates":[-76.7825217,17.9779338],"type":"Point"},"placekey":"@ckw-th3-vj9","address":{"country_code":"JM","formatted_address":"24 S Camp Rd, Kingston, Jamaica","locality":"Kingston","region":"St. Andrew Parish"}},"labels":["soccer","sport"],"duration":0,"start_local":"2024-04-29T20:00:00","end":"2024-04-30T01:00:00Z","end_local":"2024-04-29T20:00:00","updated":"2024-06-12T04:20:35Z"},{"title":"Dub School @ GM  Cuban Bar","description":"Sourced from predicthq.com - Dub School happens every Monday at @GM_Cuban_Bar ... Rootical vibes and atmosphere... Rain or shine....","category":"concerts","start":"2024-04-30T00:00:00Z","geo":{"geometry":{"coordinates":[-76.78087,18.0175007],"type":"Point"},"placekey":"@ckw-tfx-575","address":{"country_code":"JM","formatted_address":"82 Lady Musgrave Rd, Kingston, Jamaica","locality":"Kingston","region":"St. Andrew Parish"}},"labels":["concert","music"],"duration":21600,"start_local":"2024-04-29T19:00:00","end":"2024-04-30T06:00:00Z","end_local":"2024-04-30T01:00:00","updated":"2024-06-05T03:03:08Z"},{"title":"Premier League - Play-offs - Portmore United vs Arnett Gardens","description":"Sourced from predicthq.com","category":"sports","start":"2024-04-29T22:00:00Z","geo":{"geometry":{"coordinates":[-76.7825217,17.9779338],"type":"Point"},"placekey":"@ckw-th3-vj9","address":{"country_code":"JM","formatted_address":"24 S Camp Rd, Kingston, Jamaica","locality":"Kingston","region":"St. Andrew Parish"}},"labels":["soccer","sport"],"duration":0,"start_local":"2024-04-29T17:00:00","end":"2024-04-29T22:00:00Z","end_local":"2024-04-29T17:00:00","updated":"2024-06-12T01:45:11Z"},{"title":"BACKYAAD: \"Food and Music Festival\"","description":"Sourced from predicthq.com - Jamaica's premium  all inclusive  event BACKYAAD  returns  on  April 28, 2024.","category":"festivals","start":"2024-04-28T21:00:00Z","geo":{"geometry":{"coordinates":[-76.8365201,17.9418753],"type":"Point"},"placekey":"@ckw-t2r-nt9","address":{"country_code":"JM","formatted_address":"Port Royal, Kingston Parish, Jamaica","locality":"Port Royal","region":"Kingston Parish"}},"labels":["festival","food"],"duration":21600,"start_local":"2024-04-28T16:00:00","end":"2024-04-29T03:00:00Z","end_local":"2024-04-28T22:00:00","updated":"2024-06-05T10:44:42Z"},{"title":"Artwalk Festival - Carnival Edition","description":"Sourced from predicthq.com - Get ready for a wild ride at the Artwalk Festival - Carnival Edition, where art meets culture in the most colorful way possible!","category":"festivals","start":"2024-04-28T16:00:00Z","geo":{"geometry":{"coordinates":[-76.79216710000003,17.9661394],"type":"Point"},"placekey":"@ckw-t24-ysq","address":{"country_code":"JM","formatted_address":"Harbour Street, Kingston, Jamaica","locality":"Kingston","region":"Kingston Parish"}},"labels":["community","festival"],"duration":21600,"start_local":"2024-04-28T11:00:00","end":"2024-04-28T22:00:00Z","end_local":"2024-04-28T17:00:00","updated":"2024-06-05T13:42:42Z"},{"title":"Jammin In Jamaica at Montego Bay Convention Centre","description":"Sourced from predicthq.com","category":"festivals","start":"2024-04-28T05:00:00Z","geo":{"geometry":{"coordinates":[-77.8211269,18.5205954],"type":"Point"},"placekey":"@8jm-3k3-wtv","address":{"country_code":"JM","formatted_address":"G59H+WQX, Montego Bay, Jamaica","locality":"Montego Bay","region":"St. James Parish"}},"labels":["festival"],"duration":86399,"start_local":"2024-04-28T00:00:00","end":"2024-04-29T04:59:59Z","end_local":"2024-04-28T23:59:59","updated":"2024-06-04T23:22:18Z"},{"title":"Conference 2024","description":"Sourced from predicthq.com","category":"conferences","start":"2024-04-27T14:00:00Z","geo":{"geometry":{"coordinates":[-77.49296,18.0528],"type":"Point"},"placekey":"@8jm-8v3-djv","address":{"country_code":"JM","formatted_address":"Mandeville, Manchester Parish, Jamaica","locality":"Mandeville","region":"Manchester Parish"}},"labels":["business","conference"],"duration":0,"start_local":"2024-04-27T09:00:00","end":"2024-04-27T14:00:00Z","end_local":"2024-04-27T09:00:00","updated":"2024-06-05T06:59:59Z"},{"title":"Jammin In Jamaica at Montego Bay Convention Centre","description":"Sourced from predicthq.com","category":"festivals","start":"2024-04-27T05:00:00Z","geo":{"geometry":{"coordinates":[-77.8211269,18.5205954],"type":"Point"},"placekey":"@8jm-3k3-wtv","address":{"country_code":"JM","formatted_address":"G59H+WQX, Montego Bay, Jamaica","locality":"Montego Bay","region":"St. James Parish"}},"labels":["festival"],"duration":86399,"start_local":"2024-04-27T00:00:00","end":"2024-04-28T04:59:59Z","end_local":"2024-04-27T23:59:59","updated":"2024-06-05T04:22:58Z"},{"title":"Jammin In Jamaica at Montego Bay Convention Centre","description":"Sourced from predicthq.com","category":"festivals","start":"2024-04-26T05:00:00Z","geo":{"geometry":{"coordinates":[-77.8211269,18.5205954],"type":"Point"},"placekey":"@8jm-3k3-wtv","address":{"country_code":"JM","formatted_address":"G59H+WQX, Montego Bay, Jamaica","locality":"Montego Bay","region":"St. James Parish"}},"labels":["festival"],"duration":86399,"start_local":"2024-04-26T00:00:00","end":"2024-04-27T04:59:59Z","end_local":"2024-04-26T23:59:59","updated":"2024-06-05T03:17:35Z"},{"title":"Live Your Life By Design Kingston Jamaica","description":"Sourced from predicthq.com - Get ready to live life on your own terms at \"Live Your Life By Design Kingston Jamaica\" event!","category":"conferences","start":"2024-04-25T23:30:00Z","geo":{"geometry":{"coordinates":[-76.7810093,18.0182232],"type":"Point"},"placekey":"@ckw-tfx-5j9","address":{"country_code":"JM","formatted_address":"Hope Road, Kingston, Jamaica","locality":"Kingston","region":"St. Andrew Parish"}},"labels":["business","conference"],"duration":7200,"start_local":"2024-04-25T18:30:00","end":"2024-04-26T01:30:00Z","end_local":"2024-04-25T20:30:00","updated":"2024-06-05T01:15:31Z"},{"title":"Kingston J.A Big Entrepreneur Business Event","description":"Sourced from predicthq.com - 6 Firgure business owners outlining how to get involved in a major business project in Kingston JA to earn Passively & Residually worldwide","category":"conferences","start":"2024-04-25T23:00:00Z","geo":{"geometry":{"coordinates":[-76.78099660000001,18.0182308],"type":"Point"},"placekey":"@ckw-tfx-5j9","address":{"country_code":"JM","formatted_address":"Hope Road, Kingston, Jamaica","locality":"Kingston","region":"St. Andrew Parish"}},"labels":["business","conference"],"duration":3600,"start_local":"2024-04-25T18:00:00","end":"2024-04-26T00:00:00Z","end_local":"2024-04-25T19:00:00","updated":"2024-06-05T06:46:16Z"},{"title":"Unlocking AI for Business & Cloud Value through FinOps","description":"Sourced from predicthq.com - Join our exclusive summit on AI in Business & the crucial role of FinOps. Discover insights, strategies, & IBM WatsonX tech. Don't miss out!","category":"conferences","start":"2024-04-25T13:00:00Z","geo":{"geometry":{"coordinates":[-76.7783897,18.0085163],"type":"Point"},"placekey":"@ckw-thb-2p9","address":{"country_code":"JM","formatted_address":"38 Lady Musgrave Road, Kingston 5, Harbour View, Jamaica","locality":"Harbour View","region":"Saint Andrew"}},"labels":["conference","science","technology"],"duration":14400,"start_local":"2024-04-25T08:00:00","end":"2024-04-25T17:00:00Z","end_local":"2024-04-25T12:00:00","updated":"2024-05-27T12:26:36Z"},{"title":"ELEVATE Procurement Conference","description":"Sourced from predicthq.com","category":"conferences","start":"2024-04-23T14:00:00Z","geo":{"geometry":{"coordinates":[-77.8211269,18.5205954],"type":"Point"},"placekey":"@8jm-3k3-wtv","address":{"country_code":"JM","formatted_address":"G59H+WQX, Montego Bay, Jamaica","locality":"Montego Bay","region":"St. James Parish"}},"labels":["conference"],"duration":205200,"start_local":"2024-04-23T09:00:00","end":"2024-04-25T23:00:00Z","end_local":"2024-04-25T18:00:00","updated":"2024-06-05T10:45:42Z"},{"title":"Premier League - Play-offs - Arnett Gardens vs Portmore United","description":"Sourced from predicthq.com","category":"sports","start":"2024-04-23T00:30:00Z","geo":{"geometry":{"coordinates":[-76.7825217,17.9779338],"type":"Point"},"placekey":"@ckw-th3-vj9","address":{"country_code":"JM","formatted_address":"24 S Camp Rd, Kingston, Jamaica","locality":"Kingston","region":"St. Andrew Parish"}},"labels":["soccer","sport"],"duration":0,"start_local":"2024-04-22T19:30:00","end":"2024-04-23T00:30:00Z","end_local":"2024-04-22T19:30:00","updated":"2024-06-12T04:30:31Z"},{"title":"Dub School @ GM  Cuban Bar","description":"Sourced from predicthq.com - Dub School happens every Monday at @GM_Cuban_Bar ... Rootical vibes and atmosphere... Rain or shine....","category":"concerts","start":"2024-04-23T00:00:00Z","geo":{"geometry":{"coordinates":[-76.78087,18.0175007],"type":"Point"},"placekey":"@ckw-tfx-575","address":{"country_code":"JM","formatted_address":"82 Lady Musgrave Rd, Kingston, Jamaica","locality":"Kingston","region":"St. Andrew Parish"}},"labels":["concert","music"],"duration":21600,"start_local":"2024-04-22T19:00:00","end":"2024-04-23T06:00:00Z","end_local":"2024-04-23T01:00:00","updated":"2024-06-05T11:07:33Z"},{"title":"Premier League - Play-offs - Waterhouse vs Tivoli Gardens","description":"Sourced from predicthq.com","category":"sports","start":"2024-04-22T22:00:00Z","geo":{"geometry":{"coordinates":[-76.7825217,17.9779338],"type":"Point"},"placekey":"@ckw-th3-vj9","address":{"country_code":"JM","formatted_address":"24 S Camp Rd, Kingston, Jamaica","locality":"Kingston","region":"St. Andrew Parish"}},"labels":["soccer","sport"],"duration":0,"start_local":"2024-04-22T17:00:00","end":"2024-04-22T22:00:00Z","end_local":"2024-04-22T17:00:00","updated":"2024-06-11T22:05:52Z"},{"title":"2024 ABSC Spring Roundtable Series IX (Hybrid Edition)","description":"Sourced from predicthq.com - Join us for our NINTH annual Spring Roundtable Series at the Grand Palladium (or online) in Jamaica!","category":"conferences","start":"2024-04-22T14:00:00Z","geo":{"geometry":{"coordinates":[-78.17639369999999,18.4504186],"type":"Point"},"placekey":"@8jm-jxg-bx5","address":{"country_code":"JM","formatted_address":"Lucea, Hanover Parish, Jamaica","locality":"Lucea","region":"Hanover Parish"}},"labels":["business","conference"],"duration":108000,"start_local":"2024-04-22T09:00:00","end":"2024-04-23T20:00:00Z","end_local":"2024-04-23T15:00:00","updated":"2024-06-05T02:05:42Z"},{"title":"Turbulence and Dameon Gayle","description":"Sourced from predicthq.com","category":"concerts","start":"2024-04-20T21:00:00Z","geo":{"geometry":{"coordinates":[-78.3399466,18.2909487],"type":"Point"},"placekey":"@8jk-m4r-j9z","address":{"country_code":"JM","formatted_address":"7MR6+92F, Norman Manley Blvd, Negril, Jamaica","locality":"Negril"}},"labels":["concert","music"],"duration":0,"start_local":"2024-04-20T16:00:00","end":"2024-04-20T21:00:00Z","end_local":"2024-04-20T16:00:00","updated":"2024-06-12T11:58:31Z"},{"title":"MUSIC OF JAMAICA and turbulence","description":"Sourced from predicthq.com","category":"concerts","start":"2024-04-20T19:00:00Z","geo":{"geometry":{"coordinates":[-78.3472443,18.2683067],"type":"Point"},"placekey":"@8jk-m4m-5mk","address":{"country_code":"JM","formatted_address":"Negril, Westmoreland Parish, Jamaica","locality":"Negril","region":"Westmoreland Parish"}},"labels":["concert","music"],"duration":0,"start_local":"2024-04-20T14:00:00","end":"2024-04-20T19:00:00Z","end_local":"2024-04-20T14:00:00","updated":"2024-06-12T04:22:00Z"},{"title":"Live Your Life By Design Kingston Jamaica","description":"Sourced from predicthq.com - Get ready to live life on your own terms at \"Live Your Life By Design Kingston Jamaica\" event!","category":"conferences","start":"2024-04-18T23:30:00Z","geo":{"geometry":{"coordinates":[-76.7810093,18.0182232],"type":"Point"},"placekey":"@ckw-tfx-5j9","address":{"country_code":"JM","formatted_address":"Hope Road, Kingston, Jamaica","locality":"Kingston","region":"St. Andrew Parish"}},"labels":["business","conference"],"duration":7200,"start_local":"2024-04-18T18:30:00","end":"2024-04-19T01:30:00Z","end_local":"2024-04-18T20:30:00","updated":"2024-06-05T16:11:15Z"},{"title":"Living to Give Conference 2024 at Emmanuel Caribbean University","description":"Sourced from predicthq.com - Come join us at the Living to Give Conference at Emmanuel Caribbean University where we'll explore how giving back can truly enrich our life","category":"conferences","start":"2024-04-18T23:00:00Z","geo":{"geometry":{"coordinates":[-77.8822222,18.5138889],"type":"Point"},"placekey":"@8jm-3mh-mhq","address":{"country_code":"JM","formatted_address":"Montego Bay, St. James Parish, Jamaica","locality":"Montego Bay","region":"St. James Parish"}},"labels":["conference","fundraiser"],"duration":10800,"start_local":"2024-04-18T18:00:00","end":"2024-04-19T02:00:00Z","end_local":"2024-04-18T21:00:00","updated":"2024-06-05T11:30:32Z"},{"title":"Kingston J.A Big Entrepreneur Business Event","description":"Sourced from predicthq.com - 6 Firgure business owners outlining how to get involved in a major business project in Kingston JA to earn Passively & Residually worldwide","category":"conferences","start":"2024-04-18T23:00:00Z","geo":{"geometry":{"coordinates":[-76.78099660000001,18.0182308],"type":"Point"},"placekey":"@ckw-tfx-5j9","address":{"country_code":"JM","formatted_address":"Hope Road, Kingston, Jamaica","locality":"Kingston","region":"St. Andrew Parish"}},"labels":["business","conference"],"duration":3600,"start_local":"2024-04-18T18:00:00","end":"2024-04-19T00:00:00Z","end_local":"2024-04-18T19:00:00","updated":"2024-06-05T00:47:32Z"},{"title":"Live Your Life By Design Kingston Jamaica","description":"Sourced from predicthq.com - Get ready to live life on your own terms at \"Live Your Life By Design Kingston Jamaica\" event!","category":"conferences","start":"2024-04-11T23:30:00Z","geo":{"geometry":{"coordinates":[-76.7810093,18.0182232],"type":"Point"},"placekey":"@ckw-tfx-5j9","address":{"country_code":"JM","formatted_address":"Hope Road, Kingston, Jamaica","locality":"Kingston","region":"St. Andrew Parish"}},"labels":["business","conference"],"duration":7200,"start_local":"2024-04-11T18:30:00","end":"2024-04-12T01:30:00Z","end_local":"2024-04-11T20:30:00","updated":"2024-06-04T23:11:46Z"},{"title":"Kingston J.A Big Entrepreneur Business Event","description":"Sourced from predicthq.com - 6 Firgure business owners outlining how to get involved in a major business project in Kingston JA to earn Passively & Residually worldwide","category":"conferences","start":"2024-04-11T23:00:00Z","geo":{"geometry":{"coordinates":[-76.78099660000001,18.0182308],"type":"Point"},"placekey":"@ckw-tfx-5j9","address":{"country_code":"JM","formatted_address":"Hope Road, Kingston, Jamaica","locality":"Kingston","region":"St. Andrew Parish"}},"labels":["business","conference"],"duration":3600,"start_local":"2024-04-11T18:00:00","end":"2024-04-12T00:00:00Z","end_local":"2024-04-11T19:00:00","updated":"2024-06-05T03:48:30Z"},{"title":"Dub School @ GM  Cuban Bar","description":"Sourced from predicthq.com - Dub School happens every Wednesday at @thedubwisecafe... Rootical vibes and atmosphere... Rain or shine....","category":"concerts","start":"2024-04-11T00:00:00Z","geo":{"geometry":{"coordinates":[-76.78087,18.0175007],"type":"Point"},"placekey":"@ckw-tfx-575","address":{"country_code":"JM","formatted_address":"82 Lady Musgrave Rd, Kingston, Jamaica","locality":"Kingston","region":"St. Andrew Parish"}},"labels":["concert","music"],"duration":21600,"start_local":"2024-04-10T19:00:00","end":"2024-04-11T06:00:00Z","end_local":"2024-04-11T01:00:00","updated":"2024-06-05T16:03:45Z"},{"title":"Premier League - Portmore United vs Humble Lions","description":"Sourced from predicthq.com","category":"sports","start":"2024-04-07T20:30:00Z","geo":{"geometry":{"coordinates":[-76.9029450416565,17.952688119419875],"type":"Point"},"placekey":"@ckw-w9h-4sq","address":{"country_code":"JM","formatted_address":"13 Zinnia Cl, Portmore, Jamaica","locality":"Portmore","region":"St. Catherine Parish"}},"labels":["soccer","sport"],"duration":0,"start_local":"2024-04-07T15:30:00","end":"2024-04-07T20:30:00Z","end_local":"2024-04-07T15:30:00","updated":"2024-06-11T22:01:26Z"},{"title":"Premier League - Mount Pleasant Academy vs Lime Hall Academy","description":"Sourced from predicthq.com","category":"sports","start":"2024-04-07T20:30:00Z","geo":{"geometry":{"coordinates":[-77.17562913894653,18.42577667221083],"type":"Point"},"placekey":"@ckx-vch-wrk","address":{"country_code":"JM","formatted_address":"St. Ann's Bay, Jamaica","locality":"St. Ann's Bay"}},"labels":["soccer","sport"],"duration":0,"start_local":"2024-04-07T15:30:00","end":"2024-04-07T20:30:00Z","end_local":"2024-04-07T15:30:00","updated":"2024-06-12T13:58:24Z"},{"title":"Premier League - Dunbeholden vs Vere United","description":"Sourced from predicthq.com","category":"sports","start":"2024-04-07T20:30:00Z","geo":{"geometry":{"coordinates":[-76.9500829,17.9926837],"type":"Point"},"placekey":"@ckw-wb2-jgk","address":{"country_code":"JM","formatted_address":"Spanish Town, Saint Catherine Parish, Jamaica","locality":"Spanish Town","region":"Saint Catherine Parish"}},"labels":["soccer","sport"],"duration":0,"start_local":"2024-04-07T15:30:00","end":"2024-04-07T20:30:00Z","end_local":"2024-04-07T15:30:00","updated":"2024-06-11T21:22:17Z"},{"title":"Premier League - Waterhouse vs Harbour View","description":"Sourced from predicthq.com","category":"sports","start":"2024-04-07T20:30:00Z","geo":{"geometry":{"coordinates":[-76.8320788795,18.0236092195],"type":"Point"},"placekey":"@ckw-tgr-fzz","address":{"country_code":"JM","formatted_address":"25F9+G6G, W Bay Farm Rd, Kingston, Jamaica","locality":"Kingston","region":"St. Andrew Parish"}},"labels":["soccer","sport"],"duration":0,"start_local":"2024-04-07T15:30:00","end":"2024-04-07T20:30:00Z","end_local":"2024-04-07T15:30:00","updated":"2024-06-12T00:54:40Z"},{"title":"Premier League - Montego Bay United vs Tivoli Gardens","description":"Sourced from predicthq.com","category":"sports","start":"2024-04-07T20:30:00Z","geo":{"geometry":{"coordinates":[-77.9213877,18.4579301],"type":"Point"},"placekey":"@8jm-42v-zj9","address":{"country_code":"JM","formatted_address":"Catherine Hall Sports Complex, W Green Ave, Montego Bay, Jamaica","locality":"Montego Bay","region":"St. James Parish"}},"labels":["soccer","sport"],"duration":0,"start_local":"2024-04-07T15:30:00","end":"2024-04-07T20:30:00Z","end_local":"2024-04-07T15:30:00","updated":"2024-06-12T08:15:50Z"},{"title":"Premier League - Cavalier vs Molynes United","description":"Sourced from predicthq.com","category":"sports","start":"2024-04-07T20:30:00Z","geo":{"geometry":{"coordinates":[-76.7994683,17.988903],"type":"Point"},"placekey":"@ckw-th2-ct9","address":{"country_code":"JM","formatted_address":"X6Q2+H67, Kingston, Jamaica","locality":"Kingston","region":"St. Andrew Parish"}},"labels":["soccer","sport"],"duration":0,"start_local":"2024-04-07T15:30:00","end":"2024-04-07T20:30:00Z","end_local":"2024-04-07T15:30:00","updated":"2024-06-12T16:17:49Z"},{"title":"Premier League - Treasure Beach vs Arnett Gardens","description":"Sourced from predicthq.com","category":"sports","start":"2024-04-07T20:30:00Z","geo":{"geometry":{"coordinates":[-77.69482469140166,18.052050231940804],"type":"Point"},"placekey":"@8jm-353-6x5","address":{"country_code":"JM","formatted_address":"90 Main St, Santa Cruz, Jamaica","locality":"Santa Cruz","region":"St. Elizabeth Parish"}},"labels":["soccer","sport"],"duration":0,"start_local":"2024-04-07T15:30:00","end":"2024-04-07T20:30:00Z","end_local":"2024-04-07T15:30:00","updated":"2024-06-12T18:05:08Z"},{"title":"Brunching On The Beach","description":"Sourced from predicthq.com - Come join us for the third year of St Mary's biggest brunch featuring the best live entertainment around.","category":"concerts","start":"2024-04-07T19:00:00Z","geo":{"geometry":{"coordinates":[-76.88573050000001,18.3702402],"type":"Point"},"placekey":"@ckx-wf6-grk","address":{"country_code":"JM","formatted_address":"Port Maria, Jamaica","locality":"Port Maria"}},"labels":["concert","food","music"],"duration":32400,"start_local":"2024-04-07T14:00:00","end":"2024-04-08T04:00:00Z","end_local":"2024-04-07T23:00:00","updated":"2024-06-05T17:19:54Z"},{"title":"Jamaica Carnival Makeup, Hair, Photoshoot, Shuttle| 2024","description":"Sourced from predicthq.com - Carnival Makeup, Hair, and Photoshoot for Jamaica Carnival! Limited slots.Book now for the best time slots. Deposit links are now open","category":"festivals","start":"2024-04-07T09:00:00Z","geo":{"geometry":{"coordinates":[-76.78811069999999,18.0024594],"type":"Point"},"placekey":"@ckw-th9-p35","address":{"country_code":"JM","formatted_address":"Knutsford Boulevard, Kingston, Jamaica","locality":"Kingston","region":"St. Andrew Parish"}},"labels":["fashion","festival"],"duration":48180,"start_local":"2024-04-07T04:00:00","end":"2024-04-07T22:23:00Z","end_local":"2024-04-07T17:23:00","updated":"2024-06-05T06:46:56Z"},{"title":"Carnival Glam Hub  Jamaica 2024 - Make Up Only NEW Time Slots","description":"Sourced from predicthq.com - Carnival Makeup at Carnival Glam Hub. New Time Slots Open. Super Limited!","category":"festivals","start":"2024-04-07T08:00:00Z","geo":{"geometry":{"coordinates":[-76.78811069999999,18.0024594],"type":"Point"},"placekey":"@ckw-th9-p35","address":{"country_code":"JM","formatted_address":"Knutsford Boulevard, Kingston, Jamaica","locality":"Kingston","region":"St. Andrew Parish"}},"labels":["fashion","festival"],"duration":32400,"start_local":"2024-04-07T03:00:00","end":"2024-04-07T17:00:00Z","end_local":"2024-04-07T12:00:00","updated":"2024-06-05T17:36:31Z"},{"title":"Carnival Hair : Hair By Dollz in Jamaica","description":"Sourced from predicthq.com - Receive our premium offering with Trini Hairstylist who has worked with over 30 bands internationally","category":"festivals","start":"2024-04-07T07:00:00Z","geo":{"geometry":{"coordinates":[-76.78811069999999,18.0024594],"type":"Point"},"placekey":"@ckw-th9-p35","address":{"country_code":"JM","formatted_address":"Knutsford Boulevard, Kingston, Jamaica","locality":"Kingston","region":"St. Andrew Parish"}},"labels":["fashion","festival"],"duration":32400,"start_local":"2024-04-07T02:00:00","end":"2024-04-07T16:00:00Z","end_local":"2024-04-07T11:00:00","updated":"2024-06-05T18:44:40Z"}]