[{"title":"Horeca Jordan","description":"Sourced from predicthq.com","category":"expos","start":"2024-10-01T06:00:00Z","geo":{"geometry":{"coordinates":[35.84126,31.976724],"type":"Point"},"placekey":"@6ch-9b7-skf","address":{"country_code":"JO","formatted_address":"XRGR+MGJ, Amman, Jordan","locality":"Amman","region":"Amman Governorate"}},"labels":["expo"],"duration":205200,"start_local":"2024-10-01T09:00:00","end":"2024-10-03T15:00:00Z","end_local":"2024-10-03T18:00:00","updated":"2024-05-31T23:34:34Z"},{"title":"Ultra X Jordan","description":"Sourced from predicthq.com","category":"sports","start":"2024-09-29T21:00:00Z","geo":{"geometry":{"coordinates":[35.910635,31.9539494],"type":"Point"},"placekey":"@6ch-9bp-t35","address":{"country_code":"JO","formatted_address":"Zahran Street, Amman, Jordan","locality":"Amman","region":"Amman Governorate"}},"labels":["outdoor-sports","running","sport"],"duration":86399,"start_local":"2024-09-30T00:00:00","end":"2024-09-30T20:59:59Z","end_local":"2024-09-30T23:59:59","updated":"2024-06-04T02:51:07Z"},{"title":"September Equinox","description":"Sourced from predicthq.com","category":"observances","start":"2024-09-22T00:00:00Z","geo":{"geometry":{"coordinates":[36.238414,30.585164],"type":"Point"},"address":{"country_code":"JO","formatted_address":"Jordan"}},"labels":["holiday","observance","observance-season"],"duration":86399,"start_local":"2024-09-22T00:00:00","end":"2024-09-22T23:59:59Z","end_local":"2024-09-22T23:59:59","updated":"2024-06-11T04:31:40Z"},{"title":"International Conference on Engineering, Project, and Production Management","description":"Sourced from predicthq.com","category":"conferences","start":"2024-09-17T06:00:00Z","geo":{"geometry":{"coordinates":[35.892504,31.83281],"type":"Point"},"placekey":"@6ch-9k8-zpv","address":{"country_code":"JO","formatted_address":"RVMR+3V6, Amman, Jordan","locality":"Amman","region":"Amman Governorate"}},"labels":["conference"],"duration":205200,"start_local":"2024-09-17T09:00:00","end":"2024-09-19T15:00:00Z","end_local":"2024-09-19T18:00:00","updated":"2024-05-28T19:19:33Z"},{"title":"Prophet's Birthday","description":"Sourced from predicthq.com - Mawlid, or Milad, marks the birth of the Islamic prophet Muhammed, or Mohamed, in the year 570 of the Gregorian calendar.","category":"public-holidays","start":"2024-09-15T00:00:00Z","geo":{"geometry":{"coordinates":[36.238414,30.585164],"type":"Point"},"address":{"country_code":"JO","formatted_address":"Jordan"}},"labels":["holiday","holiday-national"],"duration":86399,"start_local":"2024-09-15T00:00:00","end":"2024-09-15T23:59:59Z","end_local":"2024-09-15T23:59:59","updated":"2024-06-11T05:29:12Z"},{"title":"Jordan Financial Expo & Awards","description":"Sourced from predicthq.com","category":"expos","start":"2024-09-10T06:00:00Z","geo":{"geometry":{"coordinates":[35.864082,31.986029],"type":"Point"},"placekey":"@6ch-9bs-hdv","address":{"country_code":"JO","formatted_address":"Amman, Amman Governorate, Jordan","locality":"Amman","region":"Amman Governorate"}},"labels":["expo"],"duration":118800,"start_local":"2024-09-10T09:00:00","end":"2024-09-11T15:00:00Z","end_local":"2024-09-11T18:00:00","updated":"2024-05-28T04:17:50Z"},{"title":"Election for Majlis al-Nuwaab (Jordanian House of Deputies)","description":"Sourced from predicthq.com - Jordan will hold a general election on 10 September 2024.","category":"politics","start":"2024-09-10T00:00:00Z","geo":{"geometry":{"coordinates":[36.238414,30.585164],"type":"Point"},"address":{"country_code":"JO","formatted_address":"Jordan"}},"labels":["election","parliament","politics"],"duration":86399,"start_local":"2024-09-10T00:00:00","end":"2024-09-10T23:59:59Z","end_local":"2024-09-10T23:59:59","updated":"2024-06-11T05:35:42Z"},{"title":"STONEJO Show","description":"Sourced from predicthq.com","category":"expos","start":"2024-09-08T21:00:00Z","geo":{"geometry":{"coordinates":[35.84126,31.976724],"type":"Point"},"placekey":"@6ch-9b7-skf","address":{"country_code":"JO","formatted_address":"XRGR+MGJ, Amman, Jordan","locality":"Amman","region":"Amman Governorate"}},"labels":["expo"],"duration":345599,"start_local":"2024-09-09T00:00:00","end":"2024-09-12T20:59:59Z","end_local":"2024-09-12T23:59:59","updated":"2024-05-31T23:38:30Z"},{"title":"INTERBUILD Near East Exhibition","description":"Sourced from predicthq.com","category":"expos","start":"2024-09-08T21:00:00Z","geo":{"geometry":{"coordinates":[35.84126,31.976724],"type":"Point"},"placekey":"@6ch-9b7-skf","address":{"country_code":"JO","formatted_address":"XRGR+MGJ, Amman, Jordan","locality":"Amman","region":"Amman Governorate"}},"labels":["expo"],"duration":345599,"start_local":"2024-09-09T00:00:00","end":"2024-09-12T20:59:59Z","end_local":"2024-09-12T23:59:59","updated":"2024-05-31T23:39:33Z"},{"title":"Interbuild Jordan 2024","description":"Sourced from predicthq.com","category":"expos","start":"2024-09-08T21:00:00Z","geo":{"geometry":{"coordinates":[35.976968,31.990425],"type":"Point"},"placekey":"@6ch-9gj-g49","address":{"country_code":"JO","formatted_address":"Ash Shahid, Amman, Jordan","locality":"Amman","region":"Amman Governorate"}},"labels":["business","construction","design","environment","expo","industrial","technology"],"duration":345599,"start_local":"2024-09-09T00:00:00","end":"2024-09-12T20:59:59Z","end_local":"2024-09-12T23:59:59","updated":"2024-06-04T11:20:26Z"},{"title":"Petra Desert Marathon & Half Marathon","description":"Sourced from predicthq.com","category":"sports","start":"2024-09-06T21:00:00Z","geo":{"geometry":{"coordinates":[35.4425807,30.3251734],"type":"Point"},"placekey":"@7w3-xdt-tgk","address":{"country_code":"JO","formatted_address":"Wadi Musa, Ma'an Governorate, Jordan","locality":"Wadi Musa","region":"Ma'an Governorate"}},"labels":["marathon","outdoor-sports","running","sport"],"duration":86399,"start_local":"2024-09-07T00:00:00","end":"2024-09-07T20:59:59Z","end_local":"2024-09-07T23:59:59","updated":"2024-07-02T17:07:27Z"},{"title":"SOFEX","description":"Sourced from predicthq.com - Special Operations Forces Exhibition and Conference","category":"expos","start":"2024-09-02T21:00:00Z","geo":{"geometry":{"coordinates":[35.0207934,29.6090989],"type":"Point"},"placekey":"@7w2-gg8-z4v","address":{"country_code":"JO","formatted_address":"Airport Street, Aqaba, Jordan","locality":"Aqaba","region":"Aqaba Governorate"}},"labels":["expo","industrial","technology"],"duration":259199,"start_local":"2024-09-03T00:00:00","end":"2024-09-05T20:59:59Z","end_local":"2024-09-05T23:59:59","updated":"2024-07-05T08:43:47Z"},{"title":"International Food and Technology Expo","description":"Sourced from predicthq.com","category":"expos","start":"2024-08-20T21:00:00Z","geo":{"geometry":{"coordinates":[35.84126,31.976724],"type":"Point"},"placekey":"@6ch-9b7-skf","address":{"country_code":"JO","formatted_address":"XRGR+MGJ, Amman, Jordan","locality":"Amman","region":"Amman Governorate"}},"labels":["expo"],"duration":345599,"start_local":"2024-08-21T00:00:00","end":"2024-08-24T20:59:59Z","end_local":"2024-08-24T23:59:59","updated":"2024-05-31T23:27:02Z"},{"title":"Jordan StartUp Expo","description":"Sourced from predicthq.com","category":"expos","start":"2024-08-14T06:00:00Z","geo":{"geometry":{"coordinates":[35.88119,31.959813],"type":"Point"},"placekey":"@6ch-9bw-qvf","address":{"country_code":"JO","formatted_address":"5th Circle Abdoun, Beirut Street 6, Amman 11183, Jordan","postcode":"11183","locality":"Amman","region":"Amman Governorate"}},"labels":["expo"],"duration":118800,"start_local":"2024-08-14T09:00:00","end":"2024-08-15T15:00:00Z","end_local":"2024-08-15T18:00:00","updated":"2024-05-31T23:02:53Z"},{"title":"SEMEX","description":"Sourced from predicthq.com","category":"expos","start":"2024-08-13T06:00:00Z","geo":{"geometry":{"coordinates":[35.84126,31.976724],"type":"Point"},"placekey":"@6ch-9b7-skf","address":{"country_code":"JO","formatted_address":"XRGR+MGJ, Amman, Jordan","locality":"Amman","region":"Amman Governorate"}},"labels":["expo"],"duration":205200,"start_local":"2024-08-13T09:00:00","end":"2024-08-15T15:00:00Z","end_local":"2024-08-15T18:00:00","updated":"2024-05-31T23:34:25Z"},{"title":"Real Estate Expo","description":"Sourced from predicthq.com","category":"expos","start":"2024-08-13T06:00:00Z","geo":{"geometry":{"coordinates":[35.843791,31.977647],"type":"Point"},"placekey":"@6ch-9b7-q4v","address":{"country_code":"JO","formatted_address":"XVF7+X7Q, Mecca St., Amman, Jordan","locality":"Amman","region":"Amman Governorate"}},"labels":["expo"],"duration":32400,"start_local":"2024-08-13T09:00:00","end":"2024-08-13T15:00:00Z","end_local":"2024-08-13T18:00:00","updated":"2024-06-11T04:28:35Z"},{"title":"International Conference on Information and Communication Systems","description":"Sourced from predicthq.com","category":"conferences","start":"2024-08-13T06:00:00Z","geo":{"geometry":{"coordinates":[35.991226,32.495039],"type":"Point"},"placekey":"@6ch-7f9-rc5","address":{"country_code":"JO","formatted_address":"Ar Ramtha\nIrbid\nJordan","locality":"Irbid"}},"labels":["conference"],"duration":205200,"start_local":"2024-08-13T09:00:00","end":"2024-08-15T15:00:00Z","end_local":"2024-08-15T18:00:00","updated":"2024-05-28T11:14:45Z"},{"title":"Jordan Build","description":"Sourced from predicthq.com","category":"expos","start":"2024-08-11T21:00:00Z","geo":{"geometry":{"coordinates":[35.843791,31.977647],"type":"Point"},"placekey":"@6ch-9b7-q4v","address":{"country_code":"JO","formatted_address":"XVF7+X7Q, Mecca St., Amman, Jordan","locality":"Amman","region":"Amman Governorate"}},"labels":["expo"],"duration":345599,"start_local":"2024-08-12T00:00:00","end":"2024-08-15T20:59:59Z","end_local":"2024-08-15T23:59:59","updated":"2024-06-02T10:29:45Z"},{"title":"Wellness Champions- Leaders Of Change","description":"Sourced from predicthq.com - Join us at Wellness Champions- Leaders Of Change, where we celebrate those who inspire and empower others to lead healthier, happier lives.","category":"conferences","start":"2024-08-05T06:00:00Z","geo":{"geometry":{"coordinates":[35.9031731,31.9650131],"type":"Point"},"placekey":"@6ch-9bp-g49","address":{"country_code":"JO","formatted_address":"Black Iris Street،, Amman, Jordan","locality":"Amman","region":"ٰĀmmān"}},"labels":["conference","health"],"duration":109800,"start_local":"2024-08-05T09:00:00","end":"2024-08-06T12:30:00Z","end_local":"2024-08-06T15:30:00","updated":"2024-06-04T05:54:21Z"},{"title":"Empowering Leaders for Enhanced Wellbeing through Diversity and Inclusion in the Workplace","description":"Sourced from predicthq.com - Get ready to boost your leadership skills and create a more inclusive workplace that values diversity for a happier and healthier team!","category":"conferences","start":"2024-07-22T06:00:00Z","geo":{"geometry":{"coordinates":[35.9031731,31.9650131],"type":"Point"},"placekey":"@6ch-9bp-g49","address":{"country_code":"JO","formatted_address":"Black Iris Street،, Amman, Jordan","locality":"Amman","region":"ٰĀmmān"}},"labels":["business","conference"],"duration":21600,"start_local":"2024-07-22T09:00:00","end":"2024-07-22T12:00:00Z","end_local":"2024-07-22T15:00:00","updated":"2024-06-16T01:43:35Z"},{"title":"47Soul","description":"Sourced from predicthq.com","category":"concerts","start":"2024-07-12T18:00:00Z","geo":{"geometry":{"coordinates":[35.8753239,31.8664435],"type":"Point"},"placekey":"@6ch-99h-k2k","address":{"country_code":"JO","formatted_address":"VV8G+H4G, Amman, Jordan","locality":"Amman","region":"Amman Governorate"}},"labels":["concert","music"],"duration":0,"start_local":"2024-07-12T21:00:00","end":"2024-07-12T18:00:00Z","end_local":"2024-07-12T21:00:00","updated":"2024-06-28T18:11:15Z"},{"title":"Muharram/New Year","description":"Sourced from predicthq.com - Muharram is the first month of the Islamic calendar and a time of remembrance or mourning.","category":"public-holidays","start":"2024-07-07T00:00:00Z","geo":{"geometry":{"coordinates":[36.238414,30.585164],"type":"Point"},"address":{"country_code":"JO","formatted_address":"Jordan"}},"labels":["holiday","holiday-national"],"duration":86399,"start_local":"2024-07-07T00:00:00","end":"2024-07-07T23:59:59Z","end_local":"2024-07-07T23:59:59","updated":"2024-06-12T12:42:45Z"},{"title":"Moderate Delays - King Hussein International Airport (AQJ)","description":"Sourced from predicthq.com","category":"airport-delays","start":"2024-07-03T22:30:00Z","geo":{"geometry":{"coordinates":[35.021511,29.610074],"type":"Point"},"address":{"country_code":"JO","formatted_address":"King Hussein International Airport, Airport St, Aqaba, Jordan","locality":"Aqaba","region":"Aqaba Governorate"}},"labels":["airport","delay"],"duration":12600,"start_local":"2024-07-04T01:30:00","end":"2024-07-04T02:00:00Z","end_local":"2024-07-04T05:00:00","updated":"2024-07-04T00:27:24Z"},{"title":"Arab Pharma Manufacturers Expo","description":"Sourced from predicthq.com - Arab Pharma Manufacturers Expo is a leading event that focuses on the manufacturing industry of the pharma sectors. It helps the professionals of the sector to come together under the same roof and to share their ideas and experiences significantly and efficiently. The show also helps the professionals to discuss about the latest development and new trends that have been produced in the industry. A large number of exhibitors will showcase their products and services and will also helps the professionals to discover the latest items and wonderful products.","category":"expos","start":"2024-07-01T21:00:00Z","geo":{"geometry":{"coordinates":[35.84126,31.976724],"type":"Point"},"placekey":"@6ch-9b7-skf","address":{"country_code":"JO","formatted_address":"XRGR+MGJ, Amman, Jordan","locality":"Amman","region":"Amman Governorate"}},"labels":["expo"],"duration":172799,"start_local":"2024-07-02T00:00:00","end":"2024-07-03T20:59:59Z","end_local":"2024-07-03T23:59:59","updated":"2024-07-03T22:52:30Z"},{"title":"Moderate to Severe Delays - King Hussein International Airport (AQJ)","description":"Sourced from predicthq.com - * Upgraded to Severe (+1hr)","category":"airport-delays","start":"2024-06-30T05:00:00Z","geo":{"geometry":{"coordinates":[35.021511,29.610074],"type":"Point"},"address":{"country_code":"JO","formatted_address":"King Hussein International Airport, Airport St, Aqaba, Jordan","locality":"Aqaba","region":"Aqaba Governorate"}},"labels":["airport","delay"],"duration":16200,"start_local":"2024-06-30T08:00:00","end":"2024-06-30T09:30:00Z","end_local":"2024-06-30T12:30:00","updated":"2024-06-30T07:33:00Z"},{"title":"Moderate Delays - Queen Alia International Airport (AMM)","description":"Sourced from predicthq.com","category":"airport-delays","start":"2024-06-30T00:00:00Z","geo":{"geometry":{"coordinates":[35.989318,31.722535],"type":"Point"},"address":{"country_code":"JO","formatted_address":"Queen Alia International Airport, Desert Highway, Amman, Jordan","locality":"Amman","region":"Amman Governorate"}},"labels":["airport","delay"],"duration":3600,"start_local":"2024-06-30T03:00:00","end":"2024-06-30T01:00:00Z","end_local":"2024-06-30T04:00:00","updated":"2024-06-30T02:07:22Z"},{"title":"Severe Delays - King Hussein International Airport (AQJ)","description":"Sourced from predicthq.com","category":"airport-delays","start":"2024-06-27T12:30:00Z","geo":{"geometry":{"coordinates":[35.021511,29.610074],"type":"Point"},"address":{"country_code":"JO","formatted_address":"King Hussein International Airport, Airport St, Aqaba, Jordan","locality":"Aqaba","region":"Aqaba Governorate"}},"labels":["airport","delay"],"duration":10800,"start_local":"2024-06-27T15:30:00","end":"2024-06-27T15:30:00Z","end_local":"2024-06-27T18:30:00","updated":"2024-06-27T13:52:21Z"},{"title":"Moderate Delays - King Hussein International Airport (AQJ)","description":"Sourced from predicthq.com","category":"airport-delays","start":"2024-06-26T20:30:00Z","geo":{"geometry":{"coordinates":[35.021511,29.610074],"type":"Point"},"address":{"country_code":"JO","formatted_address":"King Hussein International Airport, Airport St, Aqaba, Jordan","locality":"Aqaba","region":"Aqaba Governorate"}},"labels":["airport","delay"],"duration":19800,"start_local":"2024-06-26T23:30:00","end":"2024-06-27T02:00:00Z","end_local":"2024-06-27T05:00:00","updated":"2024-06-27T00:39:56Z"},{"title":"Moderate to Severe Delays - King Hussein International Airport (AQJ)","description":"Sourced from predicthq.com - * Upgraded to Severe (+1hr)","category":"airport-delays","start":"2024-06-26T04:30:00Z","geo":{"geometry":{"coordinates":[35.021511,29.610074],"type":"Point"},"address":{"country_code":"JO","formatted_address":"King Hussein International Airport, Airport St, Aqaba, Jordan","locality":"Aqaba","region":"Aqaba Governorate"}},"labels":["airport","delay"],"duration":18000,"start_local":"2024-06-26T07:30:00","end":"2024-06-26T09:30:00Z","end_local":"2024-06-26T12:30:00","updated":"2024-06-26T07:49:53Z"},{"title":"IEEE ICT Conference","description":"Sourced from predicthq.com","category":"conferences","start":"2024-06-24T06:00:00Z","geo":{"geometry":{"coordinates":[35.589470000000006,31.721345],"type":"Point"},"placekey":"@6cg-yx2-389","address":{"country_code":"JO","formatted_address":"Sweimeh, Balqa Governorate, Jordan","locality":"Sweimeh","region":"Balqa Governorate"}},"labels":["conference"],"duration":291600,"start_local":"2024-06-24T09:00:00","end":"2024-06-27T15:00:00Z","end_local":"2024-06-27T18:00:00","updated":"2024-05-27T10:39:22Z"},{"title":"Severe Delays - King Hussein International Airport (AQJ)","description":"Sourced from predicthq.com","category":"airport-delays","start":"2024-06-22T10:30:00Z","geo":{"geometry":{"coordinates":[35.021511,29.610074],"type":"Point"},"address":{"country_code":"JO","formatted_address":"King Hussein International Airport, Airport St, Aqaba, Jordan","locality":"Aqaba","region":"Aqaba Governorate"}},"labels":["airport","delay"],"duration":19800,"start_local":"2024-06-22T13:30:00","end":"2024-06-22T16:00:00Z","end_local":"2024-06-22T19:00:00","updated":"2024-06-22T14:08:59Z"},{"title":"Severe Delays - King Hussein International Airport (AQJ)","description":"Sourced from predicthq.com","category":"airport-delays","start":"2024-06-20T13:00:00Z","geo":{"geometry":{"coordinates":[35.021511,29.610074],"type":"Point"},"address":{"country_code":"JO","formatted_address":"King Hussein International Airport, Airport St, Aqaba, Jordan","locality":"Aqaba","region":"Aqaba Governorate"}},"labels":["airport","delay"],"duration":10800,"start_local":"2024-06-20T16:00:00","end":"2024-06-20T16:00:00Z","end_local":"2024-06-20T19:00:00","updated":"2024-06-20T14:10:26Z"},{"title":"June Solstice","description":"Sourced from predicthq.com","category":"observances","start":"2024-06-20T00:00:00Z","geo":{"geometry":{"coordinates":[36.238414,30.585164],"type":"Point"},"address":{"country_code":"JO","formatted_address":"Jordan"}},"labels":["holiday","observance","observance-season"],"duration":86399,"start_local":"2024-06-20T00:00:00","end":"2024-06-20T23:59:59Z","end_local":"2024-06-20T23:59:59","updated":"2024-06-11T10:07:19Z"},{"title":"Severe Delays - King Hussein International Airport (AQJ)","description":"Sourced from predicthq.com","category":"airport-delays","start":"2024-06-19T10:30:00Z","geo":{"geometry":{"coordinates":[35.021511,29.610074],"type":"Point"},"address":{"country_code":"JO","formatted_address":"King Hussein International Airport, Airport St, Aqaba, Jordan","locality":"Aqaba","region":"Aqaba Governorate"}},"labels":["airport","delay"],"duration":19800,"start_local":"2024-06-19T13:30:00","end":"2024-06-19T16:00:00Z","end_local":"2024-06-19T19:00:00","updated":"2024-06-19T14:24:59Z"},{"title":"Eid al-Adha holiday","description":"Sourced from predicthq.com","category":"public-holidays","start":"2024-06-19T00:00:00Z","geo":{"geometry":{"coordinates":[36.238414,30.585164],"type":"Point"},"address":{"country_code":"JO","formatted_address":"Jordan"}},"labels":["holiday","holiday-national"],"duration":86399,"start_local":"2024-06-19T00:00:00","end":"2024-06-19T23:59:59Z","end_local":"2024-06-19T23:59:59","updated":"2024-06-11T04:10:46Z"},{"title":"Eid al-Adha holiday","description":"Sourced from predicthq.com","category":"public-holidays","start":"2024-06-18T00:00:00Z","geo":{"geometry":{"coordinates":[36.238414,30.585164],"type":"Point"},"address":{"country_code":"JO","formatted_address":"Jordan"}},"labels":["holiday","holiday-national"],"duration":86399,"start_local":"2024-06-18T00:00:00","end":"2024-06-18T23:59:59Z","end_local":"2024-06-18T23:59:59","updated":"2024-06-11T00:33:43Z"},{"title":"Eid al-Adha holiday","description":"Sourced from predicthq.com","category":"public-holidays","start":"2024-06-17T00:00:00Z","geo":{"geometry":{"coordinates":[36.238414,30.585164],"type":"Point"},"address":{"country_code":"JO","formatted_address":"Jordan"}},"labels":["holiday","holiday-national"],"duration":86399,"start_local":"2024-06-17T00:00:00","end":"2024-06-17T23:59:59Z","end_local":"2024-06-17T23:59:59","updated":"2024-06-11T05:50:51Z"},{"title":"Eid al-Adha","description":"Sourced from predicthq.com - Eid al-Adha (Id ul-Adha) is an Islamic festival falling on the 10th day of the month of Dhul Hijja (Thou al-Hijja) to commemorate the willingness of Ibrahim (Abraham) to sacrifice his son.","category":"public-holidays","start":"2024-06-16T00:00:00Z","geo":{"geometry":{"coordinates":[36.238414,30.585164],"type":"Point"},"address":{"country_code":"JO","formatted_address":"Jordan"}},"labels":["holiday","holiday-national"],"duration":86399,"start_local":"2024-06-16T00:00:00","end":"2024-06-16T23:59:59Z","end_local":"2024-06-16T23:59:59","updated":"2024-06-11T08:13:36Z"},{"title":"Moderate Delays - Queen Alia International Airport (AMM)","description":"Sourced from predicthq.com","category":"airport-delays","start":"2024-06-16T00:00:00Z","geo":{"geometry":{"coordinates":[35.989318,31.722535],"type":"Point"},"address":{"country_code":"JO","formatted_address":"Queen Alia International Airport, Desert Highway, Amman, Jordan","locality":"Amman","region":"Amman Governorate"}},"labels":["airport","delay"],"duration":3600,"start_local":"2024-06-16T03:00:00","end":"2024-06-16T01:00:00Z","end_local":"2024-06-16T04:00:00","updated":"2024-06-16T02:19:11Z"},{"title":"Arafah","description":"Sourced from predicthq.com","category":"public-holidays","start":"2024-06-15T00:00:00Z","geo":{"geometry":{"coordinates":[36.238414,30.585164],"type":"Point"},"address":{"country_code":"JO","formatted_address":"Jordan"}},"labels":["holiday","holiday-national"],"duration":86399,"start_local":"2024-06-15T00:00:00","end":"2024-06-15T23:59:59Z","end_local":"2024-06-15T23:59:59","updated":"2024-06-11T01:25:53Z"},{"title":"Samm","description":"Sourced from predicthq.com","category":"concerts","start":"2024-06-13T17:00:00Z","geo":{"geometry":{"coordinates":[35.906558,31.975769],"type":"Point"},"placekey":"@6ch-9bq-bhq","address":{"country_code":"JO","formatted_address":"Amman, Jordan","locality":"Amman","region":"Amman Governorate"}},"labels":["concert","music"],"duration":0,"start_local":"2024-06-13T20:00:00","end":"2024-06-13T17:00:00Z","end_local":"2024-06-13T20:00:00","updated":"2024-06-27T20:02:11Z"},{"title":"Moderate Delays - King Hussein International Airport (AQJ)","description":"Sourced from predicthq.com","category":"airport-delays","start":"2024-06-13T13:30:00Z","geo":{"geometry":{"coordinates":[35.021511,29.610074],"type":"Point"},"address":{"country_code":"JO","formatted_address":"King Hussein International Airport, Airport St, Aqaba, Jordan","locality":"Aqaba","region":"Aqaba Governorate"}},"labels":["airport","delay"],"duration":19800,"start_local":"2024-06-13T16:30:00","end":"2024-06-13T19:00:00Z","end_local":"2024-06-13T22:00:00","updated":"2024-06-13T17:30:03Z"},{"title":"Severe Delays - King Hussein International Airport (AQJ)","description":"Sourced from predicthq.com","category":"airport-delays","start":"2024-06-12T06:00:00Z","geo":{"geometry":{"coordinates":[35.021511,29.610074],"type":"Point"},"address":{"country_code":"JO","formatted_address":"King Hussein International Airport, Airport St, Aqaba, Jordan","locality":"Aqaba","region":"Aqaba Governorate"}},"labels":["airport","delay"],"duration":14400,"start_local":"2024-06-12T09:00:00","end":"2024-06-12T10:00:00Z","end_local":"2024-06-12T13:00:00","updated":"2024-06-12T08:15:49Z"},{"title":"Moderate Delays - King Hussein International Airport (AQJ)","description":"Sourced from predicthq.com","category":"airport-delays","start":"2024-06-10T21:00:00Z","geo":{"geometry":{"coordinates":[35.021511,29.610074],"type":"Point"},"address":{"country_code":"JO","formatted_address":"King Hussein International Airport, Airport St, Aqaba, Jordan","locality":"Aqaba","region":"Aqaba Governorate"}},"labels":["airport","delay"],"duration":12600,"start_local":"2024-06-11T00:00:00","end":"2024-06-11T00:30:00Z","end_local":"2024-06-11T03:30:00","updated":"2024-06-10T22:30:54Z"},{"title":"Moderate to Severe Delays - Queen Alia International Airport (AMM)","description":"Sourced from predicthq.com - * Upgraded to Severe (+2hr)\n* Downgraded to Significant (+30m)\n* Downgraded to Moderate (+1hr)","category":"airport-delays","start":"2024-06-09T13:00:00Z","geo":{"geometry":{"coordinates":[35.989318,31.722535],"type":"Point"},"address":{"country_code":"JO","formatted_address":"Queen Alia International Airport, Desert Highway, Amman, Jordan","locality":"Amman","region":"Amman Governorate"}},"labels":["airport","delay"],"duration":12600,"start_local":"2024-06-09T16:00:00","end":"2024-06-09T16:30:00Z","end_local":"2024-06-09T19:30:00","updated":"2024-06-09T17:32:07Z"},{"title":"Severe Delays - King Hussein International Airport (AQJ)","description":"Sourced from predicthq.com","category":"airport-delays","start":"2024-06-09T10:30:00Z","geo":{"geometry":{"coordinates":[35.021511,29.610074],"type":"Point"},"address":{"country_code":"JO","formatted_address":"King Hussein International Airport, Airport St, Aqaba, Jordan","locality":"Aqaba","region":"Aqaba Governorate"}},"labels":["airport","delay"],"duration":19800,"start_local":"2024-06-09T13:30:00","end":"2024-06-09T16:00:00Z","end_local":"2024-06-09T19:00:00","updated":"2024-06-09T14:08:06Z"},{"title":"Anniversary of King Abdullah’s Coronation","description":"Sourced from predicthq.com","category":"public-holidays","start":"2024-06-09T00:00:00Z","geo":{"geometry":{"coordinates":[36.238414,30.585164],"type":"Point"},"address":{"country_code":"JO","formatted_address":"Jordan"}},"labels":["holiday","holiday-national"],"duration":86399,"start_local":"2024-06-09T00:00:00","end":"2024-06-09T23:59:59Z","end_local":"2024-06-09T23:59:59","updated":"2024-06-11T21:46:50Z"},{"title":"AFC World Cup Qualifiers - 2nd Round - Jordan vs Tajikistan","description":"Sourced from predicthq.com","category":"sports","start":"2024-06-06T17:30:00Z","geo":{"geometry":{"coordinates":[35.9028141,31.9851496],"type":"Point"},"placekey":"@6ch-9bm-35z","address":{"country_code":"JO","formatted_address":"XWP3+25R, Amman, Jordan","locality":"Amman","region":"Amman Governorate"}},"labels":["soccer","sport"],"duration":7181,"start_local":"2024-06-06T20:30:00","end":"2024-06-06T19:29:41Z","end_local":"2024-06-06T22:29:41","updated":"2024-06-07T00:29:22Z"},{"title":"Severe Delays - King Hussein International Airport (AQJ)","description":"Sourced from predicthq.com","category":"airport-delays","start":"2024-06-06T05:30:00Z","geo":{"geometry":{"coordinates":[35.021511,29.610074],"type":"Point"},"address":{"country_code":"JO","formatted_address":"King Hussein International Airport, Airport St, Aqaba, Jordan","locality":"Aqaba","region":"Aqaba Governorate"}},"labels":["airport","delay"],"duration":19800,"start_local":"2024-06-06T08:30:00","end":"2024-06-06T11:00:00Z","end_local":"2024-06-06T14:00:00","updated":"2024-06-06T09:02:29Z"},{"title":"Global MentorBridge Summit","description":"Sourced from predicthq.com - Global MentorBridge Summit: Connect with top mentors worldwide to bridge the gap between ambition and success in one empowering event!","category":"conferences","start":"2024-06-05T07:00:00Z","geo":{"geometry":{"coordinates":[35.8325012,31.9724281],"type":"Point"},"placekey":"@6ch-9bf-kj9","address":{"country_code":"JO","formatted_address":"Bulding 23, King Hussein Business Park, شارع الملك عبدالله الثاني 242، عمّان، Jordan","locality":"عمّان","region":"محافظة العاصمة"}},"labels":["business","conference"],"duration":50400,"start_local":"2024-06-05T10:00:00","end":"2024-06-05T21:00:00Z","end_local":"2024-06-06T00:00:00","updated":"2024-06-04T02:49:38Z"},{"title":"Moderate to Severe Delays - King Hussein International Airport (AQJ)","description":"Sourced from predicthq.com - * Upgraded to Severe (+1hr)","category":"airport-delays","start":"2024-06-05T04:30:00Z","geo":{"geometry":{"coordinates":[35.021511,29.610074],"type":"Point"},"address":{"country_code":"JO","formatted_address":"King Hussein International Airport, Airport St, Aqaba, Jordan","locality":"Aqaba","region":"Aqaba Governorate"}},"labels":["airport","delay"],"duration":19800,"start_local":"2024-06-05T07:30:00","end":"2024-06-05T10:00:00Z","end_local":"2024-06-05T13:00:00","updated":"2024-06-05T08:20:19Z"},{"title":"Fintech Summit Middle East","description":"Sourced from predicthq.com","category":"conferences","start":"2024-06-04T21:00:00Z","geo":{"geometry":{"coordinates":[35.88119,31.959813],"type":"Point"},"placekey":"@6ch-9bw-qvf","address":{"country_code":"JO","formatted_address":"5th Circle Abdoun, Beirut Street 6, Amman 11183, Jordan","postcode":"11183","locality":"Amman","region":"Amman Governorate"}},"labels":["conference"],"duration":86399,"start_local":"2024-06-05T00:00:00","end":"2024-06-05T20:59:59Z","end_local":"2024-06-05T23:59:59","updated":"2024-06-30T02:16:18Z"},{"title":"5G Summit","description":"Sourced from predicthq.com","category":"conferences","start":"2024-06-04T06:00:00Z","geo":{"geometry":{"coordinates":[35.88206,31.960997],"type":"Point"},"placekey":"@6ch-9bw-qs5","address":{"country_code":"JO","formatted_address":"Zahran Street, Amman, Jordan","locality":"Amman","region":"Amman Governorate"}},"labels":["conference"],"duration":32400,"start_local":"2024-06-04T09:00:00","end":"2024-06-04T15:00:00Z","end_local":"2024-06-04T18:00:00","updated":"2024-05-31T23:06:22Z"},{"title":"JIMEX : JORDAN INTERNATIONAL MECHANICAL ELECTRICAL AUTOMATION & SOLAR EXPO","description":"Sourced from predicthq.com - JIMEX, the 19th International Mechanical & Electrical Engineering exhibition ‘JIMEX 2024’  with various associations, Embassies and brands","category":"expos","start":"2024-06-03T13:00:00Z","geo":{"geometry":{"coordinates":[35.84132690000001,31.97668839999999],"type":"Point"},"placekey":"@6ch-9b7-skf","address":{"country_code":"JO","formatted_address":"Amman, Amman Governorate, Jordan","locality":"Amman","region":"Amman Governorate"}},"labels":["expo","science","technology"],"duration":280800,"start_local":"2024-06-03T16:00:00","end":"2024-06-06T19:00:00Z","end_local":"2024-06-06T22:00:00","updated":"2024-06-04T00:02:19Z"},{"title":"Severe Delays - King Hussein International Airport (AQJ)","description":"Sourced from predicthq.com","category":"airport-delays","start":"2024-06-03T10:30:00Z","geo":{"geometry":{"coordinates":[35.021511,29.610074],"type":"Point"},"address":{"country_code":"JO","formatted_address":"King Hussein International Airport, Airport St, Aqaba, Jordan","locality":"Aqaba","region":"Aqaba Governorate"}},"labels":["airport","delay"],"duration":19800,"start_local":"2024-06-03T13:30:00","end":"2024-06-03T16:00:00Z","end_local":"2024-06-03T19:00:00","updated":"2024-06-03T19:22:40Z"},{"title":"Solar Near East Exhibition and Forum","description":"Sourced from predicthq.com","category":"expos","start":"2024-06-02T21:00:00Z","geo":{"geometry":{"coordinates":[35.841327,31.976688],"type":"Point"},"placekey":"@6ch-9b7-skf","address":{"country_code":"JO","formatted_address":"XRGR+MGG, Mecca St., Amman, Jordan","locality":"Amman","region":"Amman Governorate"}},"labels":["expo"],"duration":345599,"start_local":"2024-06-03T00:00:00","end":"2024-06-06T20:59:59Z","end_local":"2024-06-06T23:59:59","updated":"2024-06-02T02:34:56Z"},{"title":"International Mechanical & Electrical Engineering Exhibition","description":"Sourced from predicthq.com","category":"expos","start":"2024-06-02T21:00:00Z","geo":{"geometry":{"coordinates":[35.84126,31.976724],"type":"Point"},"placekey":"@6ch-9b7-skf","address":{"country_code":"JO","formatted_address":"XRGR+MGJ, Amman, Jordan","locality":"Amman","region":"Amman Governorate"}},"labels":["expo"],"duration":345599,"start_local":"2024-06-03T00:00:00","end":"2024-06-06T20:59:59Z","end_local":"2024-06-06T23:59:59","updated":"2024-05-31T23:35:25Z"},{"title":"food","description":"Sourced from predicthq.com - Come join us for a delicious feast at our food event, where you can indulge in mouthwatering dishes and tasty treats all day long!","category":"festivals","start":"2024-06-02T07:00:00Z","geo":{"geometry":{"coordinates":[35.9105776,31.9543786],"type":"Point"},"placekey":"@6ch-9bp-swk","address":{"country_code":"JO","formatted_address":"Amman, Amman Governorate, Jordan","locality":"Amman","region":"Amman Governorate"}},"labels":["festival","food"],"duration":7200,"start_local":"2024-06-02T10:00:00","end":"2024-06-02T09:00:00Z","end_local":"2024-06-02T12:00:00","updated":"2024-06-04T04:18:37Z"},{"title":"Moderate Delays - King Hussein International Airport (AQJ)","description":"Sourced from predicthq.com","category":"airport-delays","start":"2024-05-29T22:00:00Z","geo":{"geometry":{"coordinates":[35.021511,29.610074],"type":"Point"},"address":{"country_code":"JO","formatted_address":"King Hussein International Airport, Airport St, Aqaba, Jordan","locality":"Aqaba","region":"Aqaba Governorate"}},"labels":["airport","delay"],"duration":10800,"start_local":"2024-05-30T01:00:00","end":"2024-05-30T01:00:00Z","end_local":"2024-05-30T04:00:00","updated":"2024-05-29T23:01:00Z"},{"title":"Kent Law School in Amman","description":"Sourced from predicthq.com - Meet and greet for KLS current and potential applicants at the Centre for Critical Thought, Amman.","category":"conferences","start":"2024-05-29T16:00:00Z","geo":{"geometry":{"coordinates":[35.9154001,31.95744710000001],"type":"Point"},"placekey":"@6ch-9bp-ysq","address":{"country_code":"JO","formatted_address":"Husni Fareez Street, Amman, Jordan","locality":"Amman","region":"Amman Governorate"}},"labels":["conference"],"duration":5400,"start_local":"2024-05-29T19:00:00","end":"2024-05-29T17:30:00Z","end_local":"2024-05-29T20:30:00","updated":"2024-05-22T17:03:42Z"},{"title":"Moderate Delays - Queen Alia International Airport (AMM)","description":"Sourced from predicthq.com","category":"airport-delays","start":"2024-05-27T03:00:00Z","geo":{"geometry":{"coordinates":[35.989318,31.722535],"type":"Point"},"address":{"country_code":"JO","formatted_address":"Queen Alia International Airport, Desert Highway, Amman, Jordan","locality":"Amman","region":"Amman Governorate"}},"labels":["airport","delay"],"duration":1800,"start_local":"2024-05-27T06:00:00","end":"2024-05-27T03:30:00Z","end_local":"2024-05-27T06:30:00","updated":"2024-06-05T06:23:31Z"},{"title":"League - Al Ahli vs Ma'an","description":"Sourced from predicthq.com","category":"sports","start":"2024-05-25T17:00:00Z","geo":{"geometry":{"coordinates":[35.70177376270294,32.05784542072537],"type":"Point"},"placekey":"@6cg-cc4-q2k","address":{"country_code":"JO","formatted_address":"3P52+6R2, As-Salt, Jordan","locality":"As-Salt","region":"Balqa Governorate"}},"labels":["soccer","sport"],"duration":0,"start_local":"2024-05-25T20:00:00","end":"2024-05-25T17:00:00Z","end_local":"2024-05-25T20:00:00","updated":"2024-06-12T04:07:16Z"},{"title":"League - Sahab vs Al Hussein","description":"Sourced from predicthq.com","category":"sports","start":"2024-05-25T17:00:00Z","geo":{"geometry":{"coordinates":[36.1129189,32.0997719],"type":"Point"},"placekey":"@6ch-3xh-tvz","address":{"country_code":"JO","formatted_address":"25, Az-Zarqa, Jordan","locality":"Az-Zarqa","region":"Zarqa Governorate"}},"labels":["soccer","sport"],"duration":0,"start_local":"2024-05-25T20:00:00","end":"2024-05-25T17:00:00Z","end_local":"2024-05-25T20:00:00","updated":"2024-06-12T19:41:50Z"},{"title":"League - Moghayer Al Sarhan vs Al Salt","description":"Sourced from predicthq.com","category":"sports","start":"2024-05-25T17:00:00Z","geo":{"geometry":{"coordinates":[35.90379774570465,31.981693187226274],"type":"Point"},"placekey":"@6ch-9bk-xt9","address":{"country_code":"JO","formatted_address":"ʿAmmān (Amman), Jordan","locality":"ʿAmmān (Amman)"}},"labels":["soccer","sport"],"duration":0,"start_local":"2024-05-25T20:00:00","end":"2024-05-25T17:00:00Z","end_local":"2024-05-25T20:00:00","updated":"2024-06-12T11:54:37Z"},{"title":"Independence Day","description":"Sourced from predicthq.com","category":"public-holidays","start":"2024-05-25T00:00:00Z","geo":{"geometry":{"coordinates":[36.238414,30.585164],"type":"Point"},"address":{"country_code":"JO","formatted_address":"Jordan"}},"labels":["holiday","holiday-national"],"duration":86399,"start_local":"2024-05-25T00:00:00","end":"2024-05-25T23:59:59Z","end_local":"2024-05-25T23:59:59","updated":"2024-06-26T22:52:06Z"},{"title":"League - Al Wehdat vs Shabab Al-Aqaba","description":"Sourced from predicthq.com","category":"sports","start":"2024-05-24T16:00:00Z","geo":{"geometry":{"coordinates":[35.90379774570465,31.981693187226274],"type":"Point"},"placekey":"@6ch-9bk-xt9","address":{"country_code":"JO","formatted_address":"ʿAmmān (Amman), Jordan","locality":"ʿAmmān (Amman)"}},"labels":["soccer","sport"],"duration":0,"start_local":"2024-05-24T19:00:00","end":"2024-05-24T16:00:00Z","end_local":"2024-05-24T19:00:00","updated":"2024-06-12T00:56:26Z"},{"title":"Full Moon Desert Marathon","description":"Sourced from predicthq.com","category":"sports","start":"2024-05-24T16:00:00Z","geo":{"geometry":{"coordinates":[35.4210371,29.5742989],"type":"Point"},"placekey":"@7w2-hx9-dgk","address":{"country_code":"JO","formatted_address":"Wadi Rum Village, Aqaba Governorate, Jordan","locality":"Wadi Rum Village","region":"Aqaba Governorate"}},"labels":["marathon","outdoor-sports","running","sport"],"duration":0,"start_local":"2024-05-24T19:00:00","end":"2024-05-24T16:00:00Z","end_local":"2024-05-24T19:00:00","updated":"2024-06-05T06:09:12Z"},{"title":"League - Al Jalil vs Al Ramtha","description":"Sourced from predicthq.com","category":"sports","start":"2024-05-24T16:00:00Z","geo":{"geometry":{"coordinates":[35.8602346,32.5377146],"type":"Point"},"placekey":"@6ch-7xc-wx5","address":{"country_code":"JO","formatted_address":"GVQ6+33Q, Irbid, Jordan","locality":"Irbid","region":"Irbid Governorate"}},"labels":["soccer","sport"],"duration":0,"start_local":"2024-05-24T19:00:00","end":"2024-05-24T16:00:00Z","end_local":"2024-05-24T19:00:00","updated":"2024-06-11T21:33:01Z"},{"title":"The Jordanian International Conference of Nutrition and The Diet & Nutrition Expo","description":"Sourced from predicthq.com","category":"expos","start":"2024-05-23T21:00:00Z","geo":{"geometry":{"coordinates":[35.909119199999964,31.9533795],"type":"Point"},"placekey":"@6ch-9bp-t9z","address":{"country_code":"JO","formatted_address":"Zahran St, Amman, Jordan","locality":"Amman","region":"Amman Governorate"}},"labels":["expo"],"duration":172799,"start_local":"2024-05-24T00:00:00","end":"2024-05-25T20:59:59Z","end_local":"2024-05-25T23:59:59","updated":"2024-06-05T01:53:47Z"},{"title":"League - Al Hussein vs Al Faisaly","description":"Sourced from predicthq.com","category":"sports","start":"2024-05-20T16:00:00Z","geo":{"geometry":{"coordinates":[35.8602346,32.5377146],"type":"Point"},"placekey":"@6ch-7xc-wx5","address":{"country_code":"JO","formatted_address":"GVQ6+33Q, Irbid, Jordan","locality":"Irbid","region":"Irbid Governorate"}},"labels":["soccer","sport"],"duration":0,"start_local":"2024-05-20T19:00:00","end":"2024-05-20T16:00:00Z","end_local":"2024-05-20T19:00:00","updated":"2024-06-11T21:08:23Z"},{"title":"League - Al Salt vs Al Jalil","description":"Sourced from predicthq.com","category":"sports","start":"2024-05-20T16:00:00Z","geo":{"geometry":{"coordinates":[35.70177376270294,32.05784542072537],"type":"Point"},"placekey":"@6cg-cc4-q2k","address":{"country_code":"JO","formatted_address":"3P52+6R2, As-Salt, Jordan","locality":"As-Salt","region":"Balqa Governorate"}},"labels":["soccer","sport"],"duration":0,"start_local":"2024-05-20T19:00:00","end":"2024-05-20T16:00:00Z","end_local":"2024-05-20T19:00:00","updated":"2024-06-12T03:07:13Z"},{"title":"League - Shabab Al-Aqaba vs Ma'an","description":"Sourced from predicthq.com","category":"sports","start":"2024-05-19T16:00:00Z","geo":{"geometry":{"coordinates":[35.00592414642985,29.54842651863242],"type":"Point"},"placekey":"@7w2-gfc-x5z","address":{"country_code":"JO","formatted_address":"Ibn Sina St. 989, Aqaba, Jordan","locality":"Aqaba","region":"Aqaba Governorate"}},"labels":["soccer","sport"],"duration":0,"start_local":"2024-05-19T19:00:00","end":"2024-05-19T16:00:00Z","end_local":"2024-05-19T19:00:00","updated":"2024-06-12T08:30:33Z"},{"title":"League - Al Ramtha vs Al Ahli","description":"Sourced from predicthq.com","category":"sports","start":"2024-05-19T16:00:00Z","geo":{"geometry":{"coordinates":[35.8602346,32.5377146],"type":"Point"},"placekey":"@6ch-7xc-wx5","address":{"country_code":"JO","formatted_address":"GVQ6+33Q, Irbid, Jordan","locality":"Irbid","region":"Irbid Governorate"}},"labels":["soccer","sport"],"duration":0,"start_local":"2024-05-19T19:00:00","end":"2024-05-19T16:00:00Z","end_local":"2024-05-19T19:00:00","updated":"2024-06-12T03:51:27Z"},{"title":"League - Shabab Al Ordon vs Moghayer Al Sarhan","description":"Sourced from predicthq.com","category":"sports","start":"2024-05-19T16:00:00Z","geo":{"geometry":{"coordinates":[35.90379774570465,31.981693187226274],"type":"Point"},"placekey":"@6ch-9bk-xt9","address":{"country_code":"JO","formatted_address":"ʿAmmān (Amman), Jordan","locality":"ʿAmmān (Amman)"}},"labels":["soccer","sport"],"duration":0,"start_local":"2024-05-19T19:00:00","end":"2024-05-19T16:00:00Z","end_local":"2024-05-19T19:00:00","updated":"2024-06-12T13:55:28Z"},{"title":"Moderate Delays - King Hussein International Airport (AQJ)","description":"Sourced from predicthq.com","category":"airport-delays","start":"2024-05-15T22:30:00Z","geo":{"geometry":{"coordinates":[35.021511,29.610074],"type":"Point"},"address":{"country_code":"JO","formatted_address":"King Hussein International Airport, Airport St, Aqaba, Jordan","locality":"Aqaba","region":"Aqaba Governorate"}},"labels":["airport","delay"],"duration":12600,"start_local":"2024-05-16T01:30:00","end":"2024-05-16T02:00:00Z","end_local":"2024-05-16T05:00:00","updated":"2024-06-05T20:35:48Z"},{"title":"League - Ma'an vs Al Wehdat","description":"Sourced from predicthq.com","category":"sports","start":"2024-05-15T17:45:00Z","geo":{"geometry":{"coordinates":[36.1129189,32.0997719],"type":"Point"},"placekey":"@6ch-3xh-tvz","address":{"country_code":"JO","formatted_address":"25, Az-Zarqa, Jordan","locality":"Az-Zarqa","region":"Zarqa Governorate"}},"labels":["soccer","sport"],"duration":0,"start_local":"2024-05-15T20:45:00","end":"2024-05-15T17:45:00Z","end_local":"2024-05-15T20:45:00","updated":"2024-06-11T21:25:52Z"},{"title":"League - Sahab vs Al Faisaly","description":"Sourced from predicthq.com","category":"sports","start":"2024-05-15T15:00:00Z","geo":{"geometry":{"coordinates":[35.9028141,31.9851496],"type":"Point"},"placekey":"@6ch-9bm-35z","address":{"country_code":"JO","formatted_address":"XWP3+25R, Amman, Jordan","locality":"Amman","region":"Amman Governorate"}},"labels":["soccer","sport"],"duration":0,"start_local":"2024-05-15T18:00:00","end":"2024-05-15T15:00:00Z","end_local":"2024-05-15T18:00:00","updated":"2024-06-12T03:42:54Z"},{"title":"Severe Delays - King Hussein International Airport (AQJ)","description":"Sourced from predicthq.com","category":"airport-delays","start":"2024-05-15T13:00:00Z","geo":{"geometry":{"coordinates":[35.021511,29.610074],"type":"Point"},"address":{"country_code":"JO","formatted_address":"King Hussein International Airport, Airport St, Aqaba, Jordan","locality":"Aqaba","region":"Aqaba Governorate"}},"labels":["airport","delay"],"duration":10800,"start_local":"2024-05-15T16:00:00","end":"2024-05-15T16:00:00Z","end_local":"2024-05-15T19:00:00","updated":"2024-06-05T17:32:54Z"},{"title":"League - Shabab Al-Aqaba vs Al Ramtha","description":"Sourced from predicthq.com","category":"sports","start":"2024-05-14T17:45:00Z","geo":{"geometry":{"coordinates":[35.00592414642985,29.54842651863242],"type":"Point"},"placekey":"@7w2-gfc-x5z","address":{"country_code":"JO","formatted_address":"Ibn Sina St. 989, Aqaba, Jordan","locality":"Aqaba","region":"Aqaba Governorate"}},"labels":["soccer","sport"],"duration":0,"start_local":"2024-05-14T20:45:00","end":"2024-05-14T17:45:00Z","end_local":"2024-05-14T20:45:00","updated":"2024-06-12T07:13:25Z"},{"title":"League - Al Jalil vs Shabab Al Ordon","description":"Sourced from predicthq.com","category":"sports","start":"2024-05-14T15:00:00Z","geo":{"geometry":{"coordinates":[35.8602346,32.5377146],"type":"Point"},"placekey":"@6ch-7xc-wx5","address":{"country_code":"JO","formatted_address":"GVQ6+33Q, Irbid, Jordan","locality":"Irbid","region":"Irbid Governorate"}},"labels":["soccer","sport"],"duration":0,"start_local":"2024-05-14T18:00:00","end":"2024-05-14T15:00:00Z","end_local":"2024-05-14T18:00:00","updated":"2024-06-12T04:31:56Z"},{"title":"League - Moghayer Al Sarhan vs Al Hussein","description":"Sourced from predicthq.com","category":"sports","start":"2024-05-14T15:00:00Z","geo":{"geometry":{"coordinates":[36.1129189,32.0997719],"type":"Point"},"placekey":"@6ch-3xh-tvz","address":{"country_code":"JO","formatted_address":"25, Az-Zarqa, Jordan","locality":"Az-Zarqa","region":"Zarqa Governorate"}},"labels":["soccer","sport"],"duration":0,"start_local":"2024-05-14T18:00:00","end":"2024-05-14T15:00:00Z","end_local":"2024-05-14T18:00:00","updated":"2024-06-12T01:25:52Z"},{"title":"Moderate to Severe Delays - King Hussein International Airport (AQJ)","description":"Sourced from predicthq.com - * Upgraded to Severe (+30m)","category":"airport-delays","start":"2024-05-12T05:00:00Z","geo":{"geometry":{"coordinates":[35.021511,29.610074],"type":"Point"},"address":{"country_code":"JO","formatted_address":"King Hussein International Airport, Airport St, Aqaba, Jordan","locality":"Aqaba","region":"Aqaba Governorate"}},"labels":["airport","delay"],"duration":14400,"start_local":"2024-05-12T08:00:00","end":"2024-05-12T09:00:00Z","end_local":"2024-05-12T12:00:00","updated":"2024-06-05T09:33:35Z"},{"title":"Xpand Conference","description":"Sourced from predicthq.com","category":"conferences","start":"2024-05-11T06:00:00Z","geo":{"geometry":{"coordinates":[35.589470000000006,31.721345],"type":"Point"},"placekey":"@6cg-yx2-389","address":{"country_code":"JO","formatted_address":"Sweimeh, Balqa Governorate, Jordan","locality":"Sweimeh","region":"Balqa Governorate"}},"labels":["conference"],"duration":118800,"start_local":"2024-05-11T09:00:00","end":"2024-05-12T15:00:00Z","end_local":"2024-05-12T18:00:00","updated":"2024-05-27T16:02:57Z"},{"title":"Severe Delays - King Hussein International Airport (AQJ)","description":"Sourced from predicthq.com","category":"airport-delays","start":"2024-05-11T03:30:00Z","geo":{"geometry":{"coordinates":[35.021511,29.610074],"type":"Point"},"address":{"country_code":"JO","formatted_address":"King Hussein International Airport, Airport St, Aqaba, Jordan","locality":"Aqaba","region":"Aqaba Governorate"}},"labels":["airport","delay"],"duration":16200,"start_local":"2024-05-11T06:30:00","end":"2024-05-11T08:00:00Z","end_local":"2024-05-11T11:00:00","updated":"2024-06-05T00:49:55Z"},{"title":"Moderate Delays - King Hussein International Airport (AQJ)","description":"Sourced from predicthq.com","category":"airport-delays","start":"2024-05-10T21:00:00Z","geo":{"geometry":{"coordinates":[35.021511,29.610074],"type":"Point"},"address":{"country_code":"JO","formatted_address":"King Hussein International Airport, Airport St, Aqaba, Jordan","locality":"Aqaba","region":"Aqaba Governorate"}},"labels":["airport","delay"],"duration":12600,"start_local":"2024-05-11T00:00:00","end":"2024-05-11T00:30:00Z","end_local":"2024-05-11T03:30:00","updated":"2024-06-05T07:27:55Z"},{"title":"League - Al Faisaly vs Moghayer Al Sarhan","description":"Sourced from predicthq.com","category":"sports","start":"2024-05-10T17:45:00Z","geo":{"geometry":{"coordinates":[35.9028141,31.9851496],"type":"Point"},"placekey":"@6ch-9bm-35z","address":{"country_code":"JO","formatted_address":"XWP3+25R, Amman, Jordan","locality":"Amman","region":"Amman Governorate"}},"labels":["soccer","sport"],"duration":0,"start_local":"2024-05-10T20:45:00","end":"2024-05-10T17:45:00Z","end_local":"2024-05-10T20:45:00","updated":"2024-06-12T13:19:04Z"},{"title":"League - Al Ramtha vs Al Wehdat","description":"Sourced from predicthq.com","category":"sports","start":"2024-05-10T15:00:00Z","geo":{"geometry":{"coordinates":[35.8602346,32.5377146],"type":"Point"},"placekey":"@6ch-7xc-wx5","address":{"country_code":"JO","formatted_address":"GVQ6+33Q, Irbid, Jordan","locality":"Irbid","region":"Irbid Governorate"}},"labels":["soccer","sport"],"duration":0,"start_local":"2024-05-10T18:00:00","end":"2024-05-10T15:00:00Z","end_local":"2024-05-10T18:00:00","updated":"2024-06-12T07:27:56Z"},{"title":"League - Sahab vs Ma'an","description":"Sourced from predicthq.com","category":"sports","start":"2024-05-10T15:00:00Z","geo":{"geometry":{"coordinates":[35.90379774570465,31.981693187226274],"type":"Point"},"placekey":"@6ch-9bk-xt9","address":{"country_code":"JO","formatted_address":"ʿAmmān (Amman), Jordan","locality":"ʿAmmān (Amman)"}},"labels":["soccer","sport"],"duration":0,"start_local":"2024-05-10T18:00:00","end":"2024-05-10T15:00:00Z","end_local":"2024-05-10T18:00:00","updated":"2024-06-12T12:21:44Z"},{"title":"League - Al Hussein vs Al Jalil","description":"Sourced from predicthq.com","category":"sports","start":"2024-05-09T17:45:00Z","geo":{"geometry":{"coordinates":[35.8602346,32.5377146],"type":"Point"},"placekey":"@6ch-7xc-wx5","address":{"country_code":"JO","formatted_address":"GVQ6+33Q, Irbid, Jordan","locality":"Irbid","region":"Irbid Governorate"}},"labels":["soccer","sport"],"duration":0,"start_local":"2024-05-09T20:45:00","end":"2024-05-09T17:45:00Z","end_local":"2024-05-09T20:45:00","updated":"2024-06-11T21:59:39Z"},{"title":"League - Shabab Al Ordon vs Al Ahli","description":"Sourced from predicthq.com","category":"sports","start":"2024-05-09T15:00:00Z","geo":{"geometry":{"coordinates":[35.90379774570465,31.981693187226274],"type":"Point"},"placekey":"@6ch-9bk-xt9","address":{"country_code":"JO","formatted_address":"ʿAmmān (Amman), Jordan","locality":"ʿAmmān (Amman)"}},"labels":["soccer","sport"],"duration":0,"start_local":"2024-05-09T18:00:00","end":"2024-05-09T15:00:00Z","end_local":"2024-05-09T18:00:00","updated":"2024-06-12T11:20:42Z"},{"title":"League - Al Salt vs Shabab Al-Aqaba","description":"Sourced from predicthq.com","category":"sports","start":"2024-05-09T15:00:00Z","geo":{"geometry":{"coordinates":[35.70177376270294,32.05784542072537],"type":"Point"},"placekey":"@6cg-cc4-q2k","address":{"country_code":"JO","formatted_address":"3P52+6R2, As-Salt, Jordan","locality":"As-Salt","region":"Balqa Governorate"}},"labels":["soccer","sport"],"duration":0,"start_local":"2024-05-09T18:00:00","end":"2024-05-09T15:00:00Z","end_local":"2024-05-09T18:00:00","updated":"2024-06-12T11:41:24Z"},{"title":"Fire in built environment - Asia - Jordan","description":"Sourced from predicthq.com - A fire ignited in a tanker carrying oil materials on a secondary road in Aqaba, according to Roya correspondent.<br />Quoting eyewitnesses, our correspondent stated that the fire started in the tanker, leading to its damage and oil spillage onto the road.<br />Emergency crews promptly arrived and worked to extinguish the fire and contain its spread.<br />Additionally, Highway Patrol Department were deployed to the area to block the road to vehicles, ensuring the safety of road users until the firefighting operations concluded.","category":"disasters","start":"2024-05-09T06:08:43Z","geo":{"geometry":{"coordinates":[35.01034,29.534236],"type":"Point"},"address":{"country_code":"JO","formatted_address":"Aqaba, Aqaba Governorate, Jordan","locality":"Aqaba","region":"Aqaba Governorate"}},"labels":["disaster","fire"],"duration":0,"start_local":"2024-05-09T09:08:43","end":"2024-05-09T06:08:43Z","end_local":"2024-05-09T09:08:43","updated":"2024-06-05T16:25:29Z"},{"title":"Moderate Delays - King Hussein International Airport (AQJ)","description":"Sourced from predicthq.com","category":"airport-delays","start":"2024-05-08T22:00:00Z","geo":{"geometry":{"coordinates":[35.021511,29.610074],"type":"Point"},"address":{"country_code":"JO","formatted_address":"King Hussein International Airport, Airport St, Aqaba, Jordan","locality":"Aqaba","region":"Aqaba Governorate"}},"labels":["airport","delay"],"duration":14400,"start_local":"2024-05-09T01:00:00","end":"2024-05-09T02:00:00Z","end_local":"2024-05-09T05:00:00","updated":"2024-06-05T01:03:27Z"},{"title":"Sara Mohammed","description":"Sourced from predicthq.com","category":"concerts","start":"2024-05-08T17:00:00Z","geo":{"geometry":{"coordinates":[35.9105759,31.9543781],"type":"Point"},"placekey":"@6ch-9bp-swk","address":{"country_code":"JO","formatted_address":"Amman, Amman Governorate, Jordan","locality":"Amman","region":"Amman Governorate"}},"labels":["concert","music"],"duration":0,"start_local":"2024-05-08T20:00:00","end":"2024-05-08T17:00:00Z","end_local":"2024-05-08T20:00:00","updated":"2024-06-12T15:20:30Z"},{"title":"Fintech Jordan Conference","description":"Sourced from predicthq.com","category":"conferences","start":"2024-05-08T06:00:00Z","geo":{"geometry":{"coordinates":[35.878031,31.958024],"type":"Point"},"placekey":"@6ch-9bw-q2k","address":{"country_code":"JO","formatted_address":"5th Circle، Shafiq Al Hayek, Amman 11185, Jordan","postcode":"11185","locality":"Amman","region":"Amman Governorate"}},"labels":["conference"],"duration":118800,"start_local":"2024-05-08T09:00:00","end":"2024-05-09T15:00:00Z","end_local":"2024-05-09T18:00:00","updated":"2024-05-31T23:19:49Z"},{"title":"Digital Transformation Jordan Conference","description":"Sourced from predicthq.com","category":"conferences","start":"2024-05-08T06:00:00Z","geo":{"geometry":{"coordinates":[35.878031,31.958024],"type":"Point"},"placekey":"@6ch-9bw-q2k","address":{"country_code":"JO","formatted_address":"5th Circle، Shafiq Al Hayek, Amman 11185, Jordan","postcode":"11185","locality":"Amman","region":"Amman Governorate"}},"labels":["conference"],"duration":118800,"start_local":"2024-05-08T09:00:00","end":"2024-05-09T15:00:00Z","end_local":"2024-05-09T18:00:00","updated":"2024-05-31T23:13:42Z"},{"title":"Severe Delays - King Hussein International Airport (AQJ)","description":"Sourced from predicthq.com","category":"airport-delays","start":"2024-05-08T06:00:00Z","geo":{"geometry":{"coordinates":[35.021511,29.610074],"type":"Point"},"address":{"country_code":"JO","formatted_address":"King Hussein International Airport, Airport St, Aqaba, Jordan","locality":"Aqaba","region":"Aqaba Governorate"}},"labels":["airport","delay"],"duration":10800,"start_local":"2024-05-08T09:00:00","end":"2024-05-08T09:00:00Z","end_local":"2024-05-08T12:00:00","updated":"2024-06-05T18:49:03Z"},{"title":"Orthodox Easter Monday","description":"Sourced from predicthq.com - Orthodox Easter Monday is the day after the Orthodox Easter Sunday.","category":"public-holidays","start":"2024-05-06T00:00:00Z","geo":{"geometry":{"coordinates":[36.238414,30.585164],"type":"Point"},"address":{"country_code":"JO","formatted_address":"Jordan"}},"labels":["holiday","holiday-national","holiday-orthodox","holiday-religious"],"duration":86399,"start_local":"2024-05-06T00:00:00","end":"2024-05-06T23:59:59Z","end_local":"2024-05-06T23:59:59","updated":"2024-06-11T23:06:45Z"},{"title":"Severe Delays - King Hussein International Airport (AQJ)","description":"Sourced from predicthq.com","category":"airport-delays","start":"2024-05-05T13:00:00Z","geo":{"geometry":{"coordinates":[35.021511,29.610074],"type":"Point"},"address":{"country_code":"JO","formatted_address":"King Hussein International Airport, Airport St, Aqaba, Jordan","locality":"Aqaba","region":"Aqaba Governorate"}},"labels":["airport","delay"],"duration":10800,"start_local":"2024-05-05T16:00:00","end":"2024-05-05T16:00:00Z","end_local":"2024-05-05T19:00:00","updated":"2024-06-05T11:30:28Z"},{"title":"Orthodox Easter Day","description":"Sourced from predicthq.com - Millions of Orthodox Christians around the world often celebrate Easter Sunday at a different time to the date set by many western churches.","category":"public-holidays","start":"2024-05-05T00:00:00Z","geo":{"geometry":{"coordinates":[36.238414,30.585164],"type":"Point"},"address":{"country_code":"JO","formatted_address":"Jordan"}},"labels":["holiday","holiday-national","holiday-orthodox","holiday-religious"],"duration":86399,"start_local":"2024-05-05T00:00:00","end":"2024-05-05T23:59:59Z","end_local":"2024-05-05T23:59:59","updated":"2024-06-12T18:01:52Z"},{"title":"League - Ma'an vs Al Ramtha","description":"Sourced from predicthq.com","category":"sports","start":"2024-05-04T17:45:00Z","geo":{"geometry":{"coordinates":[36.1129189,32.0997719],"type":"Point"},"placekey":"@6ch-3xh-tvz","address":{"country_code":"JO","formatted_address":"25, Az-Zarqa, Jordan","locality":"Az-Zarqa","region":"Zarqa Governorate"}},"labels":["soccer","sport"],"duration":0,"start_local":"2024-05-04T20:45:00","end":"2024-05-04T17:45:00Z","end_local":"2024-05-04T20:45:00","updated":"2024-06-12T16:34:32Z"},{"title":"League - Shabab Al-Aqaba vs Shabab Al Ordon","description":"Sourced from predicthq.com","category":"sports","start":"2024-05-03T17:45:00Z","geo":{"geometry":{"coordinates":[35.00592414642985,29.54842651863242],"type":"Point"},"placekey":"@7w2-gfc-x5z","address":{"country_code":"JO","formatted_address":"Ibn Sina St. 989, Aqaba, Jordan","locality":"Aqaba","region":"Aqaba Governorate"}},"labels":["soccer","sport"],"duration":0,"start_local":"2024-05-03T20:45:00","end":"2024-05-03T17:45:00Z","end_local":"2024-05-03T20:45:00","updated":"2024-06-11T23:44:49Z"},{"title":"League - Al Ahli vs Al Hussein","description":"Sourced from predicthq.com","category":"sports","start":"2024-05-03T15:00:00Z","geo":{"geometry":{"coordinates":[35.9028141,31.9851496],"type":"Point"},"placekey":"@6ch-9bm-35z","address":{"country_code":"JO","formatted_address":"XWP3+25R, Amman, Jordan","locality":"Amman","region":"Amman Governorate"}},"labels":["soccer","sport"],"duration":0,"start_local":"2024-05-03T18:00:00","end":"2024-05-03T15:00:00Z","end_local":"2024-05-03T18:00:00","updated":"2024-06-12T14:41:30Z"},{"title":"Orthodox Good Friday","description":"Sourced from predicthq.com - Millions of Orthodox Christians around the world annually observe Good Friday to commemorate the events leading up to Jesus Christ's crucifixion.","category":"observances","start":"2024-05-03T00:00:00Z","geo":{"geometry":{"coordinates":[36.238414,30.585164],"type":"Point"},"address":{"country_code":"JO","formatted_address":"Jordan"}},"labels":["holiday","observance"],"duration":86399,"start_local":"2024-05-03T00:00:00","end":"2024-05-03T23:59:59Z","end_local":"2024-05-03T23:59:59","updated":"2024-06-12T06:41:25Z"},{"title":"League - Al Wehdat vs Al Salt","description":"Sourced from predicthq.com","category":"sports","start":"2024-05-02T17:45:00Z","geo":{"geometry":{"coordinates":[35.9028141,31.9851496],"type":"Point"},"placekey":"@6ch-9bm-35z","address":{"country_code":"JO","formatted_address":"XWP3+25R, Amman, Jordan","locality":"Amman","region":"Amman Governorate"}},"labels":["soccer","sport"],"duration":0,"start_local":"2024-05-02T20:45:00","end":"2024-05-02T17:45:00Z","end_local":"2024-05-02T20:45:00","updated":"2024-06-11T20:40:13Z"},{"title":"League - Al Jalil vs Al Faisaly","description":"Sourced from predicthq.com","category":"sports","start":"2024-05-02T15:00:00Z","geo":{"geometry":{"coordinates":[35.8602346,32.5377146],"type":"Point"},"placekey":"@6ch-7xc-wx5","address":{"country_code":"JO","formatted_address":"GVQ6+33Q, Irbid, Jordan","locality":"Irbid","region":"Irbid Governorate"}},"labels":["soccer","sport"],"duration":0,"start_local":"2024-05-02T18:00:00","end":"2024-05-02T15:00:00Z","end_local":"2024-05-02T18:00:00","updated":"2024-06-12T08:14:31Z"},{"title":"Labour Day","description":"Sourced from predicthq.com - Labor Day, International Workers' Day, and May Day, is a day off for workers in many countries around the world.","category":"public-holidays","start":"2024-05-02T00:00:00Z","geo":{"geometry":{"coordinates":[36.238414,30.585164],"type":"Point"},"address":{"country_code":"JO","formatted_address":"Jordan"}},"labels":["holiday","holiday-national"],"duration":86399,"start_local":"2024-05-02T00:00:00","end":"2024-05-02T23:59:59Z","end_local":"2024-05-02T23:59:59","updated":"2024-07-03T22:23:49Z"},{"title":"Moderate Delays - King Hussein International Airport (AQJ)","description":"Sourced from predicthq.com","category":"airport-delays","start":"2024-05-01T22:00:00Z","geo":{"geometry":{"coordinates":[35.021511,29.610074],"type":"Point"},"address":{"country_code":"JO","formatted_address":"King Hussein International Airport, Airport St, Aqaba, Jordan","locality":"Aqaba","region":"Aqaba Governorate"}},"labels":["airport","delay"],"duration":14400,"start_local":"2024-05-02T01:00:00","end":"2024-05-02T02:00:00Z","end_local":"2024-05-02T05:00:00","updated":"2024-06-05T04:54:44Z"},{"title":"League - Moghayer Al Sarhan vs Sahab","description":"Sourced from predicthq.com","category":"sports","start":"2024-05-01T17:45:00Z","geo":{"geometry":{"coordinates":[36.1129189,32.0997719],"type":"Point"},"placekey":"@6ch-3xh-tvz","address":{"country_code":"JO","formatted_address":"25, Az-Zarqa, Jordan","locality":"Az-Zarqa","region":"Zarqa Governorate"}},"labels":["soccer","sport"],"duration":0,"start_local":"2024-05-01T20:45:00","end":"2024-05-01T17:45:00Z","end_local":"2024-05-01T20:45:00","updated":"2024-06-12T02:02:29Z"},{"title":"Labour Day","description":"Sourced from predicthq.com - Labor Day, International Workers' Day, and May Day, is a day off for workers in many countries around the world.","category":"observances","start":"2024-05-01T00:00:00Z","geo":{"geometry":{"coordinates":[36.238414,30.585164],"type":"Point"},"address":{"country_code":"JO","formatted_address":"Jordan"}},"labels":["holiday","observance"],"duration":86399,"start_local":"2024-05-01T00:00:00","end":"2024-05-01T23:59:59Z","end_local":"2024-05-01T23:59:59","updated":"2024-07-04T00:34:50Z"},{"title":"Orthodox Palm Sunday","description":"Sourced from predicthq.com","category":"public-holidays","start":"2024-04-28T00:00:00Z","geo":{"geometry":{"coordinates":[36.238414,30.585164],"type":"Point"},"address":{"country_code":"JO","formatted_address":"Jordan"}},"labels":["holiday","holiday-national"],"duration":86399,"start_local":"2024-04-28T00:00:00","end":"2024-04-28T23:59:59Z","end_local":"2024-04-28T23:59:59","updated":"2024-06-11T22:27:05Z"},{"title":"League - Al Hussein vs Shabab Al-Aqaba","description":"Sourced from predicthq.com","category":"sports","start":"2024-04-27T17:45:00Z","geo":{"geometry":{"coordinates":[35.8602346,32.5377146],"type":"Point"},"placekey":"@6ch-7xc-wx5","address":{"country_code":"JO","formatted_address":"GVQ6+33Q, Irbid, Jordan","locality":"Irbid","region":"Irbid Governorate"}},"labels":["soccer","sport"],"duration":0,"start_local":"2024-04-27T20:45:00","end":"2024-04-27T17:45:00Z","end_local":"2024-04-27T20:45:00","updated":"2024-06-12T02:11:52Z"},{"title":"League - Al Faisaly vs Al Ahli","description":"Sourced from predicthq.com","category":"sports","start":"2024-04-27T15:00:00Z","geo":{"geometry":{"coordinates":[35.70177376270294,32.05784542072537],"type":"Point"},"placekey":"@6cg-cc4-q2k","address":{"country_code":"JO","formatted_address":"3P52+6R2, As-Salt, Jordan","locality":"As-Salt","region":"Balqa Governorate"}},"labels":["soccer","sport"],"duration":0,"start_local":"2024-04-27T18:00:00","end":"2024-04-27T15:00:00Z","end_local":"2024-04-27T18:00:00","updated":"2024-06-12T03:24:51Z"},{"title":"Esports Future Summit (EFS)","description":"Sourced from predicthq.com - Get ready to dive into the world of competitive gaming and cutting-edge technology at Esports Future Summit (EFS)!","category":"conferences","start":"2024-04-27T06:30:00Z","geo":{"geometry":{"coordinates":[35.0004334,29.5215044],"type":"Point"},"placekey":"@7w2-gfg-z2k","address":{"country_code":"JO","formatted_address":"Aqaba, Aqaba Governorate, Jordan","locality":"Aqaba","region":"Aqaba Governorate"}},"labels":["conference","entertainment"],"duration":117000,"start_local":"2024-04-27T09:30:00","end":"2024-04-28T15:00:00Z","end_local":"2024-04-28T18:00:00","updated":"2024-06-05T15:07:58Z"},{"title":"League - Al Ramtha vs Sahab","description":"Sourced from predicthq.com","category":"sports","start":"2024-04-26T17:45:00Z","geo":{"geometry":{"coordinates":[35.8602346,32.5377146],"type":"Point"},"placekey":"@6ch-7xc-wx5","address":{"country_code":"JO","formatted_address":"GVQ6+33Q, Irbid, Jordan","locality":"Irbid","region":"Irbid Governorate"}},"labels":["soccer","sport"],"duration":0,"start_local":"2024-04-26T20:45:00","end":"2024-04-26T17:45:00Z","end_local":"2024-04-26T20:45:00","updated":"2024-06-12T11:53:12Z"},{"title":"League - Shabab Al Ordon vs Al Wehdat","description":"Sourced from predicthq.com","category":"sports","start":"2024-04-26T15:00:00Z","geo":{"geometry":{"coordinates":[35.90379774570465,31.981693187226274],"type":"Point"},"placekey":"@6ch-9bk-xt9","address":{"country_code":"JO","formatted_address":"ʿAmmān (Amman), Jordan","locality":"ʿAmmān (Amman)"}},"labels":["soccer","sport"],"duration":0,"start_local":"2024-04-26T18:00:00","end":"2024-04-26T15:00:00Z","end_local":"2024-04-26T18:00:00","updated":"2024-06-12T08:47:21Z"},{"title":"Dead Sea Ultra Marathon","description":"Sourced from predicthq.com","category":"sports","start":"2024-04-26T03:00:00Z","geo":{"geometry":{"coordinates":[35.9329,31.9494],"type":"Point"},"placekey":"@6ch-993-y5f","address":{"country_code":"JO","formatted_address":"عمّان, محافظة العاصمة, Jordan","locality":"عمّان","region":"محافظة العاصمة"}},"labels":["marathon","outdoor-sports","running","sport"],"duration":0,"start_local":"2024-04-26T06:00:00","end":"2024-04-26T03:00:00Z","end_local":"2024-04-26T06:00:00","updated":"2024-06-05T04:44:00Z"},{"title":"League - Al Jalil vs Moghayer Al Sarhan","description":"Sourced from predicthq.com","category":"sports","start":"2024-04-25T17:45:00Z","geo":{"geometry":{"coordinates":[35.8602346,32.5377146],"type":"Point"},"placekey":"@6ch-7xc-wx5","address":{"country_code":"JO","formatted_address":"GVQ6+33Q, Irbid, Jordan","locality":"Irbid","region":"Irbid Governorate"}},"labels":["soccer","sport"],"duration":0,"start_local":"2024-04-25T20:45:00","end":"2024-04-25T17:45:00Z","end_local":"2024-04-25T20:45:00","updated":"2024-06-12T18:06:53Z"},{"title":"League - Al Salt vs Ma'an","description":"Sourced from predicthq.com","category":"sports","start":"2024-04-25T15:00:00Z","geo":{"geometry":{"coordinates":[35.70177376270294,32.05784542072537],"type":"Point"},"placekey":"@6cg-cc4-q2k","address":{"country_code":"JO","formatted_address":"3P52+6R2, As-Salt, Jordan","locality":"As-Salt","region":"Balqa Governorate"}},"labels":["soccer","sport"],"duration":0,"start_local":"2024-04-25T18:00:00","end":"2024-04-25T15:00:00Z","end_local":"2024-04-25T18:00:00","updated":"2024-06-12T05:29:16Z"},{"title":"Moderate Delays - King Hussein International Airport (AQJ)","description":"Sourced from predicthq.com","category":"airport-delays","start":"2024-04-24T21:30:00Z","geo":{"geometry":{"coordinates":[35.021511,29.610074],"type":"Point"},"address":{"country_code":"JO","formatted_address":"King Hussein International Airport, Airport St, Aqaba, Jordan","locality":"Aqaba","region":"Aqaba Governorate"}},"labels":["airport","delay"],"duration":16200,"start_local":"2024-04-25T00:30:00","end":"2024-04-25T02:00:00Z","end_local":"2024-04-25T05:00:00","updated":"2024-06-05T08:42:35Z"},{"title":"Severe Delays - King Hussein International Airport (AQJ)","description":"Sourced from predicthq.com","category":"airport-delays","start":"2024-04-21T06:00:00Z","geo":{"geometry":{"coordinates":[35.021511,29.610074],"type":"Point"},"address":{"country_code":"JO","formatted_address":"King Hussein International Airport, Airport St, Aqaba, Jordan","locality":"Aqaba","region":"Aqaba Governorate"}},"labels":["airport","delay"],"duration":10800,"start_local":"2024-04-21T09:00:00","end":"2024-04-21T09:00:00Z","end_local":"2024-04-21T12:00:00","updated":"2024-06-05T16:02:39Z"},{"title":"Francis Mercier","description":"Sourced from predicthq.com","category":"concerts","start":"2024-04-18T19:00:00Z","geo":{"geometry":{"coordinates":[35.8753239,31.8664435],"type":"Point"},"placekey":"@6ch-99h-k2k","address":{"country_code":"JO","formatted_address":"VV8G+H4G, Amman, Jordan","locality":"Amman","region":"Amman Governorate"}},"labels":["concert","music"],"duration":0,"start_local":"2024-04-18T22:00:00","end":"2024-04-18T19:00:00Z","end_local":"2024-04-18T22:00:00","updated":"2024-06-12T06:45:08Z"},{"title":"Moderate Delays - King Hussein International Airport (AQJ)","description":"Sourced from predicthq.com","category":"airport-delays","start":"2024-04-17T22:00:00Z","geo":{"geometry":{"coordinates":[35.021511,29.610074],"type":"Point"},"address":{"country_code":"JO","formatted_address":"King Hussein International Airport, Airport St, Aqaba, Jordan","locality":"Aqaba","region":"Aqaba Governorate"}},"labels":["airport","delay"],"duration":14400,"start_local":"2024-04-18T01:00:00","end":"2024-04-18T02:00:00Z","end_local":"2024-04-18T05:00:00","updated":"2024-06-05T05:04:33Z"},{"title":"Moderate to Severe Delays - King Hussein International Airport (AQJ)","description":"Sourced from predicthq.com - * Upgraded to Severe (+2hr)","category":"airport-delays","start":"2024-04-17T03:30:00Z","geo":{"geometry":{"coordinates":[35.021511,29.610074],"type":"Point"},"address":{"country_code":"JO","formatted_address":"King Hussein International Airport, Airport St, Aqaba, Jordan","locality":"Aqaba","region":"Aqaba Governorate"}},"labels":["airport","delay"],"duration":19800,"start_local":"2024-04-17T06:30:00","end":"2024-04-17T09:00:00Z","end_local":"2024-04-17T12:00:00","updated":"2024-06-04T23:02:41Z"},{"title":"International Congress of the Jordanian Society of Dermatology & Venereology","description":"Sourced from predicthq.com","category":"conferences","start":"2024-04-16T21:00:00Z","geo":{"geometry":{"coordinates":[35.878031,31.958024],"type":"Point"},"placekey":"@6ch-9bw-q2k","address":{"country_code":"JO","formatted_address":"5th Circle، Shafiq Al Hayek, Amman 11185, Jordan","postcode":"11185","locality":"Amman","region":"Amman Governorate"}},"labels":["conference"],"duration":259199,"start_local":"2024-04-17T00:00:00","end":"2024-04-19T20:59:59Z","end_local":"2024-04-19T23:59:59","updated":"2024-05-31T23:02:31Z"},{"title":"Moderate Delays - Queen Alia International Airport (AMM)","description":"Sourced from predicthq.com","category":"airport-delays","start":"2024-04-15T06:00:00Z","geo":{"geometry":{"coordinates":[35.989318,31.722535],"type":"Point"},"address":{"country_code":"JO","formatted_address":"Queen Alia International Airport, Desert Highway, Amman, Jordan","locality":"Amman","region":"Amman Governorate"}},"labels":["airport","delay"],"duration":7200,"start_local":"2024-04-15T09:00:00","end":"2024-04-15T08:00:00Z","end_local":"2024-04-15T11:00:00","updated":"2024-06-05T14:41:25Z"},{"title":"Severe Delays - King Hussein International Airport (AQJ)","description":"Sourced from predicthq.com","category":"airport-delays","start":"2024-04-15T05:00:00Z","geo":{"geometry":{"coordinates":[35.021511,29.610074],"type":"Point"},"address":{"country_code":"JO","formatted_address":"King Hussein International Airport, Airport St, Aqaba, Jordan","locality":"Aqaba","region":"Aqaba Governorate"}},"labels":["airport","delay"],"duration":10800,"start_local":"2024-04-15T08:00:00","end":"2024-04-15T08:00:00Z","end_local":"2024-04-15T11:00:00","updated":"2024-06-05T12:23:41Z"},{"title":"Moderate Delays - Queen Alia International Airport (AMM)","description":"Sourced from predicthq.com","category":"airport-delays","start":"2024-04-14T23:30:00Z","geo":{"geometry":{"coordinates":[35.989318,31.722535],"type":"Point"},"address":{"country_code":"JO","formatted_address":"Queen Alia International Airport, Desert Highway, Amman, Jordan","locality":"Amman","region":"Amman Governorate"}},"labels":["airport","delay"],"duration":1800,"start_local":"2024-04-15T02:30:00","end":"2024-04-15T00:00:00Z","end_local":"2024-04-15T03:00:00","updated":"2024-06-04T23:31:31Z"},{"title":"Moderate Delays - Queen Alia International Airport (AMM)","description":"Sourced from predicthq.com","category":"airport-delays","start":"2024-04-14T22:00:00Z","geo":{"geometry":{"coordinates":[35.989318,31.722535],"type":"Point"},"address":{"country_code":"JO","formatted_address":"Queen Alia International Airport, Desert Highway, Amman, Jordan","locality":"Amman","region":"Amman Governorate"}},"labels":["airport","delay"],"duration":1800,"start_local":"2024-04-15T01:00:00","end":"2024-04-14T22:30:00Z","end_local":"2024-04-15T01:30:00","updated":"2024-06-05T14:21:00Z"},{"title":"Moderate Delays - Queen Alia International Airport (AMM)","description":"Sourced from predicthq.com","category":"airport-delays","start":"2024-04-14T19:30:00Z","geo":{"geometry":{"coordinates":[35.989318,31.722535],"type":"Point"},"address":{"country_code":"JO","formatted_address":"Queen Alia International Airport, Desert Highway, Amman, Jordan","locality":"Amman","region":"Amman Governorate"}},"labels":["airport","delay"],"duration":7200,"start_local":"2024-04-14T22:30:00","end":"2024-04-14T21:30:00Z","end_local":"2024-04-15T00:30:00","updated":"2024-06-05T05:06:17Z"},{"title":"Moderate Delays - Queen Alia International Airport (AMM)","description":"Sourced from predicthq.com","category":"airport-delays","start":"2024-04-14T16:00:00Z","geo":{"geometry":{"coordinates":[35.989318,31.722535],"type":"Point"},"address":{"country_code":"JO","formatted_address":"Queen Alia International Airport, Desert Highway, Amman, Jordan","locality":"Amman","region":"Amman Governorate"}},"labels":["airport","delay"],"duration":1800,"start_local":"2024-04-14T19:00:00","end":"2024-04-14T16:30:00Z","end_local":"2024-04-14T19:30:00","updated":"2024-06-05T19:44:45Z"},{"title":"Moderate Delays - Queen Alia International Airport (AMM)","description":"Sourced from predicthq.com","category":"airport-delays","start":"2024-04-14T14:30:00Z","geo":{"geometry":{"coordinates":[35.989318,31.722535],"type":"Point"},"address":{"country_code":"JO","formatted_address":"Queen Alia International Airport, Desert Highway, Amman, Jordan","locality":"Amman","region":"Amman Governorate"}},"labels":["airport","delay"],"duration":1800,"start_local":"2024-04-14T17:30:00","end":"2024-04-14T15:00:00Z","end_local":"2024-04-14T18:00:00","updated":"2024-06-05T20:02:08Z"},{"title":"Severe Delays - King Hussein International Airport (AQJ)","description":"Sourced from predicthq.com","category":"airport-delays","start":"2024-04-14T02:30:00Z","geo":{"geometry":{"coordinates":[35.021511,29.610074],"type":"Point"},"address":{"country_code":"JO","formatted_address":"King Hussein International Airport, Airport St, Aqaba, Jordan","locality":"Aqaba","region":"Aqaba Governorate"}},"labels":["airport","delay"],"duration":48600,"start_local":"2024-04-14T05:30:00","end":"2024-04-14T16:00:00Z","end_local":"2024-04-14T19:00:00","updated":"2024-06-05T00:38:43Z"},{"title":"Moderate Delays - King Hussein International Airport (AQJ)","description":"Sourced from predicthq.com","category":"airport-delays","start":"2024-04-13T21:00:00Z","geo":{"geometry":{"coordinates":[35.021511,29.610074],"type":"Point"},"address":{"country_code":"JO","formatted_address":"King Hussein International Airport, Airport St, Aqaba, Jordan","locality":"Aqaba","region":"Aqaba Governorate"}},"labels":["airport","delay"],"duration":12600,"start_local":"2024-04-14T00:00:00","end":"2024-04-14T00:30:00Z","end_local":"2024-04-14T03:30:00","updated":"2024-06-04T22:57:37Z"},{"title":"Moderate to Severe Delays - Queen Alia International Airport (AMM)","description":"Sourced from predicthq.com - * Upgraded to Significant (+2hr)\n* Upgraded to Severe (+30m)\n* Downgraded to Significant (+4hr)\n* Upgraded to Severe (+30m)\n* Downgraded to Significant (+8hr)\n* Upgraded to Severe (+30m)\n* Downgraded to Significant (+3hr)","category":"airport-delays","start":"2024-04-13T20:30:00Z","geo":{"geometry":{"coordinates":[35.989318,31.722535],"type":"Point"},"address":{"country_code":"JO","formatted_address":"Queen Alia International Airport, Desert Highway, Amman, Jordan","locality":"Amman","region":"Amman Governorate"}},"labels":["airport","delay"],"duration":64800,"start_local":"2024-04-13T23:30:00","end":"2024-04-14T14:30:00Z","end_local":"2024-04-14T17:30:00","updated":"2024-06-05T02:01:29Z"},{"title":"Eid al-Fitr holiday","description":"Sourced from predicthq.com","category":"public-holidays","start":"2024-04-12T00:00:00Z","geo":{"geometry":{"coordinates":[36.238414,30.585164],"type":"Point"},"address":{"country_code":"JO","formatted_address":"Jordan"}},"labels":["holiday","holiday-national"],"duration":86399,"start_local":"2024-04-12T00:00:00","end":"2024-04-12T23:59:59Z","end_local":"2024-04-12T23:59:59","updated":"2024-06-12T10:14:13Z"},{"title":"Severe Delays - King Hussein International Airport (AQJ)","description":"Sourced from predicthq.com","category":"airport-delays","start":"2024-04-11T13:00:00Z","geo":{"geometry":{"coordinates":[35.021511,29.610074],"type":"Point"},"address":{"country_code":"JO","formatted_address":"King Hussein International Airport, Airport St, Aqaba, Jordan","locality":"Aqaba","region":"Aqaba Governorate"}},"labels":["airport","delay"],"duration":10800,"start_local":"2024-04-11T16:00:00","end":"2024-04-11T16:00:00Z","end_local":"2024-04-11T19:00:00","updated":"2024-06-05T03:24:14Z"},{"title":"Eid al-Fitr holiday","description":"Sourced from predicthq.com","category":"public-holidays","start":"2024-04-11T00:00:00Z","geo":{"geometry":{"coordinates":[36.238414,30.585164],"type":"Point"},"address":{"country_code":"JO","formatted_address":"Jordan"}},"labels":["holiday","holiday-national"],"duration":86399,"start_local":"2024-04-11T00:00:00","end":"2024-04-11T23:59:59Z","end_local":"2024-04-11T23:59:59","updated":"2024-06-12T09:23:31Z"},{"title":"Moderate Delays - King Hussein International Airport (AQJ)","description":"Sourced from predicthq.com","category":"airport-delays","start":"2024-04-10T22:00:00Z","geo":{"geometry":{"coordinates":[35.021511,29.610074],"type":"Point"},"address":{"country_code":"JO","formatted_address":"King Hussein International Airport, Airport St, Aqaba, Jordan","locality":"Aqaba","region":"Aqaba Governorate"}},"labels":["airport","delay"],"duration":14400,"start_local":"2024-04-11T01:00:00","end":"2024-04-11T02:00:00Z","end_local":"2024-04-11T05:00:00","updated":"2024-06-05T01:31:58Z"},{"title":"Severe Delays - King Hussein International Airport (AQJ)","description":"Sourced from predicthq.com","category":"airport-delays","start":"2024-04-10T05:30:00Z","geo":{"geometry":{"coordinates":[35.021511,29.610074],"type":"Point"},"address":{"country_code":"JO","formatted_address":"King Hussein International Airport, Airport St, Aqaba, Jordan","locality":"Aqaba","region":"Aqaba Governorate"}},"labels":["airport","delay"],"duration":12600,"start_local":"2024-04-10T08:30:00","end":"2024-04-10T09:00:00Z","end_local":"2024-04-10T12:00:00","updated":"2024-06-05T05:04:56Z"},{"title":"Eid al-Fitr","description":"Sourced from predicthq.com - Eid al-Fitr is a holiday to mark the end of the Islamic month of Ramadan, during which Muslims fast during the hours of daylight.","category":"public-holidays","start":"2024-04-10T00:00:00Z","geo":{"geometry":{"coordinates":[36.238414,30.585164],"type":"Point"},"address":{"country_code":"JO","formatted_address":"Jordan"}},"labels":["holiday","holiday-national"],"duration":86399,"start_local":"2024-04-10T00:00:00","end":"2024-04-10T23:59:59Z","end_local":"2024-04-10T23:59:59","updated":"2024-06-12T05:23:14Z"},{"title":"Eid al-Fitr holiday","description":"Sourced from predicthq.com","category":"public-holidays","start":"2024-04-09T00:00:00Z","geo":{"geometry":{"coordinates":[36.238414,30.585164],"type":"Point"},"address":{"country_code":"JO","formatted_address":"Jordan"}},"labels":["holiday","holiday-national"],"duration":86399,"start_local":"2024-04-09T00:00:00","end":"2024-04-09T23:59:59Z","end_local":"2024-04-09T23:59:59","updated":"2024-06-12T02:19:13Z"},{"title":"Severe Delays - King Hussein International Airport (AQJ)","description":"Sourced from predicthq.com","category":"airport-delays","start":"2024-04-07T05:30:00Z","geo":{"geometry":{"coordinates":[35.021511,29.610074],"type":"Point"},"address":{"country_code":"JO","formatted_address":"King Hussein International Airport, Airport St, Aqaba, Jordan","locality":"Aqaba","region":"Aqaba Governorate"}},"labels":["airport","delay"],"duration":12600,"start_local":"2024-04-07T08:30:00","end":"2024-04-07T09:00:00Z","end_local":"2024-04-07T12:00:00","updated":"2024-06-05T08:52:44Z"},{"title":"League - Sahab vs Al Jalil","description":"Sourced from predicthq.com","category":"sports","start":"2024-04-06T19:30:00Z","geo":{"geometry":{"coordinates":[35.9028141,31.9851496],"type":"Point"},"placekey":"@6ch-9bm-35z","address":{"country_code":"JO","formatted_address":"XWP3+25R, Amman, Jordan","locality":"Amman","region":"Amman Governorate"}},"labels":["soccer","sport"],"duration":0,"start_local":"2024-04-06T22:30:00","end":"2024-04-06T19:30:00Z","end_local":"2024-04-06T22:30:00","updated":"2024-06-12T04:42:43Z"},{"title":"Moderate Delays - Queen Alia International Airport (AMM)","description":"Sourced from predicthq.com","category":"airport-delays","start":"2024-04-06T16:00:00Z","geo":{"geometry":{"coordinates":[35.989318,31.722535],"type":"Point"},"address":{"country_code":"JO","formatted_address":"Queen Alia International Airport, Desert Highway, Amman, Jordan","locality":"Amman","region":"Amman Governorate"}},"labels":["airport","delay"],"duration":1800,"start_local":"2024-04-06T19:00:00","end":"2024-04-06T16:30:00Z","end_local":"2024-04-06T19:30:00","updated":"2024-06-05T16:49:59Z"}]