[{"title":"Silk Road Mountain Race","description":"Sourced from predicthq.com","category":"sports","start":"2024-08-16T18:00:00Z","geo":{"geometry":{"coordinates":[74.5697617,42.8746212],"type":"Point"},"placekey":"@54v-q9v-mhq","address":{"country_code":"KG","formatted_address":"Bishkek, Bishkek City, Kyrgyzstan","locality":"Bishkek","region":"Bishkek City"}},"labels":["outdoor-sports","running","sport"],"duration":86399,"start_local":"2024-08-17T00:00:00","end":"2024-08-17T17:59:59Z","end_local":"2024-08-17T23:59:59","updated":"2024-06-04T01:17:37Z"},{"title":"AFC World Cup Qualifiers - 2nd Round - Kyrgyz Republic vs Malaysia","description":"Sourced from predicthq.com","category":"sports","start":"2024-06-06T15:00:00Z","geo":{"geometry":{"coordinates":[74.59796190261841,42.880193926330904],"type":"Point"},"placekey":"@54v-q9x-kmk","address":{"country_code":"KG","formatted_address":"17 Togolok Moldo St, Bishkek, Kyrgyzstan","locality":"Bishkek","region":"Bishkek City"}},"labels":["soccer","sport"],"duration":7142,"start_local":"2024-06-06T21:00:00","end":"2024-06-06T16:59:02Z","end_local":"2024-06-06T22:59:02","updated":"2024-06-07T23:16:52Z"},{"title":"Issyk Kul Six-Day Challenge","description":"Sourced from predicthq.com","category":"sports","start":"2024-05-20T02:00:00Z","geo":{"geometry":{"coordinates":[77.1455604,42.6551507],"type":"Point"},"placekey":"@572-q9c-2zf","address":{"country_code":"KG","formatted_address":"Kyrgyzstan, Issyk-Kul Region, Progress, улица Жантошева","locality":"Progress","region":"Issyk-Kul Region"}},"labels":["outdoor-sports","running","sport"],"duration":0,"start_local":"2024-05-20T08:00:00","end":"2024-05-20T02:00:00Z","end_local":"2024-05-20T08:00:00","updated":"2024-06-05T08:02:45Z"},{"title":"Louna","description":"Sourced from predicthq.com","category":"concerts","start":"2024-05-09T14:00:00Z","geo":{"geometry":{"coordinates":[74.67751,42.86592],"type":"Point"},"placekey":"@54w-2fy-grk","address":{"country_code":"KG","formatted_address":"16 Cholpon-Ata St, Bishkek 720022, Kyrgyzstan","postcode":"720022","locality":"Bishkek","region":"Bishkek City"}},"labels":["concert","music"],"duration":0,"start_local":"2024-05-09T20:00:00","end":"2024-05-09T14:00:00Z","end_local":"2024-05-09T20:00:00","updated":"2024-06-12T16:04:57Z"},{"title":"Issyk Kul Run the Silk Road Marathon","description":"Sourced from predicthq.com","category":"sports","start":"2024-05-03T18:00:00Z","geo":{"geometry":{"coordinates":[77.0852258,42.6503176],"type":"Point"},"placekey":"@572-q5k-h5z","address":{"country_code":"KG","formatted_address":"Cholpon Ata, Issyk-Kul Region, Kyrgyzstan","locality":"Cholpon Ata","region":"Issyk-Kul Region"}},"labels":["marathon","outdoor-sports","running","sport"],"duration":86399,"start_local":"2024-05-04T00:00:00","end":"2024-05-04T17:59:59Z","end_local":"2024-05-04T23:59:59","updated":"2024-06-05T09:54:00Z"}]