[{"title":"Annual GLN Conference","description":"Sourced from predicthq.com","category":"conferences","start":"2024-10-02T02:00:00Z","geo":{"geometry":{"coordinates":[104.931263,11.531338],"type":"Point"},"placekey":"@cfm-zc5-b49","address":{"country_code":"KH","formatted_address":"Phnom Penh, Cambodia","locality":"Phnom Penh","region":"Phnom Penh"}},"labels":["conference"],"duration":291600,"start_local":"2024-10-02T09:00:00","end":"2024-10-05T11:00:00Z","end_local":"2024-10-05T18:00:00","updated":"2024-05-31T22:52:10Z"},{"title":"Agrilivestock Cambodia","description":"Sourced from predicthq.com","category":"expos","start":"2024-09-19T02:00:00Z","geo":{"geometry":{"coordinates":[104.9418706,11.552427],"type":"Point"},"placekey":"@cfm-zmr-rc5","address":{"country_code":"KH","formatted_address":"HW2R+XPH, Phnom Penh, Cambodia","locality":"Phnom Penh","region":"Phnom Penh"}},"labels":["expo"],"duration":205200,"start_local":"2024-09-19T09:00:00","end":"2024-09-21T11:00:00Z","end_local":"2024-09-21T18:00:00","updated":"2024-05-31T23:04:00Z"},{"title":"CamBuild","description":"Sourced from predicthq.com","category":"expos","start":"2024-09-11T02:00:00Z","geo":{"geometry":{"coordinates":[104.9418706,11.552427],"type":"Point"},"placekey":"@cfm-zmr-rc5","address":{"country_code":"KH","formatted_address":"HW2R+XPH, Phnom Penh, Cambodia","locality":"Phnom Penh","region":"Phnom Penh"}},"labels":["expo"],"duration":205200,"start_local":"2024-09-11T09:00:00","end":"2024-09-13T11:00:00Z","end_local":"2024-09-13T18:00:00","updated":"2024-05-31T23:26:19Z"},{"title":"Camenergy","description":"Sourced from predicthq.com","category":"expos","start":"2024-09-11T02:00:00Z","geo":{"geometry":{"coordinates":[104.9418706,11.552427],"type":"Point"},"placekey":"@cfm-zmr-rc5","address":{"country_code":"KH","formatted_address":"HW2R+XPH, Phnom Penh, Cambodia","locality":"Phnom Penh","region":"Phnom Penh"}},"labels":["expo"],"duration":205200,"start_local":"2024-09-11T09:00:00","end":"2024-09-13T11:00:00Z","end_local":"2024-09-13T18:00:00","updated":"2024-06-30T06:45:19Z"},{"title":"CAMENERGY '24 - Cambodia's International Power, Transmission, Distribution & Electrical Engineering Show","description":"Sourced from predicthq.com","category":"expos","start":"2024-09-10T17:00:00Z","geo":{"geometry":{"coordinates":[104.9411384,11.5542973],"type":"Point"},"placekey":"@cfm-zmr-r8v","address":{"country_code":"KH","formatted_address":"Phnom Penh, Cambodia","locality":"Phnom Penh","region":"Phnom Penh"}},"labels":["community","construction","expo","industrial","technology"],"duration":259199,"start_local":"2024-09-11T00:00:00","end":"2024-09-13T16:59:59Z","end_local":"2024-09-13T23:59:59","updated":"2024-06-04T00:52:49Z"},{"title":"Networking Village Phnom Penh - Edition #2","description":"Sourced from predicthq.com - The Networking Village Phnom Penh - Edition #2","category":"community","start":"2024-09-06T01:00:00Z","geo":{"geometry":{"coordinates":[104.9321455,11.5238079],"type":"Point"},"placekey":"@cfm-zc5-ckf","address":{"country_code":"KH","formatted_address":"National Road 2, Phnom Penh, Cambodia","locality":"Phnom Penh","region":"Phnom Penh"}},"labels":["business","community"],"duration":14400,"start_local":"2024-09-06T08:00:00","end":"2024-09-06T05:00:00Z","end_local":"2024-09-06T12:00:00","updated":"2024-06-05T06:26:08Z"},{"title":"RMIT University Information Day - Phnom Penh","description":"Sourced from predicthq.com - Join us at our RMIT Information Day to find out why you should study at one of the best universities in Australia!","category":"conferences","start":"2024-08-30T10:00:00Z","geo":{"geometry":{"coordinates":[104.9028127,11.5701865],"type":"Point"},"placekey":"@cfm-zn8-j7q","address":{"country_code":"KH","formatted_address":"Techno Tunnel, Phnom Penh, Cambodia","locality":"Phnom Penh","region":"Phnom Penh"}},"labels":["conference","education","family"],"duration":10800,"start_local":"2024-08-30T17:00:00","end":"2024-08-30T13:00:00Z","end_local":"2024-08-30T20:00:00","updated":"2024-07-05T06:53:41Z"},{"title":"Foodex Cambodia","description":"Sourced from predicthq.com","category":"expos","start":"2024-08-28T02:00:00Z","geo":{"geometry":{"coordinates":[104.9418706,11.552427],"type":"Point"},"placekey":"@cfm-zmr-rc5","address":{"country_code":"KH","formatted_address":"HW2R+XPH, Phnom Penh, Cambodia","locality":"Phnom Penh","region":"Phnom Penh"}},"labels":["expo"],"duration":205200,"start_local":"2024-08-28T09:00:00","end":"2024-08-30T11:00:00Z","end_local":"2024-08-30T18:00:00","updated":"2024-05-31T23:14:45Z"},{"title":"Petfair Cambodia","description":"Sourced from predicthq.com","category":"expos","start":"2024-08-28T02:00:00Z","geo":{"geometry":{"coordinates":[104.9418706,11.552427],"type":"Point"},"placekey":"@cfm-zmr-rc5","address":{"country_code":"KH","formatted_address":"HW2R+XPH, Phnom Penh, Cambodia","locality":"Phnom Penh","region":"Phnom Penh"}},"labels":["expo"],"duration":205200,"start_local":"2024-08-28T09:00:00","end":"2024-08-30T11:00:00Z","end_local":"2024-08-30T18:00:00","updated":"2024-05-31T22:59:51Z"},{"title":"Cambodia Phar-Med","description":"Sourced from predicthq.com - International Exhibition & Conference on Pharmaceutical and Medical Industry in Cambodia","category":"expos","start":"2024-08-27T17:00:00Z","geo":{"geometry":{"coordinates":[104.9411384,11.5542973],"type":"Point"},"placekey":"@cfm-zmr-r8v","address":{"country_code":"KH","formatted_address":"Phnom Penh, Cambodia","locality":"Phnom Penh","region":"Phnom Penh"}},"labels":["expo"],"duration":259199,"start_local":"2024-08-28T00:00:00","end":"2024-08-30T16:59:59Z","end_local":"2024-08-30T23:59:59","updated":"2024-05-31T23:02:04Z"},{"title":"Lab Cambodia","description":"Sourced from predicthq.com","category":"expos","start":"2024-08-27T17:00:00Z","geo":{"geometry":{"coordinates":[104.9418706,11.552427],"type":"Point"},"placekey":"@cfm-zmr-rc5","address":{"country_code":"KH","formatted_address":"HW2R+XPH, Phnom Penh, Cambodia","locality":"Phnom Penh","region":"Phnom Penh"}},"labels":["expo"],"duration":259199,"start_local":"2024-08-28T00:00:00","end":"2024-08-30T16:59:59Z","end_local":"2024-08-30T23:59:59","updated":"2024-06-01T00:32:14Z"},{"title":"Beauty Connect Cambodia","description":"Sourced from predicthq.com","category":"expos","start":"2024-08-27T17:00:00Z","geo":{"geometry":{"coordinates":[104.9418706,11.552427],"type":"Point"},"placekey":"@cfm-zmr-rc5","address":{"country_code":"KH","formatted_address":"HW2R+XPH, Phnom Penh, Cambodia","locality":"Phnom Penh","region":"Phnom Penh"}},"labels":["expo"],"duration":259199,"start_local":"2024-08-28T00:00:00","end":"2024-08-30T16:59:59Z","end_local":"2024-08-30T23:59:59","updated":"2024-06-04T06:36:11Z"},{"title":"Livestock Cambodia","description":"Sourced from predicthq.com","category":"expos","start":"2024-08-27T17:00:00Z","geo":{"geometry":{"coordinates":[104.9418706,11.552427],"type":"Point"},"placekey":"@cfm-zmr-rc5","address":{"country_code":"KH","formatted_address":"HW2R+XPH, Phnom Penh, Cambodia","locality":"Phnom Penh","region":"Phnom Penh"}},"labels":["expo"],"duration":259199,"start_local":"2024-08-28T00:00:00","end":"2024-08-30T16:59:59Z","end_local":"2024-08-30T23:59:59","updated":"2024-06-01T00:33:44Z"},{"title":"Aqua Fisheries Cambodia","description":"Sourced from predicthq.com","category":"expos","start":"2024-08-27T17:00:00Z","geo":{"geometry":{"coordinates":[104.9418706,11.552427],"type":"Point"},"placekey":"@cfm-zmr-rc5","address":{"country_code":"KH","formatted_address":"HW2R+XPH, Phnom Penh, Cambodia","locality":"Phnom Penh","region":"Phnom Penh"}},"labels":["expo"],"duration":259199,"start_local":"2024-08-28T00:00:00","end":"2024-08-30T16:59:59Z","end_local":"2024-08-30T23:59:59","updated":"2024-06-01T14:47:36Z"},{"title":"Agri Cambodia","description":"Sourced from predicthq.com","category":"expos","start":"2024-08-27T17:00:00Z","geo":{"geometry":{"coordinates":[104.9418706,11.552427],"type":"Point"},"placekey":"@cfm-zmr-rc5","address":{"country_code":"KH","formatted_address":"HW2R+XPH, Phnom Penh, Cambodia","locality":"Phnom Penh","region":"Phnom Penh"}},"labels":["expo"],"duration":259199,"start_local":"2024-08-28T00:00:00","end":"2024-08-30T16:59:59Z","end_local":"2024-08-30T23:59:59","updated":"2024-05-31T23:23:20Z"},{"title":"Cambodia International Textile & Apparel Accessories Exhibition","description":"Sourced from predicthq.com","category":"expos","start":"2024-08-13T17:00:00Z","geo":{"geometry":{"coordinates":[104.9418706,11.552427],"type":"Point"},"placekey":"@cfm-zmr-rc5","address":{"country_code":"KH","formatted_address":"HW2R+XPH, Phnom Penh, Cambodia","locality":"Phnom Penh","region":"Phnom Penh"}},"labels":["expo"],"duration":345599,"start_local":"2024-08-14T00:00:00","end":"2024-08-17T16:59:59Z","end_local":"2024-08-17T23:59:59","updated":"2024-06-04T00:29:19Z"},{"title":"Khmer Empire Marathon","description":"Sourced from predicthq.com","category":"sports","start":"2024-08-03T21:30:00Z","geo":{"geometry":{"coordinates":[103.8669857,13.4124693],"type":"Point"},"placekey":"@cfv-qp5-rc5","address":{"country_code":"KH","formatted_address":"Krong Siem Reap, Siem Reap Province, Cambodia","locality":"Krong Siem Reap","region":"Siem Reap Province"}},"labels":["marathon","outdoor-sports","running","sport"],"duration":0,"start_local":"2024-08-04T04:30:00","end":"2024-08-03T21:30:00Z","end_local":"2024-08-04T04:30:00","updated":"2024-06-04T04:38:40Z"},{"title":"Cambodia Health & Beauty Expo","description":"Sourced from predicthq.com","category":"expos","start":"2024-08-02T02:00:00Z","geo":{"geometry":{"coordinates":[104.9418706,11.552427],"type":"Point"},"placekey":"@cfm-zmr-rc5","address":{"country_code":"KH","formatted_address":"HW2R+XPH, Phnom Penh, Cambodia","locality":"Phnom Penh","region":"Phnom Penh"}},"labels":["expo"],"duration":205200,"start_local":"2024-08-02T09:00:00","end":"2024-08-04T11:00:00Z","end_local":"2024-08-04T18:00:00","updated":"2024-06-04T03:00:50Z"},{"title":"Cambodia Food Plus Expo","description":"Sourced from predicthq.com","category":"expos","start":"2024-08-01T17:00:00Z","geo":{"geometry":{"coordinates":[104.9418706,11.552427],"type":"Point"},"placekey":"@cfm-zmr-rc5","address":{"country_code":"KH","formatted_address":"HW2R+XPH, Phnom Penh, Cambodia","locality":"Phnom Penh","region":"Phnom Penh"}},"labels":["expo"],"duration":259199,"start_local":"2024-08-02T00:00:00","end":"2024-08-04T16:59:59Z","end_local":"2024-08-04T23:59:59","updated":"2024-06-02T02:52:43Z"},{"title":"Cambodia Architect & Decor Expo","description":"Sourced from predicthq.com","category":"expos","start":"2024-08-01T17:00:00Z","geo":{"geometry":{"coordinates":[104.9418706,11.552427],"type":"Point"},"placekey":"@cfm-zmr-rc5","address":{"country_code":"KH","formatted_address":"HW2R+XPH, Phnom Penh, Cambodia","locality":"Phnom Penh","region":"Phnom Penh"}},"labels":["expo"],"duration":259199,"start_local":"2024-08-02T00:00:00","end":"2024-08-04T16:59:59Z","end_local":"2024-08-04T23:59:59","updated":"2024-06-04T11:27:20Z"},{"title":"International Conference on Humanities, Social Science and Business Management","description":"Sourced from predicthq.com","category":"conferences","start":"2024-07-04T02:00:00Z","geo":{"geometry":{"coordinates":[103.852798,13.35229],"type":"Point"},"placekey":"@cfv-qng-wrk","address":{"country_code":"KH","formatted_address":"Street Phsar Kroum, ក្រុងសៀមរាប 17252, Cambodia","locality":"ក្រុងសៀមរាប","postcode":"17252","region":"ខេត្តសៀមរាប"}},"labels":["conference"],"duration":118800,"start_local":"2024-07-04T09:00:00","end":"2024-07-05T11:00:00Z","end_local":"2024-07-05T18:00:00","updated":"2024-06-30T05:56:10Z"},{"title":"International Conference on Nursing Ethics and Medical Ethics","description":"Sourced from predicthq.com","category":"conferences","start":"2024-07-04T02:00:00Z","geo":{"geometry":{"coordinates":[103.852798,13.35229],"type":"Point"},"placekey":"@cfv-qng-wrk","address":{"country_code":"KH","formatted_address":"Street Phsar Kroum, ក្រុងសៀមរាប 17252, Cambodia","locality":"ក្រុងសៀមរាប","postcode":"17252","region":"ខេត្តសៀមរាប"}},"labels":["conference"],"duration":118800,"start_local":"2024-07-04T09:00:00","end":"2024-07-05T11:00:00Z","end_local":"2024-07-05T18:00:00","updated":"2024-06-30T05:59:52Z"},{"title":"International Conference on Recent Advances in Medical and Health Sciences","description":"Sourced from predicthq.com","category":"conferences","start":"2024-07-03T17:00:00Z","geo":{"geometry":{"coordinates":[104.932326,11.601556],"type":"Point"},"placekey":"@cfm-zjz-6kz","address":{"country_code":"KH","formatted_address":"JW2J+HXH, Phnom Penh, Cambodia","locality":"Phnom Penh","region":"Phnom Penh"}},"labels":["conference"],"duration":172799,"start_local":"2024-07-04T00:00:00","end":"2024-07-05T16:59:59Z","end_local":"2024-07-05T23:59:59","updated":"2024-05-23T07:24:23Z"},{"title":"International Conference on Management and Information Technology","description":"Sourced from predicthq.com","category":"conferences","start":"2024-07-03T17:00:00Z","geo":{"geometry":{"coordinates":[104.932326,11.601556],"type":"Point"},"placekey":"@cfm-zjz-6kz","address":{"country_code":"KH","formatted_address":"JW2J+HXH, Phnom Penh, Cambodia","locality":"Phnom Penh","region":"Phnom Penh"}},"labels":["conference"],"duration":172799,"start_local":"2024-07-04T00:00:00","end":"2024-07-05T16:59:59Z","end_local":"2024-07-05T23:59:59","updated":"2024-05-27T23:01:05Z"},{"title":"Nations Conference GLORIFY","description":"Sourced from predicthq.com - A time for the city wide Church to come together to glorify Jesus and encounter his presence.","category":"conferences","start":"2024-06-28T10:00:00Z","geo":{"geometry":{"coordinates":[104.9022293,11.5360189],"type":"Point"},"placekey":"@cfm-znd-j9z","address":{"country_code":"KH","formatted_address":"Phnom Penh, Cambodia","locality":"Phnom Penh","region":"Phnom Penh"}},"labels":["conference","religion"],"duration":183600,"start_local":"2024-06-28T17:00:00","end":"2024-06-30T13:00:00Z","end_local":"2024-06-30T20:00:00","updated":"2024-06-28T01:28:15Z"},{"title":"CODE-C : Developer Conference and Tech Expo 2024","description":"Sourced from predicthq.com - CODE-C IS WHERE CAMBODIA TECH CONNECT.","category":"conferences","start":"2024-06-28T01:00:00Z","geo":{"geometry":{"coordinates":[104.9096846,11.6601389],"type":"Point"},"placekey":"@cfm-zm8-z2k","address":{"country_code":"KH","formatted_address":"Phnom Penh, Cambodia","locality":"Phnom Penh","region":"Phnom Penh"}},"labels":["conference","science","technology"],"duration":122400,"start_local":"2024-06-28T08:00:00","end":"2024-06-29T11:00:00Z","end_local":"2024-06-29T18:00:00","updated":"2024-06-04T08:01:13Z"},{"title":"Somros Sophea","description":"Sourced from predicthq.com - Somros Sophea","category":"concerts","start":"2024-06-21T03:00:00Z","geo":{"geometry":{"coordinates":[104.9282099,11.5563738],"type":"Point"},"placekey":"@cfm-znf-p5f","address":{"country_code":"KH","formatted_address":"Phnom Penh, Cambodia","locality":"Phnom Penh","region":"Phnom Penh"}},"labels":["concert","music","religion"],"duration":266400,"start_local":"2024-06-21T10:00:00","end":"2024-06-24T05:00:00Z","end_local":"2024-06-24T12:00:00","updated":"2024-06-04T05:11:59Z"},{"title":"Phnom Penh International Half Marathon","description":"Sourced from predicthq.com","category":"sports","start":"2024-06-15T22:30:00Z","geo":{"geometry":{"coordinates":[104.9307634,11.5636787],"type":"Point"},"placekey":"@cfm-zng-26k","address":{"country_code":"KH","formatted_address":"France, Phnom Penh, Cambodia","locality":"Phnom Penh","region":"Phnom Penh"}},"labels":["marathon","outdoor-sports","running","sport"],"duration":0,"start_local":"2024-06-16T05:30:00","end":"2024-06-15T22:30:00Z","end_local":"2024-06-16T05:30:00","updated":"2024-06-04T02:34:01Z"},{"title":"International Conference on Nursing Ethics and Medical Ethics","description":"Sourced from predicthq.com","category":"conferences","start":"2024-06-15T02:00:00Z","geo":{"geometry":{"coordinates":[103.852798,13.35229],"type":"Point"},"placekey":"@cfv-qng-wrk","address":{"country_code":"KH","formatted_address":"Street Phsar Kroum, ក្រុងសៀមរាប 17252, Cambodia","locality":"ក្រុងសៀមរាប","postcode":"17252","region":"ខេត្តសៀមរាប"}},"labels":["conference"],"duration":118800,"start_local":"2024-06-15T09:00:00","end":"2024-06-16T11:00:00Z","end_local":"2024-06-16T18:00:00","updated":"2024-06-14T12:53:07Z"},{"title":"International Conference on Humanities, Social Science and Business Management","description":"Sourced from predicthq.com","category":"conferences","start":"2024-06-15T02:00:00Z","geo":{"geometry":{"coordinates":[103.852798,13.35229],"type":"Point"},"placekey":"@cfv-qng-wrk","address":{"country_code":"KH","formatted_address":"Street Phsar Kroum, ក្រុងសៀមរាប 17252, Cambodia","locality":"ក្រុងសៀមរាប","postcode":"17252","region":"ខេត្តសៀមរាប"}},"labels":["conference"],"duration":118800,"start_local":"2024-06-15T09:00:00","end":"2024-06-16T11:00:00Z","end_local":"2024-06-16T18:00:00","updated":"2024-06-14T12:34:30Z"},{"title":"Friendlies - Friendlies 3 - Cambodia vs Mongolia","description":"Sourced from predicthq.com","category":"sports","start":"2024-06-07T11:00:00Z","geo":{"geometry":{"coordinates":[104.9118745,11.5583595],"type":"Point"},"placekey":"@cfm-zn5-33q","address":{"country_code":"KH","formatted_address":"Charles de Gaulle Boulevard (217), Phnom Penh 12253, Cambodia","postcode":"12253","locality":"Phnom Penh","region":"Phnom Penh"}},"labels":["soccer","sport"],"duration":0,"start_local":"2024-06-07T18:00:00","end":"2024-06-07T11:00:00Z","end_local":"2024-06-07T18:00:00","updated":"2024-06-12T02:55:59Z"},{"title":"International Conference on Nursing Ethics and Medical Ethics","description":"Sourced from predicthq.com","category":"conferences","start":"2024-06-04T02:00:00Z","geo":{"geometry":{"coordinates":[103.852798,13.35229],"type":"Point"},"placekey":"@cfv-qng-wrk","address":{"country_code":"KH","formatted_address":"Street Phsar Kroum, ក្រុងសៀមរាប 17252, Cambodia","locality":"ក្រុងសៀមរាប","postcode":"17252","region":"ខេត្តសៀមរាប"}},"labels":["conference"],"duration":118800,"start_local":"2024-06-04T09:00:00","end":"2024-06-05T11:00:00Z","end_local":"2024-06-05T18:00:00","updated":"2024-06-12T09:29:42Z"},{"title":"International Conference on Humanities, Social Science and Business Management","description":"Sourced from predicthq.com","category":"conferences","start":"2024-06-04T02:00:00Z","geo":{"geometry":{"coordinates":[103.852798,13.35229],"type":"Point"},"placekey":"@cfv-qng-wrk","address":{"country_code":"KH","formatted_address":"Street Phsar Kroum, ក្រុងសៀមរាប 17252, Cambodia","locality":"ក្រុងសៀមរាប","postcode":"17252","region":"ខេត្តសៀមរាប"}},"labels":["conference"],"duration":118800,"start_local":"2024-06-04T09:00:00","end":"2024-06-05T11:00:00Z","end_local":"2024-06-05T18:00:00","updated":"2024-05-21T07:20:22Z"},{"title":"International Conference on Pharma and Food","description":"Sourced from predicthq.com","category":"conferences","start":"2024-06-04T02:00:00Z","geo":{"geometry":{"coordinates":[104.932326,11.601556],"type":"Point"},"placekey":"@cfm-zjz-6kz","address":{"country_code":"KH","formatted_address":"JW2J+HXH, Phnom Penh, Cambodia","locality":"Phnom Penh","region":"Phnom Penh"}},"labels":["conference"],"duration":118800,"start_local":"2024-06-04T09:00:00","end":"2024-06-05T11:00:00Z","end_local":"2024-06-05T18:00:00","updated":"2024-06-04T01:04:56Z"},{"title":"International Conference on Economics Finance and Accounting","description":"Sourced from predicthq.com","category":"conferences","start":"2024-06-04T02:00:00Z","geo":{"geometry":{"coordinates":[104.932326,11.601556],"type":"Point"},"placekey":"@cfm-zjz-6kz","address":{"country_code":"KH","formatted_address":"JW2J+HXH, Phnom Penh, Cambodia","locality":"Phnom Penh","region":"Phnom Penh"}},"labels":["conference"],"duration":118800,"start_local":"2024-06-04T09:00:00","end":"2024-06-05T11:00:00Z","end_local":"2024-06-05T18:00:00","updated":"2024-06-04T07:38:14Z"},{"title":"International Conference on Civil and Environmental Engineering","description":"Sourced from predicthq.com","category":"conferences","start":"2024-06-04T02:00:00Z","geo":{"geometry":{"coordinates":[104.932326,11.601556],"type":"Point"},"placekey":"@cfm-zjz-6kz","address":{"country_code":"KH","formatted_address":"JW2J+HXH, Phnom Penh, Cambodia","locality":"Phnom Penh","region":"Phnom Penh"}},"labels":["conference"],"duration":118800,"start_local":"2024-06-04T09:00:00","end":"2024-06-05T11:00:00Z","end_local":"2024-06-05T18:00:00","updated":"2024-06-04T10:15:04Z"},{"title":"Khmer Earth Observation Day","description":"Sourced from predicthq.com","category":"conferences","start":"2024-05-28T02:00:00Z","geo":{"geometry":{"coordinates":[104.898371,11.570472],"type":"Point"},"placekey":"@cfm-znb-6tv","address":{"country_code":"KH","formatted_address":"Russian Conf Norodom Boulevard, Phnom Penh 120404, Cambodia","postcode":"120404","locality":"Phnom Penh","region":"Phnom Penh"}},"labels":["conference"],"duration":32400,"start_local":"2024-05-28T09:00:00","end":"2024-05-28T11:00:00Z","end_local":"2024-05-28T18:00:00","updated":"2024-07-02T13:45:18Z"},{"title":"Vespa Day 2024 - Cambodia","description":"Sourced from predicthq.com - Join us in celebrating the 78th anniversary of Vespa at our Vespa Day event!","category":"festivals","start":"2024-05-25T08:00:00Z","geo":{"geometry":{"coordinates":[104.9359127,11.5056942],"type":"Point"},"placekey":"@cfm-zc2-4sq","address":{"country_code":"KH","formatted_address":"National Road 2, Phnom Penh, Cambodia","locality":"Phnom Penh","region":"Phnom Penh"}},"labels":["festival","outdoor"],"duration":14400,"start_local":"2024-05-25T15:00:00","end":"2024-05-25T12:00:00Z","end_local":"2024-05-25T19:00:00","updated":"2024-06-05T00:34:13Z"},{"title":"AI for smart business","description":"Sourced from predicthq.com - You will understand \n-AI in marketing\n-ChatGPT\n-Business Intelligent\nFee :$50\nDate :  25 May 2024\nTime : 8:00AM-11:00 AM\nPlace: Hotel","category":"conferences","start":"2024-05-25T03:00:00Z","geo":{"geometry":{"coordinates":[104.9225112,11.5646865],"type":"Point"},"placekey":"@cfm-zng-7dv","address":{"country_code":"KH","formatted_address":"Phnom Penh, Cambodia","locality":"Phnom Penh","region":"Phnom Penh"}},"labels":["conference","science","technology"],"duration":7200,"start_local":"2024-05-25T10:00:00","end":"2024-05-25T05:00:00Z","end_local":"2024-05-25T12:00:00","updated":"2024-06-11T23:02:04Z"},{"title":"aduhoki77 and situs slot","description":"Sourced from predicthq.com","category":"concerts","start":"2024-05-21T13:00:00Z","geo":{"geometry":{"coordinates":[104.9166641,11.5500002],"type":"Point"},"placekey":"@cfm-zn5-swk","address":{"country_code":"KH","formatted_address":"jln surabaya no 20, Jakarata 20224, Cambodia","postcode":"20224","locality":"Jakarata"}},"labels":["concert","music"],"duration":0,"start_local":"2024-05-21T20:00:00","end":"2024-05-21T13:00:00Z","end_local":"2024-05-21T20:00:00","updated":"2024-06-12T10:13:09Z"},{"title":"Be Ready for Irish Student Visa - Fall Intake","description":"Sourced from predicthq.com","category":"expos","start":"2024-05-16T17:00:00Z","geo":{"geometry":{"coordinates":[104.928177,11.566179],"type":"Point"},"placekey":"@cfm-zng-6tv","address":{"country_code":"KH","formatted_address":"Preah Ang Makhak Vann St. (178), Phnom Penh, Cambodia","locality":"Phnom Penh","region":"Phnom Penh"}},"labels":["expo"],"duration":172799,"start_local":"2024-05-17T00:00:00","end":"2024-05-18T16:59:59Z","end_local":"2024-05-18T23:59:59","updated":"2024-06-03T20:34:51Z"},{"title":"Cloud Horizons: Navigating Innovation with AWS (Executive Roundtable)","description":"Sourced from predicthq.com - Cambodia Edition Executive Roundtable","category":"conferences","start":"2024-05-16T04:00:00Z","geo":{"geometry":{"coordinates":[104.918079,11.576354],"type":"Point"},"placekey":"@cfm-zn8-qcq","address":{"country_code":"KH","formatted_address":"92 Rukhak Vithei, Phnom Penh 12302, Cambodia","postcode":"12302","locality":"Phnom Penh","region":"Phnom Penh"}},"labels":["conference","science","technology"],"duration":10800,"start_local":"2024-05-16T11:00:00","end":"2024-05-16T07:00:00Z","end_local":"2024-05-16T14:00:00","updated":"2024-06-05T11:29:05Z"},{"title":"The Canadian Prairies: Navigating Immigration and Education in Alberta & Manitoba","description":"Sourced from predicthq.com","category":"conferences","start":"2024-05-14T17:00:00Z","geo":{"geometry":{"coordinates":[103.860755,13.373635],"type":"Point"},"placekey":"@cfv-qnk-ygk","address":{"country_code":"KH","formatted_address":"Khum, Vithei Preah Sihanouk Ave, Krong Siem Reap 17259, Cambodia","postcode":"17259","locality":"Krong Siem Reap","region":"Siem Reap Province"}},"labels":["conference"],"duration":86399,"start_local":"2024-05-15T00:00:00","end":"2024-05-15T16:59:59Z","end_local":"2024-05-15T23:59:59","updated":"2024-06-01T04:53:42Z"},{"title":"International Conference on Humanities, Social Science and Business Management","description":"Sourced from predicthq.com","category":"conferences","start":"2024-05-13T02:00:00Z","geo":{"geometry":{"coordinates":[103.852798,13.35229],"type":"Point"},"placekey":"@cfv-qng-wrk","address":{"country_code":"KH","formatted_address":"Street Phsar Kroum, ក្រុងសៀមរាប 17252, Cambodia","locality":"ក្រុងសៀមរាប","postcode":"17252","region":"ខេត្តសៀមរាប"}},"labels":["conference"],"duration":118800,"start_local":"2024-05-13T09:00:00","end":"2024-05-14T11:00:00Z","end_local":"2024-05-14T18:00:00","updated":"2024-06-05T00:43:34Z"},{"title":"International Conference on Nursing Ethics and Medical Ethics","description":"Sourced from predicthq.com","category":"conferences","start":"2024-05-13T02:00:00Z","geo":{"geometry":{"coordinates":[103.852798,13.35229],"type":"Point"},"placekey":"@cfv-qng-wrk","address":{"country_code":"KH","formatted_address":"Street Phsar Kroum, ក្រុងសៀមរាប 17252, Cambodia","locality":"ក្រុងសៀមរាប","postcode":"17252","region":"ខេត្តសៀមរាប"}},"labels":["conference"],"duration":118800,"start_local":"2024-05-13T09:00:00","end":"2024-05-14T11:00:00Z","end_local":"2024-05-14T18:00:00","updated":"2024-06-05T11:55:06Z"},{"title":"Premier League - Championship Round - Visakha vs Boeung Ket","description":"Sourced from predicthq.com","category":"sports","start":"2024-05-12T11:00:00Z","geo":{"geometry":{"coordinates":[104.873605729,11.626467],"type":"Point"},"placekey":"@cfm-zkm-hqz","address":{"country_code":"KH","formatted_address":"307 Plov Lum, Phnom Penh, Cambodia","locality":"Phnom Penh","region":"Phnom Penh"}},"labels":["soccer","sport"],"duration":0,"start_local":"2024-05-12T18:00:00","end":"2024-05-12T11:00:00Z","end_local":"2024-05-12T18:00:00","updated":"2024-06-12T08:19:54Z"},{"title":"Premier League - Championship Round - Phnom Penh Crown vs Svay Rieng","description":"Sourced from predicthq.com","category":"sports","start":"2024-05-12T11:00:00Z","geo":{"geometry":{"coordinates":[104.8940787,11.6047663],"type":"Point"},"placekey":"@cfm-zkn-h5z","address":{"country_code":"KH","formatted_address":"1800 ផ្លូវ ១៨០០, Phnom Penh 12104, Cambodia","postcode":"12104","locality":"Phnom Penh","region":"Phnom Penh"}},"labels":["soccer","sport"],"duration":0,"start_local":"2024-05-12T18:00:00","end":"2024-05-12T11:00:00Z","end_local":"2024-05-12T18:00:00","updated":"2024-06-12T14:45:55Z"},{"title":"Premier League - Championship Round - Svay Rieng vs Visakha","description":"Sourced from predicthq.com","category":"sports","start":"2024-05-08T11:00:00Z","geo":{"geometry":{"coordinates":[105.80303089618678,11.082401506042089],"type":"Point"},"placekey":"@cg3-mm2-dy9","address":{"country_code":"KH","formatted_address":"Svay Rieng, Cambodia","locality":"Svay Rieng"}},"labels":["soccer","sport"],"duration":0,"start_local":"2024-05-08T18:00:00","end":"2024-05-08T11:00:00Z","end_local":"2024-05-08T18:00:00","updated":"2024-06-12T13:23:46Z"},{"title":"Premier League - Championship Round - Boeung Ket vs Phnom Penh Crown","description":"Sourced from predicthq.com","category":"sports","start":"2024-05-08T11:00:00Z","geo":{"geometry":{"coordinates":[104.9118745,11.5583595],"type":"Point"},"placekey":"@cfm-zn5-33q","address":{"country_code":"KH","formatted_address":"Charles de Gaulle Boulevard (217), Phnom Penh 12253, Cambodia","postcode":"12253","locality":"Phnom Penh","region":"Phnom Penh"}},"labels":["soccer","sport"],"duration":0,"start_local":"2024-05-08T18:00:00","end":"2024-05-08T11:00:00Z","end_local":"2024-05-08T18:00:00","updated":"2024-06-12T13:55:06Z"},{"title":"CADT Innovation Festival 2024","description":"Sourced from predicthq.com - CADT Innovation Festival - Inspire innovation by designing your thinking.","category":"conferences","start":"2024-05-08T01:00:00Z","geo":{"geometry":{"coordinates":[104.9096846,11.6601389],"type":"Point"},"placekey":"@cfm-zm8-z2k","address":{"country_code":"KH","formatted_address":"Phnom Penh, Cambodia","locality":"Phnom Penh","region":"Phnom Penh"}},"labels":["conference","science","technology"],"duration":32400,"start_local":"2024-05-08T08:00:00","end":"2024-05-08T10:00:00Z","end_local":"2024-05-08T17:00:00","updated":"2024-06-05T14:14:31Z"},{"title":"Premier League - Championship Round - Svay Rieng vs Boeung Ket","description":"Sourced from predicthq.com","category":"sports","start":"2024-05-04T11:00:00Z","geo":{"geometry":{"coordinates":[105.80303089618678,11.082401506042089],"type":"Point"},"placekey":"@cg3-mm2-dy9","address":{"country_code":"KH","formatted_address":"Svay Rieng, Cambodia","locality":"Svay Rieng"}},"labels":["soccer","sport"],"duration":0,"start_local":"2024-05-04T18:00:00","end":"2024-05-04T11:00:00Z","end_local":"2024-05-04T18:00:00","updated":"2024-06-12T12:17:24Z"},{"title":"Premier League - Championship Round - Phnom Penh Crown vs Visakha","description":"Sourced from predicthq.com","category":"sports","start":"2024-05-04T11:00:00Z","geo":{"geometry":{"coordinates":[104.8940787,11.6047663],"type":"Point"},"placekey":"@cfm-zkn-h5z","address":{"country_code":"KH","formatted_address":"1800 ផ្លូវ ១៨០០, Phnom Penh 12104, Cambodia","postcode":"12104","locality":"Phnom Penh","region":"Phnom Penh"}},"labels":["soccer","sport"],"duration":0,"start_local":"2024-05-04T18:00:00","end":"2024-05-04T11:00:00Z","end_local":"2024-05-04T18:00:00","updated":"2024-06-12T10:33:47Z"},{"title":"International Conference on Humanities, Social Science and Business Management","description":"Sourced from predicthq.com","category":"conferences","start":"2024-05-04T02:00:00Z","geo":{"geometry":{"coordinates":[103.852798,13.35229],"type":"Point"},"placekey":"@cfv-qng-wrk","address":{"country_code":"KH","formatted_address":"Street Phsar Kroum, ក្រុងសៀមរាប 17252, Cambodia","locality":"ក្រុងសៀមរាប","postcode":"17252","region":"ខេត្តសៀមរាប"}},"labels":["conference"],"duration":118800,"start_local":"2024-05-04T09:00:00","end":"2024-05-05T11:00:00Z","end_local":"2024-05-05T18:00:00","updated":"2024-06-05T07:18:36Z"},{"title":"International Conference on Nursing Ethics and Medical Ethics","description":"Sourced from predicthq.com","category":"conferences","start":"2024-05-04T02:00:00Z","geo":{"geometry":{"coordinates":[103.852798,13.35229],"type":"Point"},"placekey":"@cfv-qng-wrk","address":{"country_code":"KH","formatted_address":"Street Phsar Kroum, ក្រុងសៀមរាប 17252, Cambodia","locality":"ក្រុងសៀមរាប","postcode":"17252","region":"ខេត្តសៀមរាប"}},"labels":["conference"],"duration":118800,"start_local":"2024-05-04T09:00:00","end":"2024-05-05T11:00:00Z","end_local":"2024-05-05T18:00:00","updated":"2024-06-05T02:07:36Z"},{"title":"Premier League - National Defense vs Dangkor Senchey","description":"Sourced from predicthq.com","category":"sports","start":"2024-04-21T11:00:00Z","geo":{"geometry":{"coordinates":[104.914974001,11.5860945647],"type":"Point"},"placekey":"@cfm-zn7-zxq","address":{"country_code":"KH","formatted_address":"HWP8+H2P, Phnom Penh, Cambodia","locality":"Phnom Penh","region":"Phnom Penh"}},"labels":["soccer","sport"],"duration":0,"start_local":"2024-04-21T18:00:00","end":"2024-04-21T11:00:00Z","end_local":"2024-04-21T18:00:00","updated":"2024-06-12T08:09:20Z"},{"title":"Premier League - Prey Veng vs Visakha","description":"Sourced from predicthq.com","category":"sports","start":"2024-04-21T09:00:00Z","geo":{"geometry":{"coordinates":[105.3246439,11.489407],"type":"Point"},"placekey":"@cfm-yd8-sbk","address":{"country_code":"KH","formatted_address":"Prey Veaeng, Prey Veng Province, Cambodia","locality":"Prey Veaeng","region":"Prey Veng Province"}},"labels":["soccer","sport"],"duration":0,"start_local":"2024-04-21T16:00:00","end":"2024-04-21T09:00:00Z","end_local":"2024-04-21T16:00:00","updated":"2024-06-12T11:54:38Z"},{"title":"Premier League - Angkor Tiger vs NagaWorld","description":"Sourced from predicthq.com","category":"sports","start":"2024-04-21T09:00:00Z","geo":{"geometry":{"coordinates":[103.838514,13.355331],"type":"Point"},"placekey":"@cfv-qn9-rff","address":{"country_code":"KH","formatted_address":"Sangkat Svay Dangkum, Siem Reap, Cambodia","locality":"Siem Reap"}},"labels":["soccer","sport"],"duration":0,"start_local":"2024-04-21T16:00:00","end":"2024-04-21T09:00:00Z","end_local":"2024-04-21T16:00:00","updated":"2024-06-12T17:39:00Z"},{"title":"Premier League - Boeung Ket vs Svay Rieng","description":"Sourced from predicthq.com","category":"sports","start":"2024-04-20T11:00:00Z","geo":{"geometry":{"coordinates":[104.9118745,11.5583595],"type":"Point"},"placekey":"@cfm-zn5-33q","address":{"country_code":"KH","formatted_address":"Charles de Gaulle Boulevard (217), Phnom Penh 12253, Cambodia","postcode":"12253","locality":"Phnom Penh","region":"Phnom Penh"}},"labels":["soccer","sport"],"duration":0,"start_local":"2024-04-20T18:00:00","end":"2024-04-20T11:00:00Z","end_local":"2024-04-20T18:00:00","updated":"2024-06-12T14:03:55Z"},{"title":"Premier League - Kirivong Sok Sen Chey vs Phnom Penh Crown","description":"Sourced from predicthq.com","category":"sports","start":"2024-04-20T09:00:00Z","geo":{"geometry":{"coordinates":[104.77042242434538,10.972797056550641],"type":"Point"},"placekey":"@cfm-xvj-fpv","address":{"country_code":"KH","formatted_address":"XQF9+HXW, Unnamed Road, Krong Doun Kaev, Cambodia","locality":"Krong Doun Kaev","region":"Takéo Province"}},"labels":["soccer","sport"],"duration":0,"start_local":"2024-04-20T16:00:00","end":"2024-04-20T09:00:00Z","end_local":"2024-04-20T16:00:00","updated":"2024-06-12T02:22:11Z"},{"title":"Work at home","description":"Sourced from predicthq.com - Join us for a fun and informative event all about working from the comfort of your own home!","category":"conferences","start":"2024-04-19T03:00:00Z","geo":{"geometry":{"coordinates":[104.9271937,11.5740451],"type":"Point"},"placekey":"@cfm-zk9-9zz","address":{"country_code":"KH","formatted_address":"Preah Sisowath Quay, Phnom Penh, Cambodia","locality":"Phnom Penh","region":"Phnom Penh"}},"labels":["business","conference"],"duration":7200,"start_local":"2024-04-19T10:00:00","end":"2024-04-19T05:00:00Z","end_local":"2024-04-19T12:00:00","updated":"2024-06-05T09:07:28Z"},{"title":"Ask the Experts: Navigating BC's Immigration and Education Landscape","description":"Sourced from predicthq.com","category":"expos","start":"2024-04-16T17:00:00Z","geo":{"geometry":{"coordinates":[103.860755,13.373635],"type":"Point"},"placekey":"@cfv-qnk-ygk","address":{"country_code":"KH","formatted_address":"Khum, Vithei Preah Sihanouk Ave, Krong Siem Reap 17259, Cambodia","postcode":"17259","locality":"Krong Siem Reap","region":"Siem Reap Province"}},"labels":["expo"],"duration":86399,"start_local":"2024-04-17T00:00:00","end":"2024-04-17T16:59:59Z","end_local":"2024-04-17T23:59:59","updated":"2024-06-01T04:53:42Z"},{"title":"Premier League - Dangkor Senchey vs Boeung Ket","description":"Sourced from predicthq.com","category":"sports","start":"2024-04-07T11:00:00Z","geo":{"geometry":{"coordinates":[104.867126363,11.529822898],"type":"Point"},"placekey":"@cfm-zcj-vmk","address":{"country_code":"KH","formatted_address":"#18, KMH Industrial Park, Veng Sreng BLVD, Phumi Trapoeng Thloeng Sangkat Chaom Chao, Phnom Penh, Cambodia","locality":"Phnom Penh","region":"Phnom Penh"}},"labels":["soccer","sport"],"duration":0,"start_local":"2024-04-07T18:00:00","end":"2024-04-07T11:00:00Z","end_local":"2024-04-07T18:00:00","updated":"2024-06-12T04:55:02Z"},{"title":"Premier League - NagaWorld vs National Defense","description":"Sourced from predicthq.com","category":"sports","start":"2024-04-07T11:00:00Z","geo":{"geometry":{"coordinates":[104.52433104933469,11.457332822327638],"type":"Point"},"placekey":"@cfk-x6t-5vf","address":{"country_code":"KH","formatted_address":"Street 102, Krong Chbar Mon, Kampong Speu, Cambodia","locality":"Kampong Speu"}},"labels":["soccer","sport"],"duration":0,"start_local":"2024-04-07T18:00:00","end":"2024-04-07T11:00:00Z","end_local":"2024-04-07T18:00:00","updated":"2024-06-12T03:40:24Z"},{"title":"Premier League - Phnom Penh Crown vs Prey Veng","description":"Sourced from predicthq.com","category":"sports","start":"2024-04-07T11:00:00Z","geo":{"geometry":{"coordinates":[104.8940787,11.6047663],"type":"Point"},"placekey":"@cfm-zkn-h5z","address":{"country_code":"KH","formatted_address":"1800 ផ្លូវ ១៨០០, Phnom Penh 12104, Cambodia","postcode":"12104","locality":"Phnom Penh","region":"Phnom Penh"}},"labels":["soccer","sport"],"duration":0,"start_local":"2024-04-07T18:00:00","end":"2024-04-07T11:00:00Z","end_local":"2024-04-07T18:00:00","updated":"2024-06-12T00:08:48Z"},{"title":"Sihanoukville International Half Marathon","description":"Sourced from predicthq.com","category":"sports","start":"2024-04-06T17:00:00Z","geo":{"geometry":{"coordinates":[103.5115545,10.6267867],"type":"Point"},"placekey":"@cfn-7vs-n5z","address":{"country_code":"KH","formatted_address":"Preah Sihanouk, Sihanoukville, Cambodia","locality":"Preah Sihanouk","region":"Sihanoukville"}},"labels":["marathon","outdoor-sports","running","sport"],"duration":86399,"start_local":"2024-04-07T00:00:00","end":"2024-04-07T16:59:59Z","end_local":"2024-04-07T23:59:59","updated":"2024-06-12T11:11:39Z"},{"title":"Premier League - Svay Rieng vs Kirivong Sok Sen Chey","description":"Sourced from predicthq.com","category":"sports","start":"2024-04-06T11:00:00Z","geo":{"geometry":{"coordinates":[105.80303089618678,11.082401506042089],"type":"Point"},"placekey":"@cg3-mm2-dy9","address":{"country_code":"KH","formatted_address":"Svay Rieng, Cambodia","locality":"Svay Rieng"}},"labels":["soccer","sport"],"duration":0,"start_local":"2024-04-06T18:00:00","end":"2024-04-06T11:00:00Z","end_local":"2024-04-06T18:00:00","updated":"2024-06-11T23:19:23Z"},{"title":"Premier League - Visakha vs Angkor Tiger","description":"Sourced from predicthq.com","category":"sports","start":"2024-04-06T11:00:00Z","geo":{"geometry":{"coordinates":[104.873605729,11.626467],"type":"Point"},"placekey":"@cfm-zkm-hqz","address":{"country_code":"KH","formatted_address":"307 Plov Lum, Phnom Penh, Cambodia","locality":"Phnom Penh","region":"Phnom Penh"}},"labels":["soccer","sport"],"duration":0,"start_local":"2024-04-06T18:00:00","end":"2024-04-06T11:00:00Z","end_local":"2024-04-06T18:00:00","updated":"2024-06-12T04:07:05Z"}]