[{"title":"St. Kitts and Nevis Patriots vs Antigua And Barbuda Falcons","description":"Sourced from predicthq.com","category":"sports","start":"2024-09-08T14:00:00Z","geo":{"geometry":{"coordinates":[-62.72308,17.2983937],"type":"Point"},"placekey":"@bs7-pcs-vxq","address":{"country_code":"KN","formatted_address":"77XH+C4H, Basseterre, St Kitts & Nevis","locality":"Basseterre","region":"Saint George Basseterre Parish"}},"labels":["cricket","sport"],"duration":0,"start_local":"2024-09-08T10:00:00","end":"2024-09-08T14:00:00Z","end_local":"2024-09-08T10:00:00","updated":"2024-06-04T01:16:51Z"},{"title":"Nevis Marathon","description":"Sourced from predicthq.com","category":"sports","start":"2024-09-07T20:30:00Z","geo":{"geometry":{"coordinates":[-62.6236633,17.1374798],"type":"Point"},"placekey":"@bs7-nj8-v4v","address":{"country_code":"KN","formatted_address":"Charlestown, Saint Paul Charlestown Parish, Saint Kitts and Nevis","locality":"Charlestown","region":"Saint Paul Charlestown Parish"}},"labels":["marathon","outdoor-sports","running","sport"],"duration":0,"start_local":"2024-09-07T16:30:00","end":"2024-09-07T20:30:00Z","end_local":"2024-09-07T16:30:00","updated":"2024-07-01T17:08:24Z"},{"title":"St. Kitts and Nevis Patriots vs Barbados Royals","description":"Sourced from predicthq.com","category":"sports","start":"2024-09-06T23:00:00Z","geo":{"geometry":{"coordinates":[-62.72308,17.2983937],"type":"Point"},"placekey":"@bs7-pcs-vxq","address":{"country_code":"KN","formatted_address":"77XH+C4H, Basseterre, St Kitts & Nevis","locality":"Basseterre","region":"Saint George Basseterre Parish"}},"labels":["cricket","sport"],"duration":0,"start_local":"2024-09-06T19:00:00","end":"2024-09-06T23:00:00Z","end_local":"2024-09-06T19:00:00","updated":"2024-06-04T00:47:09Z"},{"title":"St. Kitts and Nevis Patriots vs Guyana Amazon Warriors","description":"Sourced from predicthq.com","category":"sports","start":"2024-09-04T23:00:00Z","geo":{"geometry":{"coordinates":[-62.72308,17.2983937],"type":"Point"},"placekey":"@bs7-pcs-vxq","address":{"country_code":"KN","formatted_address":"77XH+C4H, Basseterre, St Kitts & Nevis","locality":"Basseterre","region":"Saint George Basseterre Parish"}},"labels":["cricket","sport"],"duration":0,"start_local":"2024-09-04T19:00:00","end":"2024-09-04T23:00:00Z","end_local":"2024-09-04T19:00:00","updated":"2024-06-04T10:11:58Z"},{"title":"St. Kitts and Nevis Patriots vs St. Lucia Kings","description":"Sourced from predicthq.com","category":"sports","start":"2024-09-01T23:00:00Z","geo":{"geometry":{"coordinates":[-62.72308,17.2983937],"type":"Point"},"placekey":"@bs7-pcs-vxq","address":{"country_code":"KN","formatted_address":"77XH+C4H, Basseterre, St Kitts & Nevis","locality":"Basseterre","region":"Saint George Basseterre Parish"}},"labels":["cricket","sport"],"duration":0,"start_local":"2024-09-01T19:00:00","end":"2024-09-01T23:00:00Z","end_local":"2024-09-01T19:00:00","updated":"2024-06-04T01:54:18Z"},{"title":"St. Kitts and Nevis Patriots vs Trinbago Knight Riders","description":"Sourced from predicthq.com","category":"sports","start":"2024-08-31T23:00:00Z","geo":{"geometry":{"coordinates":[-62.72308,17.2983937],"type":"Point"},"placekey":"@bs7-pcs-vxq","address":{"country_code":"KN","formatted_address":"77XH+C4H, Basseterre, St Kitts & Nevis","locality":"Basseterre","region":"Saint George Basseterre Parish"}},"labels":["cricket","sport"],"duration":0,"start_local":"2024-08-31T19:00:00","end":"2024-08-31T23:00:00Z","end_local":"2024-08-31T19:00:00","updated":"2024-06-04T04:02:50Z"},{"title":"St Kitts Music Festival","description":"Sourced from predicthq.com","category":"festivals","start":"2024-06-27T04:00:00Z","geo":{"geometry":{"coordinates":[-62.7232032,17.2983403],"type":"Point"},"placekey":"@bs7-pcs-vxq","address":{"country_code":"KN","formatted_address":"Basseterre, Saint George Basseterre Parish, Saint Kitts and Nevis","locality":"Basseterre","region":"Saint George Basseterre Parish"}},"labels":["festival","music"],"duration":259199,"start_local":"2024-06-27T00:00:00","end":"2024-06-30T03:59:59Z","end_local":"2024-06-29T23:59:59","updated":"2024-05-28T06:55:55Z"},{"title":"Eric Ragno - Keyboards / Rock Keyboard Player and Legends of Classic Rock","description":"Sourced from predicthq.com","category":"concerts","start":"2024-06-19T00:00:00Z","geo":{"geometry":{"coordinates":[-62.7176933,17.3026066],"type":"Point"},"placekey":"@bs7-pcs-4n5","address":{"country_code":"KN","formatted_address":"Basseterre, Saint George Basseterre Parish, Saint Kitts and Nevis","locality":"Basseterre","region":"Saint George Basseterre Parish"}},"labels":["concert","music"],"duration":0,"start_local":"2024-06-18T20:00:00","end":"2024-06-19T00:00:00Z","end_local":"2024-06-18T20:00:00","updated":"2024-06-11T02:10:27Z"},{"title":"Nevis to St Kitts Cross Channel Swim","description":"Sourced from predicthq.com","category":"sports","start":"2024-04-06T04:00:00Z","geo":{"geometry":{"coordinates":[-62.6112244,17.2002069],"type":"Point"},"placekey":"@bs7-n3y-g49","address":{"country_code":"KN","formatted_address":"New Castle, Saint James Windward Parish, Saint Kitts and Nevis","locality":"New Castle","region":"Saint James Windward Parish"}},"labels":["outdoor-sports","running","sport"],"duration":86399,"start_local":"2024-04-06T00:00:00","end":"2024-04-07T03:59:59Z","end_local":"2024-04-06T23:59:59","updated":"2024-06-05T05:26:51Z"}]