[{"title":"Kuwait Procurement Conference","description":"Sourced from predicthq.com","category":"conferences","start":"2024-09-25T06:00:00Z","geo":{"geometry":{"coordinates":[48.0868139,29.301669],"type":"Point"},"placekey":"@68m-wvy-3nq","address":{"country_code":"KW","formatted_address":"Kuwait City, Al Asimah Governate, Kuwait","locality":"Kuwait City","region":"Al Asimah Governate"}},"labels":["conference"],"duration":118800,"start_local":"2024-09-25T09:00:00","end":"2024-09-26T15:00:00Z","end_local":"2024-09-26T18:00:00","updated":"2024-05-31T23:24:01Z"},{"title":"International Nursing Conference","description":"Sourced from predicthq.com","category":"conferences","start":"2024-09-12T06:00:00Z","geo":{"geometry":{"coordinates":[48.069563,29.342669],"type":"Point"},"placekey":"@68m-x3f-nqz","address":{"country_code":"KW","formatted_address":"Salmiya, Kuwait","locality":"Salmiya"}},"labels":["conference"],"duration":118800,"start_local":"2024-09-12T09:00:00","end":"2024-09-13T15:00:00Z","end_local":"2024-09-13T18:00:00","updated":"2024-05-28T12:57:35Z"},{"title":"Largest UK Education Expo - The Regency Hotel","description":"Sourced from predicthq.com - Join us at the Largest UK Education Expo at The Regency Hotel for a day filled with informative sessions and networking opportunities!","category":"expos","start":"2024-07-10T15:00:00Z","geo":{"geometry":{"coordinates":[48.0889497,29.3166191],"type":"Point"},"placekey":"@68m-x3c-djv","address":{"country_code":"KW","formatted_address":"Al-Bidea, Hawalli Governorate, Kuwait","locality":"Al-Bidea","region":"Hawalli Governorate"}},"labels":["education","expo","family"],"duration":14400,"start_local":"2024-07-10T18:00:00","end":"2024-07-10T19:00:00Z","end_local":"2024-07-10T22:00:00","updated":"2024-06-30T06:05:43Z"},{"title":"Largest UK Universities Expo","description":"Sourced from predicthq.com - Come check out the biggest universities in the UK all under one roof at our expo - it's gonna be epic!","category":"expos","start":"2024-07-10T15:00:00Z","geo":{"geometry":{"coordinates":[48.0889497,29.3166191],"type":"Point"},"placekey":"@68m-x3c-djv","address":{"country_code":"KW","formatted_address":"Al-Bidea, Hawalli Governorate, Kuwait","locality":"Al-Bidea","region":"Hawalli Governorate"}},"labels":["expo"],"duration":14400,"start_local":"2024-07-10T18:00:00","end":"2024-07-10T19:00:00Z","end_local":"2024-07-10T22:00:00","updated":"2024-06-27T17:24:34Z"},{"title":"AFC World Cup Qualifiers - 2nd Round - Kuwait vs Afghanistan","description":"Sourced from predicthq.com","category":"sports","start":"2024-06-11T15:45:00Z","geo":{"geometry":{"coordinates":[48.0003532654,29.3574925585],"type":"Point"},"placekey":"@68n-2nx-f75","address":{"country_code":"KW","formatted_address":"Mansuriyah (Al Arabi St)\nMansuriyah\nالكويت","locality":"Mansuriyah","region":"Al ‘Āşimah"}},"labels":["soccer","sport"],"duration":7369,"start_local":"2024-06-11T18:45:00","end":"2024-06-11T17:47:49Z","end_local":"2024-06-11T20:47:49","updated":"2024-06-12T18:34:37Z"},{"title":"مكافحة حشرات الكويت","description":"Sourced from predicthq.com - هل تعاني من مشكلة الحشرات في منزلك؟ تعال لحضور فعاليتنا واحصل على نصائح وحلول فعالة لمكافحة حشرات الكويت!","category":"expos","start":"2024-05-31T07:00:00Z","geo":{"geometry":{"coordinates":[48.002671,29.38963189999999],"type":"Point"},"placekey":"@68n-2n7-pvz","address":{"country_code":"KW","formatted_address":"Arabian Gulf Street, Al Kuwayt, Kuwait","locality":"Al Kuwayt","region":"Al Asimah Governate"}},"labels":["expo","household"],"duration":7200,"start_local":"2024-05-31T10:00:00","end":"2024-05-31T09:00:00Z","end_local":"2024-05-31T12:00:00","updated":"2024-06-05T02:51:06Z"},{"title":"How the latest Aus Budget will impact the property market & investors","description":"Sourced from predicthq.com - Find out what's in store for investors in the coming year from the Federal & Vic Budgets (8pm SIN/KUL, 5:30pm IST)","category":"conferences","start":"2024-05-30T12:00:00Z","geo":{"geometry":{"coordinates":[47.9774052,29.375859],"type":"Point"},"placekey":"@68n-2nc-mc5","address":{"country_code":"KW","formatted_address":"مدينة الكويت, العاصمة, Kuwait","locality":"مدينة الكويت","region":"العاصمة"}},"labels":["business","conference"],"duration":2700,"start_local":"2024-05-30T15:00:00","end":"2024-05-30T12:45:00Z","end_local":"2024-05-30T15:45:00","updated":"2024-05-30T01:48:56Z"},{"title":"Kuwait Member Event: Impact of BEPS Pillar 2 and Corporate Income Tax in Kuwait","description":"Sourced from predicthq.com","category":"expos","start":"2024-05-28T21:00:00Z","geo":{"geometry":{"coordinates":[47.990904,29.377516],"type":"Point"},"placekey":"@68n-2n4-zfz","address":{"country_code":"KW","formatted_address":"Al Shuhada Street\nBox 1216\nKuwait City 15463\nKuwait","locality":"Kuwait City"}},"labels":["expo"],"duration":86399,"start_local":"2024-05-29T00:00:00","end":"2024-05-29T20:59:59Z","end_local":"2024-05-29T23:59:59","updated":"2024-05-28T02:34:11Z"},{"title":"R/E Agents - partner with us to make upto $1m in Bonus with AU property","description":"Sourced from predicthq.com - Find out how partnering with the right Australian Property Developer can earn your business upto AU$1m in bonuses every year","category":"conferences","start":"2024-05-28T07:00:00Z","geo":{"geometry":{"coordinates":[47.9774052,29.375859],"type":"Point"},"placekey":"@68n-2nc-mc5","address":{"country_code":"KW","formatted_address":"مدينة الكويت, العاصمة, Kuwait","locality":"مدينة الكويت","region":"العاصمة"}},"labels":["business","conference"],"duration":2700,"start_local":"2024-05-28T10:00:00","end":"2024-05-28T07:45:00Z","end_local":"2024-05-28T10:45:00","updated":"2024-05-23T01:51:12Z"},{"title":"Premier League - Championship Round - Al Nasar vs Al Qadsia","description":"Sourced from predicthq.com","category":"sports","start":"2024-05-27T17:50:00Z","geo":{"geometry":{"coordinates":[47.987632155418396,29.329074365835805],"type":"Point"},"placekey":"@68n-2nz-v75","address":{"country_code":"KW","formatted_address":"Al-Ittihad Street, Madīnat al-Kuwayt (Kuwait City), Kuwait","locality":"Madīnat al-Kuwayt (Kuwait City)"}},"labels":["soccer","sport"],"duration":0,"start_local":"2024-05-27T20:50:00","end":"2024-05-27T17:50:00Z","end_local":"2024-05-27T20:50:00","updated":"2024-06-12T06:15:54Z"},{"title":"Premier League - Championship Round - Kuwait SC vs Al Arabi","description":"Sourced from predicthq.com","category":"sports","start":"2024-05-27T16:20:00Z","geo":{"geometry":{"coordinates":[47.9249629688,29.2728355883],"type":"Point"},"placekey":"@68n-2jy-pvz","address":{"country_code":"KW","formatted_address":"Mohammed Ibn Kaseem St, Ardiya, Kuwait","locality":"Ardiya","region":"Al Farwaniyah Governorate"}},"labels":["soccer","sport"],"duration":0,"start_local":"2024-05-27T19:20:00","end":"2024-05-27T16:20:00Z","end_local":"2024-05-27T19:20:00","updated":"2024-06-12T11:33:41Z"},{"title":"Premier League - Championship Round - Al Fahaheel vs Al Salmiyah","description":"Sourced from predicthq.com","category":"sports","start":"2024-05-27T14:50:00Z","geo":{"geometry":{"coordinates":[47.987632155418396,29.329074365835805],"type":"Point"},"placekey":"@68n-2nz-v75","address":{"country_code":"KW","formatted_address":"Al-Ittihad Street, Madīnat al-Kuwayt (Kuwait City), Kuwait","locality":"Madīnat al-Kuwayt (Kuwait City)"}},"labels":["soccer","sport"],"duration":0,"start_local":"2024-05-27T17:50:00","end":"2024-05-27T14:50:00Z","end_local":"2024-05-27T17:50:00","updated":"2024-06-12T01:43:42Z"},{"title":"Journey Unauthorized","description":"Sourced from predicthq.com","category":"concerts","start":"2024-05-25T17:00:00Z","geo":{"geometry":{"coordinates":[48.1548271,28.9570465],"type":"Point"},"placekey":"@68m-yxz-g8v","address":{"country_code":"KW","formatted_address":"Ali Sabah Al Salem, Al Ahmadi Governorate, Kuwait","locality":"Ali Sabah Al Salem","region":"Al Ahmadi Governorate"}},"labels":["concert","music"],"duration":0,"start_local":"2024-05-25T20:00:00","end":"2024-05-25T17:00:00Z","end_local":"2024-05-25T20:00:00","updated":"2024-06-11T17:02:48Z"},{"title":"Premier League - Championship Round - Al Salmiyah vs Al Nasar","description":"Sourced from predicthq.com","category":"sports","start":"2024-05-24T16:15:00Z","geo":{"geometry":{"coordinates":[48.088418841362,29.341074357610683],"type":"Point"},"placekey":"@68m-x38-qxq","address":{"country_code":"KW","formatted_address":"Hamad Al-Mubarak Street, Al-Salmiya, Madīnat al-Kuwayt (Kuwait City), Kuwait","locality":"Madīnat al-Kuwayt (Kuwait City)"}},"labels":["soccer","sport"],"duration":0,"start_local":"2024-05-24T19:15:00","end":"2024-05-24T16:15:00Z","end_local":"2024-05-24T19:15:00","updated":"2024-06-12T07:27:37Z"},{"title":"Premier League - Championship Round - Al Qadsia vs Kuwait SC","description":"Sourced from predicthq.com","category":"sports","start":"2024-05-24T16:15:00Z","geo":{"geometry":{"coordinates":[48.03064405918121,29.340298095340703],"type":"Point"},"placekey":"@68n-2pg-2kz","address":{"country_code":"KW","formatted_address":"44 Street, Hawally, Madīnat al-Kuwayt (Kuwait City), Kuwait","locality":"Madīnat al-Kuwayt (Kuwait City)"}},"labels":["soccer","sport"],"duration":0,"start_local":"2024-05-24T19:15:00","end":"2024-05-24T16:15:00Z","end_local":"2024-05-24T19:15:00","updated":"2024-06-12T19:34:13Z"},{"title":"Premier League - Championship Round - Al Arabi vs Al Fahaheel","description":"Sourced from predicthq.com","category":"sports","start":"2024-05-24T16:15:00Z","geo":{"geometry":{"coordinates":[48.0003532654,29.3574925585],"type":"Point"},"placekey":"@68n-2nx-f75","address":{"country_code":"KW","formatted_address":"Mansuriyah (Al Arabi St)\nMansuriyah\nالكويت","locality":"Mansuriyah","region":"Al ‘Āşimah"}},"labels":["soccer","sport"],"duration":0,"start_local":"2024-05-24T19:15:00","end":"2024-05-24T16:15:00Z","end_local":"2024-05-24T19:15:00","updated":"2024-06-12T19:24:26Z"},{"title":"Andrew Moses","description":"Sourced from predicthq.com","category":"concerts","start":"2024-05-24T15:00:00Z","geo":{"geometry":{"coordinates":[47.990181,29.3890648],"type":"Point"},"placekey":"@68n-2n6-2rk","address":{"country_code":"KW","formatted_address":"Bin Misbah Street, Al Kuwayt, Kuwait","locality":"Al Kuwayt","region":"Al Asimah Governate"}},"labels":["concert","music"],"duration":0,"start_local":"2024-05-24T18:00:00","end":"2024-05-24T15:00:00Z","end_local":"2024-05-24T18:00:00","updated":"2024-06-12T00:43:45Z"},{"title":"Automation Talks","description":"Sourced from predicthq.com - Join us at Automation Talks for a day of inspiring discussions and insights on the future of automation technology!","category":"conferences","start":"2024-05-23T06:00:00Z","geo":{"geometry":{"coordinates":[48.088881000000015,29.268889],"type":"Point"},"placekey":"@68m-wvq-4y9","address":{"country_code":"KW","formatted_address":"13036 Kuwait City, Kuwait","postcode":"13036","locality":"Kuwait City","region":"Mubarak Al-Kabeer Governorate"}},"labels":["conference","science","technology"],"duration":18000,"start_local":"2024-05-23T09:00:00","end":"2024-05-23T11:00:00Z","end_local":"2024-05-23T14:00:00","updated":"2024-06-05T06:03:13Z"},{"title":"Premier League - Relegation Round - Al Jahra vs Khaitan","description":"Sourced from predicthq.com","category":"sports","start":"2024-05-17T16:10:00Z","geo":{"geometry":{"coordinates":[47.987632155418396,29.329074365835805],"type":"Point"},"placekey":"@68n-2nz-v75","address":{"country_code":"KW","formatted_address":"Al-Ittihad Street, Madīnat al-Kuwayt (Kuwait City), Kuwait","locality":"Madīnat al-Kuwayt (Kuwait City)"}},"labels":["soccer","sport"],"duration":0,"start_local":"2024-05-17T19:10:00","end":"2024-05-17T16:10:00Z","end_local":"2024-05-17T19:10:00","updated":"2024-06-12T13:49:28Z"},{"title":"Premier League - Relegation Round - Al Shabab vs Kazma","description":"Sourced from predicthq.com","category":"sports","start":"2024-05-17T16:10:00Z","geo":{"geometry":{"coordinates":[48.07866096496582,29.09127466222415],"type":"Point"},"placekey":"@68m-x44-87q","address":{"country_code":"KW","formatted_address":"Al Ahmadi, Kuwait","locality":"Al Ahmadi"}},"labels":["soccer","sport"],"duration":0,"start_local":"2024-05-17T19:10:00","end":"2024-05-17T16:10:00Z","end_local":"2024-05-17T19:10:00","updated":"2024-06-12T13:24:17Z"},{"title":"Premier League - Championship Round - Al Salmiyah vs Kuwait SC","description":"Sourced from predicthq.com","category":"sports","start":"2024-05-16T18:25:00Z","geo":{"geometry":{"coordinates":[48.088418841362,29.341074357610683],"type":"Point"},"placekey":"@68m-x38-qxq","address":{"country_code":"KW","formatted_address":"Hamad Al-Mubarak Street, Al-Salmiya, Madīnat al-Kuwayt (Kuwait City), Kuwait","locality":"Madīnat al-Kuwayt (Kuwait City)"}},"labels":["soccer","sport"],"duration":0,"start_local":"2024-05-16T21:25:00","end":"2024-05-16T18:25:00Z","end_local":"2024-05-16T21:25:00","updated":"2024-06-12T07:40:23Z"},{"title":"Premier League - Championship Round - Al Qadsia vs Al Arabi","description":"Sourced from predicthq.com","category":"sports","start":"2024-05-16T16:10:00Z","geo":{"geometry":{"coordinates":[48.03064405918121,29.340298095340703],"type":"Point"},"placekey":"@68n-2pg-2kz","address":{"country_code":"KW","formatted_address":"44 Street, Hawally, Madīnat al-Kuwayt (Kuwait City), Kuwait","locality":"Madīnat al-Kuwayt (Kuwait City)"}},"labels":["soccer","sport"],"duration":0,"start_local":"2024-05-16T19:10:00","end":"2024-05-16T16:10:00Z","end_local":"2024-05-16T19:10:00","updated":"2024-06-12T00:49:37Z"},{"title":"Premier League - Championship Round - Al Fahaheel vs Al Nasar","description":"Sourced from predicthq.com","category":"sports","start":"2024-05-15T16:10:00Z","geo":{"geometry":{"coordinates":[48.07866096496582,29.09127466222415],"type":"Point"},"placekey":"@68m-x44-87q","address":{"country_code":"KW","formatted_address":"Al Ahmadi, Kuwait","locality":"Al Ahmadi"}},"labels":["soccer","sport"],"duration":0,"start_local":"2024-05-15T19:10:00","end":"2024-05-15T16:10:00Z","end_local":"2024-05-15T19:10:00","updated":"2024-06-12T05:58:50Z"},{"title":"How to save AND protect your money when buying an investment property","description":"Sourced from predicthq.com - Learn the right legalities to save  tens of thousands when buying and holding an Inv property in Australia (5:30pm IST, 7pm JKT, 8pm SIN/KL)","category":"conferences","start":"2024-05-14T12:00:00Z","geo":{"geometry":{"coordinates":[47.9774052,29.375859],"type":"Point"},"placekey":"@68n-2nc-mc5","address":{"country_code":"KW","formatted_address":"مدينة الكويت, العاصمة, Kuwait","locality":"مدينة الكويت","region":"العاصمة"}},"labels":["business","conference"],"duration":2700,"start_local":"2024-05-14T15:00:00","end":"2024-05-14T12:45:00Z","end_local":"2024-05-14T15:45:00","updated":"2024-06-05T10:01:23Z"},{"title":"Premier League - Relegation Round - Khaitan vs Kazma","description":"Sourced from predicthq.com","category":"sports","start":"2024-05-13T16:10:00Z","geo":{"geometry":{"coordinates":[47.9839840684,29.2818124812],"type":"Point"},"placekey":"@68m-wwy-gzf","address":{"country_code":"KW","formatted_address":"16 90 St, Kuwait","locality":"Khaitan","region":"Hawalli Governorate"}},"labels":["soccer","sport"],"duration":0,"start_local":"2024-05-13T19:10:00","end":"2024-05-13T16:10:00Z","end_local":"2024-05-13T19:10:00","updated":"2024-06-12T07:25:04Z"},{"title":"Premier League - Relegation Round - Al Jahra vs Al Shabab","description":"Sourced from predicthq.com","category":"sports","start":"2024-05-13T16:10:00Z","geo":{"geometry":{"coordinates":[47.987632155418396,29.329074365835805],"type":"Point"},"placekey":"@68n-2nz-v75","address":{"country_code":"KW","formatted_address":"Al-Ittihad Street, Madīnat al-Kuwayt (Kuwait City), Kuwait","locality":"Madīnat al-Kuwayt (Kuwait City)"}},"labels":["soccer","sport"],"duration":0,"start_local":"2024-05-13T19:10:00","end":"2024-05-13T16:10:00Z","end_local":"2024-05-13T19:10:00","updated":"2024-06-12T05:11:59Z"},{"title":"IDC Kuwait CIO Summit","description":"Sourced from predicthq.com","category":"conferences","start":"2024-05-12T21:00:00Z","geo":{"geometry":{"coordinates":[47.990904,29.377516],"type":"Point"},"placekey":"@68n-2n4-zfz","address":{"country_code":"KW","formatted_address":"Al Shuhada Street\nBox 1216\nKuwait City 15463\nKuwait","locality":"Kuwait City"}},"labels":["conference"],"duration":86399,"start_local":"2024-05-13T00:00:00","end":"2024-05-13T20:59:59Z","end_local":"2024-05-13T23:59:59","updated":"2024-06-01T15:52:40Z"},{"title":"Premier League - Championship Round - Al Qadsia vs Al Fahaheel","description":"Sourced from predicthq.com","category":"sports","start":"2024-05-12T16:05:00Z","geo":{"geometry":{"coordinates":[48.03064405918121,29.340298095340703],"type":"Point"},"placekey":"@68n-2pg-2kz","address":{"country_code":"KW","formatted_address":"44 Street, Hawally, Madīnat al-Kuwayt (Kuwait City), Kuwait","locality":"Madīnat al-Kuwayt (Kuwait City)"}},"labels":["soccer","sport"],"duration":0,"start_local":"2024-05-12T19:05:00","end":"2024-05-12T16:05:00Z","end_local":"2024-05-12T19:05:00","updated":"2024-06-12T04:15:59Z"},{"title":"Premier League - Championship Round - Kuwait SC vs Al Nasar","description":"Sourced from predicthq.com","category":"sports","start":"2024-05-11T18:20:00Z","geo":{"geometry":{"coordinates":[47.9187014,29.2713728],"type":"Point"},"placekey":"@68n-2k6-bx5","address":{"country_code":"KW","formatted_address":"Jassem Mohammad Al-Kharafi Road, Al-Ardiya, Kuwait","locality":"Al-Ardiya","region":"Al Farwaniyah Governorate"}},"labels":["soccer","sport"],"duration":0,"start_local":"2024-05-11T21:20:00","end":"2024-05-11T18:20:00Z","end_local":"2024-05-11T21:20:00","updated":"2024-06-12T08:05:20Z"},{"title":"Premier League - Championship Round - Al Arabi vs Al Salmiyah","description":"Sourced from predicthq.com","category":"sports","start":"2024-05-11T16:05:00Z","geo":{"geometry":{"coordinates":[48.0003532654,29.3574925585],"type":"Point"},"placekey":"@68n-2nx-f75","address":{"country_code":"KW","formatted_address":"Mansuriyah (Al Arabi St)\nMansuriyah\nالكويت","locality":"Mansuriyah","region":"Al ‘Āşimah"}},"labels":["soccer","sport"],"duration":0,"start_local":"2024-05-11T19:05:00","end":"2024-05-11T16:05:00Z","end_local":"2024-05-11T19:05:00","updated":"2024-06-11T21:47:32Z"},{"title":"Premier League - Championship Round - Al Salmiyah vs Al Qadsia","description":"Sourced from predicthq.com","category":"sports","start":"2024-05-07T18:15:00Z","geo":{"geometry":{"coordinates":[48.088418841362,29.341074357610683],"type":"Point"},"placekey":"@68m-x38-qxq","address":{"country_code":"KW","formatted_address":"Hamad Al-Mubarak Street, Al-Salmiya, Madīnat al-Kuwayt (Kuwait City), Kuwait","locality":"Madīnat al-Kuwayt (Kuwait City)"}},"labels":["soccer","sport"],"duration":0,"start_local":"2024-05-07T21:15:00","end":"2024-05-07T18:15:00Z","end_local":"2024-05-07T21:15:00","updated":"2024-06-12T10:54:05Z"},{"title":"Premier League - Championship Round - Al Nasar vs Al Arabi","description":"Sourced from predicthq.com","category":"sports","start":"2024-05-07T16:00:00Z","geo":{"geometry":{"coordinates":[47.9249629688,29.2728355883],"type":"Point"},"placekey":"@68n-2jy-pvz","address":{"country_code":"KW","formatted_address":"Mohammed Ibn Kaseem St, Ardiya, Kuwait","locality":"Ardiya","region":"Al Farwaniyah Governorate"}},"labels":["soccer","sport"],"duration":0,"start_local":"2024-05-07T19:00:00","end":"2024-05-07T16:00:00Z","end_local":"2024-05-07T19:00:00","updated":"2024-06-12T02:47:59Z"},{"title":"Premier League - Championship Round - Al Fahaheel vs Kuwait SC","description":"Sourced from predicthq.com","category":"sports","start":"2024-05-06T16:00:00Z","geo":{"geometry":{"coordinates":[48.06918203830719,29.29146587212901],"type":"Point"},"placekey":"@68m-wvy-zvf","address":{"country_code":"KW","formatted_address":"Madīnat al-Kuwayt (Kuwait City), Kuwait","locality":"Madīnat al-Kuwayt (Kuwait City)"}},"labels":["soccer","sport"],"duration":0,"start_local":"2024-05-06T19:00:00","end":"2024-05-06T16:00:00Z","end_local":"2024-05-06T19:00:00","updated":"2024-06-11T22:07:13Z"},{"title":"Kuwait Build","description":"Sourced from predicthq.com","category":"expos","start":"2024-05-05T21:00:00Z","geo":{"geometry":{"coordinates":[48.0472107,29.2705267],"type":"Point"},"placekey":"@68m-wvb-xyv","address":{"country_code":"KW","formatted_address":"Block 6, Mubarak Al-Abdullah, Kuwait","locality":"Mubarak Al-Abdullah","region":"Hawalli Governorate"}},"labels":["expo"],"duration":518399,"start_local":"2024-05-06T00:00:00","end":"2024-05-11T20:59:59Z","end_local":"2024-05-11T23:59:59","updated":"2024-06-05T06:39:41Z"},{"title":"Premier League - Relegation Round - Kazma vs Al Jahra","description":"Sourced from predicthq.com","category":"sports","start":"2024-05-05T17:15:00Z","geo":{"geometry":{"coordinates":[47.987632155418396,29.329074365835805],"type":"Point"},"placekey":"@68n-2nz-v75","address":{"country_code":"KW","formatted_address":"Al-Ittihad Street, Madīnat al-Kuwayt (Kuwait City), Kuwait","locality":"Madīnat al-Kuwayt (Kuwait City)"}},"labels":["soccer","sport"],"duration":0,"start_local":"2024-05-05T20:15:00","end":"2024-05-05T17:15:00Z","end_local":"2024-05-05T20:15:00","updated":"2024-06-11T23:17:11Z"},{"title":"Premier League - Relegation Round - Khaitan vs Al Shabab","description":"Sourced from predicthq.com","category":"sports","start":"2024-05-05T14:35:00Z","geo":{"geometry":{"coordinates":[47.9839840684,29.2818124812],"type":"Point"},"placekey":"@68m-wwy-gzf","address":{"country_code":"KW","formatted_address":"16 90 St, Kuwait","locality":"Khaitan","region":"Hawalli Governorate"}},"labels":["soccer","sport"],"duration":0,"start_local":"2024-05-05T17:35:00","end":"2024-05-05T14:35:00Z","end_local":"2024-05-05T17:35:00","updated":"2024-06-12T18:01:28Z"},{"title":"Premier League - Championship Round - Al Qadsia vs Al Nasar","description":"Sourced from predicthq.com","category":"sports","start":"2024-05-03T16:00:00Z","geo":{"geometry":{"coordinates":[48.03064405918121,29.340298095340703],"type":"Point"},"placekey":"@68n-2pg-2kz","address":{"country_code":"KW","formatted_address":"44 Street, Hawally, Madīnat al-Kuwayt (Kuwait City), Kuwait","locality":"Madīnat al-Kuwayt (Kuwait City)"}},"labels":["soccer","sport"],"duration":0,"start_local":"2024-05-03T19:00:00","end":"2024-05-03T16:00:00Z","end_local":"2024-05-03T19:00:00","updated":"2024-06-12T03:24:29Z"},{"title":"New Year Run","description":"Sourced from predicthq.com","category":"sports","start":"2024-05-03T16:00:00Z","geo":{"geometry":{"coordinates":[48.154826,28.9570473],"type":"Point"},"placekey":"@68m-yxz-g8v","address":{"country_code":"KW","formatted_address":"Ali Sabah Al Salem, Al Ahmadi Governorate, Kuwait","locality":"Ali Sabah Al Salem","region":"Al Ahmadi Governorate"}},"labels":["outdoor-sports","running","sport"],"duration":0,"start_local":"2024-05-03T19:00:00","end":"2024-05-03T16:00:00Z","end_local":"2024-05-03T19:00:00","updated":"2024-06-05T04:43:05Z"},{"title":"Premier League - Championship Round - Al Arabi vs Kuwait SC","description":"Sourced from predicthq.com","category":"sports","start":"2024-05-02T17:20:00Z","geo":{"geometry":{"coordinates":[48.0003532654,29.3574925585],"type":"Point"},"placekey":"@68n-2nx-f75","address":{"country_code":"KW","formatted_address":"Mansuriyah (Al Arabi St)\nMansuriyah\nالكويت","locality":"Mansuriyah","region":"Al ‘Āşimah"}},"labels":["soccer","sport"],"duration":0,"start_local":"2024-05-02T20:20:00","end":"2024-05-02T17:20:00Z","end_local":"2024-05-02T20:20:00","updated":"2024-06-12T00:46:18Z"},{"title":"Premier League - Championship Round - Al Salmiyah vs Al Fahaheel","description":"Sourced from predicthq.com","category":"sports","start":"2024-05-02T14:35:00Z","geo":{"geometry":{"coordinates":[48.088418841362,29.341074357610683],"type":"Point"},"placekey":"@68m-x38-qxq","address":{"country_code":"KW","formatted_address":"Hamad Al-Mubarak Street, Al-Salmiya, Madīnat al-Kuwayt (Kuwait City), Kuwait","locality":"Madīnat al-Kuwayt (Kuwait City)"}},"labels":["soccer","sport"],"duration":0,"start_local":"2024-05-02T17:35:00","end":"2024-05-02T14:35:00Z","end_local":"2024-05-02T17:35:00","updated":"2024-06-12T03:21:11Z"},{"title":"Paradigm Shift+ | Neurodiversity, Innovation, and Design in UX","description":"Sourced from predicthq.com - Here’s to the crazy ones. The misfits. The rebels. The troublemakers. The round pegs in the square holes. The ones who see things different","category":"conferences","start":"2024-04-30T16:00:00Z","geo":{"geometry":{"coordinates":[47.9774052,29.375859],"type":"Point"},"placekey":"@68n-2nc-mc5","address":{"country_code":"KW","formatted_address":"مدينة الكويت, العاصمة, Kuwait","locality":"مدينة الكويت","region":"العاصمة"}},"labels":["business","conference"],"duration":7200,"start_local":"2024-04-30T19:00:00","end":"2024-04-30T18:00:00Z","end_local":"2024-04-30T21:00:00","updated":"2024-06-05T07:42:16Z"},{"title":"Premier League - Relegation Round - Khaitan vs Al Jahra","description":"Sourced from predicthq.com","category":"sports","start":"2024-04-29T17:15:00Z","geo":{"geometry":{"coordinates":[47.9839840684,29.2818124812],"type":"Point"},"placekey":"@68m-wwy-gzf","address":{"country_code":"KW","formatted_address":"16 90 St, Kuwait","locality":"Khaitan","region":"Hawalli Governorate"}},"labels":["soccer","sport"],"duration":0,"start_local":"2024-04-29T20:15:00","end":"2024-04-29T17:15:00Z","end_local":"2024-04-29T20:15:00","updated":"2024-06-12T08:26:56Z"},{"title":"West Asia Super League - Gulf Final - Kuwait vs Manama","description":"Sourced from predicthq.com","category":"sports","start":"2024-04-29T17:00:00Z","geo":{"geometry":{"coordinates":[48.07469442758173,29.265258953936044],"type":"Point"},"placekey":"@68m-wvz-p9z","address":{"country_code":"KW","formatted_address":"738F+4WV, Sabah Al Salem, Kuwait","locality":"Sabah Al Salem","region":"Mubarak Al-Kabeer Governorate"}},"labels":["basketball","sport"],"duration":0,"start_local":"2024-04-29T20:00:00","end":"2024-04-29T17:00:00Z","end_local":"2024-04-29T20:00:00","updated":"2024-06-12T10:00:32Z"},{"title":"Premier League - Relegation Round - Kazma vs Al Shabab","description":"Sourced from predicthq.com","category":"sports","start":"2024-04-29T14:30:00Z","geo":{"geometry":{"coordinates":[47.987632155418396,29.329074365835805],"type":"Point"},"placekey":"@68n-2nz-v75","address":{"country_code":"KW","formatted_address":"Al-Ittihad Street, Madīnat al-Kuwayt (Kuwait City), Kuwait","locality":"Madīnat al-Kuwayt (Kuwait City)"}},"labels":["soccer","sport"],"duration":0,"start_local":"2024-04-29T17:30:00","end":"2024-04-29T14:30:00Z","end_local":"2024-04-29T17:30:00","updated":"2024-06-11T23:12:08Z"},{"title":"Premier League - Championship Round - Al Nasar vs Al Salmiyah","description":"Sourced from predicthq.com","category":"sports","start":"2024-04-28T15:55:00Z","geo":{"geometry":{"coordinates":[47.9249629688,29.2728355883],"type":"Point"},"placekey":"@68n-2jy-pvz","address":{"country_code":"KW","formatted_address":"Mohammed Ibn Kaseem St, Ardiya, Kuwait","locality":"Ardiya","region":"Al Farwaniyah Governorate"}},"labels":["soccer","sport"],"duration":0,"start_local":"2024-04-28T18:55:00","end":"2024-04-28T15:55:00Z","end_local":"2024-04-28T18:55:00","updated":"2024-06-12T16:37:57Z"},{"title":"Premier League - Championship Round - Kuwait SC vs Al Qadsia","description":"Sourced from predicthq.com","category":"sports","start":"2024-04-27T17:15:00Z","geo":{"geometry":{"coordinates":[47.9187014,29.2713728],"type":"Point"},"placekey":"@68n-2k6-bx5","address":{"country_code":"KW","formatted_address":"Jassem Mohammad Al-Kharafi Road, Al-Ardiya, Kuwait","locality":"Al-Ardiya","region":"Al Farwaniyah Governorate"}},"labels":["soccer","sport"],"duration":0,"start_local":"2024-04-27T20:15:00","end":"2024-04-27T17:15:00Z","end_local":"2024-04-27T20:15:00","updated":"2024-06-12T01:50:37Z"},{"title":"Premier League - Championship Round - Al Fahaheel vs Al Arabi","description":"Sourced from predicthq.com","category":"sports","start":"2024-04-27T14:30:00Z","geo":{"geometry":{"coordinates":[48.06918203830719,29.29146587212901],"type":"Point"},"placekey":"@68m-wvy-zvf","address":{"country_code":"KW","formatted_address":"Madīnat al-Kuwayt (Kuwait City), Kuwait","locality":"Madīnat al-Kuwayt (Kuwait City)"}},"labels":["soccer","sport"],"duration":0,"start_local":"2024-04-27T17:30:00","end":"2024-04-27T14:30:00Z","end_local":"2024-04-27T17:30:00","updated":"2024-06-12T01:40:48Z"},{"title":"Everything an  o/s buyer needs to know about financing an Aus Inv Property","description":"Sourced from predicthq.com - Finance is a critical aspect of property investment, it can make a significant impact on your investment journey (3pm AST, 8pm SIN/KUL)","category":"conferences","start":"2024-04-23T12:00:00Z","geo":{"geometry":{"coordinates":[47.9774052,29.375859],"type":"Point"},"placekey":"@68n-2nc-mc5","address":{"country_code":"KW","formatted_address":"مدينة الكويت, العاصمة, Kuwait","locality":"مدينة الكويت","region":"العاصمة"}},"labels":["business","conference"],"duration":2700,"start_local":"2024-04-23T15:00:00","end":"2024-04-23T12:45:00Z","end_local":"2024-04-23T15:45:00","updated":"2024-06-05T13:04:45Z"},{"title":"West Asia Super League - Gulf 3rd Place Final - Kazma vs Al Muharraq","description":"Sourced from predicthq.com","category":"sports","start":"2024-04-22T17:00:00Z","geo":{"geometry":{"coordinates":[48.07469442758173,29.265258953936044],"type":"Point"},"placekey":"@68m-wvz-p9z","address":{"country_code":"KW","formatted_address":"738F+4WV, Sabah Al Salem, Kuwait","locality":"Sabah Al Salem","region":"Mubarak Al-Kabeer Governorate"}},"labels":["basketball","sport"],"duration":0,"start_local":"2024-04-22T20:00:00","end":"2024-04-22T17:00:00Z","end_local":"2024-04-22T20:00:00","updated":"2024-06-12T04:52:21Z"},{"title":"Premier League - Championship Round - Kuwait SC vs Al Salmiyah","description":"Sourced from predicthq.com","category":"sports","start":"2024-04-08T18:30:00Z","geo":{"geometry":{"coordinates":[47.9187014,29.2713728],"type":"Point"},"placekey":"@68n-2k6-bx5","address":{"country_code":"KW","formatted_address":"Jassem Mohammad Al-Kharafi Road, Al-Ardiya, Kuwait","locality":"Al-Ardiya","region":"Al Farwaniyah Governorate"}},"labels":["soccer","sport"],"duration":0,"start_local":"2024-04-08T21:30:00","end":"2024-04-08T18:30:00Z","end_local":"2024-04-08T21:30:00","updated":"2024-06-12T13:15:52Z"},{"title":"Premier League - Championship Round - Al Arabi vs Al Qadsia","description":"Sourced from predicthq.com","category":"sports","start":"2024-04-07T18:30:00Z","geo":{"geometry":{"coordinates":[48.0003532654,29.3574925585],"type":"Point"},"placekey":"@68n-2nx-f75","address":{"country_code":"KW","formatted_address":"Mansuriyah (Al Arabi St)\nMansuriyah\nالكويت","locality":"Mansuriyah","region":"Al ‘Āşimah"}},"labels":["soccer","sport"],"duration":0,"start_local":"2024-04-07T21:30:00","end":"2024-04-07T18:30:00Z","end_local":"2024-04-07T21:30:00","updated":"2024-06-12T14:05:15Z"}]