[{"title":"Music at the Library - Thursday, June 27th, 6pm","description":"Sourced from predicthq.com - Cayman Arts Festival and the Cayman Islands Public Library Service proudly present monthly one hour concerts which include music and poetry.","category":"concerts","start":"2024-06-27T23:00:00Z","geo":{"geometry":{"coordinates":[-81.38462,19.280589],"type":"Point"},"placekey":"@8jf-x5k-k4v","address":{"country_code":"KY","formatted_address":"Olympic Way, George Town, Cayman Islands","locality":"George Town","region":"George Town"}},"labels":["concert","music"],"duration":3600,"start_local":"2024-06-27T18:00:00","end":"2024-06-28T00:00:00Z","end_local":"2024-06-27T19:00:00","updated":"2024-06-20T03:35:44Z"},{"title":"Raising Capital Forum 2024","description":"Sourced from predicthq.com - Learn to raise capital and meet investors. The forum highlights financing options for micro and small businesses.","category":"conferences","start":"2024-06-20T21:00:00Z","geo":{"geometry":{"coordinates":[-81.383691,19.317633],"type":"Point"},"placekey":"@8jf-x5x-d5f","address":{"country_code":"KY","formatted_address":"Grand Cayman, Cayman Islands","locality":"Grand Cayman","region":"Grand Cayman"}},"labels":["business","conference"],"duration":10800,"start_local":"2024-06-20T16:00:00","end":"2024-06-21T00:00:00Z","end_local":"2024-06-20T19:00:00","updated":"2024-06-06T02:05:35Z"},{"title":"CAF Youth Camerata - Summer Concert","description":"Sourced from predicthq.com - We are thrilled to present another performance of the CAF Youth Camerata, an orchestra comprised of exceptionally talented students.","category":"concerts","start":"2024-06-14T22:00:00Z","geo":{"geometry":{"coordinates":[-81.38462,19.280589],"type":"Point"},"placekey":"@8jf-x5k-k4v","address":{"country_code":"KY","formatted_address":"Olympic Way, George Town, Cayman Islands","locality":"George Town","region":"George Town"}},"labels":["concert","music"],"duration":3600,"start_local":"2024-06-14T17:00:00","end":"2024-06-14T23:00:00Z","end_local":"2024-06-14T18:00:00","updated":"2024-06-28T22:07:00Z"},{"title":"Cayman Youth Choir - \"Mamma Mia!\"","description":"Sourced from predicthq.com - A Queen and ABBA singalong experience and concert","category":"concerts","start":"2024-06-12T23:30:00Z","geo":{"geometry":{"coordinates":[-81.38462,19.280589],"type":"Point"},"placekey":"@8jf-x5k-k4v","address":{"country_code":"KY","formatted_address":"Olympic Way, George Town, Cayman Islands","locality":"George Town","region":"George Town"}},"labels":["concert","music"],"duration":5400,"start_local":"2024-06-12T18:30:00","end":"2024-06-13T01:00:00Z","end_local":"2024-06-12T20:00:00","updated":"2024-06-27T01:18:31Z"},{"title":"Stuart Wilson","description":"Sourced from predicthq.com","category":"concerts","start":"2024-06-07T01:00:00Z","geo":{"geometry":{"coordinates":[-81.380694,19.339342],"type":"Point"},"placekey":"@8jf-x63-syv","address":{"country_code":"KY","formatted_address":"Seven Mile Beach 0, Cayman Islands","postcode":"0","locality":"Seven Mile Beach","region":"Cayman"}},"labels":["concert","music"],"duration":0,"start_local":"2024-06-06T20:00:00","end":"2024-06-07T01:00:00Z","end_local":"2024-06-06T20:00:00","updated":"2024-07-03T21:36:10Z"},{"title":"FIRE Americas: Cayman","description":"Sourced from predicthq.com","category":"conferences","start":"2024-06-05T14:00:00Z","geo":{"geometry":{"coordinates":[-81.380694,19.339342],"type":"Point"},"placekey":"@8jf-x63-syv","address":{"country_code":"KY","formatted_address":"Seven Mile Beach 0, Cayman Islands","postcode":"0","locality":"Seven Mile Beach","region":"Cayman"}},"labels":["conference"],"duration":205200,"start_local":"2024-06-05T09:00:00","end":"2024-06-07T23:00:00Z","end_local":"2024-06-07T18:00:00","updated":"2024-05-28T21:14:39Z"},{"title":"Rugby Union Internationals - Friendlies 3 - Cayman Islands vs Mexico","description":"Sourced from predicthq.com","category":"sports","start":"2024-06-01T00:00:00Z","geo":{"geometry":{"coordinates":[-81.3828992843628,19.278516721138008],"type":"Point"},"placekey":"@8jf-x5k-jgk","address":{"country_code":"KY","formatted_address":"115 Olympic Way, George Town, Cayman Islands","locality":"George Town","region":"George Town"}},"labels":["rugby","sport"],"duration":0,"start_local":"2024-05-31T19:00:00","end":"2024-06-01T00:00:00Z","end_local":"2024-05-31T19:00:00","updated":"2024-06-12T18:25:23Z"},{"title":"Music at the Library - Thursday, May 30th, 6pm","description":"Sourced from predicthq.com - Cayman Arts Festival and the Cayman Islands Public Library Service proudly present monthly one hour concerts which include music and poetry.","category":"concerts","start":"2024-05-30T23:00:00Z","geo":{"geometry":{"coordinates":[-81.38462,19.280589],"type":"Point"},"placekey":"@8jf-x5k-k4v","address":{"country_code":"KY","formatted_address":"Olympic Way, George Town, Cayman Islands","locality":"George Town","region":"George Town"}},"labels":["concert","music"],"duration":3600,"start_local":"2024-05-30T18:00:00","end":"2024-05-31T00:00:00Z","end_local":"2024-05-30T19:00:00","updated":"2024-06-12T11:12:20Z"},{"title":"Lunch & Learn 'Unlocking Social Media Success: An Introductory Guide for Business Owners'","description":"Sourced from predicthq.com - Join us for a casual lunch and informative session on how to boost your business through social media - perfect for business owners looking","category":"conferences","start":"2024-05-30T17:00:00Z","geo":{"geometry":{"coordinates":[-81.38409539999999,19.3081548],"type":"Point"},"placekey":"@8jf-x65-t5f","address":{"country_code":"KY","formatted_address":"George Town, Cayman Islands","region":"George Town"}},"labels":["business","conference"],"duration":5400,"start_local":"2024-05-30T12:00:00","end":"2024-05-30T18:30:00Z","end_local":"2024-05-30T13:30:00","updated":"2024-06-05T04:07:09Z"},{"title":"IMAC Educational Session","description":"Sourced from predicthq.com - Join us to hear from industry experts at CIMA, Campbells and Kroll.","category":"conferences","start":"2024-05-23T20:00:00Z","geo":{"geometry":{"coordinates":[-81.3780537,19.3220761],"type":"Point"},"placekey":"@8jf-x5x-pgk","address":{"country_code":"KY","formatted_address":"Market Street, KY1-9006, Cayman Islands","postcode":"KY1-9006","region":"George Town"}},"labels":["business","conference"],"duration":7200,"start_local":"2024-05-23T15:00:00","end":"2024-05-23T22:00:00Z","end_local":"2024-05-23T17:00:00","updated":"2024-06-05T15:35:54Z"},{"title":"Mental Health & Productivity in the Workplace","description":"Sourced from predicthq.com - Learn how to balance your mental health and boost your productivity at work in our upcoming event!","category":"conferences","start":"2024-05-23T18:00:00Z","geo":{"geometry":{"coordinates":[-81.3724483,19.2934511],"type":"Point"},"placekey":"@8jf-x5k-bx5","address":{"country_code":"KY","formatted_address":"Shedden Road, George Town 1108, Cayman Islands","locality":"George Town","postcode":"1108","region":"George Town"}},"labels":["conference","health"],"duration":7200,"start_local":"2024-05-23T13:00:00","end":"2024-05-23T20:00:00Z","end_local":"2024-05-23T15:00:00","updated":"2024-05-23T03:01:29Z"},{"title":"Music at the Library - Thursday, May 9th, 6pm","description":"Sourced from predicthq.com - Cayman Arts Festival and the Cayman Islands Public Library Service proudly present monthly one hour concerts which include music and poetry.","category":"concerts","start":"2024-05-09T23:00:00Z","geo":{"geometry":{"coordinates":[-81.38462,19.280589],"type":"Point"},"placekey":"@8jf-x5k-k4v","address":{"country_code":"KY","formatted_address":"George Town, Cayman Islands","locality":"George Town","region":"George Town"}},"labels":["concert","music"],"duration":3600,"start_local":"2024-05-09T18:00:00","end":"2024-05-10T00:00:00Z","end_local":"2024-05-09T19:00:00","updated":"2024-05-23T23:09:27Z"},{"title":"Create HOPE District 7020 PETS Assembly and Conference","description":"Sourced from predicthq.com","category":"conferences","start":"2024-04-29T14:00:00Z","geo":{"geometry":{"coordinates":[-81.383691,19.317633],"type":"Point"},"placekey":"@8jf-x5x-d5f","address":{"country_code":"KY","formatted_address":"Grand Cayman, Cayman Islands","locality":"Grand Cayman","region":"Grand Cayman"}},"labels":["conference"],"duration":464400,"start_local":"2024-04-29T09:00:00","end":"2024-05-04T23:00:00Z","end_local":"2024-05-04T18:00:00","updated":"2024-06-05T06:21:51Z"},{"title":"Laughter Lounge Cayman Comedy Show April Edition","description":"Sourced from predicthq.com - Comedy Concert","category":"performing-arts","start":"2024-04-20T02:00:00Z","geo":{"geometry":{"coordinates":[-81.3780537,19.3220761],"type":"Point"},"placekey":"@8jf-x5x-pgk","address":{"country_code":"KY","formatted_address":"Market Street, KY1-9006, Cayman Islands","postcode":"KY1-9006","region":"George Town"}},"labels":["concert","music","performing-arts"],"duration":9000,"start_local":"2024-04-19T21:00:00","end":"2024-04-20T04:30:00Z","end_local":"2024-04-19T23:30:00","updated":"2024-06-05T00:24:33Z"},{"title":"Music at the Library - Glen Inanga & Rodney Marsalis","description":"Sourced from predicthq.com - Cayman Arts Festival and the Cayman Islands Public Library Service proudly present monthly one hour concerts which include music and poetry.","category":"concerts","start":"2024-04-18T23:00:00Z","geo":{"geometry":{"coordinates":[-81.38462,19.280589],"type":"Point"},"placekey":"@8jf-x5k-k4v","address":{"country_code":"KY","formatted_address":"George Town, Cayman Islands","locality":"George Town","region":"George Town"}},"labels":["concert","music"],"duration":3600,"start_local":"2024-04-18T18:00:00","end":"2024-04-19T00:00:00Z","end_local":"2024-04-18T19:00:00","updated":"2024-06-05T10:30:44Z"},{"title":"Internal Medicine for Primary Care","description":"Sourced from predicthq.com","category":"conferences","start":"2024-04-18T14:00:00Z","geo":{"geometry":{"coordinates":[-81.383691,19.317633],"type":"Point"},"placekey":"@8jf-x5x-d5f","address":{"country_code":"KY","formatted_address":"Grand Cayman, Cayman Islands","locality":"Grand Cayman","region":"Grand Cayman"}},"labels":["conference"],"duration":291600,"start_local":"2024-04-18T09:00:00","end":"2024-04-21T23:00:00Z","end_local":"2024-04-21T18:00:00","updated":"2024-06-05T08:16:50Z"},{"title":"GAIM Ops Cayman","description":"Sourced from predicthq.com - GAIM Ops Cayman is an exclusive conference event that brings together top-tier professionals and industry leaders in the alternative investment operations community. This premier gathering offers valuable insights, networking opportunities, and innovative solutions to enhance operational efficiency and drive success in the dynamic world of alternative investments.","category":"conferences","start":"2024-04-14T14:00:00Z","geo":{"geometry":{"coordinates":[-81.3795381,19.3359359],"type":"Point"},"placekey":"@8jf-x64-vfz","address":{"country_code":"KY","formatted_address":"George Town, Grand Cayman, Cayman Islands","locality":"George Town","region":"Grand Cayman"}},"labels":["conference"],"duration":291600,"start_local":"2024-04-14T09:00:00","end":"2024-04-17T23:00:00Z","end_local":"2024-04-17T18:00:00","updated":"2024-06-05T06:44:31Z"}]