[{"title":"Electric & Hybrid Vehicle Expo","description":"Sourced from predicthq.com","category":"expos","start":"2024-10-02T04:00:00Z","geo":{"geometry":{"coordinates":[76.926575,43.240068],"type":"Point"},"placekey":"@56w-cht-tqf","address":{"country_code":"KZ","formatted_address":"Abay Ave 44 Abai Ave., corner Baitursynuly St., Almaty 050000, Kazakhstan","postcode":"050000","locality":"Almaty","region":"Almaty"}},"labels":["expo"],"duration":205200,"start_local":"2024-10-02T09:00:00","end":"2024-10-04T13:00:00Z","end_local":"2024-10-04T18:00:00","updated":"2024-06-04T03:43:26Z"},{"title":"Battery Expo","description":"Sourced from predicthq.com","category":"expos","start":"2024-10-02T04:00:00Z","geo":{"geometry":{"coordinates":[76.926575,43.240068],"type":"Point"},"placekey":"@56w-cht-tqf","address":{"country_code":"KZ","formatted_address":"Abay Ave 44 Abai Ave., corner Baitursynuly St., Almaty 050000, Kazakhstan","postcode":"050000","locality":"Almaty","region":"Almaty"}},"labels":["expo"],"duration":205200,"start_local":"2024-10-02T09:00:00","end":"2024-10-04T13:00:00Z","end_local":"2024-10-04T18:00:00","updated":"2024-05-28T16:50:38Z"},{"title":"International Bakery, Confectionery, Patisserie Technologies & Machinery Exhibition","description":"Sourced from predicthq.com","category":"expos","start":"2024-10-02T04:00:00Z","geo":{"geometry":{"coordinates":[76.905581,43.224997],"type":"Point"},"placekey":"@56w-chs-rff","address":{"country_code":"KZ","formatted_address":"Kazakhstan, Almaty, 050060 Almaty, Timiryazev Street","locality":"Almaty","postcode":"050060","region":"Almaty"}},"labels":["expo"],"duration":205200,"start_local":"2024-10-02T09:00:00","end":"2024-10-04T13:00:00Z","end_local":"2024-10-04T18:00:00","updated":"2024-07-02T07:00:34Z"},{"title":"Solar & Energy Technology Kazakhstan","description":"Sourced from predicthq.com","category":"expos","start":"2024-10-02T04:00:00Z","geo":{"geometry":{"coordinates":[76.926575,43.240068],"type":"Point"},"placekey":"@56w-cht-tqf","address":{"country_code":"KZ","formatted_address":"Abay Ave 44 Abai Ave., corner Baitursynuly St., Almaty 050000, Kazakhstan","postcode":"050000","locality":"Almaty","region":"Almaty"}},"labels":["expo"],"duration":205200,"start_local":"2024-10-02T09:00:00","end":"2024-10-04T13:00:00Z","end_local":"2024-10-04T18:00:00","updated":"2024-06-03T21:23:09Z"},{"title":"GreenTech Expo Kazakhstan","description":"Sourced from predicthq.com","category":"expos","start":"2024-10-01T18:00:00Z","geo":{"geometry":{"coordinates":[76.926575,43.240068],"type":"Point"},"placekey":"@56w-cht-tqf","address":{"country_code":"KZ","formatted_address":"Abay Ave 44 Abai Ave., corner Baitursynuly St., Almaty 050000, Kazakhstan","postcode":"050000","locality":"Almaty","region":"Almaty"}},"labels":["expo"],"duration":259199,"start_local":"2024-10-02T00:00:00","end":"2024-10-04T17:59:59Z","end_local":"2024-10-04T23:59:59","updated":"2024-06-04T02:34:43Z"},{"title":"Astana Travel Expo 2024 - Kazakhstan International Tourism Exhibition","description":"Sourced from predicthq.com","category":"expos","start":"2024-10-01T18:00:00Z","geo":{"geometry":{"coordinates":[71.4190444,51.0886039],"type":"Point"},"placekey":"@57y-v69-dy9","address":{"country_code":"KZ","formatted_address":"Kazakhstan, Astana, 020000 Astana","locality":"Astana","postcode":"020000","region":"Astana"}},"labels":["expo","tourism","travel"],"duration":259199,"start_local":"2024-10-02T00:00:00","end":"2024-10-04T17:59:59Z","end_local":"2024-10-04T23:59:59","updated":"2024-06-16T05:46:40Z"},{"title":"Almaty Marathon","description":"Sourced from predicthq.com","category":"sports","start":"2024-09-28T18:00:00Z","geo":{"geometry":{"coordinates":[76.8512485,43.2220146],"type":"Point"},"placekey":"@56w-cj5-f4v","address":{"country_code":"KZ","formatted_address":"Kazakhstan, Almaty, 050000 Almaty","locality":"Almaty","postcode":"050000","region":"Almaty"}},"labels":["marathon","outdoor-sports","running","sport"],"duration":86399,"start_local":"2024-09-29T00:00:00","end":"2024-09-29T17:59:59Z","end_local":"2024-09-29T23:59:59","updated":"2024-06-24T05:00:34Z"},{"title":"KIOGE","description":"Sourced from predicthq.com - Kazakhstan International Oil & Gas Exhibition & Conference","category":"expos","start":"2024-09-24T18:00:00Z","geo":{"geometry":{"coordinates":[76.9055813,43.2249971],"type":"Point"},"placekey":"@56w-chs-rff","address":{"country_code":"KZ","formatted_address":"Kazakhstan, Almaty, 050060 Almaty, Timiryazev Street","locality":"Almaty","postcode":"050060","region":"Almaty"}},"labels":["environment","expo","industrial"],"duration":259199,"start_local":"2024-09-25T00:00:00","end":"2024-09-27T17:59:59Z","end_local":"2024-09-27T23:59:59","updated":"2024-06-30T10:09:09Z"},{"title":"WALS Conference","description":"Sourced from predicthq.com","category":"conferences","start":"2024-09-24T04:00:00Z","geo":{"geometry":{"coordinates":[71.41118,51.092478],"type":"Point"},"placekey":"@57y-v8k-3t9","address":{"country_code":"KZ","formatted_address":"Kazakhstan, Astana, 020000 Astana, Sauran Street","locality":"Astana","postcode":"020000","region":"Astana"}},"labels":["conference"],"duration":205200,"start_local":"2024-09-24T09:00:00","end":"2024-09-26T13:00:00Z","end_local":"2024-09-26T18:00:00","updated":"2024-05-31T22:54:30Z"},{"title":"MotoGP 2024 - Kazakhstan motorcycle Grand Prix 2024 - Practice 2","description":"Sourced from predicthq.com","category":"sports","start":"2024-09-20T10:30:00Z","geo":{"geometry":{"coordinates":[76.570556,43.584722],"type":"Point"},"placekey":"@56w-hf5-vmk","address":{"country_code":"KZ","formatted_address":"Almaty, Kazakhstan","locality":"Almaty"}},"labels":["auto-racing","motogp","sport"],"duration":3600,"start_local":"2024-09-20T15:30:00","end":"2024-09-20T11:30:00Z","end_local":"2024-09-20T16:30:00","updated":"2024-06-03T23:45:14Z"},{"title":"MotoGP 2024 - Kazakhstan motorcycle Grand Prix 2024 - Practice 1","description":"Sourced from predicthq.com","category":"sports","start":"2024-09-20T06:15:00Z","geo":{"geometry":{"coordinates":[76.570556,43.584722],"type":"Point"},"placekey":"@56w-hf5-vmk","address":{"country_code":"KZ","formatted_address":"Almaty, Kazakhstan","locality":"Almaty"}},"labels":["auto-racing","motogp","sport"],"duration":4200,"start_local":"2024-09-20T11:15:00","end":"2024-09-20T07:25:00Z","end_local":"2024-09-20T12:25:00","updated":"2024-06-03T23:45:14Z"},{"title":"Moto2 2024 - Kazakhstan motorcycle Grand Prix 2024 - Practice 1","description":"Sourced from predicthq.com","category":"sports","start":"2024-09-20T05:05:00Z","geo":{"geometry":{"coordinates":[76.570556,43.584722],"type":"Point"},"placekey":"@56w-hf5-vmk","address":{"country_code":"KZ","formatted_address":"Almaty, Kazakhstan","locality":"Almaty"}},"labels":["auto-racing","motogp","sport"],"duration":3300,"start_local":"2024-09-20T10:05:00","end":"2024-09-20T06:00:00Z","end_local":"2024-09-20T11:00:00","updated":"2024-06-06T02:24:34Z"},{"title":"Moto3 2024 - Kazakhstan motorcycle Grand Prix 2024 - Practice 1","description":"Sourced from predicthq.com","category":"sports","start":"2024-09-20T04:00:00Z","geo":{"geometry":{"coordinates":[76.570556,43.584722],"type":"Point"},"placekey":"@56w-hf5-vmk","address":{"country_code":"KZ","formatted_address":"Almaty, Kazakhstan","locality":"Almaty"}},"labels":["auto-racing","motogp","sport"],"duration":3000,"start_local":"2024-09-20T09:00:00","end":"2024-09-20T04:50:00Z","end_local":"2024-09-20T09:50:00","updated":"2024-06-06T02:25:43Z"},{"title":"FIM MotoGP World Championship - Grand Prix of Kazakhstan","description":"Sourced from predicthq.com - The Kazakhstan motorcycle Grand Prix is a motorcycling event that is part of the Grand Prix motorcycle racing World Championship","category":"sports","start":"2024-09-19T18:00:00Z","geo":{"geometry":{"coordinates":[76.570556,43.584722],"type":"Point"},"placekey":"@56w-hf5-vmk","address":{"country_code":"KZ","formatted_address":"Almaty, Kazakhstan","locality":"Almaty"}},"labels":["auto-racing","sport"],"duration":259199,"start_local":"2024-09-20T00:00:00","end":"2024-09-22T17:59:59Z","end_local":"2024-09-22T23:59:59","updated":"2024-06-03T23:45:14Z"},{"title":"Modelling and Simulation of Social-Behavioural Phenomena in Creative Societies","description":"Sourced from predicthq.com","category":"conferences","start":"2024-09-18T04:00:00Z","geo":{"geometry":{"coordinates":[76.877044,43.233539],"type":"Point"},"placekey":"@56w-cj5-4n5","address":{"country_code":"KZ","formatted_address":"Kazakhstan, Almaty, 050000 Almaty, Satpaev Street","locality":"Almaty","postcode":"050000","region":"Almaty"}},"labels":["conference"],"duration":205200,"start_local":"2024-09-18T09:00:00","end":"2024-09-20T13:00:00Z","end_local":"2024-09-20T18:00:00","updated":"2024-05-31T23:11:28Z"},{"title":"KAZCOMAK","description":"Sourced from predicthq.com - Kazakhstan International Construction Exhibition","category":"expos","start":"2024-09-16T18:00:00Z","geo":{"geometry":{"coordinates":[76.9055813,43.2249971],"type":"Point"},"placekey":"@56w-chs-rff","address":{"country_code":"KZ","formatted_address":"Kazakhstan, Almaty, 050060 Almaty, Timiryazev Street","locality":"Almaty","postcode":"050060","region":"Almaty"}},"labels":["construction","expo","technology"],"duration":259199,"start_local":"2024-09-17T00:00:00","end":"2024-09-19T17:59:59Z","end_local":"2024-09-19T23:59:59","updated":"2024-06-04T07:05:14Z"},{"title":"MiningMetals Central Asia (formerly Mining & Metals Central Asia)","description":"Sourced from predicthq.com - Central Asian International Mining Exploration & Mining Equipment Exhibition","category":"expos","start":"2024-09-16T18:00:00Z","geo":{"geometry":{"coordinates":[76.9055813,43.2249971],"type":"Point"},"placekey":"@56w-chs-rff","address":{"country_code":"KZ","formatted_address":"Kazakhstan, Almaty, 050060 Almaty, Timiryazev Street","locality":"Almaty","postcode":"050060","region":"Almaty"}},"labels":["expo","industrial","technology"],"duration":259199,"start_local":"2024-09-17T00:00:00","end":"2024-09-19T17:59:59Z","end_local":"2024-09-19T23:59:59","updated":"2024-06-04T00:22:37Z"},{"title":"Moody's Kazakhstan and CIS Summit","description":"Sourced from predicthq.com","category":"conferences","start":"2024-09-16T18:00:00Z","geo":{"geometry":{"coordinates":[76.934417,43.249455],"type":"Point"},"placekey":"@56w-chv-mtv","address":{"country_code":"KZ","formatted_address":"6WXM+RQ2, Almaty 050000, Kazakhstan","postcode":"050000","locality":"Almaty"}},"labels":["conference"],"duration":86399,"start_local":"2024-09-17T00:00:00","end":"2024-09-17T17:59:59Z","end_local":"2024-09-17T23:59:59","updated":"2024-05-31T23:16:20Z"},{"title":"Kazakhstan Action Asia 3 day Ultra Marathon","description":"Sourced from predicthq.com","category":"sports","start":"2024-09-13T18:00:00Z","geo":{"geometry":{"coordinates":[76.8512485,43.2220146],"type":"Point"},"placekey":"@56w-cj5-f4v","address":{"country_code":"KZ","formatted_address":"Kazakhstan, Almaty, 050000 Almaty","locality":"Almaty","postcode":"050000","region":"Almaty"}},"labels":["marathon","outdoor-sports","running","sport"],"duration":86399,"start_local":"2024-09-14T00:00:00","end":"2024-09-14T17:59:59Z","end_local":"2024-09-14T23:59:59","updated":"2024-06-04T00:59:41Z"},{"title":"Central Asia Big4 Industry Exhibition","description":"Sourced from predicthq.com","category":"expos","start":"2024-09-13T04:00:00Z","geo":{"geometry":{"coordinates":[51.175516,43.632011],"type":"Point"},"placekey":"@67t-j9x-mzf","address":{"country_code":"KZ","formatted_address":"Aktau, Mangystau Region, Kazakhstan","locality":"Aktau","region":"Mangystau Region"}},"labels":["expo"],"duration":205200,"start_local":"2024-09-13T09:00:00","end":"2024-09-15T13:00:00Z","end_local":"2024-09-15T18:00:00","updated":"2024-05-28T05:07:41Z"},{"title":"International Scientific Conference Astana Biotech","description":"Sourced from predicthq.com","category":"conferences","start":"2024-09-12T04:00:00Z","geo":{"geometry":{"coordinates":[71.38014,51.146347],"type":"Point"},"placekey":"@57y-v7z-2ff","address":{"country_code":"KZ","formatted_address":"Kazakhstan, Astana, 020000 Astana, Qorghalzhyn Highway","locality":"Astana","postcode":"020000","region":"Astana"}},"labels":["conference"],"duration":118800,"start_local":"2024-09-12T09:00:00","end":"2024-09-13T13:00:00Z","end_local":"2024-09-13T18:00:00","updated":"2024-06-16T05:00:05Z"},{"title":"Aru Astana","description":"Sourced from predicthq.com - International Jewelry Fair","category":"expos","start":"2024-09-10T18:00:00Z","geo":{"geometry":{"coordinates":[71.4203533,51.1292251],"type":"Point"},"placekey":"@57y-v7r-92k","address":{"country_code":"KZ","formatted_address":"Kazakhstan, Astana, 020000 Astana, Nurzhol Boulevard","locality":"Astana","postcode":"020000","region":"Astana"}},"labels":["craft","expo","jewelry","product"],"duration":345599,"start_local":"2024-09-11T00:00:00","end":"2024-09-14T17:59:59Z","end_local":"2024-09-14T23:59:59","updated":"2024-06-11T01:28:19Z"},{"title":"UEFA Nations League - League B - Kazakhstan vs Norway","description":"Sourced from predicthq.com","category":"sports","start":"2024-09-06T14:00:00Z","geo":{"geometry":{"coordinates":[76.92415629999999,43.2383345],"type":"Point"},"placekey":"@56w-chv-6kz","address":{"country_code":"KZ","formatted_address":"Satpaev St 29/3, Almaty 050000, Kazakhstan","postcode":"050000","locality":"Almaty"}},"labels":["soccer","sport"],"duration":0,"start_local":"2024-09-06T19:00:00","end":"2024-09-06T14:00:00Z","end_local":"2024-09-06T19:00:00","updated":"2024-06-11T10:41:07Z"},{"title":"KazBuild Almaty (ehem. WorldBuild)","description":"Sourced from predicthq.com - International Construction Exhibition & Conference","category":"expos","start":"2024-09-03T18:00:00Z","geo":{"geometry":{"coordinates":[76.9055813,43.2249971],"type":"Point"},"placekey":"@56w-chs-rff","address":{"country_code":"KZ","formatted_address":"Kazakhstan, Almaty, 050060 Almaty, Timiryazev Street","locality":"Almaty","postcode":"050060","region":"Almaty"}},"labels":["construction","expo","technology"],"duration":259199,"start_local":"2024-09-04T00:00:00","end":"2024-09-06T17:59:59Z","end_local":"2024-09-06T23:59:59","updated":"2024-06-04T04:14:25Z"},{"title":"AQUATHERM Almaty","description":"Sourced from predicthq.com - Int. Exhibition for Heating, Ventilation, Air-Conditioning, Water Supply, Sanitary and Environmental Technology","category":"expos","start":"2024-09-03T18:00:00Z","geo":{"geometry":{"coordinates":[76.9055813,43.2249971],"type":"Point"},"placekey":"@56w-chs-rff","address":{"country_code":"KZ","formatted_address":"Kazakhstan, Almaty, 050060 Almaty, Timiryazev Street","locality":"Almaty","postcode":"050060","region":"Almaty"}},"labels":["expo","industrial","technology"],"duration":259199,"start_local":"2024-09-04T00:00:00","end":"2024-09-06T17:59:59Z","end_local":"2024-09-06T23:59:59","updated":"2024-05-31T23:17:56Z"},{"title":"CIS GCCM Almaty","description":"Sourced from predicthq.com","category":"conferences","start":"2024-09-03T18:00:00Z","geo":{"geometry":{"coordinates":[76.934417,43.249455],"type":"Point"},"placekey":"@56w-chv-mtv","address":{"country_code":"KZ","formatted_address":"6WXM+RQ2, Almaty 050000, Kazakhstan","postcode":"050000","locality":"Almaty"}},"labels":["conference"],"duration":172799,"start_local":"2024-09-04T00:00:00","end":"2024-09-05T17:59:59Z","end_local":"2024-09-05T23:59:59","updated":"2024-05-31T22:53:05Z"},{"title":"Premier League - Shakhter Karagandy vs Zhenys","description":"Sourced from predicthq.com","category":"sports","start":"2024-09-01T15:00:00Z","geo":{"geometry":{"coordinates":[73.0752524,49.8186844],"type":"Point"},"placekey":"@552-x4j-q2k","address":{"country_code":"KZ","formatted_address":"Kazakhstan, Karagandy Province, 100000 Karagandy, M36","postcode":"100000","locality":"Karagandy","region":"Karagandy Province"}},"labels":["soccer","sport"],"duration":0,"start_local":"2024-09-01T20:00:00","end":"2024-09-01T15:00:00Z","end_local":"2024-09-01T20:00:00","updated":"2024-06-12T11:14:44Z"},{"title":"Premier League - Zhetysu vs Turan Turkistan","description":"Sourced from predicthq.com","category":"sports","start":"2024-09-01T13:00:00Z","geo":{"geometry":{"coordinates":[78.36510837078094,45.01969698480639],"type":"Point"},"placekey":"@56w-9dq-vpv","address":{"country_code":"KZ","formatted_address":"Kazakhstan, Taldıqorğan (Taldykorgan), ul. Lenina","locality":"Taldıqorğan (Taldykorgan)"}},"labels":["soccer","sport"],"duration":0,"start_local":"2024-09-01T18:00:00","end":"2024-09-01T13:00:00Z","end_local":"2024-09-01T18:00:00","updated":"2024-06-12T00:36:48Z"},{"title":"Premier League - Kaisar vs Ordabasy","description":"Sourced from predicthq.com","category":"sports","start":"2024-08-31T15:00:00Z","geo":{"geometry":{"coordinates":[65.50341188907623,44.826009510455094],"type":"Point"},"placekey":"@555-cd5-g49","address":{"country_code":"KZ","formatted_address":"Kazakhstan, Qyzylorda (Kyzylorda), ul. Muratbaev","locality":"Qyzylorda (Kyzylorda)"}},"labels":["soccer","sport"],"duration":0,"start_local":"2024-08-31T20:00:00","end":"2024-08-31T15:00:00Z","end_local":"2024-08-31T20:00:00","updated":"2024-06-12T14:14:36Z"},{"title":"Premier League - Aktobe vs Yelimay Semey","description":"Sourced from predicthq.com","category":"sports","start":"2024-08-31T15:00:00Z","geo":{"geometry":{"coordinates":[57.15911863173823,50.29152639953787],"type":"Point"},"placekey":"@57n-dpx-k2k","address":{"country_code":"KZ","formatted_address":"Kazakhstan, Aqtöbe (Aktobe), prospekt Abulkhair Khan / ul. Mares'yeva 2","locality":"Aqtöbe (Aktobe)"}},"labels":["soccer","sport"],"duration":0,"start_local":"2024-08-31T20:00:00","end":"2024-08-31T15:00:00Z","end_local":"2024-08-31T20:00:00","updated":"2024-06-12T13:49:27Z"},{"title":"Premier League - Kairat vs Astana","description":"Sourced from predicthq.com","category":"sports","start":"2024-08-31T13:00:00Z","geo":{"geometry":{"coordinates":[76.92415629999999,43.2383345],"type":"Point"},"placekey":"@56w-chv-6kz","address":{"country_code":"KZ","formatted_address":"Satpaev St 29/3, Almaty 050000, Kazakhstan","postcode":"050000","locality":"Almaty"}},"labels":["soccer","sport"],"duration":0,"start_local":"2024-08-31T18:00:00","end":"2024-08-31T13:00:00Z","end_local":"2024-08-31T18:00:00","updated":"2024-06-12T08:44:47Z"},{"title":"Premier League - Tobol vs Atyrau","description":"Sourced from predicthq.com","category":"sports","start":"2024-08-31T13:00:00Z","geo":{"geometry":{"coordinates":[63.63658905029297,53.22596754713757],"type":"Point"},"placekey":"@57k-444-nh5","address":{"country_code":"KZ","formatted_address":"Kazakhstan, Kostanai / Kustanay (Kostanay), ul. 1 Maya 153","locality":"Kostanai / Kustanay (Kostanay)"}},"labels":["soccer","sport"],"duration":0,"start_local":"2024-08-31T18:00:00","end":"2024-08-31T13:00:00Z","end_local":"2024-08-31T18:00:00","updated":"2024-06-12T07:33:45Z"},{"title":"Qaz Innovate Expo","description":"Sourced from predicthq.com","category":"expos","start":"2024-08-28T04:00:00Z","geo":{"geometry":{"coordinates":[71.421377,51.092214],"type":"Point"},"placekey":"@57y-v69-hqz","address":{"country_code":"KZ","formatted_address":"Prospekt Mangilik Yel. 53\nNur-Sultan 020000\nKazakhstan","locality":"Nur-Sultan"}},"labels":["expo"],"duration":205200,"start_local":"2024-08-28T09:00:00","end":"2024-08-30T13:00:00Z","end_local":"2024-08-30T18:00:00","updated":"2024-05-31T22:49:50Z"},{"title":"Premier League - Ordabasy vs Aktobe","description":"Sourced from predicthq.com","category":"sports","start":"2024-08-25T15:00:00Z","geo":{"geometry":{"coordinates":[69.5935070514679,42.335619893461335],"type":"Point"},"placekey":"@54s-ftb-6c5","address":{"country_code":"KZ","formatted_address":"Kazakhstan, Şımkent (Shymkent), ul. Madely Kozha 1","locality":"Şımkent (Shymkent)"}},"labels":["soccer","sport"],"duration":0,"start_local":"2024-08-25T20:00:00","end":"2024-08-25T15:00:00Z","end_local":"2024-08-25T20:00:00","updated":"2024-06-12T14:15:03Z"},{"title":"Premier League - Kairat vs Tobol","description":"Sourced from predicthq.com","category":"sports","start":"2024-08-25T13:00:00Z","geo":{"geometry":{"coordinates":[76.92415629999999,43.2383345],"type":"Point"},"placekey":"@56w-chv-6kz","address":{"country_code":"KZ","formatted_address":"Satpaev St 29/3, Almaty 050000, Kazakhstan","postcode":"050000","locality":"Almaty"}},"labels":["soccer","sport"],"duration":0,"start_local":"2024-08-25T18:00:00","end":"2024-08-25T13:00:00Z","end_local":"2024-08-25T18:00:00","updated":"2024-06-12T00:45:28Z"},{"title":"Premier League - Zhenys vs Astana","description":"Sourced from predicthq.com","category":"sports","start":"2024-08-25T13:00:00Z","geo":{"geometry":{"coordinates":[73.0752524,49.8186844],"type":"Point"},"placekey":"@552-x4j-q2k","address":{"country_code":"KZ","formatted_address":"Kazakhstan, Karagandy Province, 100000 Karagandy, M36","postcode":"100000","locality":"Karagandy","region":"Karagandy Province"}},"labels":["soccer","sport"],"duration":0,"start_local":"2024-08-25T18:00:00","end":"2024-08-25T13:00:00Z","end_local":"2024-08-25T18:00:00","updated":"2024-06-12T09:23:52Z"},{"title":"Premier League - Kaisar vs Zhetysu","description":"Sourced from predicthq.com","category":"sports","start":"2024-08-24T15:00:00Z","geo":{"geometry":{"coordinates":[65.50341188907623,44.826009510455094],"type":"Point"},"placekey":"@555-cd5-g49","address":{"country_code":"KZ","formatted_address":"Kazakhstan, Qyzylorda (Kyzylorda), ul. Muratbaev","locality":"Qyzylorda (Kyzylorda)"}},"labels":["soccer","sport"],"duration":0,"start_local":"2024-08-24T20:00:00","end":"2024-08-24T15:00:00Z","end_local":"2024-08-24T20:00:00","updated":"2024-06-12T15:18:47Z"},{"title":"Premier League - Atyrau vs Shakhter Karagandy","description":"Sourced from predicthq.com","category":"sports","start":"2024-08-24T13:00:00Z","geo":{"geometry":{"coordinates":[51.90831899642944,47.09403736090823],"type":"Point"},"placekey":"@687-kjr-s5z","address":{"country_code":"KZ","formatted_address":"Kazakhstan, Atıraw (Atyrau), ul. Auezova 28a","locality":"Atıraw (Atyrau)"}},"labels":["soccer","sport"],"duration":0,"start_local":"2024-08-24T18:00:00","end":"2024-08-24T13:00:00Z","end_local":"2024-08-24T18:00:00","updated":"2024-06-12T09:24:43Z"},{"title":"Premier League - Yelimay Semey vs Kyzyl-Zhar","description":"Sourced from predicthq.com","category":"sports","start":"2024-08-24T13:00:00Z","geo":{"geometry":{"coordinates":[80.2412760257721,50.414800857879506],"type":"Point"},"placekey":"@55k-pt4-jsq","address":{"country_code":"KZ","formatted_address":"Semey (Semipalatinsk), Kazakhstan","locality":"Semey (Semipalatinsk)"}},"labels":["soccer","sport"],"duration":0,"start_local":"2024-08-24T18:00:00","end":"2024-08-24T13:00:00Z","end_local":"2024-08-24T18:00:00","updated":"2024-06-12T15:21:44Z"},{"title":"My TexStyle Expo","description":"Sourced from predicthq.com","category":"expos","start":"2024-08-22T04:00:00Z","geo":{"geometry":{"coordinates":[76.9055813,43.2249971],"type":"Point"},"placekey":"@56w-chs-rff","address":{"country_code":"KZ","formatted_address":"Timiryazev St 42, Almaty 050060, Kazakhstan","postcode":"050060","locality":"Almaty"}},"labels":["expo"],"duration":205200,"start_local":"2024-08-22T09:00:00","end":"2024-08-24T13:00:00Z","end_local":"2024-08-24T18:00:00","updated":"2024-05-31T22:49:08Z"},{"title":"International Conference on Defects in Insulating Materials","description":"Sourced from predicthq.com","category":"conferences","start":"2024-08-19T04:00:00Z","geo":{"geometry":{"coordinates":[71.464857,51.160307],"type":"Point"},"placekey":"@57y-v8d-vfz","address":{"country_code":"KZ","formatted_address":"Kazakhstan, Astana, 010000 Astana","locality":"Astana","postcode":"010000","region":"Astana"}},"labels":["conference"],"duration":378000,"start_local":"2024-08-19T09:00:00","end":"2024-08-23T13:00:00Z","end_local":"2024-08-23T18:00:00","updated":"2024-06-16T04:57:38Z"},{"title":"Premier League - Aktobe vs Kaisar","description":"Sourced from predicthq.com","category":"sports","start":"2024-08-18T15:00:00Z","geo":{"geometry":{"coordinates":[57.15911863173823,50.29152639953787],"type":"Point"},"placekey":"@57n-dpx-k2k","address":{"country_code":"KZ","formatted_address":"Kazakhstan, Aqtöbe (Aktobe), prospekt Abulkhair Khan / ul. Mares'yeva 2","locality":"Aqtöbe (Aktobe)"}},"labels":["soccer","sport"],"duration":0,"start_local":"2024-08-18T20:00:00","end":"2024-08-18T15:00:00Z","end_local":"2024-08-18T20:00:00","updated":"2024-06-12T00:13:04Z"},{"title":"Premier League - Shakhter Karagandy vs Ordabasy","description":"Sourced from predicthq.com","category":"sports","start":"2024-08-18T13:00:00Z","geo":{"geometry":{"coordinates":[73.0752524,49.8186844],"type":"Point"},"placekey":"@552-x4j-q2k","address":{"country_code":"KZ","formatted_address":"Kazakhstan, Karagandy Province, 100000 Karagandy, M36","postcode":"100000","locality":"Karagandy","region":"Karagandy Province"}},"labels":["soccer","sport"],"duration":0,"start_local":"2024-08-18T18:00:00","end":"2024-08-18T13:00:00Z","end_local":"2024-08-18T18:00:00","updated":"2024-06-12T00:17:36Z"},{"title":"Premier League - Zhetysu vs Tobol","description":"Sourced from predicthq.com","category":"sports","start":"2024-08-18T13:00:00Z","geo":{"geometry":{"coordinates":[78.36510837078094,45.01969698480639],"type":"Point"},"placekey":"@56w-9dq-vpv","address":{"country_code":"KZ","formatted_address":"Kazakhstan, Taldıqorğan (Taldykorgan), ul. Lenina","locality":"Taldıqorğan (Taldykorgan)"}},"labels":["soccer","sport"],"duration":0,"start_local":"2024-08-18T18:00:00","end":"2024-08-18T13:00:00Z","end_local":"2024-08-18T18:00:00","updated":"2024-06-12T07:33:45Z"},{"title":"Kazakhstan President's Cup - 3rd Place Final - TBC","description":"Sourced from predicthq.com","category":"sports","start":"2024-08-18T06:00:00Z","geo":{"geometry":{"coordinates":[71.3953829,51.1092883],"type":"Point"},"placekey":"@57y-v8k-7h5","address":{"country_code":"KZ","formatted_address":"Turan Ave 57, Astana 020000, Kazakhstan","postcode":"020000","locality":"Astana","region":"Astana"}},"labels":["ice-hockey","sport"],"duration":0,"start_local":"2024-08-18T11:00:00","end":"2024-08-18T06:00:00Z","end_local":"2024-08-18T11:00:00","updated":"2024-06-27T00:12:08Z"},{"title":"Elite Line","description":"Sourced from predicthq.com","category":"expos","start":"2024-08-18T04:00:00Z","geo":{"geometry":{"coordinates":[76.905242,43.229122],"type":"Point"},"placekey":"@56w-chs-w6k","address":{"country_code":"KZ","formatted_address":"Kazakhstan, Almaty, 050000 Almaty","locality":"Almaty","postcode":"050000","region":"Almaty"}},"labels":["expo"],"duration":205200,"start_local":"2024-08-18T09:00:00","end":"2024-08-20T13:00:00Z","end_local":"2024-08-20T18:00:00","updated":"2024-06-16T04:34:07Z"},{"title":"Central Asia Fashion","description":"Sourced from predicthq.com - International Fashion Exhibition","category":"expos","start":"2024-08-17T18:00:00Z","geo":{"geometry":{"coordinates":[76.9055813,43.2249971],"type":"Point"},"placekey":"@56w-chs-rff","address":{"country_code":"KZ","formatted_address":"Kazakhstan, Almaty, 050060 Almaty, Timiryazev Street","locality":"Almaty","postcode":"050060","region":"Almaty"}},"labels":["expo","fashion","jewelry","sales"],"duration":259199,"start_local":"2024-08-18T00:00:00","end":"2024-08-20T17:59:59Z","end_local":"2024-08-20T23:59:59","updated":"2024-06-04T05:16:04Z"},{"title":"Premier League - Yelimay Semey vs Turan Turkistan","description":"Sourced from predicthq.com","category":"sports","start":"2024-08-17T15:00:00Z","geo":{"geometry":{"coordinates":[80.2412760257721,50.414800857879506],"type":"Point"},"placekey":"@55k-pt4-jsq","address":{"country_code":"KZ","formatted_address":"Semey (Semipalatinsk), Kazakhstan","locality":"Semey (Semipalatinsk)"}},"labels":["soccer","sport"],"duration":0,"start_local":"2024-08-17T20:00:00","end":"2024-08-17T15:00:00Z","end_local":"2024-08-17T20:00:00","updated":"2024-06-12T00:27:36Z"},{"title":"Kazakhstan President's Cup - Group Stage - Lada Togliatti vs Barys Astana","description":"Sourced from predicthq.com","category":"sports","start":"2024-08-17T13:30:00Z","geo":{"geometry":{"coordinates":[71.3953829,51.1092883],"type":"Point"},"placekey":"@57y-v8k-7h5","address":{"country_code":"KZ","formatted_address":"Turan Ave 57, Astana 020000, Kazakhstan","postcode":"020000","locality":"Astana","region":"Astana"}},"labels":["ice-hockey","sport"],"duration":0,"start_local":"2024-08-17T18:30:00","end":"2024-08-17T13:30:00Z","end_local":"2024-08-17T18:30:00","updated":"2024-06-26T21:39:14Z"},{"title":"Premier League - Kyzyl-Zhar vs Kairat","description":"Sourced from predicthq.com","category":"sports","start":"2024-08-17T13:00:00Z","geo":{"geometry":{"coordinates":[69.152090549469,54.874088105472055],"type":"Point"},"placekey":"@589-8qq-835","address":{"country_code":"KZ","formatted_address":"Kazakhstan, Petropavl (Petropavlosvk), ul. Zhambyla Zhabaeva","locality":"Petropavl (Petropavlosvk)"}},"labels":["soccer","sport"],"duration":0,"start_local":"2024-08-17T18:00:00","end":"2024-08-17T13:00:00Z","end_local":"2024-08-17T18:00:00","updated":"2024-06-12T00:36:48Z"},{"title":"Kazakhstan President's Cup - Group Stage - Kazakhstan vs Amur Khabarovsk","description":"Sourced from predicthq.com","category":"sports","start":"2024-08-17T06:00:00Z","geo":{"geometry":{"coordinates":[71.3953829,51.1092883],"type":"Point"},"placekey":"@57y-v8k-7h5","address":{"country_code":"KZ","formatted_address":"Turan Ave 57, Astana 020000, Kazakhstan","postcode":"020000","locality":"Astana","region":"Astana"}},"labels":["ice-hockey","sport"],"duration":0,"start_local":"2024-08-17T11:00:00","end":"2024-08-17T06:00:00Z","end_local":"2024-08-17T11:00:00","updated":"2024-06-28T05:30:59Z"},{"title":"Childhood and Kid's Fashion Expos","description":"Sourced from predicthq.com - Childhood and Kid's Fashion Exhibition","category":"expos","start":"2024-08-16T18:00:00Z","geo":{"geometry":{"coordinates":[76.9055813,43.2249971],"type":"Point"},"placekey":"@56w-chs-rff","address":{"country_code":"KZ","formatted_address":"Kazakhstan, Almaty, 050060 Almaty, Timiryazev Street","locality":"Almaty","postcode":"050060","region":"Almaty"}},"labels":["expo","fashion","jewelry","sales"],"duration":259199,"start_local":"2024-08-17T00:00:00","end":"2024-08-19T17:59:59Z","end_local":"2024-08-19T23:59:59","updated":"2024-06-30T08:40:14Z"},{"title":"Kazakhstan President's Cup - Group Stage - Barys Astana vs Kazakhstan","description":"Sourced from predicthq.com","category":"sports","start":"2024-08-15T13:30:00Z","geo":{"geometry":{"coordinates":[71.3953829,51.1092883],"type":"Point"},"placekey":"@57y-v8k-7h5","address":{"country_code":"KZ","formatted_address":"Turan Ave 57, Astana 020000, Kazakhstan","postcode":"020000","locality":"Astana","region":"Astana"}},"labels":["ice-hockey","sport"],"duration":0,"start_local":"2024-08-15T18:30:00","end":"2024-08-15T13:30:00Z","end_local":"2024-08-15T18:30:00","updated":"2024-06-26T17:05:23Z"},{"title":"Kazakhstan President's Cup - Group Stage - Amur Khabarovsk vs Lada Togliatti","description":"Sourced from predicthq.com","category":"sports","start":"2024-08-15T06:00:00Z","geo":{"geometry":{"coordinates":[71.3953829,51.1092883],"type":"Point"},"placekey":"@57y-v8k-7h5","address":{"country_code":"KZ","formatted_address":"Turan Ave 57, Astana 020000, Kazakhstan","postcode":"020000","locality":"Astana","region":"Astana"}},"labels":["ice-hockey","sport"],"duration":0,"start_local":"2024-08-15T11:00:00","end":"2024-08-15T06:00:00Z","end_local":"2024-08-15T11:00:00","updated":"2024-06-26T13:21:31Z"},{"title":"Kazakhstan President's Cup - Group Stage - Barys Astana vs Amur Khabarovsk","description":"Sourced from predicthq.com","category":"sports","start":"2024-08-14T13:30:00Z","geo":{"geometry":{"coordinates":[71.3953829,51.1092883],"type":"Point"},"placekey":"@57y-v8k-7h5","address":{"country_code":"KZ","formatted_address":"Turan Ave 57, Astana 020000, Kazakhstan","postcode":"020000","locality":"Astana","region":"Astana"}},"labels":["ice-hockey","sport"],"duration":0,"start_local":"2024-08-14T18:30:00","end":"2024-08-14T13:30:00Z","end_local":"2024-08-14T18:30:00","updated":"2024-06-26T13:21:45Z"},{"title":"Kazakhstan President's Cup - Group Stage - Kazakhstan vs Lada Togliatti","description":"Sourced from predicthq.com","category":"sports","start":"2024-08-14T06:00:00Z","geo":{"geometry":{"coordinates":[71.3953829,51.1092883],"type":"Point"},"placekey":"@57y-v8k-7h5","address":{"country_code":"KZ","formatted_address":"Turan Ave 57, Astana 020000, Kazakhstan","postcode":"020000","locality":"Astana","region":"Astana"}},"labels":["ice-hockey","sport"],"duration":0,"start_local":"2024-08-14T11:00:00","end":"2024-08-14T06:00:00Z","end_local":"2024-08-14T11:00:00","updated":"2024-06-26T17:08:51Z"},{"title":"Premier League - Tobol vs Shakhter Karagandy","description":"Sourced from predicthq.com","category":"sports","start":"2024-08-04T15:00:00Z","geo":{"geometry":{"coordinates":[63.63658905029297,53.22596754713757],"type":"Point"},"placekey":"@57k-444-nh5","address":{"country_code":"KZ","formatted_address":"Kazakhstan, Kostanai / Kustanay (Kostanay), ul. 1 Maya 153","locality":"Kostanai / Kustanay (Kostanay)"}},"labels":["soccer","sport"],"duration":0,"start_local":"2024-08-04T20:00:00","end":"2024-08-04T15:00:00Z","end_local":"2024-08-04T20:00:00","updated":"2024-06-12T11:17:40Z"},{"title":"Premier League - Zhenys vs Aktobe","description":"Sourced from predicthq.com","category":"sports","start":"2024-08-04T13:00:00Z","geo":{"geometry":{"coordinates":[73.0752524,49.8186844],"type":"Point"},"placekey":"@552-x4j-q2k","address":{"country_code":"KZ","formatted_address":"Kazakhstan, Karagandy Province, 100000 Karagandy, M36","postcode":"100000","locality":"Karagandy","region":"Karagandy Province"}},"labels":["soccer","sport"],"duration":0,"start_local":"2024-08-04T18:00:00","end":"2024-08-04T13:00:00Z","end_local":"2024-08-04T18:00:00","updated":"2024-06-12T09:27:35Z"},{"title":"Premier League - Kairat vs Yelimay Semey","description":"Sourced from predicthq.com","category":"sports","start":"2024-08-03T15:00:00Z","geo":{"geometry":{"coordinates":[76.92415629999999,43.2383345],"type":"Point"},"placekey":"@56w-chv-6kz","address":{"country_code":"KZ","formatted_address":"Satpaev St 29/3, Almaty 050000, Kazakhstan","postcode":"050000","locality":"Almaty"}},"labels":["soccer","sport"],"duration":0,"start_local":"2024-08-03T20:00:00","end":"2024-08-03T15:00:00Z","end_local":"2024-08-03T20:00:00","updated":"2024-06-12T08:40:21Z"},{"title":"Premier League - Atyrau vs Kaisar","description":"Sourced from predicthq.com","category":"sports","start":"2024-08-03T13:00:00Z","geo":{"geometry":{"coordinates":[51.90831899642944,47.09403736090823],"type":"Point"},"placekey":"@687-kjr-s5z","address":{"country_code":"KZ","formatted_address":"Kazakhstan, Atıraw (Atyrau), ul. Auezova 28a","locality":"Atıraw (Atyrau)"}},"labels":["soccer","sport"],"duration":0,"start_local":"2024-08-03T18:00:00","end":"2024-08-03T13:00:00Z","end_local":"2024-08-03T18:00:00","updated":"2024-06-12T13:37:31Z"},{"title":"Premier League - Kyzyl-Zhar vs Zhetysu","description":"Sourced from predicthq.com","category":"sports","start":"2024-08-03T13:00:00Z","geo":{"geometry":{"coordinates":[69.152090549469,54.874088105472055],"type":"Point"},"placekey":"@589-8qq-835","address":{"country_code":"KZ","formatted_address":"Kazakhstan, Petropavl (Petropavlosvk), ul. Zhambyla Zhabaeva","locality":"Petropavl (Petropavlosvk)"}},"labels":["soccer","sport"],"duration":0,"start_local":"2024-08-03T18:00:00","end":"2024-08-03T13:00:00Z","end_local":"2024-08-03T18:00:00","updated":"2024-06-12T09:26:37Z"},{"title":"Kazakhstan International Exhibitionof Household Appliances and Electronics","description":"Sourced from predicthq.com","category":"expos","start":"2024-07-29T18:00:00Z","geo":{"geometry":{"coordinates":[76.904779,43.222808],"type":"Point"},"placekey":"@56w-chs-t35","address":{"country_code":"KZ","formatted_address":"Timiryazev St 42, Almaty 050057, Kazakhstan","postcode":"050057","locality":"Almaty","region":"Almaty"}},"labels":["expo"],"duration":259199,"start_local":"2024-07-30T00:00:00","end":"2024-08-01T17:59:59Z","end_local":"2024-08-01T23:59:59","updated":"2024-06-04T00:09:47Z"},{"title":"Premier League - Kaisar vs Astana","description":"Sourced from predicthq.com","category":"sports","start":"2024-07-28T15:00:00Z","geo":{"geometry":{"coordinates":[65.50341188907623,44.826009510455094],"type":"Point"},"placekey":"@555-cd5-g49","address":{"country_code":"KZ","formatted_address":"Kazakhstan, Qyzylorda (Kyzylorda), ul. Muratbaev","locality":"Qyzylorda (Kyzylorda)"}},"labels":["soccer","sport"],"duration":0,"start_local":"2024-07-28T20:00:00","end":"2024-07-28T15:00:00Z","end_local":"2024-07-28T20:00:00","updated":"2024-06-12T19:04:51Z"},{"title":"Premier League - Turan Turkistan vs Tobol","description":"Sourced from predicthq.com","category":"sports","start":"2024-07-28T15:00:00Z","geo":{"geometry":{"coordinates":[69.5935070514679,42.335619893461335],"type":"Point"},"placekey":"@54s-ftb-6c5","address":{"country_code":"KZ","formatted_address":"Kazakhstan, Şımkent (Shymkent), ul. Madely Kozha 1","locality":"Şımkent (Shymkent)"}},"labels":["soccer","sport"],"duration":0,"start_local":"2024-07-28T20:00:00","end":"2024-07-28T15:00:00Z","end_local":"2024-07-28T20:00:00","updated":"2024-06-12T00:32:17Z"},{"title":"Premier League - Zhetysu vs Ordabasy","description":"Sourced from predicthq.com","category":"sports","start":"2024-07-28T13:00:00Z","geo":{"geometry":{"coordinates":[78.36510837078094,45.01969698480639],"type":"Point"},"placekey":"@56w-9dq-vpv","address":{"country_code":"KZ","formatted_address":"Kazakhstan, Taldıqorğan (Taldykorgan), ul. Lenina","locality":"Taldıqorğan (Taldykorgan)"}},"labels":["soccer","sport"],"duration":0,"start_local":"2024-07-28T18:00:00","end":"2024-07-28T13:00:00Z","end_local":"2024-07-28T18:00:00","updated":"2024-06-12T09:32:40Z"},{"title":"Premier League - Aktobe vs Kyzyl-Zhar","description":"Sourced from predicthq.com","category":"sports","start":"2024-07-28T13:00:00Z","geo":{"geometry":{"coordinates":[57.15911863173823,50.29152639953787],"type":"Point"},"placekey":"@57n-dpx-k2k","address":{"country_code":"KZ","formatted_address":"Kazakhstan, Aqtöbe (Aktobe), prospekt Abulkhair Khan / ul. Mares'yeva 2","locality":"Aqtöbe (Aktobe)"}},"labels":["soccer","sport"],"duration":0,"start_local":"2024-07-28T18:00:00","end":"2024-07-28T13:00:00Z","end_local":"2024-07-28T18:00:00","updated":"2024-06-12T19:17:58Z"},{"title":"Premier League - Yelimay Semey vs Zhenys","description":"Sourced from predicthq.com","category":"sports","start":"2024-07-27T15:00:00Z","geo":{"geometry":{"coordinates":[80.2412760257721,50.414800857879506],"type":"Point"},"placekey":"@55k-pt4-jsq","address":{"country_code":"KZ","formatted_address":"Semey (Semipalatinsk), Kazakhstan","locality":"Semey (Semipalatinsk)"}},"labels":["soccer","sport"],"duration":0,"start_local":"2024-07-27T20:00:00","end":"2024-07-27T15:00:00Z","end_local":"2024-07-27T20:00:00","updated":"2024-06-12T09:22:29Z"},{"title":"Premier League - Shakhter Karagandy vs Kairat","description":"Sourced from predicthq.com","category":"sports","start":"2024-07-27T13:00:00Z","geo":{"geometry":{"coordinates":[73.0752524,49.8186844],"type":"Point"},"placekey":"@552-x4j-q2k","address":{"country_code":"KZ","formatted_address":"Kazakhstan, Karagandy Province, 100000 Karagandy, M36","postcode":"100000","locality":"Karagandy","region":"Karagandy Province"}},"labels":["soccer","sport"],"duration":0,"start_local":"2024-07-27T18:00:00","end":"2024-07-27T13:00:00Z","end_local":"2024-07-27T18:00:00","updated":"2024-06-12T08:43:50Z"},{"title":"UEFA Europa League - 1st Qualifying Round - Tobol vs Ružomberok","description":"Sourced from predicthq.com","category":"sports","start":"2024-07-18T15:00:00Z","geo":{"geometry":{"coordinates":[63.63658905029297,53.22596754713757],"type":"Point"},"placekey":"@57k-444-nh5","address":{"country_code":"KZ","formatted_address":"Kazakhstan, Kostanai / Kustanay (Kostanay), ul. 1 Maya 153","locality":"Kostanai / Kustanay (Kostanay)"}},"labels":["soccer","sport"],"duration":0,"start_local":"2024-07-18T20:00:00","end":"2024-07-18T15:00:00Z","end_local":"2024-07-18T20:00:00","updated":"2024-06-24T19:19:32Z"},{"title":"Premier League - Tobol vs Kyzyl-Zhar","description":"Sourced from predicthq.com","category":"sports","start":"2024-07-14T15:00:00Z","geo":{"geometry":{"coordinates":[63.63658905029297,53.22596754713757],"type":"Point"},"placekey":"@57k-444-nh5","address":{"country_code":"KZ","formatted_address":"Kazakhstan, Kostanai / Kustanay (Kostanay), ul. 1 Maya 153","locality":"Kostanai / Kustanay (Kostanay)"}},"labels":["soccer","sport"],"duration":0,"start_local":"2024-07-14T20:00:00","end":"2024-07-14T15:00:00Z","end_local":"2024-07-14T20:00:00","updated":"2024-06-12T00:47:46Z"},{"title":"Premier League - Kairat vs Zhenys","description":"Sourced from predicthq.com","category":"sports","start":"2024-07-14T13:00:00Z","geo":{"geometry":{"coordinates":[76.92415629999999,43.2383345],"type":"Point"},"placekey":"@56w-chv-6kz","address":{"country_code":"KZ","formatted_address":"Satpaev St 29/3, Almaty 050000, Kazakhstan","postcode":"050000","locality":"Almaty"}},"labels":["soccer","sport"],"duration":0,"start_local":"2024-07-14T18:00:00","end":"2024-07-14T13:00:00Z","end_local":"2024-07-14T18:00:00","updated":"2024-06-12T15:20:43Z"},{"title":"Premier League - Kaisar vs Yelimay Semey","description":"Sourced from predicthq.com","category":"sports","start":"2024-07-13T15:00:00Z","geo":{"geometry":{"coordinates":[65.50341188907623,44.826009510455094],"type":"Point"},"placekey":"@555-cd5-g49","address":{"country_code":"KZ","formatted_address":"Kazakhstan, Qyzylorda (Kyzylorda), ul. Muratbaev","locality":"Qyzylorda (Kyzylorda)"}},"labels":["soccer","sport"],"duration":0,"start_local":"2024-07-13T20:00:00","end":"2024-07-13T15:00:00Z","end_local":"2024-07-13T20:00:00","updated":"2024-06-12T00:45:32Z"},{"title":"Premier League - Shakhter Karagandy vs Zhetysu","description":"Sourced from predicthq.com","category":"sports","start":"2024-07-13T13:00:00Z","geo":{"geometry":{"coordinates":[73.0752524,49.8186844],"type":"Point"},"placekey":"@552-x4j-q2k","address":{"country_code":"KZ","formatted_address":"Kazakhstan, Karagandy Province, 100000 Karagandy, M36","postcode":"100000","locality":"Karagandy","region":"Karagandy Province"}},"labels":["soccer","sport"],"duration":0,"start_local":"2024-07-13T18:00:00","end":"2024-07-13T13:00:00Z","end_local":"2024-07-13T18:00:00","updated":"2024-06-12T09:32:49Z"},{"title":"Satisfaction Music Festival","description":"Sourced from predicthq.com","category":"festivals","start":"2024-07-12T18:00:00Z","geo":{"geometry":{"coordinates":[76.81753432430223,43.26387194366791],"type":"Point"},"placekey":"@56w-cyg-wrk","address":{"country_code":"KZ","formatted_address":"Нуркент 37, Almaty, Kazakhstan","locality":"Almaty","region":"Almaty"}},"labels":["festival","music"],"duration":172799,"start_local":"2024-07-13T00:00:00","end":"2024-07-14T17:59:59Z","end_local":"2024-07-14T23:59:59","updated":"2024-07-03T15:01:04Z"},{"title":"UEFA Conference League - 1st Qualifying Round - Aktobe vs Sarajevo","description":"Sourced from predicthq.com","category":"sports","start":"2024-07-11T15:00:00Z","geo":{"geometry":{"coordinates":[57.15911863173823,50.29152639953787],"type":"Point"},"placekey":"@57n-dpx-k2k","address":{"country_code":"KZ","formatted_address":"Kazakhstan, Aqtöbe (Aktobe), prospekt Abulkhair Khan / ul. Mares'yeva 2","locality":"Aqtöbe (Aktobe)"}},"labels":["soccer","sport"],"duration":0,"start_local":"2024-07-11T20:00:00","end":"2024-07-11T15:00:00Z","end_local":"2024-07-11T20:00:00","updated":"2024-06-24T18:37:33Z"},{"title":"UEFA Champions League - 1st Qualifying Round - Ordabasy vs Petrocub","description":"Sourced from predicthq.com","category":"sports","start":"2024-07-10T15:00:00Z","geo":{"geometry":{"coordinates":[69.5935070514679,42.335619893461335],"type":"Point"},"placekey":"@54s-ftb-6c5","address":{"country_code":"KZ","formatted_address":"Kazakhstan, Şımkent (Shymkent), ul. Madely Kozha 1","locality":"Şımkent (Shymkent)"}},"labels":["soccer","sport"],"duration":0,"start_local":"2024-07-10T20:00:00","end":"2024-07-10T15:00:00Z","end_local":"2024-07-10T20:00:00","updated":"2024-06-24T18:59:48Z"},{"title":"ISTQB® Foundation Exam and Training Course - Astana / Nur-Sultan","description":"Sourced from predicthq.com - ISTQB® Foundation Астана - Подготовка к сертификации и экзамен\nISTQB® FOUNDATION EXAM AND TRAINING COURSE\nThe aim of this course is to provi","category":"conferences","start":"2024-07-10T04:00:00Z","geo":{"geometry":{"coordinates":[71.4703558,51.1605227],"type":"Point"},"placekey":"@57y-v89-f4v","address":{"country_code":"KZ","formatted_address":"Kazakhstan, Astana, 020000 Astana","locality":"Astana","postcode":"020000","region":"Astana"}},"labels":["conference","science","technology"],"duration":28800,"start_local":"2024-07-10T09:00:00","end":"2024-07-10T12:00:00Z","end_local":"2024-07-10T17:00:00","updated":"2024-06-13T00:48:31Z"},{"title":"IBO","description":"Sourced from predicthq.com","category":"conferences","start":"2024-07-07T04:00:00Z","geo":{"geometry":{"coordinates":[71.398165,51.09053],"type":"Point"},"placekey":"@57y-v8j-w8v","address":{"country_code":"KZ","formatted_address":"Qabanbay Batyr Ave 53\nAstana 010000\nKazakhstan","locality":"Nur-Sultan"}},"labels":["conference"],"duration":637200,"start_local":"2024-07-07T09:00:00","end":"2024-07-14T13:00:00Z","end_local":"2024-07-14T18:00:00","updated":"2024-05-31T23:11:06Z"},{"title":"Club Friendlies - Club Friendlies 3 - Aktobe vs Spartak Moskva","description":"Sourced from predicthq.com","category":"sports","start":"2024-07-05T15:00:00Z","geo":{"geometry":{"coordinates":[57.15911863173823,50.29152639953787],"type":"Point"},"placekey":"@57n-dpx-k2k","address":{"country_code":"KZ","formatted_address":"Kazakhstan, Aqtöbe (Aktobe), prospekt Abulkhair Khan / ul. Mares'yeva 2","locality":"Aqtöbe (Aktobe)"}},"labels":["soccer","sport"],"duration":0,"start_local":"2024-07-05T20:00:00","end":"2024-07-05T15:00:00Z","end_local":"2024-07-05T20:00:00","updated":"2024-07-02T18:46:45Z"},{"title":"Premier League - Turan Turkistan vs Atyrau","description":"Sourced from predicthq.com","category":"sports","start":"2024-07-01T15:00:00Z","geo":{"geometry":{"coordinates":[69.5935070514679,42.335619893461335],"type":"Point"},"placekey":"@54s-ftb-6c5","address":{"country_code":"KZ","formatted_address":"Kazakhstan, Şımkent (Shymkent), ul. Madely Kozha 1","locality":"Şımkent (Shymkent)"}},"labels":["soccer","sport"],"duration":0,"start_local":"2024-07-01T20:00:00","end":"2024-07-01T15:00:00Z","end_local":"2024-07-01T20:00:00","updated":"2024-07-02T18:07:38Z"},{"title":"Premier League - Aktobe vs Tobol","description":"Sourced from predicthq.com","category":"sports","start":"2024-06-30T15:00:00Z","geo":{"geometry":{"coordinates":[57.15911863173823,50.29152639953787],"type":"Point"},"placekey":"@57n-dpx-k2k","address":{"country_code":"KZ","formatted_address":"Kazakhstan, Aqtöbe (Aktobe), prospekt Abulkhair Khan / ul. Mares'yeva 2","locality":"Aqtöbe (Aktobe)"}},"labels":["soccer","sport"],"duration":0,"start_local":"2024-06-30T20:00:00","end":"2024-06-30T15:00:00Z","end_local":"2024-06-30T20:00:00","updated":"2024-07-01T08:49:37Z"},{"title":"Premier League - Yelimay Semey vs Zhetysu","description":"Sourced from predicthq.com","category":"sports","start":"2024-06-30T13:00:00Z","geo":{"geometry":{"coordinates":[80.2412760257721,50.414800857879506],"type":"Point"},"placekey":"@55k-pt4-jsq","address":{"country_code":"KZ","formatted_address":"Semey (Semipalatinsk), Kazakhstan","locality":"Semey (Semipalatinsk)"}},"labels":["soccer","sport"],"duration":0,"start_local":"2024-06-30T18:00:00","end":"2024-06-30T13:00:00Z","end_local":"2024-06-30T18:00:00","updated":"2024-07-01T13:11:34Z"},{"title":"Premier League - Ordabasy vs Kaisar","description":"Sourced from predicthq.com","category":"sports","start":"2024-06-29T15:00:00Z","geo":{"geometry":{"coordinates":[69.5935070514679,42.335619893461335],"type":"Point"},"placekey":"@54s-ftb-6c5","address":{"country_code":"KZ","formatted_address":"Kazakhstan, Şımkent (Shymkent), ul. Madely Kozha 1","locality":"Şımkent (Shymkent)"}},"labels":["soccer","sport"],"duration":0,"start_local":"2024-06-29T20:00:00","end":"2024-06-29T15:00:00Z","end_local":"2024-06-29T20:00:00","updated":"2024-06-30T15:02:40Z"},{"title":"Premier League - Kyzyl-Zhar vs Shakhter Karagandy","description":"Sourced from predicthq.com","category":"sports","start":"2024-06-29T13:00:00Z","geo":{"geometry":{"coordinates":[69.152090549469,54.874088105472055],"type":"Point"},"placekey":"@589-8qq-835","address":{"country_code":"KZ","formatted_address":"Kazakhstan, Petropavl (Petropavlosvk), ul. Zhambyla Zhabaeva","locality":"Petropavl (Petropavlosvk)"}},"labels":["soccer","sport"],"duration":0,"start_local":"2024-06-29T18:00:00","end":"2024-06-29T13:00:00Z","end_local":"2024-06-29T18:00:00","updated":"2024-06-29T17:49:23Z"},{"title":"Виталий Модло - Семинар по визе EB-5 от CMB Regional Centers","description":"Sourced from predicthq.com - Виталий Модло приглашает на семинар от CMB Regional Centers: «Виза инвестора EB-5 в США». Узнайте, как получить Грин Карту через инвестиции.","category":"conferences","start":"2024-06-28T05:30:00Z","geo":{"geometry":{"coordinates":[76.94026,43.235886],"type":"Point"},"placekey":"@56w-chv-8vz","address":{"country_code":"KZ","formatted_address":"Kazakhstan, 050013 Almaty, 181 Zheltoksan Street","postcode":"050013","locality":"Almaty"}},"labels":["business","conference"],"duration":10800,"start_local":"2024-06-28T10:30:00","end":"2024-06-28T08:30:00Z","end_local":"2024-06-28T13:30:00","updated":"2024-06-20T06:41:43Z"},{"title":"InvestPro Kazakhstan Almaty 2024","description":"Sourced from predicthq.com - InvestPro Kazakhstan Almaty 2024 serves as a dynamic hub for professionals to gain cutting-edge, exclusive business insights.","category":"conferences","start":"2024-06-27T05:00:00Z","geo":{"geometry":{"coordinates":[76.94026,43.235886],"type":"Point"},"placekey":"@56w-chv-8vz","address":{"country_code":"KZ","formatted_address":"Kazakhstan, 050013 Almaty, 181 Zheltoksan Street","postcode":"050013","locality":"Almaty"}},"labels":["business","conference"],"duration":32400,"start_local":"2024-06-27T10:00:00","end":"2024-06-27T14:00:00Z","end_local":"2024-06-27T19:00:00","updated":"2024-06-21T20:27:42Z"},{"title":"International Exhibition of Professional Lighting and Sound Equipment","description":"Sourced from predicthq.com","category":"expos","start":"2024-06-27T04:00:00Z","geo":{"geometry":{"coordinates":[76.9055813,43.2249971],"type":"Point"},"placekey":"@56w-chs-rff","address":{"country_code":"KZ","formatted_address":"Timiryazev St 42, Almaty 050060, Kazakhstan","postcode":"050060","locality":"Almaty"}},"labels":["expo"],"duration":205200,"start_local":"2024-06-27T09:00:00","end":"2024-06-29T13:00:00Z","end_local":"2024-06-29T18:00:00","updated":"2024-06-04T09:15:37Z"},{"title":"International Exhibition for Plastic and Polymers Industry","description":"Sourced from predicthq.com","category":"expos","start":"2024-06-26T04:00:00Z","geo":{"geometry":{"coordinates":[76.9055813,43.2249971],"type":"Point"},"placekey":"@56w-chs-rff","address":{"country_code":"KZ","formatted_address":"Timiryazev St 42, Almaty 050060, Kazakhstan","postcode":"050060","locality":"Almaty"}},"labels":["expo"],"duration":205200,"start_local":"2024-06-26T09:00:00","end":"2024-06-28T13:00:00Z","end_local":"2024-06-28T18:00:00","updated":"2024-06-04T04:33:57Z"},{"title":"Kitchen & Bath Expo","description":"Sourced from predicthq.com","category":"expos","start":"2024-06-26T04:00:00Z","geo":{"geometry":{"coordinates":[76.926575,43.240068],"type":"Point"},"placekey":"@56w-cht-tqf","address":{"country_code":"KZ","formatted_address":"Abay Ave 44 Abai Ave., corner Baitursynuly St., Almaty 050000, Kazakhstan","postcode":"050000","locality":"Almaty","region":"Almaty"}},"labels":["expo"],"duration":205200,"start_local":"2024-06-26T09:00:00","end":"2024-06-28T13:00:00Z","end_local":"2024-06-28T18:00:00","updated":"2024-05-28T07:06:19Z"},{"title":"Central Asia Plast World","description":"Sourced from predicthq.com","category":"expos","start":"2024-06-25T18:00:00Z","geo":{"geometry":{"coordinates":[76.9055813,43.2249971],"type":"Point"},"placekey":"@56w-chs-rff","address":{"country_code":"KZ","formatted_address":"Kazakhstan, Almaty, 050060 Almaty, Timiryazev Street","locality":"Almaty","postcode":"050060","region":"Almaty"}},"labels":["chemical","expo","industrial","product"],"duration":259199,"start_local":"2024-06-26T00:00:00","end":"2024-06-28T17:59:59Z","end_local":"2024-06-28T23:59:59","updated":"2024-06-04T10:45:54Z"},{"title":"Frontier Symposium of Engineered Science","description":"Sourced from predicthq.com","category":"conferences","start":"2024-06-25T04:00:00Z","geo":{"geometry":{"coordinates":[71.398165,51.09053],"type":"Point"},"placekey":"@57y-v8j-w8v","address":{"country_code":"KZ","formatted_address":"Qabanbay Batyr Ave 53\nAstana 010000\nKazakhstan","locality":"Nur-Sultan"}},"labels":["conference"],"duration":205200,"start_local":"2024-06-25T09:00:00","end":"2024-06-27T13:00:00Z","end_local":"2024-06-27T18:00:00","updated":"2024-05-21T12:33:55Z"},{"title":"International Exhibition for Mining and Exploration, Mineral and Coal Processing, and Metallurgical Technologies","description":"Sourced from predicthq.com","category":"expos","start":"2024-06-25T04:00:00Z","geo":{"geometry":{"coordinates":[73.073767,49.819788],"type":"Point"},"placekey":"@552-x4j-qcq","address":{"country_code":"KZ","formatted_address":"Kazakhstan, Qarağandı oblısı, 100000 Karaganda, ул. Космонавтов","locality":"Karaganda","postcode":"100000","region":"Qarağandı oblısı"}},"labels":["expo"],"duration":205200,"start_local":"2024-06-25T09:00:00","end":"2024-06-27T13:00:00Z","end_local":"2024-06-27T18:00:00","updated":"2024-05-28T12:55:59Z"},{"title":"MinTek Kazakhstan (within Mining Week)","description":"Sourced from predicthq.com - International Exhibition for Mining and Exploration, Mineral & Coal Processing and Metallurgical Technologies","category":"expos","start":"2024-06-24T18:00:00Z","geo":{"geometry":{"coordinates":[73.0752524,49.8186844],"type":"Point"},"placekey":"@552-x4j-q2k","address":{"country_code":"KZ","formatted_address":"Kazakhstan, Qarağandı oblısı, 100000 Karaganda, M36","locality":"Karaganda","postcode":"100000","region":"Qarağandı oblısı"}},"labels":["expo","industrial","mineral","technology"],"duration":259199,"start_local":"2024-06-25T00:00:00","end":"2024-06-27T17:59:59Z","end_local":"2024-06-27T23:59:59","updated":"2024-06-04T03:43:22Z"},{"title":"Premier League - Turan Turkistan vs Yelimay Semey","description":"Sourced from predicthq.com","category":"sports","start":"2024-06-23T15:00:00Z","geo":{"geometry":{"coordinates":[69.5935070514679,42.335619893461335],"type":"Point"},"placekey":"@54s-ftb-6c5","address":{"country_code":"KZ","formatted_address":"Kazakhstan, Şımkent (Shymkent), ul. Madely Kozha 1","locality":"Şımkent (Shymkent)"}},"labels":["soccer","sport"],"duration":0,"start_local":"2024-06-23T20:00:00","end":"2024-06-23T15:00:00Z","end_local":"2024-06-23T20:00:00","updated":"2024-06-24T17:30:03Z"},{"title":"Premier League - Aktobe vs Shakhter Karagandy","description":"Sourced from predicthq.com","category":"sports","start":"2024-06-23T15:00:00Z","geo":{"geometry":{"coordinates":[57.15911863173823,50.29152639953787],"type":"Point"},"placekey":"@57n-dpx-k2k","address":{"country_code":"KZ","formatted_address":"Kazakhstan, Aqtöbe (Aktobe), prospekt Abulkhair Khan / ul. Mares'yeva 2","locality":"Aqtöbe (Aktobe)"}},"labels":["soccer","sport"],"duration":0,"start_local":"2024-06-23T20:00:00","end":"2024-06-23T15:00:00Z","end_local":"2024-06-23T20:00:00","updated":"2024-06-24T15:39:59Z"},{"title":"Premier League - Zhenys vs Ordabasy","description":"Sourced from predicthq.com","category":"sports","start":"2024-06-23T13:00:00Z","geo":{"geometry":{"coordinates":[73.0752524,49.8186844],"type":"Point"},"placekey":"@552-x4j-q2k","address":{"country_code":"KZ","formatted_address":"Kazakhstan, Karagandy Province, 100000 Karagandy, M36","postcode":"100000","locality":"Karagandy","region":"Karagandy Province"}},"labels":["soccer","sport"],"duration":0,"start_local":"2024-06-23T18:00:00","end":"2024-06-23T13:00:00Z","end_local":"2024-06-23T18:00:00","updated":"2024-06-24T10:14:13Z"},{"title":"Premier League - Atyrau vs Tobol","description":"Sourced from predicthq.com","category":"sports","start":"2024-06-23T13:00:00Z","geo":{"geometry":{"coordinates":[51.90831899642944,47.09403736090823],"type":"Point"},"placekey":"@687-kjr-s5z","address":{"country_code":"KZ","formatted_address":"Kazakhstan, Atıraw (Atyrau), ul. Auezova 28a","locality":"Atıraw (Atyrau)"}},"labels":["soccer","sport"],"duration":0,"start_local":"2024-06-23T18:00:00","end":"2024-06-23T13:00:00Z","end_local":"2024-06-23T18:00:00","updated":"2024-06-23T17:45:58Z"},{"title":"Premier League - Kyzyl-Zhar vs Astana","description":"Sourced from predicthq.com","category":"sports","start":"2024-06-22T13:00:00Z","geo":{"geometry":{"coordinates":[69.152090549469,54.874088105472055],"type":"Point"},"placekey":"@589-8qq-835","address":{"country_code":"KZ","formatted_address":"Kazakhstan, Petropavl (Petropavlosvk), ul. Zhambyla Zhabaeva","locality":"Petropavl (Petropavlosvk)"}},"labels":["soccer","sport"],"duration":0,"start_local":"2024-06-22T18:00:00","end":"2024-06-22T13:00:00Z","end_local":"2024-06-22T18:00:00","updated":"2024-06-22T23:34:41Z"},{"title":"Premier League - Zhetysu vs Kaisar","description":"Sourced from predicthq.com","category":"sports","start":"2024-06-22T13:00:00Z","geo":{"geometry":{"coordinates":[78.36510837078094,45.01969698480639],"type":"Point"},"placekey":"@56w-9dq-vpv","address":{"country_code":"KZ","formatted_address":"Kazakhstan, Taldıqorğan (Taldykorgan), ul. Lenina","locality":"Taldıqorğan (Taldykorgan)"}},"labels":["soccer","sport"],"duration":0,"start_local":"2024-06-22T18:00:00","end":"2024-06-22T13:00:00Z","end_local":"2024-06-22T18:00:00","updated":"2024-06-22T23:58:12Z"},{"title":"Aru Zhailau Fest","description":"Sourced from predicthq.com - International Jewelry Fair","category":"expos","start":"2024-06-19T18:00:00Z","geo":{"geometry":{"coordinates":[76.9055813,43.2249971],"type":"Point"},"placekey":"@56w-chs-rff","address":{"country_code":"KZ","formatted_address":"Kazakhstan, Almaty, 050060 Almaty, Timiryazev Street","locality":"Almaty","postcode":"050060","region":"Almaty"}},"labels":["craft","expo","jewelry","product"],"duration":345599,"start_local":"2024-06-20T00:00:00","end":"2024-06-23T17:59:59Z","end_local":"2024-06-23T23:59:59","updated":"2024-06-04T07:32:21Z"},{"title":"IFETPPCA 2024 - 2nd International Forum and Exhibition Thermal Power Plants Central Asia","description":"Sourced from predicthq.com","category":"expos","start":"2024-06-17T18:00:00Z","geo":{"geometry":{"coordinates":[76.9292402,43.2190777],"type":"Point"},"placekey":"@56w-chx-py9","address":{"country_code":"KZ","formatted_address":"Kazakhstan, Almaty, 050040 Almaty, Al-Farabi Avenue","locality":"Almaty","postcode":"050040","region":"Almaty"}},"labels":["business","construction","expo","industrial","technology"],"duration":172799,"start_local":"2024-06-18T00:00:00","end":"2024-06-19T17:59:59Z","end_local":"2024-06-19T23:59:59","updated":"2024-06-04T05:15:36Z"},{"title":"Premier League - Yelimay Semey vs Aktobe","description":"Sourced from predicthq.com","category":"sports","start":"2024-06-16T15:00:00Z","geo":{"geometry":{"coordinates":[80.2412760257721,50.414800857879506],"type":"Point"},"placekey":"@55k-pt4-jsq","address":{"country_code":"KZ","formatted_address":"Semey (Semipalatinsk), Kazakhstan","locality":"Semey (Semipalatinsk)"}},"labels":["soccer","sport"],"duration":0,"start_local":"2024-06-16T20:00:00","end":"2024-06-16T15:00:00Z","end_local":"2024-06-16T20:00:00","updated":"2024-06-17T14:21:49Z"},{"title":"Premier League - Zhetysu vs Zhenys","description":"Sourced from predicthq.com","category":"sports","start":"2024-06-16T13:00:00Z","geo":{"geometry":{"coordinates":[78.36510837078094,45.01969698480639],"type":"Point"},"placekey":"@56w-9dq-vpv","address":{"country_code":"KZ","formatted_address":"Kazakhstan, Taldıqorğan (Taldykorgan), ul. Lenina","locality":"Taldıqorğan (Taldykorgan)"}},"labels":["soccer","sport"],"duration":0,"start_local":"2024-06-16T18:00:00","end":"2024-06-16T13:00:00Z","end_local":"2024-06-16T18:00:00","updated":"2024-06-16T17:41:16Z"},{"title":"Premier League - Tobol vs Kairat","description":"Sourced from predicthq.com","category":"sports","start":"2024-06-15T15:00:00Z","geo":{"geometry":{"coordinates":[63.63658905029297,53.22596754713757],"type":"Point"},"placekey":"@57k-444-nh5","address":{"country_code":"KZ","formatted_address":"Kazakhstan, Kostanai / Kustanay (Kostanay), ul. 1 Maya 153","locality":"Kostanai / Kustanay (Kostanay)"}},"labels":["soccer","sport"],"duration":0,"start_local":"2024-06-15T20:00:00","end":"2024-06-15T15:00:00Z","end_local":"2024-06-15T20:00:00","updated":"2024-06-17T13:38:43Z"},{"title":"Premier League - Kaisar vs Turan Turkistan","description":"Sourced from predicthq.com","category":"sports","start":"2024-06-15T15:00:00Z","geo":{"geometry":{"coordinates":[65.50341188907623,44.826009510455094],"type":"Point"},"placekey":"@555-cd5-g49","address":{"country_code":"KZ","formatted_address":"Kazakhstan, Qyzylorda (Kyzylorda), ul. Muratbaev","locality":"Qyzylorda (Kyzylorda)"}},"labels":["soccer","sport"],"duration":0,"start_local":"2024-06-15T20:00:00","end":"2024-06-15T15:00:00Z","end_local":"2024-06-15T20:00:00","updated":"2024-06-16T00:10:45Z"},{"title":"Premier League - Shakhter Karagandy vs Atyrau","description":"Sourced from predicthq.com","category":"sports","start":"2024-06-15T13:00:00Z","geo":{"geometry":{"coordinates":[73.0752524,49.8186844],"type":"Point"},"placekey":"@552-x4j-q2k","address":{"country_code":"KZ","formatted_address":"Kazakhstan, Karagandy Province, 100000 Karagandy, M36","postcode":"100000","locality":"Karagandy","region":"Karagandy Province"}},"labels":["soccer","sport"],"duration":0,"start_local":"2024-06-15T18:00:00","end":"2024-06-15T13:00:00Z","end_local":"2024-06-15T18:00:00","updated":"2024-06-15T23:33:49Z"},{"title":"Kazakhstan Grand Prix","description":"Sourced from predicthq.com - The Kazakhstan motorcycle Grand Prix is a motorcycling event that is part of the Grand Prix motorcycle racing World Championship.","category":"sports","start":"2024-06-13T18:00:00Z","geo":{"geometry":{"coordinates":[76.570556,43.584722],"type":"Point"},"placekey":"@56w-hf5-vmk","address":{"country_code":"KZ","formatted_address":"Almaty, Kazakhstan","locality":"Almaty"}},"labels":["auto-racing","motogp","sport"],"duration":259199,"start_local":"2024-06-14T00:00:00","end":"2024-06-16T17:59:59Z","end_local":"2024-06-16T23:59:59","updated":"2024-06-03T23:05:57Z"},{"title":"Astana International Forum","description":"Sourced from predicthq.com","category":"conferences","start":"2024-06-13T04:00:00Z","geo":{"geometry":{"coordinates":[71.41118,51.092478],"type":"Point"},"placekey":"@57y-v8k-3t9","address":{"country_code":"KZ","formatted_address":"Kazakhstan, Astana, 020000 Astana, Sauran Street","locality":"Astana","postcode":"020000","region":"Astana"}},"labels":["conference"],"duration":118800,"start_local":"2024-06-13T09:00:00","end":"2024-06-14T13:00:00Z","end_local":"2024-06-14T18:00:00","updated":"2024-05-27T22:00:11Z"},{"title":"ISTQB® Foundation Exam and Training Course - Astana / Nur-Sultan","description":"Sourced from predicthq.com - ISTQB® Foundation Астана - Подготовка к сертификации и экзамен\nISTQB® FOUNDATION EXAM AND TRAINING COURSE\nThe aim of this course is to provi","category":"conferences","start":"2024-06-12T04:00:00Z","geo":{"geometry":{"coordinates":[71.4703558,51.1605227],"type":"Point"},"placekey":"@57y-v89-f4v","address":{"country_code":"KZ","formatted_address":"Kazakhstan, Astana, 020000 Astana","locality":"Astana","postcode":"020000","region":"Astana"}},"labels":["conference","science","technology"],"duration":28800,"start_local":"2024-06-12T09:00:00","end":"2024-06-12T12:00:00Z","end_local":"2024-06-12T17:00:00","updated":"2024-06-04T00:15:18Z"},{"title":"FURNITURE.INTERIOR.WOODWORKING","description":"Sourced from predicthq.com - International Interior and Furniture Exhibition Fair","category":"expos","start":"2024-06-11T18:00:00Z","geo":{"geometry":{"coordinates":[76.9055813,43.2249971],"type":"Point"},"placekey":"@56w-chs-rff","address":{"country_code":"KZ","formatted_address":"Kazakhstan, Almaty, 050060 Almaty, Timiryazev Street","locality":"Almaty","postcode":"050060","region":"Almaty"}},"labels":["design","expo","furniture"],"duration":259199,"start_local":"2024-06-12T00:00:00","end":"2024-06-14T17:59:59Z","end_local":"2024-06-14T23:59:59","updated":"2024-06-04T00:55:08Z"},{"title":"Tartynba Fest 2.0 - Almaty","description":"Sourced from predicthq.com - TartynbaFest - фестиваль о сексуальном образовании, который пройдет 7 июня 2024 в Алматы на базе SmArtPoint.","category":"festivals","start":"2024-06-07T06:00:00Z","geo":{"geometry":{"coordinates":[76.9152354,43.23675749999999],"type":"Point"},"placekey":"@56w-chv-vcq","address":{"country_code":"KZ","formatted_address":"Kazakhstan, Almaty, 050000 Almaty, Baizakov Street","locality":"Almaty","postcode":"050000","region":"Almaty"}},"labels":["community","festival"],"duration":28800,"start_local":"2024-06-07T11:00:00","end":"2024-06-07T14:00:00Z","end_local":"2024-06-07T19:00:00","updated":"2024-05-30T01:05:48Z"},{"title":"CESS Annual Conference","description":"Sourced from predicthq.com","category":"conferences","start":"2024-06-06T04:00:00Z","geo":{"geometry":{"coordinates":[76.877044,43.233539],"type":"Point"},"placekey":"@56w-cj5-4n5","address":{"country_code":"KZ","formatted_address":"Kazakhstan, Almaty, 050000 Almaty, Satpaev Street","locality":"Almaty","postcode":"050000","region":"Almaty"}},"labels":["conference"],"duration":291600,"start_local":"2024-06-06T09:00:00","end":"2024-06-09T13:00:00Z","end_local":"2024-06-09T18:00:00","updated":"2024-06-01T05:07:51Z"},{"title":"ASTANA MINING & METALLURGY EXPO 2024","description":"Sourced from predicthq.com","category":"expos","start":"2024-06-05T18:00:00Z","geo":{"geometry":{"coordinates":[71.4105927,51.0906485],"type":"Point"},"placekey":"@57y-v8p-f2k","address":{"country_code":"KZ","formatted_address":"Kazakhstan, Astana, 010000 Astana, Sauran Street","locality":"Astana","postcode":"010000","region":"Astana"}},"labels":["expo","industrial","technology"],"duration":172799,"start_local":"2024-06-06T00:00:00","end":"2024-06-07T17:59:59Z","end_local":"2024-06-07T23:59:59","updated":"2024-06-12T08:41:21Z"},{"title":"Premier League - Zhenys vs Atyrau","description":"Sourced from predicthq.com","category":"sports","start":"2024-06-02T16:00:00Z","geo":{"geometry":{"coordinates":[73.0752524,49.8186844],"type":"Point"},"placekey":"@552-x4j-q2k","address":{"country_code":"KZ","formatted_address":"Kazakhstan, Karagandy Province, 100000 Karagandy, M36","postcode":"100000","locality":"Karagandy","region":"Karagandy Province"}},"labels":["soccer","sport"],"duration":0,"start_local":"2024-06-02T21:00:00","end":"2024-06-02T16:00:00Z","end_local":"2024-06-02T21:00:00","updated":"2024-06-12T11:24:05Z"},{"title":"Premier League - Kairat vs Shakhter Karagandy","description":"Sourced from predicthq.com","category":"sports","start":"2024-06-02T14:00:00Z","geo":{"geometry":{"coordinates":[76.92415629999999,43.2383345],"type":"Point"},"placekey":"@56w-chv-6kz","address":{"country_code":"KZ","formatted_address":"Satpaev St 29/3, Almaty 050000, Kazakhstan","postcode":"050000","locality":"Almaty"}},"labels":["soccer","sport"],"duration":0,"start_local":"2024-06-02T19:00:00","end":"2024-06-02T14:00:00Z","end_local":"2024-06-02T19:00:00","updated":"2024-06-12T10:57:45Z"},{"title":"Premier League - Turan Turkistan vs Aktobe","description":"Sourced from predicthq.com","category":"sports","start":"2024-06-02T14:00:00Z","geo":{"geometry":{"coordinates":[69.5935070514679,42.335619893461335],"type":"Point"},"placekey":"@54s-ftb-6c5","address":{"country_code":"KZ","formatted_address":"Kazakhstan, Şımkent (Shymkent), ul. Madely Kozha 1","locality":"Şımkent (Shymkent)"}},"labels":["soccer","sport"],"duration":0,"start_local":"2024-06-02T19:00:00","end":"2024-06-02T14:00:00Z","end_local":"2024-06-02T19:00:00","updated":"2024-06-12T04:06:20Z"},{"title":"Premier League - Kyzyl-Zhar vs Yelimay Semey","description":"Sourced from predicthq.com","category":"sports","start":"2024-06-02T14:00:00Z","geo":{"geometry":{"coordinates":[69.152090549469,54.874088105472055],"type":"Point"},"placekey":"@589-8qq-835","address":{"country_code":"KZ","formatted_address":"Kazakhstan, Petropavl (Petropavlosvk), ul. Zhambyla Zhabaeva","locality":"Petropavl (Petropavlosvk)"}},"labels":["soccer","sport"],"duration":0,"start_local":"2024-06-02T19:00:00","end":"2024-06-02T14:00:00Z","end_local":"2024-06-02T19:00:00","updated":"2024-06-12T13:54:31Z"},{"title":"Premier League - Ordabasy vs Zhetysu","description":"Sourced from predicthq.com","category":"sports","start":"2024-06-01T16:00:00Z","geo":{"geometry":{"coordinates":[69.5935070514679,42.335619893461335],"type":"Point"},"placekey":"@54s-ftb-6c5","address":{"country_code":"KZ","formatted_address":"Kazakhstan, Şımkent (Shymkent), ul. Madely Kozha 1","locality":"Şımkent (Shymkent)"}},"labels":["soccer","sport"],"duration":0,"start_local":"2024-06-01T21:00:00","end":"2024-06-01T16:00:00Z","end_local":"2024-06-01T21:00:00","updated":"2024-06-12T06:17:46Z"},{"title":"Swipe Left vs Swipe Right - Stand Up Comedy Show in English • Almaty","description":"Sourced from predicthq.com - Where stories of love, laughs, hook-ups, and fuck-ups collide. A comedy show that embraces our awkward and unfiltered dating disasters.","category":"performing-arts","start":"2024-06-01T14:30:00Z","geo":{"geometry":{"coordinates":[76.9057598,43.2541769],"type":"Point"},"placekey":"@56w-cj2-r6k","address":{"country_code":"KZ","formatted_address":"Kazakhstan, Almaty, 050000 Almaty, Nurmakov Street","locality":"Almaty","postcode":"050000","region":"Almaty"}},"labels":["concert","music","performing-arts"],"duration":7200,"start_local":"2024-06-01T19:30:00","end":"2024-06-01T16:30:00Z","end_local":"2024-06-01T21:30:00","updated":"2024-05-25T14:32:06Z"},{"title":"Premier League - Tobol vs Kaisar","description":"Sourced from predicthq.com","category":"sports","start":"2024-06-01T14:00:00Z","geo":{"geometry":{"coordinates":[63.63658905029297,53.22596754713757],"type":"Point"},"placekey":"@57k-444-nh5","address":{"country_code":"KZ","formatted_address":"Kazakhstan, Kostanai / Kustanay (Kostanay), ul. 1 Maya 153","locality":"Kostanai / Kustanay (Kostanay)"}},"labels":["soccer","sport"],"duration":0,"start_local":"2024-06-01T19:00:00","end":"2024-06-01T14:00:00Z","end_local":"2024-06-01T19:00:00","updated":"2024-06-12T09:04:41Z"},{"title":"Central Asia Beauty Expo","description":"Sourced from predicthq.com - Central Asia Beauty Expo is a premium expo event showcasing the latest beauty trends, innovations, and products from renowned local and international exhibitors, providing a platform for industry professionals to connect and explore opportunities in the beauty sector. Featuring a diverse range of demonstrations, workshops, and networking opportunities, it is the ultimate destination for beauty enthusiasts and industry experts to discover, learn, and be inspired.","category":"expos","start":"2024-05-30T18:00:00Z","geo":{"geometry":{"coordinates":[76.904779,43.222808],"type":"Point"},"placekey":"@56w-chs-t35","address":{"country_code":"KZ","formatted_address":"Timiryazev St 42, Almaty 050057, Kazakhstan","postcode":"050057","locality":"Almaty","region":"Almaty"}},"labels":["expo"],"duration":172799,"start_local":"2024-05-31T00:00:00","end":"2024-06-01T17:59:59Z","end_local":"2024-06-01T23:59:59","updated":"2024-05-31T23:01:46Z"},{"title":"International Conference Astana Biotech","description":"Sourced from predicthq.com","category":"conferences","start":"2024-05-30T04:00:00Z","geo":{"geometry":{"coordinates":[71.412415,51.1593902],"type":"Point"},"placekey":"@57y-v7n-zxq","address":{"country_code":"KZ","formatted_address":"Kazakhstan, 010000 Astana","postcode":"010000","locality":"Astana"}},"labels":["conference"],"duration":118800,"start_local":"2024-05-30T09:00:00","end":"2024-05-31T13:00:00Z","end_local":"2024-05-31T18:00:00","updated":"2024-05-28T05:08:56Z"},{"title":"CABEAUTY - Central Asia Beauty Expo","description":"Sourced from predicthq.com - CABEAUTY is a premier expo event showcasing the latest trends and innovations in the beauty industry. This extraordinary expo at the Atakent Exhibition Center gathers beauty enthusiasts, professionals, and industry leaders for an immersive experience filled with cutting-edge products, demonstrations, and remarkable networking opportunities.","category":"expos","start":"2024-05-29T18:00:00Z","geo":{"geometry":{"coordinates":[76.9055813,43.2249971],"type":"Point"},"placekey":"@56w-chs-rff","address":{"country_code":"KZ","formatted_address":"Kazakhstan, Almaty, 050060 Almaty, Timiryazev Street","locality":"Almaty","postcode":"050060","region":"Almaty"}},"labels":["expo"],"duration":259199,"start_local":"2024-05-30T00:00:00","end":"2024-06-01T17:59:59Z","end_local":"2024-06-01T23:59:59","updated":"2024-06-02T02:04:37Z"},{"title":"Cosmoderm Expo","description":"Sourced from predicthq.com","category":"expos","start":"2024-05-29T18:00:00Z","geo":{"geometry":{"coordinates":[76.9055813,43.2249971],"type":"Point"},"placekey":"@56w-chs-rff","address":{"country_code":"KZ","formatted_address":"Timiryazev St 42, Almaty 050060, Kazakhstan","postcode":"050060","locality":"Almaty"}},"labels":["expo"],"duration":259199,"start_local":"2024-05-30T00:00:00","end":"2024-06-01T17:59:59Z","end_local":"2024-06-01T23:59:59","updated":"2024-05-31T23:10:49Z"},{"title":"Kazakhstan International Occupational Safety and Health Conference and Exhibition","description":"Sourced from predicthq.com - The Kazakhstan International Occupational Safety and Health Conference and Exhibition is a premier expo event promoting workplace safety and health practices. Featuring industry experts, innovative products, and informative sessions, it offers a platform for knowledge exchange and networking opportunities for professionals in the field.","category":"expos","start":"2024-05-29T04:00:00Z","geo":{"geometry":{"coordinates":[71.421377,51.092214],"type":"Point"},"placekey":"@57y-v69-hqz","address":{"country_code":"KZ","formatted_address":"Prospekt Mangilik Yel. 53\nNur-Sultan 020000\nKazakhstan","locality":"Nur-Sultan"}},"labels":["expo"],"duration":205200,"start_local":"2024-05-29T09:00:00","end":"2024-05-31T13:00:00Z","end_local":"2024-05-31T18:00:00","updated":"2024-05-31T22:50:04Z"},{"title":"Eurasian Academic Libraries Conference","description":"Sourced from predicthq.com","category":"conferences","start":"2024-05-29T04:00:00Z","geo":{"geometry":{"coordinates":[71.398165,51.09053],"type":"Point"},"placekey":"@57y-v8j-w8v","address":{"country_code":"KZ","formatted_address":"Qabanbay Batyr Ave 53\nAstana 010000\nKazakhstan","locality":"Nur-Sultan"}},"labels":["conference"],"duration":205200,"start_local":"2024-05-29T09:00:00","end":"2024-05-31T13:00:00Z","end_local":"2024-05-31T18:00:00","updated":"2024-05-27T22:25:55Z"},{"title":"Kazakhstan International Building & Interiors Exhibition","description":"Sourced from predicthq.com","category":"expos","start":"2024-05-29T04:00:00Z","geo":{"geometry":{"coordinates":[71.421377,51.092214],"type":"Point"},"placekey":"@57y-v69-hqz","address":{"country_code":"KZ","formatted_address":"Prospekt Mangilik Yel. 53\nNur-Sultan 020000\nKazakhstan","locality":"Nur-Sultan"}},"labels":["expo"],"duration":205200,"start_local":"2024-05-29T09:00:00","end":"2024-05-31T13:00:00Z","end_local":"2024-05-31T18:00:00","updated":"2024-06-03T19:39:12Z"},{"title":"Astana Build","description":"Sourced from predicthq.com - Astana Build is a dynamic expo event that brings together construction industry professionals and enthusiasts from around the world to showcase the latest innovations, technologies, and trends shaping the future of the building sector. With a wide range of exhibits, workshops, and networking opportunities, this event is a one-stop destination for discovering groundbreaking solutions and fostering meaningful collaborations in the construction field.","category":"expos","start":"2024-05-29T04:00:00Z","geo":{"geometry":{"coordinates":[71.421377,51.092214],"type":"Point"},"placekey":"@57y-v69-hqz","address":{"country_code":"KZ","formatted_address":"Prospekt Mangilik Yel. 53\nNur-Sultan 020000\nKazakhstan","locality":"Nur-Sultan"}},"labels":["expo"],"duration":205200,"start_local":"2024-05-29T09:00:00","end":"2024-05-31T13:00:00Z","end_local":"2024-05-31T18:00:00","updated":"2024-05-31T22:59:25Z"},{"title":"Kazdenexpo","description":"Sourced from predicthq.com","category":"expos","start":"2024-05-29T04:00:00Z","geo":{"geometry":{"coordinates":[76.9055813,43.2249971],"type":"Point"},"placekey":"@56w-chs-rff","address":{"country_code":"KZ","formatted_address":"Timiryazev St 42, Almaty 050060, Kazakhstan","postcode":"050060","locality":"Almaty"}},"labels":["expo"],"duration":205200,"start_local":"2024-05-29T09:00:00","end":"2024-05-31T13:00:00Z","end_local":"2024-05-31T18:00:00","updated":"2024-06-01T01:27:44Z"},{"title":"AstanaBuild Kazakhstan","description":"Sourced from predicthq.com - Building & Interior Design","category":"expos","start":"2024-05-28T18:00:00Z","geo":{"geometry":{"coordinates":[71.4190444,51.0886039],"type":"Point"},"placekey":"@57y-v69-dy9","address":{"country_code":"KZ","formatted_address":"Kazakhstan, Astana, 020000 Astana","locality":"Astana","postcode":"020000","region":"Astana"}},"labels":["construction","expo","technology"],"duration":259199,"start_local":"2024-05-29T00:00:00","end":"2024-05-31T17:59:59Z","end_local":"2024-05-31T23:59:59","updated":"2024-06-05T00:36:33Z"},{"title":"InterFood Astana","description":"Sourced from predicthq.com - Kazkjstan International Exhibition Foodstuffs, Drinks, Packaging and Equipment","category":"expos","start":"2024-05-28T18:00:00Z","geo":{"geometry":{"coordinates":[71.4203533,51.1292251],"type":"Point"},"placekey":"@57y-v7r-92k","address":{"country_code":"KZ","formatted_address":"Kazakhstan, Astana, 020000 Astana, Nurzhol Boulevard","locality":"Astana","postcode":"020000","region":"Astana"}},"labels":["expo","packaging","product","technology"],"duration":259199,"start_local":"2024-05-29T00:00:00","end":"2024-05-31T17:59:59Z","end_local":"2024-05-31T23:59:59","updated":"2024-06-20T19:01:31Z"},{"title":"Scorpions","description":"Sourced from predicthq.com","category":"concerts","start":"2024-05-28T14:00:00Z","geo":{"geometry":{"coordinates":[76.81753432430223,43.26387194366791],"type":"Point"},"placekey":"@56w-cyg-wrk","address":{"country_code":"KZ","formatted_address":"Нуркент 37, Almaty, Kazakhstan","locality":"Almaty","region":"Almaty"}},"labels":["concert","music"],"duration":0,"start_local":"2024-05-28T19:00:00","end":"2024-05-28T14:00:00Z","end_local":"2024-05-28T19:00:00","updated":"2024-06-11T14:03:31Z"},{"title":"International Exhibition of Equipment & Technologies for Power Engineering & Electric Machinery","description":"Sourced from predicthq.com","category":"expos","start":"2024-05-28T04:00:00Z","geo":{"geometry":{"coordinates":[76.964195,52.310576],"type":"Point"},"placekey":"@582-dk5-x3q","address":{"country_code":"KZ","formatted_address":"Kazakhstan, Pavlodar Region, 140000 Pavlodar, Severnaya Promzona","locality":"Pavlodar","postcode":"140000","region":"Pavlodar Region"}},"labels":["expo"],"duration":205200,"start_local":"2024-05-28T09:00:00","end":"2024-05-30T13:00:00Z","end_local":"2024-05-30T18:00:00","updated":"2024-05-27T09:16:06Z"},{"title":"WinDoor Expo Kazakhstan","description":"Sourced from predicthq.com","category":"expos","start":"2024-05-27T18:00:00Z","geo":{"geometry":{"coordinates":[76.926575,43.240068],"type":"Point"},"placekey":"@56w-cht-tqf","address":{"country_code":"KZ","formatted_address":"Abay Ave 44 Abai Ave., corner Baitursynuly St., Almaty 050000, Kazakhstan","postcode":"050000","locality":"Almaty","region":"Almaty"}},"labels":["expo"],"duration":259199,"start_local":"2024-05-28T00:00:00","end":"2024-05-30T17:59:59Z","end_local":"2024-05-30T23:59:59","updated":"2024-05-28T05:40:44Z"},{"title":"Telecom Eurasia","description":"Sourced from predicthq.com","category":"conferences","start":"2024-05-23T04:00:00Z","geo":{"geometry":{"coordinates":[76.951096,43.244523],"type":"Point"},"placekey":"@56w-cjf-kmk","address":{"country_code":"KZ","formatted_address":"Kurmangazy St 36, Almaty 050010, Kazakhstan","postcode":"050010","locality":"Almaty","region":"Almaty"}},"labels":["conference"],"duration":32400,"start_local":"2024-05-23T09:00:00","end":"2024-05-23T13:00:00Z","end_local":"2024-05-23T18:00:00","updated":"2024-06-03T18:48:37Z"},{"title":"National League - 3rd Place Final - Aktobe vs Tobol","description":"Sourced from predicthq.com","category":"sports","start":"2024-05-22T14:00:00Z","geo":{"geometry":{"coordinates":[57.157605,50.293959],"type":"Point"},"placekey":"@57n-dpx-gp9","address":{"country_code":"KZ","formatted_address":"Kazakhstan, Aqtöbe, prospekt Abulkhair-Khan 52","locality":"Aqtöbe"}},"labels":["basketball","sport"],"duration":0,"start_local":"2024-05-22T19:00:00","end":"2024-05-22T14:00:00Z","end_local":"2024-05-22T19:00:00","updated":"2024-06-12T08:50:35Z"},{"title":"Central Asia Houseware","description":"Sourced from predicthq.com - International Houseware and Home Technology Exhibition","category":"expos","start":"2024-05-21T18:00:00Z","geo":{"geometry":{"coordinates":[76.9055813,43.2249971],"type":"Point"},"placekey":"@56w-chs-rff","address":{"country_code":"KZ","formatted_address":"Kazakhstan, Almaty, 050060 Almaty, Timiryazev Street","locality":"Almaty","postcode":"050060","region":"Almaty"}},"labels":["craft","expo","jewelry","product"],"duration":259199,"start_local":"2024-05-22T00:00:00","end":"2024-05-24T17:59:59Z","end_local":"2024-05-24T23:59:59","updated":"2024-06-05T15:42:32Z"},{"title":"AstanaBuild","description":"Sourced from predicthq.com - AstanaBuild exhibition is an effective tool for maintenance and expansion of cooperation between Kazakhstani and foreign companies, as well as exchange of experience and attraction of investment to the construction market of the Republic of Kazakhstan.","category":"expos","start":"2024-05-21T18:00:00Z","geo":{"geometry":{"coordinates":[71.436193,51.125086],"type":"Point"},"placekey":"@57y-v7s-z75","address":{"country_code":"KZ","formatted_address":"Kazakhstan, Astana, 020000 Astana","locality":"Astana","postcode":"020000","region":"Astana"}},"labels":["construction","expo","product"],"duration":259199,"start_local":"2024-05-22T00:00:00","end":"2024-05-24T17:59:59Z","end_local":"2024-05-24T23:59:59","updated":"2024-06-05T09:40:54Z"},{"title":"Kazdent Expo","description":"Sourced from predicthq.com","category":"expos","start":"2024-05-21T18:00:00Z","geo":{"geometry":{"coordinates":[76.904779,43.222808],"type":"Point"},"placekey":"@56w-chs-t35","address":{"country_code":"KZ","formatted_address":"Timiryazev St 42, Almaty 050057, Kazakhstan","postcode":"050057","locality":"Almaty","region":"Almaty"}},"labels":["expo"],"duration":259199,"start_local":"2024-05-22T00:00:00","end":"2024-05-24T17:59:59Z","end_local":"2024-05-24T23:59:59","updated":"2024-05-31T23:03:11Z"},{"title":"International Exhibition of Office and School Supplies, Stationery and Creativity Central Asia Office","description":"Sourced from predicthq.com","category":"expos","start":"2024-05-21T18:00:00Z","geo":{"geometry":{"coordinates":[76.9055813,43.2249971],"type":"Point"},"placekey":"@56w-chs-rff","address":{"country_code":"KZ","formatted_address":"Timiryazev St 42, Almaty 050060, Kazakhstan","postcode":"050060","locality":"Almaty"}},"labels":["expo"],"duration":259199,"start_local":"2024-05-22T00:00:00","end":"2024-05-24T17:59:59Z","end_local":"2024-05-24T23:59:59","updated":"2024-06-05T14:08:28Z"},{"title":"National League - 3rd Place Final - Aktobe vs Tobol","description":"Sourced from predicthq.com","category":"sports","start":"2024-05-21T14:00:00Z","geo":{"geometry":{"coordinates":[57.157605,50.293959],"type":"Point"},"placekey":"@57n-dpx-gp9","address":{"country_code":"KZ","formatted_address":"Kazakhstan, Aqtöbe, prospekt Abulkhair-Khan 52","locality":"Aqtöbe"}},"labels":["basketball","sport"],"duration":0,"start_local":"2024-05-21T19:00:00","end":"2024-05-21T14:00:00Z","end_local":"2024-05-21T19:00:00","updated":"2024-06-12T13:11:21Z"},{"title":"Premier League - Yelimay Semey vs Kairat","description":"Sourced from predicthq.com","category":"sports","start":"2024-05-19T16:00:00Z","geo":{"geometry":{"coordinates":[80.2412760257721,50.414800857879506],"type":"Point"},"placekey":"@55k-pt4-jsq","address":{"country_code":"KZ","formatted_address":"Semey (Semipalatinsk), Kazakhstan","locality":"Semey (Semipalatinsk)"}},"labels":["soccer","sport"],"duration":0,"start_local":"2024-05-19T21:00:00","end":"2024-05-19T16:00:00Z","end_local":"2024-05-19T21:00:00","updated":"2024-06-12T12:01:14Z"},{"title":"National League - Final - Barsy Atyrau vs Irbis","description":"Sourced from predicthq.com","category":"sports","start":"2024-05-19T14:00:00Z","geo":{"geometry":{"coordinates":[51.884502,47.102798],"type":"Point"},"placekey":"@687-kjs-dsq","address":{"country_code":"KZ","formatted_address":"Qanysh Sätbayev Ave 3, Atyrau 060011, Kazakhstan","postcode":"060011","locality":"Atyrau","region":"Atyrau Region"}},"labels":["basketball","sport"],"duration":0,"start_local":"2024-05-19T19:00:00","end":"2024-05-19T14:00:00Z","end_local":"2024-05-19T19:00:00","updated":"2024-06-12T12:30:11Z"},{"title":"Premier League - Shakhter Karagandy vs Tobol","description":"Sourced from predicthq.com","category":"sports","start":"2024-05-19T12:00:00Z","geo":{"geometry":{"coordinates":[73.0752524,49.8186844],"type":"Point"},"placekey":"@552-x4j-q2k","address":{"country_code":"KZ","formatted_address":"Kazakhstan, Karagandy Province, 100000 Karagandy, M36","postcode":"100000","locality":"Karagandy","region":"Karagandy Province"}},"labels":["soccer","sport"],"duration":0,"start_local":"2024-05-19T17:00:00","end":"2024-05-19T12:00:00Z","end_local":"2024-05-19T17:00:00","updated":"2024-06-12T18:35:21Z"},{"title":"Premier League - Zhetysu vs Kyzyl-Zhar","description":"Sourced from predicthq.com","category":"sports","start":"2024-05-19T12:00:00Z","geo":{"geometry":{"coordinates":[78.36510837078094,45.01969698480639],"type":"Point"},"placekey":"@56w-9dq-vpv","address":{"country_code":"KZ","formatted_address":"Kazakhstan, Taldıqorğan (Taldykorgan), ul. Lenina","locality":"Taldıqorğan (Taldykorgan)"}},"labels":["soccer","sport"],"duration":0,"start_local":"2024-05-19T17:00:00","end":"2024-05-19T12:00:00Z","end_local":"2024-05-19T17:00:00","updated":"2024-06-12T02:51:38Z"},{"title":"Premier League - Kaisar vs Zhenys","description":"Sourced from predicthq.com","category":"sports","start":"2024-05-18T16:00:00Z","geo":{"geometry":{"coordinates":[65.50341188907623,44.826009510455094],"type":"Point"},"placekey":"@555-cd5-g49","address":{"country_code":"KZ","formatted_address":"Kazakhstan, Qyzylorda (Kyzylorda), ul. Muratbaev","locality":"Qyzylorda (Kyzylorda)"}},"labels":["soccer","sport"],"duration":0,"start_local":"2024-05-18T21:00:00","end":"2024-05-18T16:00:00Z","end_local":"2024-05-18T21:00:00","updated":"2024-06-12T00:03:17Z"},{"title":"National League - Final - Barsy Atyrau vs Irbis","description":"Sourced from predicthq.com","category":"sports","start":"2024-05-18T14:00:00Z","geo":{"geometry":{"coordinates":[51.884502,47.102798],"type":"Point"},"placekey":"@687-kjs-dsq","address":{"country_code":"KZ","formatted_address":"Qanysh Sätbayev Ave 3, Atyrau 060011, Kazakhstan","postcode":"060011","locality":"Atyrau","region":"Atyrau Region"}},"labels":["basketball","sport"],"duration":0,"start_local":"2024-05-18T19:00:00","end":"2024-05-18T14:00:00Z","end_local":"2024-05-18T19:00:00","updated":"2024-06-12T06:15:34Z"},{"title":"Premier League - Aktobe vs Ordabasy","description":"Sourced from predicthq.com","category":"sports","start":"2024-05-18T14:00:00Z","geo":{"geometry":{"coordinates":[57.15911863173823,50.29152639953787],"type":"Point"},"placekey":"@57n-dpx-k2k","address":{"country_code":"KZ","formatted_address":"Kazakhstan, Aqtöbe (Aktobe), prospekt Abulkhair Khan / ul. Mares'yeva 2","locality":"Aqtöbe (Aktobe)"}},"labels":["soccer","sport"],"duration":0,"start_local":"2024-05-18T19:00:00","end":"2024-05-18T14:00:00Z","end_local":"2024-05-18T19:00:00","updated":"2024-06-12T10:10:45Z"},{"title":"\"Unveiling the Future: Exploring the Convergence of AI, Blockchain, and Web","description":"Sourced from predicthq.com - Join us for an immersive exploration of AI, Blockchain, and Web 3.0 at our inaugural meetup. Discover the future of technology with us!","category":"conferences","start":"2024-05-18T12:00:00Z","geo":{"geometry":{"coordinates":[76.8828618,43.2379761],"type":"Point"},"placekey":"@56w-chz-swk","address":{"country_code":"KZ","formatted_address":"Kazakhstan, Almaty, 050000 Almaty","locality":"Almaty","postcode":"050000","region":"Almaty"}},"labels":["conference","science","technology"],"duration":7200,"start_local":"2024-05-18T17:00:00","end":"2024-05-18T14:00:00Z","end_local":"2024-05-18T19:00:00","updated":"2024-06-05T20:35:56Z"},{"title":"Premier League - Atyrau vs Astana","description":"Sourced from predicthq.com","category":"sports","start":"2024-05-18T12:00:00Z","geo":{"geometry":{"coordinates":[51.90831899642944,47.09403736090823],"type":"Point"},"placekey":"@687-kjr-s5z","address":{"country_code":"KZ","formatted_address":"Kazakhstan, Atıraw (Atyrau), ul. Auezova 28a","locality":"Atıraw (Atyrau)"}},"labels":["soccer","sport"],"duration":0,"start_local":"2024-05-18T17:00:00","end":"2024-05-18T12:00:00Z","end_local":"2024-05-18T17:00:00","updated":"2024-06-12T14:38:55Z"},{"title":"National League - 3rd Place Final - Tobol vs Aktobe","description":"Sourced from predicthq.com","category":"sports","start":"2024-05-15T14:00:00Z","geo":{"geometry":{"coordinates":[63.567652,53.219996],"type":"Point"},"placekey":"@57k-448-zj9","address":{"country_code":"KZ","formatted_address":"Kazakhstan, Qostanai, u. Dimitriya Gerasimova 1","locality":"Qostanai"}},"labels":["basketball","sport"],"duration":0,"start_local":"2024-05-15T19:00:00","end":"2024-05-15T14:00:00Z","end_local":"2024-05-15T19:00:00","updated":"2024-06-12T07:13:17Z"},{"title":"International Congress and Exhibition Mining Congress Qazaqstan","description":"Sourced from predicthq.com","category":"expos","start":"2024-05-15T04:00:00Z","geo":{"geometry":{"coordinates":[71.431466,51.124472],"type":"Point"},"placekey":"@57y-v66-5s5","address":{"country_code":"KZ","formatted_address":"Dostyk Street 16\nАстана 010016\nKazakhstan","locality":"Nur-Sultan"}},"labels":["expo"],"duration":118800,"start_local":"2024-05-15T09:00:00","end":"2024-05-16T13:00:00Z","end_local":"2024-05-16T18:00:00","updated":"2024-06-05T08:52:17Z"},{"title":"International Conference on Smart Information Systems and Technologies","description":"Sourced from predicthq.com","category":"conferences","start":"2024-05-15T04:00:00Z","geo":{"geometry":{"coordinates":[71.418323,51.090849],"type":"Point"},"placekey":"@57y-v69-h5z","address":{"country_code":"KZ","formatted_address":"Kazakhstan, Astana, 010000 Astana","locality":"Astana","postcode":"010000","region":"Astana"}},"labels":["conference"],"duration":205200,"start_local":"2024-05-15T09:00:00","end":"2024-05-17T13:00:00Z","end_local":"2024-05-17T18:00:00","updated":"2024-05-28T05:18:09Z"},{"title":"KIHE","description":"Sourced from predicthq.com - KIHE is a premier expo event showcasing the latest advancements in healthcare and medical technologies, attracting industry professionals, experts, and enthusiasts. With a diverse range of exhibits, demonstrations, and conferences, KIHE serves as a platform to foster knowledge exchange and innovation in the healthcare sector.","category":"expos","start":"2024-05-14T18:00:00Z","geo":{"geometry":{"coordinates":[76.9055813,43.2249971],"type":"Point"},"placekey":"@56w-chs-rff","address":{"country_code":"KZ","formatted_address":"Kazakhstan, Almaty, 050060 Almaty, Timiryazev Street","locality":"Almaty","postcode":"050060","region":"Almaty"}},"labels":["expo"],"duration":259199,"start_local":"2024-05-15T00:00:00","end":"2024-05-17T17:59:59Z","end_local":"2024-05-17T23:59:59","updated":"2024-06-05T11:57:42Z"},{"title":"National League - Final - Irbis vs Barsy Atyrau","description":"Sourced from predicthq.com","category":"sports","start":"2024-05-14T15:00:00Z","geo":{"geometry":{"coordinates":[76.89798009685765,43.19962559709564],"type":"Point"},"placekey":"@56w-chw-vxq","address":{"country_code":"KZ","formatted_address":"6V2X+63V, Kozhabekov St, Almaty 050060, Kazakhstan","postcode":"050060","locality":"Almaty","region":"Almaty"}},"labels":["basketball","sport"],"duration":0,"start_local":"2024-05-14T20:00:00","end":"2024-05-14T15:00:00Z","end_local":"2024-05-14T20:00:00","updated":"2024-06-12T18:50:34Z"},{"title":"National League - 3rd Place Final - Tobol vs Aktobe","description":"Sourced from predicthq.com","category":"sports","start":"2024-05-14T14:00:00Z","geo":{"geometry":{"coordinates":[63.567652,53.219996],"type":"Point"},"placekey":"@57k-448-zj9","address":{"country_code":"KZ","formatted_address":"Kazakhstan, Qostanai, u. Dimitriya Gerasimova 1","locality":"Qostanai"}},"labels":["basketball","sport"],"duration":0,"start_local":"2024-05-14T19:00:00","end":"2024-05-14T14:00:00Z","end_local":"2024-05-14T19:00:00","updated":"2024-06-12T03:22:43Z"},{"title":"National League - Final - Irbis vs Barsy Atyrau","description":"Sourced from predicthq.com","category":"sports","start":"2024-05-13T15:00:00Z","geo":{"geometry":{"coordinates":[76.89798009685765,43.19962559709564],"type":"Point"},"placekey":"@56w-chw-vxq","address":{"country_code":"KZ","formatted_address":"6V2X+63V, Kozhabekov St, Almaty 050060, Kazakhstan","postcode":"050060","locality":"Almaty","region":"Almaty"}},"labels":["basketball","sport"],"duration":0,"start_local":"2024-05-13T20:00:00","end":"2024-05-13T15:00:00Z","end_local":"2024-05-13T20:00:00","updated":"2024-06-12T05:48:15Z"},{"title":"Louna","description":"Sourced from predicthq.com","category":"concerts","start":"2024-05-13T15:00:00Z","geo":{"geometry":{"coordinates":[71.36437,51.14868],"type":"Point"},"placekey":"@57y-v7y-st9","address":{"country_code":"KZ","formatted_address":"Kurgal'zhinskoye Shosse 13/3, Astana 010000, Kazakhstan","postcode":"010000","locality":"Astana"}},"labels":["concert","music"],"duration":0,"start_local":"2024-05-13T20:00:00","end":"2024-05-13T15:00:00Z","end_local":"2024-05-13T20:00:00","updated":"2024-06-11T21:26:38Z"},{"title":"Premier League - Ordabasy vs Tobol","description":"Sourced from predicthq.com","category":"sports","start":"2024-05-12T16:00:00Z","geo":{"geometry":{"coordinates":[69.5935070514679,42.335619893461335],"type":"Point"},"placekey":"@54s-ftb-6c5","address":{"country_code":"KZ","formatted_address":"Kazakhstan, Şımkent (Shymkent), ul. Madely Kozha 1","locality":"Şımkent (Shymkent)"}},"labels":["soccer","sport"],"duration":0,"start_local":"2024-05-12T21:00:00","end":"2024-05-12T16:00:00Z","end_local":"2024-05-12T21:00:00","updated":"2024-06-11T22:32:35Z"},{"title":"Premier League - Zhenys vs Kairat","description":"Sourced from predicthq.com","category":"sports","start":"2024-05-12T14:00:00Z","geo":{"geometry":{"coordinates":[73.0752524,49.8186844],"type":"Point"},"placekey":"@552-x4j-q2k","address":{"country_code":"KZ","formatted_address":"Kazakhstan, Karagandy Province, 100000 Karagandy, M36","postcode":"100000","locality":"Karagandy","region":"Karagandy Province"}},"labels":["soccer","sport"],"duration":0,"start_local":"2024-05-12T19:00:00","end":"2024-05-12T14:00:00Z","end_local":"2024-05-12T19:00:00","updated":"2024-06-12T13:58:19Z"},{"title":"Premier League - Yelimay Semey vs Shakhter Karagandy","description":"Sourced from predicthq.com","category":"sports","start":"2024-05-12T12:00:00Z","geo":{"geometry":{"coordinates":[80.2412760257721,50.414800857879506],"type":"Point"},"placekey":"@55k-pt4-jsq","address":{"country_code":"KZ","formatted_address":"Semey (Semipalatinsk), Kazakhstan","locality":"Semey (Semipalatinsk)"}},"labels":["soccer","sport"],"duration":0,"start_local":"2024-05-12T17:00:00","end":"2024-05-12T12:00:00Z","end_local":"2024-05-12T17:00:00","updated":"2024-06-12T12:52:21Z"},{"title":"Premier League - Kyzyl-Zhar vs Aktobe","description":"Sourced from predicthq.com","category":"sports","start":"2024-05-12T12:00:00Z","geo":{"geometry":{"coordinates":[69.152090549469,54.874088105472055],"type":"Point"},"placekey":"@589-8qq-835","address":{"country_code":"KZ","formatted_address":"Kazakhstan, Petropavl (Petropavlosvk), ul. Zhambyla Zhabaeva","locality":"Petropavl (Petropavlosvk)"}},"labels":["soccer","sport"],"duration":0,"start_local":"2024-05-12T17:00:00","end":"2024-05-12T12:00:00Z","end_local":"2024-05-12T17:00:00","updated":"2024-06-12T17:01:07Z"},{"title":"Louna","description":"Sourced from predicthq.com","category":"concerts","start":"2024-05-11T15:00:00Z","geo":{"geometry":{"coordinates":[82.50609,50.02613],"type":"Point"},"placekey":"@559-mcr-d5f","address":{"country_code":"KZ","formatted_address":"2GG4+FC5 Oskemen airport, Bazhov St, Oskemen 070000, Kazakhstan","postcode":"070000","locality":"Oskemen","region":"East Kazakhstan Region"}},"labels":["concert","music"],"duration":0,"start_local":"2024-05-11T20:00:00","end":"2024-05-11T15:00:00Z","end_local":"2024-05-11T20:00:00","updated":"2024-06-12T08:52:58Z"},{"title":"Premier League - Turan Turkistan vs Zhetysu","description":"Sourced from predicthq.com","category":"sports","start":"2024-05-11T12:00:00Z","geo":{"geometry":{"coordinates":[69.5935070514679,42.335619893461335],"type":"Point"},"placekey":"@54s-ftb-6c5","address":{"country_code":"KZ","formatted_address":"Kazakhstan, Şımkent (Shymkent), ul. Madely Kozha 1","locality":"Şımkent (Shymkent)"}},"labels":["soccer","sport"],"duration":0,"start_local":"2024-05-11T17:00:00","end":"2024-05-11T12:00:00Z","end_local":"2024-05-11T17:00:00","updated":"2024-06-12T16:58:55Z"},{"title":"IT Talk: «People for people»","description":"Sourced from predicthq.com - Мы подготовили для вас ивент, в котором много и качественно будем говорить о людях и их карьерном развитии","category":"conferences","start":"2024-05-10T15:00:00Z","geo":{"geometry":{"coordinates":[76.9217101,43.2295427],"type":"Point"},"placekey":"@56w-chy-jd9","address":{"country_code":"KZ","formatted_address":"Kazakhstan, Almaty, Timiryazev Street","locality":"Almaty","region":"Almaty"}},"labels":["conference","science","technology"],"duration":5400,"start_local":"2024-05-10T20:00:00","end":"2024-05-10T16:30:00Z","end_local":"2024-05-10T21:30:00","updated":"2024-06-05T02:36:07Z"},{"title":"Louna","description":"Sourced from predicthq.com","category":"concerts","start":"2024-05-10T15:00:00Z","geo":{"geometry":{"coordinates":[76.8912039,43.2276134],"type":"Point"},"placekey":"@56w-chs-p7q","address":{"country_code":"KZ","formatted_address":"Rozybakiev Street 236, Almaty 050060, Kazakhstan","postcode":"050060","locality":"Almaty","region":"Almaty"}},"labels":["concert","music"],"duration":0,"start_local":"2024-05-10T20:00:00","end":"2024-05-10T15:00:00Z","end_local":"2024-05-10T20:00:00","updated":"2024-06-11T21:30:25Z"},{"title":"ISTQB® Foundation Exam and Training Course - Astana / Nur-Sultan","description":"Sourced from predicthq.com - ISTQB® Foundation Астана - Подготовка к сертификации и экзамен\nISTQB® FOUNDATION EXAM AND TRAINING COURSE\nThe aim of this course is to provi","category":"conferences","start":"2024-05-08T04:00:00Z","geo":{"geometry":{"coordinates":[71.4703558,51.1605227],"type":"Point"},"placekey":"@57y-v89-f4v","address":{"country_code":"KZ","formatted_address":"Kazakhstan, Astana, 020000 Astana","locality":"Astana","postcode":"020000","region":"Astana"}},"labels":["conference","science","technology"],"duration":28800,"start_local":"2024-05-08T09:00:00","end":"2024-05-08T12:00:00Z","end_local":"2024-05-08T17:00:00","updated":"2024-06-04T22:14:52Z"},{"title":"National League - Semi-finals - Barsy Atyrau vs Tobol","description":"Sourced from predicthq.com","category":"sports","start":"2024-05-06T14:00:00Z","geo":{"geometry":{"coordinates":[51.884502,47.102798],"type":"Point"},"placekey":"@687-kjs-dsq","address":{"country_code":"KZ","formatted_address":"Qanysh Sätbayev Ave 3, Atyrau 060011, Kazakhstan","postcode":"060011","locality":"Atyrau","region":"Atyrau Region"}},"labels":["basketball","sport"],"duration":0,"start_local":"2024-05-06T19:00:00","end":"2024-05-06T14:00:00Z","end_local":"2024-05-06T19:00:00","updated":"2024-06-11T20:50:55Z"},{"title":"Premier League - Shakhter Karagandy vs Kaisar","description":"Sourced from predicthq.com","category":"sports","start":"2024-05-05T14:00:00Z","geo":{"geometry":{"coordinates":[73.0752524,49.8186844],"type":"Point"},"placekey":"@552-x4j-q2k","address":{"country_code":"KZ","formatted_address":"Kazakhstan, Karagandy Province, 100000 Karagandy, M36","postcode":"100000","locality":"Karagandy","region":"Karagandy Province"}},"labels":["soccer","sport"],"duration":0,"start_local":"2024-05-05T19:00:00","end":"2024-05-05T14:00:00Z","end_local":"2024-05-05T19:00:00","updated":"2024-06-12T09:04:51Z"},{"title":"Premier League - Aktobe vs Astana","description":"Sourced from predicthq.com","category":"sports","start":"2024-05-04T14:00:00Z","geo":{"geometry":{"coordinates":[57.15911863173823,50.29152639953787],"type":"Point"},"placekey":"@57n-dpx-k2k","address":{"country_code":"KZ","formatted_address":"Kazakhstan, Aqtöbe (Aktobe), prospekt Abulkhair Khan / ul. Mares'yeva 2","locality":"Aqtöbe (Aktobe)"}},"labels":["soccer","sport"],"duration":0,"start_local":"2024-05-04T19:00:00","end":"2024-05-04T14:00:00Z","end_local":"2024-05-04T19:00:00","updated":"2024-06-12T03:53:02Z"},{"title":"National League - Semi-finals - Irbis vs Aktobe","description":"Sourced from predicthq.com","category":"sports","start":"2024-05-04T13:00:00Z","geo":{"geometry":{"coordinates":[76.89798009685765,43.19962559709564],"type":"Point"},"placekey":"@56w-chw-vxq","address":{"country_code":"KZ","formatted_address":"6V2X+63V, Kozhabekov St, Almaty 050060, Kazakhstan","postcode":"050060","locality":"Almaty","region":"Almaty"}},"labels":["basketball","sport"],"duration":0,"start_local":"2024-05-04T18:00:00","end":"2024-05-04T13:00:00Z","end_local":"2024-05-04T18:00:00","updated":"2024-06-12T06:00:21Z"},{"title":"Premier League - Tobol vs Zhetysu","description":"Sourced from predicthq.com","category":"sports","start":"2024-05-04T11:30:00Z","geo":{"geometry":{"coordinates":[63.608992186508196,53.23559502686031],"type":"Point"},"placekey":"@57k-44b-tn5","address":{"country_code":"KZ","formatted_address":"Kostanai / Kustanay (Kostanay), Kazakhstan","locality":"Kostanai / Kustanay (Kostanay)"}},"labels":["soccer","sport"],"duration":0,"start_local":"2024-05-04T16:30:00","end":"2024-05-04T11:30:00Z","end_local":"2024-05-04T16:30:00","updated":"2024-06-12T04:22:35Z"},{"title":"Premier League - Kairat vs Atyrau","description":"Sourced from predicthq.com","category":"sports","start":"2024-05-04T11:30:00Z","geo":{"geometry":{"coordinates":[76.92415629999999,43.2383345],"type":"Point"},"placekey":"@56w-chv-6kz","address":{"country_code":"KZ","formatted_address":"Satpaev St 29/3, Almaty 050000, Kazakhstan","postcode":"050000","locality":"Almaty"}},"labels":["soccer","sport"],"duration":0,"start_local":"2024-05-04T16:30:00","end":"2024-05-04T11:30:00Z","end_local":"2024-05-04T16:30:00","updated":"2024-06-12T05:27:35Z"},{"title":"Premier League - Kyzyl-Zhar vs Turan Turkistan","description":"Sourced from predicthq.com","category":"sports","start":"2024-05-04T09:00:00Z","geo":{"geometry":{"coordinates":[69.152090549469,54.874088105472055],"type":"Point"},"placekey":"@589-8qq-835","address":{"country_code":"KZ","formatted_address":"Kazakhstan, Petropavl (Petropavlosvk), ul. Zhambyla Zhabaeva","locality":"Petropavl (Petropavlosvk)"}},"labels":["soccer","sport"],"duration":0,"start_local":"2024-05-04T14:00:00","end":"2024-05-04T09:00:00Z","end_local":"2024-05-04T14:00:00","updated":"2024-06-12T00:14:28Z"},{"title":"Premier League - Zhenys vs Yelimay Semey","description":"Sourced from predicthq.com","category":"sports","start":"2024-05-04T09:00:00Z","geo":{"geometry":{"coordinates":[73.0752524,49.8186844],"type":"Point"},"placekey":"@552-x4j-q2k","address":{"country_code":"KZ","formatted_address":"Kazakhstan, Karagandy Province, 100000 Karagandy, M36","postcode":"100000","locality":"Karagandy","region":"Karagandy Province"}},"labels":["soccer","sport"],"duration":0,"start_local":"2024-05-04T14:00:00","end":"2024-05-04T09:00:00Z","end_local":"2024-05-04T14:00:00","updated":"2024-06-12T10:34:20Z"},{"title":"Tengri Ultra Trail","description":"Sourced from predicthq.com","category":"sports","start":"2024-05-04T00:00:00Z","geo":{"geometry":{"coordinates":[76.2727965,44.8082703],"type":"Point"},"placekey":"@54q-6gr-hnq","address":{"country_code":"KZ","formatted_address":"Bakanas, Almaty Region, Kazakhstan","locality":"Bakanas","region":"Almaty Region"}},"labels":["outdoor-sports","running","sport"],"duration":0,"start_local":"2024-05-04T05:00:00","end":"2024-05-04T00:00:00Z","end_local":"2024-05-04T05:00:00","updated":"2024-06-05T09:12:24Z"},{"title":"Exclusive Access MBA One-to-One event in Astana on 2 May","description":"Sourced from predicthq.com - Join fellow business professionals for this One-to-One MBA event at Radisson Hotel Astana. Top ranked Business schools from around the world","category":"conferences","start":"2024-05-02T13:00:00Z","geo":{"geometry":{"coordinates":[71.412415,51.1593902],"type":"Point"},"placekey":"@57y-v7n-zxq","address":{"country_code":"KZ","formatted_address":"Kazakhstan, 010000 Astana","postcode":"010000","locality":"Astana"}},"labels":["business","conference"],"duration":15300,"start_local":"2024-05-02T18:00:00","end":"2024-05-02T17:15:00Z","end_local":"2024-05-02T22:15:00","updated":"2024-05-28T05:29:12Z"},{"title":"National League - Semi-finals - Tobol vs Barsy Atyrau","description":"Sourced from predicthq.com","category":"sports","start":"2024-05-01T13:00:00Z","geo":{"geometry":{"coordinates":[63.567652,53.219996],"type":"Point"},"placekey":"@57k-448-zj9","address":{"country_code":"KZ","formatted_address":"Kazakhstan, Qostanai, u. Dimitriya Gerasimova 1","locality":"Qostanai"}},"labels":["basketball","sport"],"duration":0,"start_local":"2024-05-01T18:00:00","end":"2024-05-01T13:00:00Z","end_local":"2024-05-01T18:00:00","updated":"2024-06-11T22:47:08Z"},{"title":"National League - Semi-finals - Tobol vs Barsy Atyrau","description":"Sourced from predicthq.com","category":"sports","start":"2024-04-30T14:00:00Z","geo":{"geometry":{"coordinates":[63.567652,53.219996],"type":"Point"},"placekey":"@57k-448-zj9","address":{"country_code":"KZ","formatted_address":"Kazakhstan, Qostanai, u. Dimitriya Gerasimova 1","locality":"Qostanai"}},"labels":["basketball","sport"],"duration":0,"start_local":"2024-04-30T19:00:00","end":"2024-04-30T14:00:00Z","end_local":"2024-04-30T19:00:00","updated":"2024-06-12T07:00:07Z"},{"title":"National League - Semi-finals - Aktobe vs Irbis","description":"Sourced from predicthq.com","category":"sports","start":"2024-04-28T15:00:00Z","geo":{"geometry":{"coordinates":[57.157605,50.293959],"type":"Point"},"placekey":"@57n-dpx-gp9","address":{"country_code":"KZ","formatted_address":"Kazakhstan, Aqtöbe, prospekt Abulkhair-Khan 52","locality":"Aqtöbe"}},"labels":["basketball","sport"],"duration":0,"start_local":"2024-04-28T20:00:00","end":"2024-04-28T15:00:00Z","end_local":"2024-04-28T20:00:00","updated":"2024-06-11T21:20:41Z"},{"title":"Premier League - Zhetysu vs Aktobe","description":"Sourced from predicthq.com","category":"sports","start":"2024-04-28T11:30:00Z","geo":{"geometry":{"coordinates":[78.36510837078094,45.01969698480639],"type":"Point"},"placekey":"@56w-9dq-vpv","address":{"country_code":"KZ","formatted_address":"Kazakhstan, Taldıqorğan (Taldykorgan), ul. Lenina","locality":"Taldıqorğan (Taldykorgan)"}},"labels":["soccer","sport"],"duration":0,"start_local":"2024-04-28T16:30:00","end":"2024-04-28T11:30:00Z","end_local":"2024-04-28T16:30:00","updated":"2024-06-11T20:40:24Z"},{"title":"Premier League - Yelimay Semey vs Ordabasy","description":"Sourced from predicthq.com","category":"sports","start":"2024-04-28T09:00:00Z","geo":{"geometry":{"coordinates":[80.2412760257721,50.414800857879506],"type":"Point"},"placekey":"@55k-pt4-jsq","address":{"country_code":"KZ","formatted_address":"Semey (Semipalatinsk), Kazakhstan","locality":"Semey (Semipalatinsk)"}},"labels":["soccer","sport"],"duration":0,"start_local":"2024-04-28T14:00:00","end":"2024-04-28T09:00:00Z","end_local":"2024-04-28T14:00:00","updated":"2024-06-12T09:16:35Z"},{"title":"National League - Semi-finals - Aktobe vs Irbis","description":"Sourced from predicthq.com","category":"sports","start":"2024-04-27T15:00:00Z","geo":{"geometry":{"coordinates":[57.157605,50.293959],"type":"Point"},"placekey":"@57n-dpx-gp9","address":{"country_code":"KZ","formatted_address":"Kazakhstan, Aqtöbe, prospekt Abulkhair-Khan 52","locality":"Aqtöbe"}},"labels":["basketball","sport"],"duration":0,"start_local":"2024-04-27T20:00:00","end":"2024-04-27T15:00:00Z","end_local":"2024-04-27T20:00:00","updated":"2024-06-12T07:29:38Z"},{"title":"Premier League - Kaisar vs Kairat","description":"Sourced from predicthq.com","category":"sports","start":"2024-04-27T14:00:00Z","geo":{"geometry":{"coordinates":[65.50341188907623,44.826009510455094],"type":"Point"},"placekey":"@555-cd5-g49","address":{"country_code":"KZ","formatted_address":"Kazakhstan, Qyzylorda (Kyzylorda), ul. Muratbaev","locality":"Qyzylorda (Kyzylorda)"}},"labels":["soccer","sport"],"duration":0,"start_local":"2024-04-27T19:00:00","end":"2024-04-27T14:00:00Z","end_local":"2024-04-27T19:00:00","updated":"2024-06-11T23:01:30Z"},{"title":"Premier League - Atyrau vs Kyzyl-Zhar","description":"Sourced from predicthq.com","category":"sports","start":"2024-04-27T11:30:00Z","geo":{"geometry":{"coordinates":[51.90831899642944,47.09403736090823],"type":"Point"},"placekey":"@687-kjr-s5z","address":{"country_code":"KZ","formatted_address":"Kazakhstan, Atıraw (Atyrau), ul. Auezova 28a","locality":"Atıraw (Atyrau)"}},"labels":["soccer","sport"],"duration":0,"start_local":"2024-04-27T16:30:00","end":"2024-04-27T11:30:00Z","end_local":"2024-04-27T16:30:00","updated":"2024-06-12T00:30:24Z"},{"title":"Premier League - Turan Turkistan vs Astana","description":"Sourced from predicthq.com","category":"sports","start":"2024-04-27T11:30:00Z","geo":{"geometry":{"coordinates":[69.5935070514679,42.335619893461335],"type":"Point"},"placekey":"@54s-ftb-6c5","address":{"country_code":"KZ","formatted_address":"Kazakhstan, Şımkent (Shymkent), ul. Madely Kozha 1","locality":"Şımkent (Shymkent)"}},"labels":["soccer","sport"],"duration":0,"start_local":"2024-04-27T16:30:00","end":"2024-04-27T11:30:00Z","end_local":"2024-04-27T16:30:00","updated":"2024-06-12T00:03:50Z"},{"title":"Premier League - Tobol vs Zhenys","description":"Sourced from predicthq.com","category":"sports","start":"2024-04-27T09:00:00Z","geo":{"geometry":{"coordinates":[63.608992186508196,53.23559502686031],"type":"Point"},"placekey":"@57k-44b-tn5","address":{"country_code":"KZ","formatted_address":"Kostanai / Kustanay (Kostanay), Kazakhstan","locality":"Kostanai / Kustanay (Kostanay)"}},"labels":["soccer","sport"],"duration":0,"start_local":"2024-04-27T14:00:00","end":"2024-04-27T09:00:00Z","end_local":"2024-04-27T14:00:00","updated":"2024-06-12T02:06:05Z"},{"title":"Kazakhstan International Hunting Fishing and Outdoor Exhibition","description":"Sourced from predicthq.com","category":"expos","start":"2024-04-25T04:00:00Z","geo":{"geometry":{"coordinates":[76.9055813,43.2249971],"type":"Point"},"placekey":"@56w-chs-rff","address":{"country_code":"KZ","formatted_address":"Timiryazev St 42, Almaty 050060, Kazakhstan","postcode":"050060","locality":"Almaty"}},"labels":["expo"],"duration":291600,"start_local":"2024-04-25T09:00:00","end":"2024-04-28T13:00:00Z","end_local":"2024-04-28T18:00:00","updated":"2024-06-05T05:45:52Z"},{"title":"KITF","description":"Sourced from predicthq.com - Kazakhstan International Tourism & Travel Fair","category":"expos","start":"2024-04-23T18:00:00Z","geo":{"geometry":{"coordinates":[76.9055813,43.2249971],"type":"Point"},"placekey":"@56w-chs-rff","address":{"country_code":"KZ","formatted_address":"Kazakhstan, Almaty, 050060 Almaty, Timiryazev Street","locality":"Almaty","postcode":"050060","region":"Almaty"}},"labels":["expo","tourism","travel"],"duration":259199,"start_local":"2024-04-24T00:00:00","end":"2024-04-26T17:59:59Z","end_local":"2024-04-26T23:59:59","updated":"2024-06-05T01:02:01Z"},{"title":"Kazakhstan Machinery Fair","description":"Sourced from predicthq.com - International specialized exhibition on machinery industry and metalworking","category":"expos","start":"2024-04-23T18:00:00Z","geo":{"geometry":{"coordinates":[71.4190444,51.0886039],"type":"Point"},"placekey":"@57y-v69-dy9","address":{"country_code":"KZ","formatted_address":"Kazakhstan, Astana, 020000 Astana","locality":"Astana","postcode":"020000","region":"Astana"}},"labels":["expo","industrial","technology"],"duration":259199,"start_local":"2024-04-24T00:00:00","end":"2024-04-26T17:59:59Z","end_local":"2024-04-26T23:59:59","updated":"2024-05-28T12:52:00Z"},{"title":"ONDEU EXPO","description":"Sourced from predicthq.com - International Exhibition of Manufacturing Industry","category":"expos","start":"2024-04-23T18:00:00Z","geo":{"geometry":{"coordinates":[71.4190444,51.0886039],"type":"Point"},"placekey":"@57y-v69-dy9","address":{"country_code":"KZ","formatted_address":"Kazakhstan, Astana, 020000 Astana","locality":"Astana","postcode":"020000","region":"Astana"}},"labels":["expo","product"],"duration":259199,"start_local":"2024-04-24T00:00:00","end":"2024-04-26T17:59:59Z","end_local":"2024-04-26T23:59:59","updated":"2024-07-01T03:31:50Z"},{"title":"Premier League - Zhetysu vs Shakhter Karagandy","description":"Sourced from predicthq.com","category":"sports","start":"2024-04-21T14:00:00Z","geo":{"geometry":{"coordinates":[78.36510837078094,45.01969698480639],"type":"Point"},"placekey":"@56w-9dq-vpv","address":{"country_code":"KZ","formatted_address":"Kazakhstan, Taldıqorğan (Taldykorgan), ul. Lenina","locality":"Taldıqorğan (Taldykorgan)"}},"labels":["soccer","sport"],"duration":0,"start_local":"2024-04-21T19:00:00","end":"2024-04-21T14:00:00Z","end_local":"2024-04-21T19:00:00","updated":"2024-06-12T06:55:10Z"},{"title":"National League - Semi-finals - Barsy Atyrau vs Tobol","description":"Sourced from predicthq.com","category":"sports","start":"2024-04-21T13:00:00Z","geo":{"geometry":{"coordinates":[51.884502,47.102798],"type":"Point"},"placekey":"@687-kjs-dsq","address":{"country_code":"KZ","formatted_address":"Qanysh Sätbayev Ave 3, Atyrau 060011, Kazakhstan","postcode":"060011","locality":"Atyrau","region":"Atyrau Region"}},"labels":["basketball","sport"],"duration":0,"start_local":"2024-04-21T18:00:00","end":"2024-04-21T13:00:00Z","end_local":"2024-04-21T18:00:00","updated":"2024-06-12T05:25:41Z"},{"title":"Almaty Half Marathon","description":"Sourced from predicthq.com","category":"sports","start":"2024-04-20T18:00:00Z","geo":{"geometry":{"coordinates":[76.8512485,43.2220146],"type":"Point"},"placekey":"@56w-cj5-f4v","address":{"country_code":"KZ","formatted_address":"Kazakhstan, Almaty, 050000 Almaty","locality":"Almaty","postcode":"050000","region":"Almaty"}},"labels":["marathon","outdoor-sports","running","sport"],"duration":86399,"start_local":"2024-04-21T00:00:00","end":"2024-04-21T17:59:59Z","end_local":"2024-04-21T23:59:59","updated":"2024-06-05T00:40:12Z"},{"title":"Premier League - Kairat vs Aktobe","description":"Sourced from predicthq.com","category":"sports","start":"2024-04-20T14:00:00Z","geo":{"geometry":{"coordinates":[76.92415629999999,43.2383345],"type":"Point"},"placekey":"@56w-chv-6kz","address":{"country_code":"KZ","formatted_address":"Satpaev St 29/3, Almaty 050000, Kazakhstan","postcode":"050000","locality":"Almaty"}},"labels":["soccer","sport"],"duration":0,"start_local":"2024-04-20T19:00:00","end":"2024-04-20T14:00:00Z","end_local":"2024-04-20T19:00:00","updated":"2024-06-12T06:17:07Z"},{"title":"National League - Semi-finals - Irbis vs Aktobe","description":"Sourced from predicthq.com","category":"sports","start":"2024-04-20T13:00:00Z","geo":{"geometry":{"coordinates":[76.89798009685765,43.19962559709564],"type":"Point"},"placekey":"@56w-chw-vxq","address":{"country_code":"KZ","formatted_address":"6V2X+63V, Kozhabekov St, Almaty 050060, Kazakhstan","postcode":"050060","locality":"Almaty","region":"Almaty"}},"labels":["basketball","sport"],"duration":0,"start_local":"2024-04-20T18:00:00","end":"2024-04-20T13:00:00Z","end_local":"2024-04-20T18:00:00","updated":"2024-06-12T08:07:53Z"},{"title":"National League - Semi-finals - Barsy Atyrau vs Tobol","description":"Sourced from predicthq.com","category":"sports","start":"2024-04-20T13:00:00Z","geo":{"geometry":{"coordinates":[51.884502,47.102798],"type":"Point"},"placekey":"@687-kjs-dsq","address":{"country_code":"KZ","formatted_address":"Qanysh Sätbayev Ave 3, Atyrau 060011, Kazakhstan","postcode":"060011","locality":"Atyrau","region":"Atyrau Region"}},"labels":["basketball","sport"],"duration":0,"start_local":"2024-04-20T18:00:00","end":"2024-04-20T13:00:00Z","end_local":"2024-04-20T18:00:00","updated":"2024-06-12T06:37:50Z"},{"title":"Premier League - Ordabasy vs Kyzyl-Zhar","description":"Sourced from predicthq.com","category":"sports","start":"2024-04-20T11:30:00Z","geo":{"geometry":{"coordinates":[69.5935070514679,42.335619893461335],"type":"Point"},"placekey":"@54s-ftb-6c5","address":{"country_code":"KZ","formatted_address":"Kazakhstan, Şımkent (Shymkent), ul. Madely Kozha 1","locality":"Şımkent (Shymkent)"}},"labels":["soccer","sport"],"duration":0,"start_local":"2024-04-20T16:30:00","end":"2024-04-20T11:30:00Z","end_local":"2024-04-20T16:30:00","updated":"2024-06-12T04:39:17Z"},{"title":"Premier League - Zhenys vs Turan Turkistan","description":"Sourced from predicthq.com","category":"sports","start":"2024-04-20T09:00:00Z","geo":{"geometry":{"coordinates":[73.0752524,49.8186844],"type":"Point"},"placekey":"@552-x4j-q2k","address":{"country_code":"KZ","formatted_address":"Kazakhstan, Karagandy Province, 100000 Karagandy, M36","postcode":"100000","locality":"Karagandy","region":"Karagandy Province"}},"labels":["soccer","sport"],"duration":0,"start_local":"2024-04-20T14:00:00","end":"2024-04-20T09:00:00Z","end_local":"2024-04-20T14:00:00","updated":"2024-06-12T05:32:08Z"},{"title":"Premier League - Kaisar vs Atyrau","description":"Sourced from predicthq.com","category":"sports","start":"2024-04-20T09:00:00Z","geo":{"geometry":{"coordinates":[65.50341188907623,44.826009510455094],"type":"Point"},"placekey":"@555-cd5-g49","address":{"country_code":"KZ","formatted_address":"Kazakhstan, Qyzylorda (Kyzylorda), ul. Muratbaev","locality":"Qyzylorda (Kyzylorda)"}},"labels":["soccer","sport"],"duration":0,"start_local":"2024-04-20T14:00:00","end":"2024-04-20T09:00:00Z","end_local":"2024-04-20T14:00:00","updated":"2024-06-12T12:32:38Z"},{"title":"National League - Semi-finals - Irbis vs Aktobe","description":"Sourced from predicthq.com","category":"sports","start":"2024-04-19T15:30:00Z","geo":{"geometry":{"coordinates":[76.89798009685765,43.19962559709564],"type":"Point"},"placekey":"@56w-chw-vxq","address":{"country_code":"KZ","formatted_address":"6V2X+63V, Kozhabekov St, Almaty 050060, Kazakhstan","postcode":"050060","locality":"Almaty","region":"Almaty"}},"labels":["basketball","sport"],"duration":0,"start_local":"2024-04-19T20:30:00","end":"2024-04-19T15:30:00Z","end_local":"2024-04-19T20:30:00","updated":"2024-06-12T07:09:53Z"},{"title":"kavabanga Depo kolibri","description":"Sourced from predicthq.com","category":"concerts","start":"2024-04-19T14:00:00Z","geo":{"geometry":{"coordinates":[76.8912039,43.2276134],"type":"Point"},"placekey":"@56w-chs-p7q","address":{"country_code":"KZ","formatted_address":"Rozybakiev Street 236, Almaty 050060, Kazakhstan","postcode":"050060","locality":"Almaty","region":"Almaty"}},"labels":["concert","music"],"duration":0,"start_local":"2024-04-19T19:00:00","end":"2024-04-19T14:00:00Z","end_local":"2024-04-19T19:00:00","updated":"2024-06-12T01:29:39Z"},{"title":"Deluxe Travel Market Kazakhstan","description":"Sourced from predicthq.com","category":"expos","start":"2024-04-19T04:00:00Z","geo":{"geometry":{"coordinates":[76.929427,43.219135],"type":"Point"},"placekey":"@56w-chx-py9","address":{"country_code":"KZ","formatted_address":"Kazakhstan, 050040 Almaty, 77/7 Al-Farabi Avenue","postcode":"050040","locality":"Almaty"}},"labels":["expo"],"duration":32400,"start_local":"2024-04-19T09:00:00","end":"2024-04-19T13:00:00Z","end_local":"2024-04-19T18:00:00","updated":"2024-06-05T11:25:15Z"},{"title":"kavabanga Depo kolibri","description":"Sourced from predicthq.com","category":"concerts","start":"2024-04-18T14:00:00Z","geo":{"geometry":{"coordinates":[71.36437,51.14868],"type":"Point"},"placekey":"@57y-v7y-st9","address":{"country_code":"KZ","formatted_address":"Kurgal'zhinskoye Shosse 13/3, Astana 010000, Kazakhstan","postcode":"010000","locality":"Astana"}},"labels":["concert","music"],"duration":0,"start_local":"2024-04-18T19:00:00","end":"2024-04-18T14:00:00Z","end_local":"2024-04-18T19:00:00","updated":"2024-06-12T19:29:22Z"},{"title":"Komtrans Astana","description":"Sourced from predicthq.com","category":"expos","start":"2024-04-17T04:00:00Z","geo":{"geometry":{"coordinates":[71.421377,51.092214],"type":"Point"},"placekey":"@57y-v69-hqz","address":{"country_code":"KZ","formatted_address":"Prospekt Mangilik Yel. 53\nNur-Sultan 020000\nKazakhstan","locality":"Nur-Sultan"}},"labels":["expo"],"duration":205200,"start_local":"2024-04-17T09:00:00","end":"2024-04-19T13:00:00Z","end_local":"2024-04-19T18:00:00","updated":"2024-05-31T22:59:45Z"},{"title":"Mining and Exploration Forum","description":"Sourced from predicthq.com - The Mining and Exploration Forum is a dynamic conference event that brings together industry experts, stakeholders, and innovators to discuss the latest advancements, challenges, and opportunities in the mining and exploration sector. Attendees can gain valuable insights, network with key players, and explore cutting-edge technologies shaping the future of the industry.","category":"conferences","start":"2024-04-16T18:00:00Z","geo":{"geometry":{"coordinates":[71.407198,51.129179],"type":"Point"},"placekey":"@57y-v7r-6x5","address":{"country_code":"KZ","formatted_address":"2 Dostyq Street\nAstana 010016\nKazakhstan","locality":"Nur-Sultan"}},"labels":["conference"],"duration":172799,"start_local":"2024-04-17T00:00:00","end":"2024-04-18T17:59:59Z","end_local":"2024-04-18T23:59:59","updated":"2024-06-05T11:09:38Z"},{"title":"Futuroad Expo Astana","description":"Sourced from predicthq.com - Futuroad expo Astana licensed by Messe Frankfurt Exhibition GmbH - Central Asia's Commercial Vehicle Show","category":"expos","start":"2024-04-16T18:00:00Z","geo":{"geometry":{"coordinates":[71.4190444,51.0886039],"type":"Point"},"placekey":"@57y-v69-dy9","address":{"country_code":"KZ","formatted_address":"Kazakhstan, Astana, 020000 Astana","locality":"Astana","postcode":"020000","region":"Astana"}},"labels":["automotive","expo","transportation"],"duration":259199,"start_local":"2024-04-17T00:00:00","end":"2024-04-19T17:59:59Z","end_local":"2024-04-19T23:59:59","updated":"2024-06-25T19:18:41Z"},{"title":"Automechanika Astana","description":"Sourced from predicthq.com - Automechanika Astana licensed by Messe Frankfurt Exhibition GmbH","category":"expos","start":"2024-04-16T18:00:00Z","geo":{"geometry":{"coordinates":[71.4190444,51.0886039],"type":"Point"},"placekey":"@57y-v69-dy9","address":{"country_code":"KZ","formatted_address":"Kazakhstan, Astana, 020000 Astana","locality":"Astana","postcode":"020000","region":"Astana"}},"labels":["automotive","expo","transportation"],"duration":259199,"start_local":"2024-04-17T00:00:00","end":"2024-04-19T17:59:59Z","end_local":"2024-04-19T23:59:59","updated":"2024-07-02T20:12:10Z"},{"title":"MINEX Kazakhstan","description":"Sourced from predicthq.com - Mining and Exploration Forum: Sustainable Development of Mining and Exploration in Kazakhstan   Prospects and Challenges","category":"expos","start":"2024-04-16T18:00:00Z","geo":{"geometry":{"coordinates":[71.411616,51.159661],"type":"Point"},"placekey":"@57y-v7p-2ff","address":{"country_code":"KZ","formatted_address":"Kazakhstan, Astana, 010000 Astana, Saryarka Avenue","locality":"Astana","postcode":"010000","region":"Astana"}},"labels":["expo","industrial","mineral","technology"],"duration":172799,"start_local":"2024-04-17T00:00:00","end":"2024-04-18T17:59:59Z","end_local":"2024-04-18T23:59:59","updated":"2024-05-28T04:56:27Z"},{"title":"Nomad Nur-Sultan vs HK Arlan Kokschetau","description":"Sourced from predicthq.com","category":"sports","start":"2024-04-16T14:00:00Z","geo":{"geometry":{"coordinates":[69.406339,53.277152],"type":"Point"},"placekey":"@589-nvc-nbk","address":{"country_code":"KZ","formatted_address":"Burabay, A-343 85, Kokshetau 020000, Kazakhstan","postcode":"020000","locality":"Kokshetau","region":"Akmola Region"}},"labels":["ice-hockey","sport"],"duration":0,"start_local":"2024-04-16T19:00:00","end":"2024-04-16T14:00:00Z","end_local":"2024-04-16T19:00:00","updated":"2024-06-12T18:43:40Z"},{"title":"International Hospitality Investment Forum","description":"Sourced from predicthq.com","category":"conferences","start":"2024-04-15T04:00:00Z","geo":{"geometry":{"coordinates":[76.94026,43.235886],"type":"Point"},"placekey":"@56w-chv-8vz","address":{"country_code":"KZ","formatted_address":"Kazakhstan, 050013 Almaty, 181 Zheltoksan Street","postcode":"050013","locality":"Almaty"}},"labels":["conference"],"duration":205200,"start_local":"2024-04-15T09:00:00","end":"2024-04-17T13:00:00Z","end_local":"2024-04-17T18:00:00","updated":"2024-05-27T09:46:03Z"},{"title":"BC Samara vs BC Astana","description":"Sourced from predicthq.com","category":"sports","start":"2024-04-14T10:00:00Z","geo":{"geometry":{"coordinates":[71.405,51.104722],"type":"Point"},"placekey":"@57y-v8j-grk","address":{"country_code":"KZ","formatted_address":"Qabanbay Batyr Ave 45А, Astana 010000, Kazakhstan","postcode":"010000","locality":"Astana"}},"labels":["basketball","sport"],"duration":8181,"start_local":"2024-04-14T15:00:00","end":"2024-04-14T12:16:21Z","end_local":"2024-04-14T17:16:21","updated":"2024-06-12T09:20:35Z"},{"title":"Saryarka Karaganda vs HC Aktobe","description":"Sourced from predicthq.com","category":"sports","start":"2024-04-13T12:00:00Z","geo":{"geometry":{"coordinates":[57.141738,50.277306],"type":"Point"},"placekey":"@57n-dmy-gx5","address":{"country_code":"KZ","formatted_address":"Ул. Ораза Татеулы, 1, Aktobe, Kazakhstan","locality":"Aktobe","region":"Aktobe Province"}},"labels":["ice-hockey","sport"],"duration":0,"start_local":"2024-04-13T17:00:00","end":"2024-04-13T12:00:00Z","end_local":"2024-04-13T17:00:00","updated":"2024-06-12T08:02:19Z"},{"title":"HK Arlan Kokschetau vs Nomad Nur-Sultan","description":"Sourced from predicthq.com","category":"sports","start":"2024-04-12T14:00:00Z","geo":{"geometry":{"coordinates":[71.4653,51.1557],"type":"Point"},"placekey":"@57y-v8d-qvf","address":{"country_code":"KZ","formatted_address":"Turan Ave 57, Astana 010000, Kazakhstan","postcode":"010000","locality":"Astana","region":"Astana"}},"labels":["ice-hockey","sport"],"duration":9223,"start_local":"2024-04-12T19:00:00","end":"2024-04-12T16:33:43Z","end_local":"2024-04-12T21:33:43","updated":"2024-06-12T06:02:37Z"},{"title":"Pro Ligasi - Final - Nomad Nur-Sultan vs Arlan Kokshetau","description":"Sourced from predicthq.com","category":"sports","start":"2024-04-12T14:00:00Z","geo":{"geometry":{"coordinates":[71.3953829,51.1092883],"type":"Point"},"placekey":"@57y-v8k-7h5","address":{"country_code":"KZ","formatted_address":"Turan Ave 57, Astana 020000, Kazakhstan","postcode":"020000","locality":"Astana","region":"Astana"}},"labels":["ice-hockey","sport"],"duration":0,"start_local":"2024-04-12T19:00:00","end":"2024-04-12T14:00:00Z","end_local":"2024-04-12T19:00:00","updated":"2024-06-12T04:56:36Z"},{"title":"International Youth Scientific and Practical Conference","description":"Sourced from predicthq.com","category":"conferences","start":"2024-04-12T04:00:00Z","geo":{"geometry":{"coordinates":[76.943138,43.255184],"type":"Point"},"placekey":"@56w-c87-vj9","address":{"country_code":"KZ","formatted_address":"Tole Bi Street 59, Almaty 050000, Kazakhstan","postcode":"050000","locality":"Almaty","region":"Almaty"}},"labels":["conference"],"duration":118800,"start_local":"2024-04-12T09:00:00","end":"2024-04-13T13:00:00Z","end_local":"2024-04-13T18:00:00","updated":"2024-06-02T20:36:23Z"},{"title":"Pro Ligasi - Final - Nomad Nur-Sultan vs Arlan Kokshetau","description":"Sourced from predicthq.com","category":"sports","start":"2024-04-11T14:00:00Z","geo":{"geometry":{"coordinates":[71.3953829,51.1092883],"type":"Point"},"placekey":"@57y-v8k-7h5","address":{"country_code":"KZ","formatted_address":"Turan Ave 57, Astana 020000, Kazakhstan","postcode":"020000","locality":"Astana","region":"Astana"}},"labels":["ice-hockey","sport"],"duration":0,"start_local":"2024-04-11T19:00:00","end":"2024-04-11T14:00:00Z","end_local":"2024-04-11T19:00:00","updated":"2024-06-12T03:08:01Z"},{"title":"HK Arlan Kokschetau vs Nomad Nur-Sultan","description":"Sourced from predicthq.com","category":"sports","start":"2024-04-11T14:00:00Z","geo":{"geometry":{"coordinates":[71.4653,51.1557],"type":"Point"},"placekey":"@57y-v8d-qvf","address":{"country_code":"KZ","formatted_address":"Turan Ave 57, Astana 010000, Kazakhstan","postcode":"010000","locality":"Astana","region":"Astana"}},"labels":["ice-hockey","sport"],"duration":8220,"start_local":"2024-04-11T19:00:00","end":"2024-04-11T16:17:00Z","end_local":"2024-04-11T21:17:00","updated":"2024-06-05T01:47:41Z"},{"title":"International Jewellery Fair","description":"Sourced from predicthq.com","category":"expos","start":"2024-04-11T04:00:00Z","geo":{"geometry":{"coordinates":[76.9055813,43.2249971],"type":"Point"},"placekey":"@56w-chs-rff","address":{"country_code":"KZ","formatted_address":"Timiryazev St 42, Almaty 050060, Kazakhstan","postcode":"050060","locality":"Almaty"}},"labels":["expo"],"duration":291600,"start_local":"2024-04-11T09:00:00","end":"2024-04-14T13:00:00Z","end_local":"2024-04-14T18:00:00","updated":"2024-06-11T22:40:21Z"},{"title":"HC Aktobe vs Saryarka Karaganda","description":"Sourced from predicthq.com","category":"sports","start":"2024-04-10T14:00:00Z","geo":{"geometry":{"coordinates":[73.136031,49.791024],"type":"Point"},"placekey":"@552-x2q-zfz","address":{"country_code":"KZ","formatted_address":"Saryarka, Kazakhstan","locality":"Saryarka"}},"labels":["ice-hockey","sport"],"duration":8900,"start_local":"2024-04-10T19:00:00","end":"2024-04-10T16:28:20Z","end_local":"2024-04-10T21:28:20","updated":"2024-06-05T06:26:24Z"},{"title":"National League - Quarter-finals - Astana II vs Aktobe","description":"Sourced from predicthq.com","category":"sports","start":"2024-04-10T14:00:00Z","geo":{"geometry":{"coordinates":[57.157605,50.293959],"type":"Point"},"placekey":"@57n-dpx-gp9","address":{"country_code":"KZ","formatted_address":"Kazakhstan, Aqtöbe, prospekt Abulkhair-Khan 52","locality":"Aqtöbe"}},"labels":["basketball","sport"],"duration":0,"start_local":"2024-04-10T19:00:00","end":"2024-04-10T14:00:00Z","end_local":"2024-04-10T19:00:00","updated":"2024-06-12T05:28:28Z"},{"title":"IWD 2024","description":"Sourced from predicthq.com - Celebra il potere delle donne e la lotta per l'uguaglianza di genere all'evento IWD 2024!","category":"conferences","start":"2024-04-10T04:00:00Z","geo":{"geometry":{"coordinates":[76.89328499999999,43.206293],"type":"Point"},"placekey":"@56w-chw-7yv","address":{"country_code":"KZ","formatted_address":"Kazakhstan, Almaty, 050060 Almaty, Rozybakiev Street","locality":"Almaty","postcode":"050060","region":"Almaty"}},"labels":["community","conference"],"duration":25200,"start_local":"2024-04-10T09:00:00","end":"2024-04-10T11:00:00Z","end_local":"2024-04-10T16:00:00","updated":"2024-06-05T13:40:54Z"},{"title":"ISTQB® Foundation Exam and Training Course - Astana / Nur-Sultan","description":"Sourced from predicthq.com - ISTQB® Foundation Астана - Подготовка к сертификации и экзамен\nISTQB® FOUNDATION EXAM AND TRAINING COURSE\nThe aim of this course is to provi","category":"conferences","start":"2024-04-10T04:00:00Z","geo":{"geometry":{"coordinates":[71.4703558,51.1605227],"type":"Point"},"placekey":"@57y-v89-f4v","address":{"country_code":"KZ","formatted_address":"Kazakhstan, Astana, 020000 Astana","locality":"Astana","postcode":"020000","region":"Astana"}},"labels":["conference","science","technology"],"duration":28800,"start_local":"2024-04-10T09:00:00","end":"2024-04-10T12:00:00Z","end_local":"2024-04-10T17:00:00","updated":"2024-06-05T03:20:21Z"},{"title":"Eurasian International Book Fair","description":"Sourced from predicthq.com","category":"expos","start":"2024-04-10T04:00:00Z","geo":{"geometry":{"coordinates":[71.421377,51.092214],"type":"Point"},"placekey":"@57y-v69-hqz","address":{"country_code":"KZ","formatted_address":"Prospekt Mangilik Yel. 53\nNur-Sultan 020000\nKazakhstan","locality":"Nur-Sultan"}},"labels":["expo"],"duration":378000,"start_local":"2024-04-10T09:00:00","end":"2024-04-14T13:00:00Z","end_local":"2024-04-14T18:00:00","updated":"2024-05-31T23:10:27Z"},{"title":"Flora Expo Astana","description":"Sourced from predicthq.com - International Exhibition of Floriculture and Green Industry","category":"expos","start":"2024-04-09T18:00:00Z","geo":{"geometry":{"coordinates":[71.4203533,51.1292251],"type":"Point"},"placekey":"@57y-v7r-92k","address":{"country_code":"KZ","formatted_address":"Kazakhstan, Astana, 020000 Astana, Nurzhol Boulevard","locality":"Astana","postcode":"020000","region":"Astana"}},"labels":["expo"],"duration":259199,"start_local":"2024-04-10T00:00:00","end":"2024-04-12T17:59:59Z","end_local":"2024-04-12T23:59:59","updated":"2024-06-05T06:44:36Z"},{"title":"EnergySave Expo","description":"Sourced from predicthq.com","category":"expos","start":"2024-04-09T18:00:00Z","geo":{"geometry":{"coordinates":[76.9055813,43.2249971],"type":"Point"},"placekey":"@56w-chs-rff","address":{"country_code":"KZ","formatted_address":"Timiryazev St 42, Almaty 050060, Kazakhstan","postcode":"050060","locality":"Almaty"}},"labels":["expo"],"duration":259199,"start_local":"2024-04-10T00:00:00","end":"2024-04-12T17:59:59Z","end_local":"2024-04-12T23:59:59","updated":"2024-06-12T09:50:45Z"},{"title":"PowerTech Expo","description":"Sourced from predicthq.com","category":"expos","start":"2024-04-09T18:00:00Z","geo":{"geometry":{"coordinates":[76.9055813,43.2249971],"type":"Point"},"placekey":"@56w-chs-rff","address":{"country_code":"KZ","formatted_address":"Timiryazev St 42, Almaty 050060, Kazakhstan","postcode":"050060","locality":"Almaty"}},"labels":["expo"],"duration":259199,"start_local":"2024-04-10T00:00:00","end":"2024-04-12T17:59:59Z","end_local":"2024-04-12T23:59:59","updated":"2024-06-05T01:14:30Z"},{"title":"HC Aktobe vs Saryarka Karaganda","description":"Sourced from predicthq.com","category":"sports","start":"2024-04-09T14:00:00Z","geo":{"geometry":{"coordinates":[73.136031,49.791024],"type":"Point"},"placekey":"@552-x2q-zfz","address":{"country_code":"KZ","formatted_address":"Saryarka, Kazakhstan","locality":"Saryarka"}},"labels":["ice-hockey","sport"],"duration":9221,"start_local":"2024-04-09T19:00:00","end":"2024-04-09T16:33:41Z","end_local":"2024-04-09T21:33:41","updated":"2024-06-05T06:02:41Z"},{"title":"National League - Quarter-finals - Astana II vs Aktobe","description":"Sourced from predicthq.com","category":"sports","start":"2024-04-09T14:00:00Z","geo":{"geometry":{"coordinates":[57.157605,50.293959],"type":"Point"},"placekey":"@57n-dpx-gp9","address":{"country_code":"KZ","formatted_address":"Kazakhstan, Aqtöbe, prospekt Abulkhair-Khan 52","locality":"Aqtöbe"}},"labels":["basketball","sport"],"duration":0,"start_local":"2024-04-09T19:00:00","end":"2024-04-09T14:00:00Z","end_local":"2024-04-09T19:00:00","updated":"2024-06-12T04:12:02Z"},{"title":"International Congress and Exhibition Pharma Qazaqstan & Central Asia","description":"Sourced from predicthq.com","category":"expos","start":"2024-04-09T04:00:00Z","geo":{"geometry":{"coordinates":[76.929427,43.219135],"type":"Point"},"placekey":"@56w-chx-py9","address":{"country_code":"KZ","formatted_address":"Kazakhstan, 050040 Almaty, 77/7 Al-Farabi Avenue","postcode":"050040","locality":"Almaty"}},"labels":["expo"],"duration":118800,"start_local":"2024-04-09T09:00:00","end":"2024-04-10T13:00:00Z","end_local":"2024-04-10T18:00:00","updated":"2024-06-05T19:50:09Z"},{"title":"Premier League - Turan Turkistan vs Ordabasy","description":"Sourced from predicthq.com","category":"sports","start":"2024-04-07T14:00:00Z","geo":{"geometry":{"coordinates":[69.5935070514679,42.335619893461335],"type":"Point"},"placekey":"@54s-ftb-6c5","address":{"country_code":"KZ","formatted_address":"Kazakhstan, Şımkent (Shymkent), ul. Madely Kozha 1","locality":"Şımkent (Shymkent)"}},"labels":["soccer","sport"],"duration":0,"start_local":"2024-04-07T19:00:00","end":"2024-04-07T14:00:00Z","end_local":"2024-04-07T19:00:00","updated":"2024-06-12T16:39:24Z"},{"title":"National League - Quarter-finals - Kaspiy Aktau vs Barsy Atyrau","description":"Sourced from predicthq.com","category":"sports","start":"2024-04-07T12:00:00Z","geo":{"geometry":{"coordinates":[51.884502,47.102798],"type":"Point"},"placekey":"@687-kjs-dsq","address":{"country_code":"KZ","formatted_address":"Qanysh Sätbayev Ave 3, Atyrau 060011, Kazakhstan","postcode":"060011","locality":"Atyrau","region":"Atyrau Region"}},"labels":["basketball","sport"],"duration":0,"start_local":"2024-04-07T17:00:00","end":"2024-04-07T12:00:00Z","end_local":"2024-04-07T17:00:00","updated":"2024-06-11T22:48:40Z"},{"title":"Nomad Nur-Sultan vs HK Arlan Kokschetau","description":"Sourced from predicthq.com","category":"sports","start":"2024-04-07T12:00:00Z","geo":{"geometry":{"coordinates":[69.406339,53.277152],"type":"Point"},"placekey":"@589-nvc-nbk","address":{"country_code":"KZ","formatted_address":"Burabay, A-343 85, Kokshetau 020000, Kazakhstan","postcode":"020000","locality":"Kokshetau","region":"Akmola Region"}},"labels":["ice-hockey","sport"],"duration":0,"start_local":"2024-04-07T17:00:00","end":"2024-04-07T12:00:00Z","end_local":"2024-04-07T17:00:00","updated":"2024-06-12T10:32:19Z"},{"title":"Premier League - Shakhter Karagandy vs Astana","description":"Sourced from predicthq.com","category":"sports","start":"2024-04-07T11:30:00Z","geo":{"geometry":{"coordinates":[73.0752524,49.8186844],"type":"Point"},"placekey":"@552-x4j-q2k","address":{"country_code":"KZ","formatted_address":"Kazakhstan, Karagandy Province, 100000 Karagandy, M36","postcode":"100000","locality":"Karagandy","region":"Karagandy Province"}},"labels":["soccer","sport"],"duration":0,"start_local":"2024-04-07T16:30:00","end":"2024-04-07T11:30:00Z","end_local":"2024-04-07T16:30:00","updated":"2024-06-12T00:05:37Z"},{"title":"Premier League - Aktobe vs Atyrau","description":"Sourced from predicthq.com","category":"sports","start":"2024-04-07T09:00:00Z","geo":{"geometry":{"coordinates":[57.16194033622742,50.29576174025594],"type":"Point"},"placekey":"@57n-dpx-hbk","address":{"country_code":"KZ","formatted_address":"Kazakhstan, Aqtöbe (Aktobe), ul. Eset-batyra 146A","locality":"Aqtöbe (Aktobe)"}},"labels":["soccer","sport"],"duration":0,"start_local":"2024-04-07T14:00:00","end":"2024-04-07T09:00:00Z","end_local":"2024-04-07T14:00:00","updated":"2024-06-12T15:08:14Z"}]