[{"title":"International Conference on Efficient Building Design","description":"Sourced from predicthq.com","category":"conferences","start":"2024-10-03T06:00:00Z","geo":{"geometry":{"coordinates":[35.481114,33.90113],"type":"Point"},"placekey":"@6cb-f74-tvz","address":{"country_code":"LB","formatted_address":"Bliss\nBeirut\nLebanon","locality":"Beirut"}},"labels":["conference"],"duration":118800,"start_local":"2024-10-03T09:00:00","end":"2024-10-04T15:00:00Z","end_local":"2024-10-04T18:00:00","updated":"2024-06-03T23:30:52Z"},{"title":"Paso Doble","description":"Sourced from predicthq.com","category":"concerts","start":"2024-08-17T16:00:00Z","geo":{"geometry":{"coordinates":[35.837298,33.9947825],"type":"Point"},"placekey":"@6cb-g3p-djv","address":{"country_code":"LB","formatted_address":"XRVP+WW7, Lebanon","region":"Mount Lebanon Governorate"}},"labels":["concert","music"],"duration":0,"start_local":"2024-08-17T19:00:00","end":"2024-08-17T16:00:00Z","end_local":"2024-08-17T19:00:00","updated":"2024-06-11T03:18:15Z"},{"title":"Nour Khodr X Gio Mkl Concert Beirut Lebanon July 9","description":"Sourced from predicthq.com - Nour Khodr & Gio Mkl performing live in Lebanon at 9pm at Neon (TUESDAY JULY 9)","category":"concerts","start":"2024-07-09T18:00:00Z","geo":{"geometry":{"coordinates":[35.566623,33.898886],"type":"Point"},"placekey":"@6cb-f7n-b49","address":{"country_code":"LB","formatted_address":"Wata Aamaret Chalhoub, Mount Lebanon Governorate, Lebanon","locality":"Wata Aamaret Chalhoub","region":"Mount Lebanon Governorate"}},"labels":["concert","music"],"duration":18000,"start_local":"2024-07-09T21:00:00","end":"2024-07-09T23:00:00Z","end_local":"2024-07-10T02:00:00","updated":"2024-07-05T18:11:50Z"},{"title":"Premier League - Championship Round - Al Nejmeh vs Al Ansar","description":"Sourced from predicthq.com","category":"sports","start":"2024-06-30T17:30:00Z","geo":{"geometry":{"coordinates":[35.6391069,33.9867261],"type":"Point"},"placekey":"@6cb-gh6-b49","address":{"country_code":"LB","formatted_address":"Juniyah, Mount Lebanon Governorate, Lebanon","locality":"Juniyah","region":"Mount Lebanon Governorate"}},"labels":["soccer","sport"],"duration":0,"start_local":"2024-06-30T20:30:00","end":"2024-06-30T17:30:00Z","end_local":"2024-06-30T20:30:00","updated":"2024-06-24T13:43:00Z"},{"title":"East Med Maritime Conference","description":"Sourced from predicthq.com","category":"conferences","start":"2024-06-27T06:00:00Z","geo":{"geometry":{"coordinates":[35.495109,33.900466],"type":"Point"},"placekey":"@6cb-f74-yvz","address":{"country_code":"LB","formatted_address":"Beirut, Lebanon","locality":"Beirut"}},"labels":["conference"],"duration":32400,"start_local":"2024-06-27T09:00:00","end":"2024-06-27T15:00:00Z","end_local":"2024-06-27T18:00:00","updated":"2024-06-11T05:33:35Z"},{"title":"RAWMEC 2024 - Recycling and waste management exhibition and conference","description":"Sourced from predicthq.com","category":"expos","start":"2024-06-25T21:00:00Z","geo":{"geometry":{"coordinates":[35.5357006,33.8708182],"type":"Point"},"placekey":"@6cb-f5m-hwk","address":{"country_code":"LB","formatted_address":"Dimitri El Hayek, Beirut, Lebanon","locality":"Beirut","region":"Jabal Lubnan"}},"labels":["construction","environment","expo","industrial","technology"],"duration":259199,"start_local":"2024-06-26T00:00:00","end":"2024-06-28T20:59:59Z","end_local":"2024-06-28T23:59:59","updated":"2024-06-10T23:25:58Z"},{"title":"Differences Between Entities","description":"Sourced from predicthq.com - In the realm of software development, there is a clear distinction between entities and DTOs (Data Transfer Objects). Understanding their pr","category":"conferences","start":"2024-06-25T07:00:00Z","geo":{"geometry":{"coordinates":[35.5196149,33.8884933],"type":"Point"},"placekey":"@6cb-f7s-d7q","address":{"country_code":"LB","formatted_address":"Alfred Naccache, بيروت, Lebanon","locality":"بيروت","region":"محافظة بيروت"}},"labels":["conference","science","technology"],"duration":7200,"start_local":"2024-06-25T10:00:00","end":"2024-06-25T09:00:00Z","end_local":"2024-06-25T12:00:00","updated":"2024-05-23T02:20:27Z"},{"title":"Premier League - Championship Round - Racing vs Al Ahed","description":"Sourced from predicthq.com","category":"sports","start":"2024-06-24T14:00:00Z","geo":{"geometry":{"coordinates":[35.4919444,33.8747222],"type":"Point"},"placekey":"@6cb-f77-q4v","address":{"country_code":"LB","formatted_address":"VFFR+QW3, Beirut, Lebanon","locality":"Beirut","region":"Beirut Governorate"}},"labels":["soccer","sport"],"duration":0,"start_local":"2024-06-24T17:00:00","end":"2024-06-24T14:00:00Z","end_local":"2024-06-24T17:00:00","updated":"2024-06-24T13:56:10Z"},{"title":"Premier League - Championship Round - Bourj vs Safa","description":"Sourced from predicthq.com","category":"sports","start":"2024-06-24T14:00:00Z","geo":{"geometry":{"coordinates":[35.65587043762207,33.803328631501486],"type":"Point"},"placekey":"@6cg-qdc-3h5","address":{"country_code":"LB","formatted_address":"Bhamdoun, Lebanon","locality":"Bhamdoun"}},"labels":["soccer","sport"],"duration":0,"start_local":"2024-06-24T17:00:00","end":"2024-06-24T14:00:00Z","end_local":"2024-06-24T17:00:00","updated":"2024-06-24T15:51:17Z"},{"title":"47Soul","description":"Sourced from predicthq.com","category":"concerts","start":"2024-06-21T18:00:00Z","geo":{"geometry":{"coordinates":[35.482258,33.8956085],"type":"Point"},"placekey":"@6cb-f74-qpv","address":{"country_code":"LB","formatted_address":"Hamra, Beirut, Lebanon","locality":"Beirut"}},"labels":["concert","music"],"duration":0,"start_local":"2024-06-21T21:00:00","end":"2024-06-21T18:00:00Z","end_local":"2024-06-21T21:00:00","updated":"2024-07-05T18:13:06Z"},{"title":"Tribute to Gisèle Khoury","description":"Sourced from predicthq.com - A tribute to the woman, the journalist, the founder of both the Samir Kassir Foundation and the Beirut Spring Festival.","category":"festivals","start":"2024-06-20T18:00:00Z","geo":{"geometry":{"coordinates":[35.5153906,33.8713375],"type":"Point"},"placekey":"@6cb-f5n-2c5","address":{"country_code":"LB","formatted_address":"Beirut, Beirut Governorate, Lebanon","locality":"Beirut","region":"Beirut Governorate"}},"labels":["festival","performing-arts"],"duration":5400,"start_local":"2024-06-20T21:00:00","end":"2024-06-20T19:30:00Z","end_local":"2024-06-20T22:30:00","updated":"2024-06-20T01:07:04Z"},{"title":"Premier League - Championship Round - Al Nejmeh vs Al Ahed","description":"Sourced from predicthq.com","category":"sports","start":"2024-06-20T13:00:00Z","geo":{"geometry":{"coordinates":[35.6391069,33.9867261],"type":"Point"},"placekey":"@6cb-gh6-b49","address":{"country_code":"LB","formatted_address":"Juniyah, Mount Lebanon Governorate, Lebanon","locality":"Juniyah","region":"Mount Lebanon Governorate"}},"labels":["soccer","sport"],"duration":0,"start_local":"2024-06-20T16:00:00","end":"2024-06-20T13:00:00Z","end_local":"2024-06-20T16:00:00","updated":"2024-06-13T00:16:10Z"},{"title":"Premier League - Championship Round - Racing vs Bourj","description":"Sourced from predicthq.com","category":"sports","start":"2024-06-20T13:00:00Z","geo":{"geometry":{"coordinates":[35.4919444,33.8747222],"type":"Point"},"placekey":"@6cb-f77-q4v","address":{"country_code":"LB","formatted_address":"VFFR+QW3, Beirut, Lebanon","locality":"Beirut","region":"Beirut Governorate"}},"labels":["soccer","sport"],"duration":0,"start_local":"2024-06-20T16:00:00","end":"2024-06-20T13:00:00Z","end_local":"2024-06-20T16:00:00","updated":"2024-06-12T23:53:05Z"},{"title":"Premier League - Championship Round - Al Ansar vs Safa","description":"Sourced from predicthq.com","category":"sports","start":"2024-06-20T13:00:00Z","geo":{"geometry":{"coordinates":[35.65587043762207,33.803328631501486],"type":"Point"},"placekey":"@6cg-qdc-3h5","address":{"country_code":"LB","formatted_address":"Bhamdoun, Lebanon","locality":"Bhamdoun"}},"labels":["soccer","sport"],"duration":0,"start_local":"2024-06-20T16:00:00","end":"2024-06-20T13:00:00Z","end_local":"2024-06-20T16:00:00","updated":"2024-06-13T00:36:42Z"},{"title":"Energy Strategies Summit","description":"Sourced from predicthq.com - The Energy Strategies Summit - a dynamic hub of industry expertise, fostering collaboration and knowledge sharing.","category":"conferences","start":"2024-06-20T11:00:00Z","geo":{"geometry":{"coordinates":[35.5017767,33.8937913],"type":"Point"},"placekey":"@6cb-f74-7bk","address":{"country_code":"LB","formatted_address":"Bayrut, Beirut Governorate, Lebanon","locality":"Bayrut","region":"Beirut Governorate"}},"labels":["business","conference"],"duration":19800,"start_local":"2024-06-20T14:00:00","end":"2024-06-20T16:30:00Z","end_local":"2024-06-20T19:30:00","updated":"2024-06-04T04:43:38Z"},{"title":"Premier League - Championship Round - Al Nejmeh vs Racing","description":"Sourced from predicthq.com","category":"sports","start":"2024-06-16T14:00:00Z","geo":{"geometry":{"coordinates":[35.65587043762207,33.803328631501486],"type":"Point"},"placekey":"@6cg-qdc-3h5","address":{"country_code":"LB","formatted_address":"Bhamdoun, Lebanon","locality":"Bhamdoun"}},"labels":["soccer","sport"],"duration":0,"start_local":"2024-06-16T17:00:00","end":"2024-06-16T14:00:00Z","end_local":"2024-06-16T17:00:00","updated":"2024-06-11T05:53:32Z"},{"title":"Premier League - Championship Round - Al Ansar vs Bourj","description":"Sourced from predicthq.com","category":"sports","start":"2024-06-16T14:00:00Z","geo":{"geometry":{"coordinates":[35.6391069,33.9867261],"type":"Point"},"placekey":"@6cb-gh6-b49","address":{"country_code":"LB","formatted_address":"Juniyah, Mount Lebanon Governorate, Lebanon","locality":"Juniyah","region":"Mount Lebanon Governorate"}},"labels":["soccer","sport"],"duration":0,"start_local":"2024-06-16T17:00:00","end":"2024-06-16T14:00:00Z","end_local":"2024-06-16T17:00:00","updated":"2024-06-11T08:19:38Z"},{"title":"Concert for Palestine","description":"Sourced from predicthq.com - A tribute to Palestine and to the Palestinian people.","category":"festivals","start":"2024-06-15T18:00:00Z","geo":{"geometry":{"coordinates":[35.4857561,33.89523949999999],"type":"Point"},"placekey":"@6cb-f74-snq","address":{"country_code":"LB","formatted_address":"بيروت, محافظة بيروت, Lebanon","locality":"بيروت","region":"محافظة بيروت"}},"labels":["festival","music"],"duration":5400,"start_local":"2024-06-15T21:00:00","end":"2024-06-15T19:30:00Z","end_local":"2024-06-15T22:30:00","updated":"2024-06-04T10:00:08Z"},{"title":"Premier League - Championship Round - Safa vs Al Ahed","description":"Sourced from predicthq.com","category":"sports","start":"2024-06-15T14:00:00Z","geo":{"geometry":{"coordinates":[35.4919444,33.8747222],"type":"Point"},"placekey":"@6cb-f77-q4v","address":{"country_code":"LB","formatted_address":"VFFR+QW3, Beirut, Lebanon","locality":"Beirut","region":"Beirut Governorate"}},"labels":["soccer","sport"],"duration":0,"start_local":"2024-06-15T17:00:00","end":"2024-06-15T14:00:00Z","end_local":"2024-06-15T17:00:00","updated":"2024-06-12T18:24:19Z"},{"title":"Dialogue on Housing in Lebanon (In-person Attendance)","description":"Sourced from predicthq.com - Let's discuss housing issues in Lebanon, challenges, and opportunities facing the housing sector at our event in 2024!","category":"conferences","start":"2024-06-12T06:00:00Z","geo":{"geometry":{"coordinates":[35.5053419,33.89035],"type":"Point"},"placekey":"@6cb-f7t-99f","address":{"country_code":"LB","formatted_address":"Beirut, Beirut Governorate, Lebanon","locality":"Beirut","region":"Beirut Governorate"}},"labels":["community","conference"],"duration":28800,"start_local":"2024-06-12T09:00:00","end":"2024-06-12T14:00:00Z","end_local":"2024-06-12T17:00:00","updated":"2024-05-23T01:48:52Z"},{"title":"Tarek Yamani","description":"Sourced from predicthq.com","category":"concerts","start":"2024-06-10T17:00:00Z","geo":{"geometry":{"coordinates":[35.482258,33.8956085],"type":"Point"},"placekey":"@6cb-f74-qpv","address":{"country_code":"LB","formatted_address":"Hamra, Beirut, Lebanon","locality":"Beirut"}},"labels":["concert","music"],"duration":0,"start_local":"2024-06-10T20:00:00","end":"2024-06-10T17:00:00Z","end_local":"2024-06-10T20:00:00","updated":"2024-06-24T17:29:37Z"},{"title":"MUTE – صَــــمْـــــــــــــت","description":"Sourced from predicthq.com - A multi-award-winning play against the backdrop of the Beirut Port explosion for the first time in Lebanon.","category":"festivals","start":"2024-06-09T18:00:00Z","geo":{"geometry":{"coordinates":[35.5153906,33.8713375],"type":"Point"},"placekey":"@6cb-f5n-2c5","address":{"country_code":"LB","formatted_address":"Beirut, Beirut Governorate, Lebanon","locality":"Beirut","region":"Beirut Governorate"}},"labels":["festival","performing-arts"],"duration":5400,"start_local":"2024-06-09T21:00:00","end":"2024-06-09T19:30:00Z","end_local":"2024-06-09T22:30:00","updated":"2024-06-04T00:55:18Z"},{"title":"PAAX","description":"Sourced from predicthq.com","category":"concerts","start":"2024-06-08T12:00:00Z","geo":{"geometry":{"coordinates":[35.50178,33.89379],"type":"Point"},"placekey":"@6cb-f74-7bk","address":{"country_code":"LB","formatted_address":"6MV6+JHV, Dawrat, Lebanon, Beirut, Lebanon","locality":"Beirut"}},"labels":["concert","music"],"duration":0,"start_local":"2024-06-08T15:00:00","end":"2024-06-08T12:00:00Z","end_local":"2024-06-08T15:00:00","updated":"2024-06-22T12:01:32Z"},{"title":"Zyara, Season 8","description":"Sourced from predicthq.com - Premiere screening of a tribute to Beirut through the eyes of 12 great artists.","category":"festivals","start":"2024-05-30T18:00:00Z","geo":{"geometry":{"coordinates":[35.5071725,33.89639140000001],"type":"Point"},"placekey":"@6cb-f7t-8n5","address":{"country_code":"LB","formatted_address":"Beirut, Beirut Governorate, Lebanon","locality":"Beirut","region":"Beirut Governorate"}},"labels":["entertainment","festival"],"duration":5400,"start_local":"2024-05-30T21:00:00","end":"2024-05-30T19:30:00Z","end_local":"2024-05-30T22:30:00","updated":"2024-06-11T21:56:35Z"},{"title":"Premier League - Championship Round - Safa vs Al Nejmeh","description":"Sourced from predicthq.com","category":"sports","start":"2024-05-26T13:00:00Z","geo":{"geometry":{"coordinates":[35.6391069,33.9867261],"type":"Point"},"placekey":"@6cb-gh6-b49","address":{"country_code":"LB","formatted_address":"Juniyah, Mount Lebanon Governorate, Lebanon","locality":"Juniyah","region":"Mount Lebanon Governorate"}},"labels":["soccer","sport"],"duration":0,"start_local":"2024-05-26T16:00:00","end":"2024-05-26T13:00:00Z","end_local":"2024-05-26T16:00:00","updated":"2024-06-12T05:29:52Z"},{"title":"Premier League - Championship Round - Al Ahed vs Bourj","description":"Sourced from predicthq.com","category":"sports","start":"2024-05-26T13:00:00Z","geo":{"geometry":{"coordinates":[35.65587043762207,33.803328631501486],"type":"Point"},"placekey":"@6cg-qdc-3h5","address":{"country_code":"LB","formatted_address":"Bhamdoun, Lebanon","locality":"Bhamdoun"}},"labels":["soccer","sport"],"duration":0,"start_local":"2024-05-26T16:00:00","end":"2024-05-26T13:00:00Z","end_local":"2024-05-26T16:00:00","updated":"2024-06-11T23:28:44Z"},{"title":"Premier League - Championship Round - Al Ansar vs Racing","description":"Sourced from predicthq.com","category":"sports","start":"2024-05-26T13:00:00Z","geo":{"geometry":{"coordinates":[35.82225564834288,34.42228054145222],"type":"Point"},"placekey":"@6cb-d54-649","address":{"country_code":"LB","formatted_address":"Jamal Abdul Nasser Road, Tripoli (Tarabulus), Lebanon","locality":"Tripoli (Tarabulus)"}},"labels":["soccer","sport"],"duration":0,"start_local":"2024-05-26T16:00:00","end":"2024-05-26T13:00:00Z","end_local":"2024-05-26T16:00:00","updated":"2024-06-12T13:59:44Z"},{"title":"Bridging Impact through LSE:Empowering Social Enterprises","description":"Sourced from predicthq.com - Save the date for our support program launch event!","category":"conferences","start":"2024-05-24T12:00:00Z","geo":{"geometry":{"coordinates":[35.5118127,33.8812068],"type":"Point"},"placekey":"@6cb-f7t-jn5","address":{"country_code":"LB","formatted_address":"Beirut, Lebanon","locality":"Beirut","region":"Beirut Governorate"}},"labels":["business","conference"],"duration":7200,"start_local":"2024-05-24T15:00:00","end":"2024-05-24T14:00:00Z","end_local":"2024-05-24T17:00:00","updated":"2024-06-05T04:04:14Z"},{"title":"Premier League - Relegation Round - Shabab Al Ghazieh vs Tripoli SC","description":"Sourced from predicthq.com","category":"sports","start":"2024-05-23T13:00:00Z","geo":{"geometry":{"coordinates":[35.4919444,33.8747222],"type":"Point"},"placekey":"@6cb-f77-q4v","address":{"country_code":"LB","formatted_address":"VFFR+QW3, Beirut, Lebanon","locality":"Beirut","region":"Beirut Governorate"}},"labels":["soccer","sport"],"duration":0,"start_local":"2024-05-23T16:00:00","end":"2024-05-23T13:00:00Z","end_local":"2024-05-23T16:00:00","updated":"2024-06-12T17:24:04Z"},{"title":"Premier League - Relegation Round - Al Ahli Nabatiya vs Al Hikma","description":"Sourced from predicthq.com","category":"sports","start":"2024-05-23T13:00:00Z","geo":{"geometry":{"coordinates":[35.48975586891174,33.84054573997569],"type":"Point"},"placekey":"@6cb-f7y-wff","address":{"country_code":"LB","formatted_address":"Airport Road, Bayrūt (Beirut), Lebanon","locality":"Bayrūt (Beirut)"}},"labels":["soccer","sport"],"duration":0,"start_local":"2024-05-23T16:00:00","end":"2024-05-23T13:00:00Z","end_local":"2024-05-23T16:00:00","updated":"2024-06-12T01:56:17Z"},{"title":"Premier League - Relegation Round - Tadamon Sour vs Shabab Al Sahel","description":"Sourced from predicthq.com","category":"sports","start":"2024-05-22T13:00:00Z","geo":{"geometry":{"coordinates":[35.4919444,33.8747222],"type":"Point"},"placekey":"@6cb-f77-q4v","address":{"country_code":"LB","formatted_address":"VFFR+QW3, Beirut, Lebanon","locality":"Beirut","region":"Beirut Governorate"}},"labels":["soccer","sport"],"duration":0,"start_local":"2024-05-22T16:00:00","end":"2024-05-22T13:00:00Z","end_local":"2024-05-22T16:00:00","updated":"2024-06-12T04:04:24Z"},{"title":"Lebanese League - Final - Al Riyadi vs Sagesse","description":"Sourced from predicthq.com","category":"sports","start":"2024-05-20T18:45:00Z","geo":{"geometry":{"coordinates":[35.471024,33.897161],"type":"Point"},"placekey":"@6cb-f7b-n5z","address":{"country_code":"LB","formatted_address":"VFXC+39F, Beirut, Lebanon","locality":"Beirut","region":"Beirut Governorate"}},"labels":["basketball","sport"],"duration":0,"start_local":"2024-05-20T21:45:00","end":"2024-05-20T18:45:00Z","end_local":"2024-05-20T21:45:00","updated":"2024-06-12T05:59:53Z"},{"title":"Premier League - Championship Round - Bourj vs Al Nejmeh","description":"Sourced from predicthq.com","category":"sports","start":"2024-05-20T13:00:00Z","geo":{"geometry":{"coordinates":[35.65587043762207,33.803328631501486],"type":"Point"},"placekey":"@6cg-qdc-3h5","address":{"country_code":"LB","formatted_address":"Bhamdoun, Lebanon","locality":"Bhamdoun"}},"labels":["soccer","sport"],"duration":0,"start_local":"2024-05-20T16:00:00","end":"2024-05-20T13:00:00Z","end_local":"2024-05-20T16:00:00","updated":"2024-06-12T17:35:46Z"},{"title":"Premier League - Championship Round - Al Ahed vs Al Ansar","description":"Sourced from predicthq.com","category":"sports","start":"2024-05-20T13:00:00Z","geo":{"geometry":{"coordinates":[35.90335786342621,34.40265626983863],"type":"Point"},"placekey":"@6cb-d36-syv","address":{"country_code":"LB","formatted_address":"CW33+386, Zgharta, Lebanon","locality":"Zgharta","region":"North Governorate"}},"labels":["soccer","sport"],"duration":0,"start_local":"2024-05-20T16:00:00","end":"2024-05-20T13:00:00Z","end_local":"2024-05-20T16:00:00","updated":"2024-06-12T00:50:42Z"},{"title":"Premier League - Championship Round - Racing vs Safa","description":"Sourced from predicthq.com","category":"sports","start":"2024-05-20T13:00:00Z","geo":{"geometry":{"coordinates":[35.82225564834288,34.42228054145222],"type":"Point"},"placekey":"@6cb-d54-649","address":{"country_code":"LB","formatted_address":"Jamal Abdul Nasser Road, Tripoli (Tarabulus), Lebanon","locality":"Tripoli (Tarabulus)"}},"labels":["soccer","sport"],"duration":0,"start_local":"2024-05-20T16:00:00","end":"2024-05-20T13:00:00Z","end_local":"2024-05-20T16:00:00","updated":"2024-06-12T00:09:50Z"},{"title":"Lebanese League - Final - Sagesse vs Al Riyadi","description":"Sourced from predicthq.com","category":"sports","start":"2024-05-18T18:45:00Z","geo":{"geometry":{"coordinates":[35.657554869312904,34.01698141592487],"type":"Point"},"placekey":"@6cb-gk4-zzz","address":{"country_code":"LB","formatted_address":"2M85+H3P, Ghazir, Lebanon","locality":"Ghazir","region":"Mount Lebanon Governorate"}},"labels":["basketball","sport"],"duration":0,"start_local":"2024-05-18T21:45:00","end":"2024-05-18T18:45:00Z","end_local":"2024-05-18T21:45:00","updated":"2024-06-12T07:16:10Z"},{"title":"Lebanese League - Final - Al Riyadi vs Sagesse","description":"Sourced from predicthq.com","category":"sports","start":"2024-05-17T18:45:00Z","geo":{"geometry":{"coordinates":[35.471024,33.897161],"type":"Point"},"placekey":"@6cb-f7b-n5z","address":{"country_code":"LB","formatted_address":"VFXC+39F, Beirut, Lebanon","locality":"Beirut","region":"Beirut Governorate"}},"labels":["basketball","sport"],"duration":0,"start_local":"2024-05-17T21:45:00","end":"2024-05-17T18:45:00Z","end_local":"2024-05-17T21:45:00","updated":"2024-06-12T17:41:17Z"},{"title":"Maii Waleed and Zeid Hamdan","description":"Sourced from predicthq.com","category":"concerts","start":"2024-05-17T17:00:00Z","geo":{"geometry":{"coordinates":[35.5017767,33.8937913],"type":"Point"},"placekey":"@6cb-f74-7bk","address":{"country_code":"LB","formatted_address":"Beirut, Lebanon","locality":"Beirut"}},"labels":["concert","music"],"duration":0,"start_local":"2024-05-17T20:00:00","end":"2024-05-17T17:00:00Z","end_local":"2024-05-17T20:00:00","updated":"2024-06-12T10:25:31Z"},{"title":"Premier League - Relegation Round - Shabab Al Sahel vs Tripoli SC","description":"Sourced from predicthq.com","category":"sports","start":"2024-05-17T13:00:00Z","geo":{"geometry":{"coordinates":[35.65587043762207,33.803328631501486],"type":"Point"},"placekey":"@6cg-qdc-3h5","address":{"country_code":"LB","formatted_address":"Bhamdoun, Lebanon","locality":"Bhamdoun"}},"labels":["soccer","sport"],"duration":0,"start_local":"2024-05-17T16:00:00","end":"2024-05-17T13:00:00Z","end_local":"2024-05-17T16:00:00","updated":"2024-06-12T01:56:29Z"},{"title":"Premier League - Relegation Round - Al Ahli Nabatiya vs Shabab Al Ghazieh","description":"Sourced from predicthq.com","category":"sports","start":"2024-05-17T13:00:00Z","geo":{"geometry":{"coordinates":[35.386065896,33.379863998],"type":"Point"},"placekey":"@6cg-nqy-xwk","address":{"country_code":"LB","formatted_address":"Nabatiyeh - Tyre Road, Mazraat Chelbael, Ansar, Lebanon","locality":"Ansar"}},"labels":["soccer","sport"],"duration":0,"start_local":"2024-05-17T16:00:00","end":"2024-05-17T13:00:00Z","end_local":"2024-05-17T16:00:00","updated":"2024-06-12T15:10:27Z"},{"title":"Premier League - Relegation Round - Al Hikma vs Tadamon Sour","description":"Sourced from predicthq.com","category":"sports","start":"2024-05-17T13:00:00Z","geo":{"geometry":{"coordinates":[35.6391069,33.9867261],"type":"Point"},"placekey":"@6cb-gh6-b49","address":{"country_code":"LB","formatted_address":"Juniyah, Mount Lebanon Governorate, Lebanon","locality":"Juniyah","region":"Mount Lebanon Governorate"}},"labels":["soccer","sport"],"duration":0,"start_local":"2024-05-17T16:00:00","end":"2024-05-17T13:00:00Z","end_local":"2024-05-17T16:00:00","updated":"2024-06-12T09:42:57Z"},{"title":"Lebanese League - 3rd Place Final - Beirut vs Homenetmen","description":"Sourced from predicthq.com","category":"sports","start":"2024-05-16T16:00:00Z","geo":{"geometry":{"coordinates":[35.586884399999995,33.92365378920879],"type":"Point"},"placekey":"@6cb-gkr-ht9","address":{"country_code":"LB","formatted_address":"Beirut, Lebanon","locality":"Beirut"}},"labels":["basketball","sport"],"duration":0,"start_local":"2024-05-16T19:00:00","end":"2024-05-16T16:00:00Z","end_local":"2024-05-16T19:00:00","updated":"2024-06-12T04:05:05Z"},{"title":"Premier League - Championship Round - Al Ahed vs Racing","description":"Sourced from predicthq.com","category":"sports","start":"2024-05-16T13:00:00Z","geo":{"geometry":{"coordinates":[35.90335786342621,34.40265626983863],"type":"Point"},"placekey":"@6cb-d36-syv","address":{"country_code":"LB","formatted_address":"CW33+386, Zgharta, Lebanon","locality":"Zgharta","region":"North Governorate"}},"labels":["soccer","sport"],"duration":0,"start_local":"2024-05-16T16:00:00","end":"2024-05-16T13:00:00Z","end_local":"2024-05-16T16:00:00","updated":"2024-06-12T02:38:23Z"},{"title":"Premier League - Championship Round - Al Ansar vs Al Nejmeh","description":"Sourced from predicthq.com","category":"sports","start":"2024-05-16T13:00:00Z","geo":{"geometry":{"coordinates":[35.82225564834288,34.42228054145222],"type":"Point"},"placekey":"@6cb-d54-649","address":{"country_code":"LB","formatted_address":"Jamal Abdul Nasser Road, Tripoli (Tarabulus), Lebanon","locality":"Tripoli (Tarabulus)"}},"labels":["soccer","sport"],"duration":0,"start_local":"2024-05-16T16:00:00","end":"2024-05-16T13:00:00Z","end_local":"2024-05-16T16:00:00","updated":"2024-06-12T00:17:25Z"},{"title":"Lebanese League - Final - Sagesse vs Al Riyadi","description":"Sourced from predicthq.com","category":"sports","start":"2024-05-15T18:45:00Z","geo":{"geometry":{"coordinates":[35.657554869312904,34.01698141592487],"type":"Point"},"placekey":"@6cb-gk4-zzz","address":{"country_code":"LB","formatted_address":"2M85+H3P, Ghazir, Lebanon","locality":"Ghazir","region":"Mount Lebanon Governorate"}},"labels":["basketball","sport"],"duration":0,"start_local":"2024-05-15T21:45:00","end":"2024-05-15T18:45:00Z","end_local":"2024-05-15T21:45:00","updated":"2024-06-12T09:47:53Z"},{"title":"Premier League - Championship Round - Safa vs Bourj","description":"Sourced from predicthq.com","category":"sports","start":"2024-05-15T13:00:00Z","geo":{"geometry":{"coordinates":[35.65587043762207,33.803328631501486],"type":"Point"},"placekey":"@6cg-qdc-3h5","address":{"country_code":"LB","formatted_address":"Bhamdoun, Lebanon","locality":"Bhamdoun"}},"labels":["soccer","sport"],"duration":0,"start_local":"2024-05-15T16:00:00","end":"2024-05-15T13:00:00Z","end_local":"2024-05-15T16:00:00","updated":"2024-06-11T20:42:39Z"},{"title":"Lebanese League - Final - Al Riyadi vs Sagesse","description":"Sourced from predicthq.com","category":"sports","start":"2024-05-14T18:45:00Z","geo":{"geometry":{"coordinates":[35.471024,33.897161],"type":"Point"},"placekey":"@6cb-f7b-n5z","address":{"country_code":"LB","formatted_address":"VFXC+39F, Beirut, Lebanon","locality":"Beirut","region":"Beirut Governorate"}},"labels":["basketball","sport"],"duration":0,"start_local":"2024-05-14T21:45:00","end":"2024-05-14T18:45:00Z","end_local":"2024-05-14T21:45:00","updated":"2024-06-11T23:51:12Z"},{"title":"Premier League - Championship Round - Al Ahed vs Al Nejmeh","description":"Sourced from predicthq.com","category":"sports","start":"2024-05-12T13:00:00Z","geo":{"geometry":{"coordinates":[35.6391069,33.9867261],"type":"Point"},"placekey":"@6cb-gh6-b49","address":{"country_code":"LB","formatted_address":"Juniyah, Mount Lebanon Governorate, Lebanon","locality":"Juniyah","region":"Mount Lebanon Governorate"}},"labels":["soccer","sport"],"duration":0,"start_local":"2024-05-12T16:00:00","end":"2024-05-12T13:00:00Z","end_local":"2024-05-12T16:00:00","updated":"2024-06-12T08:14:46Z"},{"title":"Women's Race Beirut","description":"Sourced from predicthq.com","category":"sports","start":"2024-05-11T21:00:00Z","geo":{"geometry":{"coordinates":[35.5017767,33.8937913],"type":"Point"},"placekey":"@6cb-f74-7bk","address":{"country_code":"LB","formatted_address":"Bayrut, Beirut Governorate, Lebanon","locality":"Bayrut","region":"Beirut Governorate"}},"labels":["outdoor-sports","running","sport"],"duration":86399,"start_local":"2024-05-12T00:00:00","end":"2024-05-12T20:59:59Z","end_local":"2024-05-12T23:59:59","updated":"2024-06-05T10:16:34Z"},{"title":"Lebanese League - Semi-finals - Al Riyadi vs Homenetmen","description":"Sourced from predicthq.com","category":"sports","start":"2024-05-11T18:45:00Z","geo":{"geometry":{"coordinates":[35.471024,33.897161],"type":"Point"},"placekey":"@6cb-f7b-n5z","address":{"country_code":"LB","formatted_address":"VFXC+39F, Beirut, Lebanon","locality":"Beirut","region":"Beirut Governorate"}},"labels":["basketball","sport"],"duration":0,"start_local":"2024-05-11T21:45:00","end":"2024-05-11T18:45:00Z","end_local":"2024-05-11T21:45:00","updated":"2024-06-12T06:04:50Z"},{"title":"Premier League - Championship Round - Safa vs Al Ansar","description":"Sourced from predicthq.com","category":"sports","start":"2024-05-11T13:00:00Z","geo":{"geometry":{"coordinates":[35.6391069,33.9867261],"type":"Point"},"placekey":"@6cb-gh6-b49","address":{"country_code":"LB","formatted_address":"Juniyah, Mount Lebanon Governorate, Lebanon","locality":"Juniyah","region":"Mount Lebanon Governorate"}},"labels":["soccer","sport"],"duration":0,"start_local":"2024-05-11T16:00:00","end":"2024-05-11T13:00:00Z","end_local":"2024-05-11T16:00:00","updated":"2024-06-12T12:46:23Z"},{"title":"Access Masters","description":"Sourced from predicthq.com","category":"conferences","start":"2024-05-11T06:00:00Z","geo":{"geometry":{"coordinates":[35.4740271,33.8853601],"type":"Point"},"placekey":"@6cb-f73-fcq","address":{"country_code":"LB","formatted_address":"VFPF+4GQ, Beirut, Lebanon","locality":"Beirut","region":"Beirut Governorate"}},"labels":["conference"],"duration":32400,"start_local":"2024-05-11T09:00:00","end":"2024-05-11T15:00:00Z","end_local":"2024-05-11T18:00:00","updated":"2024-06-01T23:45:00Z"},{"title":"One-to-One MBA Event Lebanon","description":"Sourced from predicthq.com","category":"conferences","start":"2024-05-11T06:00:00Z","geo":{"geometry":{"coordinates":[35.4740271,33.8853601],"type":"Point"},"placekey":"@6cb-f73-fcq","address":{"country_code":"LB","formatted_address":"VFPF+4GQ, Beirut, Lebanon","locality":"Beirut","region":"Beirut Governorate"}},"labels":["conference"],"duration":32400,"start_local":"2024-05-11T09:00:00","end":"2024-05-11T15:00:00Z","end_local":"2024-05-11T18:00:00","updated":"2024-06-04T02:22:19Z"},{"title":"Lebanese League - Semi-finals - Sagesse vs Beirut","description":"Sourced from predicthq.com","category":"sports","start":"2024-05-10T18:45:00Z","geo":{"geometry":{"coordinates":[35.657554869312904,34.01698141592487],"type":"Point"},"placekey":"@6cb-gk4-zzz","address":{"country_code":"LB","formatted_address":"2M85+H3P, Ghazir, Lebanon","locality":"Ghazir","region":"Mount Lebanon Governorate"}},"labels":["basketball","sport"],"duration":0,"start_local":"2024-05-10T21:45:00","end":"2024-05-10T18:45:00Z","end_local":"2024-05-10T21:45:00","updated":"2024-06-12T06:04:23Z"},{"title":"Premier League - Championship Round - Bourj vs Racing","description":"Sourced from predicthq.com","category":"sports","start":"2024-05-10T13:00:00Z","geo":{"geometry":{"coordinates":[35.65587043762207,33.803328631501486],"type":"Point"},"placekey":"@6cg-qdc-3h5","address":{"country_code":"LB","formatted_address":"Bhamdoun, Lebanon","locality":"Bhamdoun"}},"labels":["soccer","sport"],"duration":0,"start_local":"2024-05-10T16:00:00","end":"2024-05-10T13:00:00Z","end_local":"2024-05-10T16:00:00","updated":"2024-06-11T22:46:47Z"},{"title":"Premier League - Relegation Round - Shabab Al Sahel vs Al Ahli Nabatiya","description":"Sourced from predicthq.com","category":"sports","start":"2024-05-09T13:00:00Z","geo":{"geometry":{"coordinates":[35.4919444,33.8747222],"type":"Point"},"placekey":"@6cb-f77-q4v","address":{"country_code":"LB","formatted_address":"VFFR+QW3, Beirut, Lebanon","locality":"Beirut","region":"Beirut Governorate"}},"labels":["soccer","sport"],"duration":0,"start_local":"2024-05-09T16:00:00","end":"2024-05-09T13:00:00Z","end_local":"2024-05-09T16:00:00","updated":"2024-06-12T08:27:53Z"},{"title":"Premier League - Relegation Round - Tadamon Sour vs Tripoli SC","description":"Sourced from predicthq.com","category":"sports","start":"2024-05-09T13:00:00Z","geo":{"geometry":{"coordinates":[35.65587043762207,33.803328631501486],"type":"Point"},"placekey":"@6cg-qdc-3h5","address":{"country_code":"LB","formatted_address":"Bhamdoun, Lebanon","locality":"Bhamdoun"}},"labels":["soccer","sport"],"duration":0,"start_local":"2024-05-09T16:00:00","end":"2024-05-09T13:00:00Z","end_local":"2024-05-09T16:00:00","updated":"2024-06-11T22:39:59Z"},{"title":"Premier League - Relegation Round - Al Hikma vs Shabab Al Ghazieh","description":"Sourced from predicthq.com","category":"sports","start":"2024-05-09T13:00:00Z","geo":{"geometry":{"coordinates":[35.48975586891174,33.84054573997569],"type":"Point"},"placekey":"@6cb-f7y-wff","address":{"country_code":"LB","formatted_address":"Airport Road, Bayrūt (Beirut), Lebanon","locality":"Bayrūt (Beirut)"}},"labels":["soccer","sport"],"duration":0,"start_local":"2024-05-09T16:00:00","end":"2024-05-09T13:00:00Z","end_local":"2024-05-09T16:00:00","updated":"2024-06-12T02:38:55Z"},{"title":"West Asia Super League - West Asia Final - Al Riyadi vs Shahrdari Gorgan","description":"Sourced from predicthq.com","category":"sports","start":"2024-05-08T18:45:00Z","geo":{"geometry":{"coordinates":[35.624947,33.97157],"type":"Point"},"placekey":"@6cb-gh4-pgk","address":{"country_code":"LB","formatted_address":"Zouk Mkayel, Jounieh, Lebanon","locality":"Jounieh"}},"labels":["basketball","sport"],"duration":0,"start_local":"2024-05-08T21:45:00","end":"2024-05-08T18:45:00Z","end_local":"2024-05-08T21:45:00","updated":"2024-06-12T11:19:30Z"},{"title":"MECE 2024 - Middle East Clean Energy","description":"Sourced from predicthq.com","category":"expos","start":"2024-05-07T21:00:00Z","geo":{"geometry":{"coordinates":[35.49498,33.900734],"type":"Point"},"placekey":"@6cb-f74-yqf","address":{"country_code":"LB","formatted_address":"Fakhreddine, Bayrut, Lebanon","locality":"Bayrut","region":"Beirut Governorate"}},"labels":["construction","environment","expo","industrial","technology"],"duration":259199,"start_local":"2024-05-08T00:00:00","end":"2024-05-10T20:59:59Z","end_local":"2024-05-10T23:59:59","updated":"2024-06-05T04:50:06Z"},{"title":"Lebanese League - Semi-finals - Beirut vs Sagesse","description":"Sourced from predicthq.com","category":"sports","start":"2024-05-07T14:45:00Z","geo":{"geometry":{"coordinates":[35.52631379659858,33.864977962741904],"type":"Point"},"placekey":"@6cb-f5m-b8v","address":{"country_code":"LB","formatted_address":"Beirut, Lebanon","locality":"Beirut"}},"labels":["basketball","sport"],"duration":0,"start_local":"2024-05-07T17:45:00","end":"2024-05-07T14:45:00Z","end_local":"2024-05-07T17:45:00","updated":"2024-06-12T09:10:11Z"},{"title":"Lebanese League - Semi-finals - Homenetmen vs Al Riyadi","description":"Sourced from predicthq.com","category":"sports","start":"2024-05-05T13:45:00Z","geo":{"geometry":{"coordinates":[35.59388535381162,33.90905384829571],"type":"Point"},"placekey":"@6cb-f63-54v","address":{"country_code":"LB","formatted_address":"Mezher Street 2, Beirut, Lebanon","locality":"Beirut"}},"labels":["basketball","sport"],"duration":0,"start_local":"2024-05-05T16:45:00","end":"2024-05-05T13:45:00Z","end_local":"2024-05-05T16:45:00","updated":"2024-06-12T06:36:17Z"},{"title":"Premier League - Relegation Round - Al Ahli Nabatiya vs Tripoli SC","description":"Sourced from predicthq.com","category":"sports","start":"2024-05-05T13:00:00Z","geo":{"geometry":{"coordinates":[35.470859706401825,33.39768826715336],"type":"Point"},"placekey":"@6cg-nrk-sqz","address":{"country_code":"LB","formatted_address":"Kfar El Jouz, Nabatieh, Lebanon","locality":"Nabatieh"}},"labels":["soccer","sport"],"duration":0,"start_local":"2024-05-05T16:00:00","end":"2024-05-05T13:00:00Z","end_local":"2024-05-05T16:00:00","updated":"2024-06-12T07:03:12Z"},{"title":"Lebanese League - Semi-finals - Sagesse vs Beirut","description":"Sourced from predicthq.com","category":"sports","start":"2024-05-04T13:45:00Z","geo":{"geometry":{"coordinates":[35.657554869312904,34.01698141592487],"type":"Point"},"placekey":"@6cb-gk4-zzz","address":{"country_code":"LB","formatted_address":"2M85+H3P, Ghazir, Lebanon","locality":"Ghazir","region":"Mount Lebanon Governorate"}},"labels":["basketball","sport"],"duration":0,"start_local":"2024-05-04T16:45:00","end":"2024-05-04T13:45:00Z","end_local":"2024-05-04T16:45:00","updated":"2024-06-12T07:34:07Z"},{"title":"Premier League - Relegation Round - Shabab Al Sahel vs Al Hikma","description":"Sourced from predicthq.com","category":"sports","start":"2024-05-04T13:00:00Z","geo":{"geometry":{"coordinates":[35.65587043762207,33.803328631501486],"type":"Point"},"placekey":"@6cg-qdc-3h5","address":{"country_code":"LB","formatted_address":"Bhamdoun, Lebanon","locality":"Bhamdoun"}},"labels":["soccer","sport"],"duration":0,"start_local":"2024-05-04T16:00:00","end":"2024-05-04T13:00:00Z","end_local":"2024-05-04T16:00:00","updated":"2024-06-11T22:07:30Z"},{"title":"Premier League - Relegation Round - Tadamon Sour vs Shabab Al Ghazieh","description":"Sourced from predicthq.com","category":"sports","start":"2024-05-03T13:00:00Z","geo":{"geometry":{"coordinates":[35.48975586891174,33.84054573997569],"type":"Point"},"placekey":"@6cb-f7y-wff","address":{"country_code":"LB","formatted_address":"Airport Road, Bayrūt (Beirut), Lebanon","locality":"Bayrūt (Beirut)"}},"labels":["soccer","sport"],"duration":0,"start_local":"2024-05-03T16:00:00","end":"2024-05-03T13:00:00Z","end_local":"2024-05-03T16:00:00","updated":"2024-06-11T21:04:59Z"},{"title":"Lebanese League - Semi-finals - Beirut vs Sagesse","description":"Sourced from predicthq.com","category":"sports","start":"2024-04-29T18:45:00Z","geo":{"geometry":{"coordinates":[35.52631379659858,33.864977962741904],"type":"Point"},"placekey":"@6cb-f5m-b8v","address":{"country_code":"LB","formatted_address":"Beirut, Lebanon","locality":"Beirut"}},"labels":["basketball","sport"],"duration":0,"start_local":"2024-04-29T21:45:00","end":"2024-04-29T18:45:00Z","end_local":"2024-04-29T21:45:00","updated":"2024-06-12T09:29:33Z"},{"title":"Hadi","description":"Sourced from predicthq.com","category":"concerts","start":"2024-04-28T17:00:00Z","geo":{"geometry":{"coordinates":[35.51357,33.89497],"type":"Point"},"placekey":"@6cb-f7t-5s5","address":{"country_code":"LB","formatted_address":"VGV9+X9M, Beirut, Lebanon","locality":"Beirut","region":"Beirut Governorate"}},"labels":["concert","music"],"duration":0,"start_local":"2024-04-28T20:00:00","end":"2024-04-28T17:00:00Z","end_local":"2024-04-28T20:00:00","updated":"2024-06-12T04:44:31Z"},{"title":"Lebanese League - Semi-finals - Al Riyadi vs Homenetmen","description":"Sourced from predicthq.com","category":"sports","start":"2024-04-28T14:45:00Z","geo":{"geometry":{"coordinates":[35.471024,33.897161],"type":"Point"},"placekey":"@6cb-f7b-n5z","address":{"country_code":"LB","formatted_address":"VFXC+39F, Beirut, Lebanon","locality":"Beirut","region":"Beirut Governorate"}},"labels":["basketball","sport"],"duration":0,"start_local":"2024-04-28T17:45:00","end":"2024-04-28T14:45:00Z","end_local":"2024-04-28T17:45:00","updated":"2024-06-12T15:08:23Z"},{"title":"Premier League - Championship Round - Al Ahed vs Safa","description":"Sourced from predicthq.com","category":"sports","start":"2024-04-28T13:00:00Z","geo":{"geometry":{"coordinates":[35.6391069,33.9867261],"type":"Point"},"placekey":"@6cb-gh6-b49","address":{"country_code":"LB","formatted_address":"Juniyah, Mount Lebanon Governorate, Lebanon","locality":"Juniyah","region":"Mount Lebanon Governorate"}},"labels":["soccer","sport"],"duration":0,"start_local":"2024-04-28T16:00:00","end":"2024-04-28T13:00:00Z","end_local":"2024-04-28T16:00:00","updated":"2024-06-11T22:15:08Z"},{"title":"Premier League - Relegation Round - Tadamon Sour vs Al Ahli Nabatiya","description":"Sourced from predicthq.com","category":"sports","start":"2024-04-28T13:00:00Z","geo":{"geometry":{"coordinates":[35.386065896,33.379863998],"type":"Point"},"placekey":"@6cg-nqy-xwk","address":{"country_code":"LB","formatted_address":"Nabatiyeh - Tyre Road, Mazraat Chelbael, Ansar, Lebanon","locality":"Ansar"}},"labels":["soccer","sport"],"duration":0,"start_local":"2024-04-28T16:00:00","end":"2024-04-28T13:00:00Z","end_local":"2024-04-28T16:00:00","updated":"2024-06-11T22:37:17Z"},{"title":"Premier League - Championship Round - Bourj vs Al Ansar","description":"Sourced from predicthq.com","category":"sports","start":"2024-04-27T13:00:00Z","geo":{"geometry":{"coordinates":[35.6391069,33.9867261],"type":"Point"},"placekey":"@6cb-gh6-b49","address":{"country_code":"LB","formatted_address":"Juniyah, Mount Lebanon Governorate, Lebanon","locality":"Juniyah","region":"Mount Lebanon Governorate"}},"labels":["soccer","sport"],"duration":0,"start_local":"2024-04-27T16:00:00","end":"2024-04-27T13:00:00Z","end_local":"2024-04-27T16:00:00","updated":"2024-06-12T06:56:32Z"},{"title":"Premier League - Relegation Round - Shabab Al Ghazieh vs Shabab Al Sahel","description":"Sourced from predicthq.com","category":"sports","start":"2024-04-27T13:00:00Z","geo":{"geometry":{"coordinates":[35.65587043762207,33.803328631501486],"type":"Point"},"placekey":"@6cg-qdc-3h5","address":{"country_code":"LB","formatted_address":"Bhamdoun, Lebanon","locality":"Bhamdoun"}},"labels":["soccer","sport"],"duration":0,"start_local":"2024-04-27T16:00:00","end":"2024-04-27T13:00:00Z","end_local":"2024-04-27T16:00:00","updated":"2024-06-12T07:10:05Z"},{"title":"Einmusik","description":"Sourced from predicthq.com","category":"concerts","start":"2024-04-26T16:00:00Z","geo":{"geometry":{"coordinates":[35.5342088,33.8985047],"type":"Point"},"placekey":"@6cb-f7g-whq","address":{"country_code":"LB","formatted_address":"Beirut, Lebanon","locality":"Beirut","region":"Beirut Governorate"}},"labels":["concert","music"],"duration":0,"start_local":"2024-04-26T19:00:00","end":"2024-04-26T16:00:00Z","end_local":"2024-04-26T19:00:00","updated":"2024-06-12T12:45:40Z"},{"title":"Premier League - Championship Round - Racing vs Al Nejmeh","description":"Sourced from predicthq.com","category":"sports","start":"2024-04-26T13:00:00Z","geo":{"geometry":{"coordinates":[35.6391069,33.9867261],"type":"Point"},"placekey":"@6cb-gh6-b49","address":{"country_code":"LB","formatted_address":"Juniyah, Mount Lebanon Governorate, Lebanon","locality":"Juniyah","region":"Mount Lebanon Governorate"}},"labels":["soccer","sport"],"duration":0,"start_local":"2024-04-26T16:00:00","end":"2024-04-26T13:00:00Z","end_local":"2024-04-26T16:00:00","updated":"2024-06-11T21:47:04Z"},{"title":"West Asia Super League - West Asia Final - Al Riyadi vs Shahrdari Gorgan","description":"Sourced from predicthq.com","category":"sports","start":"2024-04-25T17:30:00Z","geo":{"geometry":{"coordinates":[35.624947,33.97157],"type":"Point"},"placekey":"@6cb-gh4-pgk","address":{"country_code":"LB","formatted_address":"Zouk Mkayel, Jounieh, Lebanon","locality":"Jounieh"}},"labels":["basketball","sport"],"duration":0,"start_local":"2024-04-25T20:30:00","end":"2024-04-25T17:30:00Z","end_local":"2024-04-25T20:30:00","updated":"2024-06-11T23:09:38Z"},{"title":"Premier League - Relegation Round - Al Hikma vs Tripoli SC","description":"Sourced from predicthq.com","category":"sports","start":"2024-04-25T11:30:00Z","geo":{"geometry":{"coordinates":[35.6391069,33.9867261],"type":"Point"},"placekey":"@6cb-gh6-b49","address":{"country_code":"LB","formatted_address":"Juniyah, Mount Lebanon Governorate, Lebanon","locality":"Juniyah","region":"Mount Lebanon Governorate"}},"labels":["soccer","sport"],"duration":0,"start_local":"2024-04-25T14:30:00","end":"2024-04-25T11:30:00Z","end_local":"2024-04-25T14:30:00","updated":"2024-06-12T02:30:21Z"},{"title":"West Asia Super League - West Asia 3rd Place Final - Sagesse vs Al Shurta Club","description":"Sourced from predicthq.com","category":"sports","start":"2024-04-24T18:45:00Z","geo":{"geometry":{"coordinates":[35.657554869312904,34.01698141592487],"type":"Point"},"placekey":"@6cb-gk4-zzz","address":{"country_code":"LB","formatted_address":"2M85+H3P, Ghazir, Lebanon","locality":"Ghazir","region":"Mount Lebanon Governorate"}},"labels":["basketball","sport"],"duration":0,"start_local":"2024-04-24T21:45:00","end":"2024-04-24T18:45:00Z","end_local":"2024-04-24T21:45:00","updated":"2024-06-12T15:41:14Z"},{"title":"VOICES for PEACE","description":"Sourced from predicthq.com - The \"VOICES for PEACE\" concert is a stirring evening dedicated to the universal yearning for peace and harmony.","category":"concerts","start":"2024-04-24T17:00:00Z","geo":{"geometry":{"coordinates":[35.4831452,33.8996059],"type":"Point"},"placekey":"@6cb-f74-rp9","address":{"country_code":"LB","formatted_address":"VFXM+R7R, Beirut, Lebanon","locality":"Beirut","region":"Beirut Governorate"}},"labels":["concert","music"],"duration":4800,"start_local":"2024-04-24T20:00:00","end":"2024-04-24T18:20:00Z","end_local":"2024-04-24T21:20:00","updated":"2024-06-05T07:00:04Z"},{"title":"Project Lebanon","description":"Sourced from predicthq.com - International Exhibition for Construction Technology, Building Materials & Equipment for the Middle East","category":"expos","start":"2024-04-23T21:00:00Z","geo":{"geometry":{"coordinates":[35.5097437,33.9061031],"type":"Point"},"placekey":"@6cb-f7p-w6k","address":{"country_code":"LB","formatted_address":"Beirut, Beirut Governorate, Lebanon","locality":"Beirut","region":"Beirut Governorate"}},"labels":["construction","expo","technology"],"duration":259199,"start_local":"2024-04-24T00:00:00","end":"2024-04-26T20:59:59Z","end_local":"2024-04-26T23:59:59","updated":"2024-06-04T21:23:53Z"},{"title":"HORECA Lebanon","description":"Sourced from predicthq.com - HORECA Lebanon is a vibrant and influential expo event held at the prestigious Seaside Pavilion, offering a platform for professionals and enthusiasts in the hospitality, restaurant, and catering industries to explore cutting-edge products, network with industry leaders, and gain valuable insights to elevate their business. This premier event showcases the latest trends, innovations, and solutions, empowering attendees to stay ahead in this dynamic and competitive market.","category":"expos","start":"2024-04-22T21:00:00Z","geo":{"geometry":{"coordinates":[35.510866,33.906415],"type":"Point"},"placekey":"@6cb-f7p-swk","address":{"country_code":"LB","formatted_address":"Bayrut, Beirut Governorate, Lebanon","locality":"Bayrut","region":"Beirut Governorate"}},"labels":["expo"],"duration":345599,"start_local":"2024-04-23T00:00:00","end":"2024-04-26T20:59:59Z","end_local":"2024-04-26T23:59:59","updated":"2024-06-05T15:34:15Z"},{"title":"Hadi","description":"Sourced from predicthq.com","category":"concerts","start":"2024-04-21T17:00:00Z","geo":{"geometry":{"coordinates":[35.51357,33.89497],"type":"Point"},"placekey":"@6cb-f7t-5s5","address":{"country_code":"LB","formatted_address":"VGV9+X9M, Beirut, Lebanon","locality":"Beirut","region":"Beirut Governorate"}},"labels":["concert","music"],"duration":0,"start_local":"2024-04-21T20:00:00","end":"2024-04-21T17:00:00Z","end_local":"2024-04-21T20:00:00","updated":"2024-06-12T00:20:41Z"},{"title":"Premier League - Relegation Round - Tadamon Sour vs Shabab Al Sahel","description":"Sourced from predicthq.com","category":"sports","start":"2024-04-21T13:00:00Z","geo":{"geometry":{"coordinates":[35.262763422,33.288934707],"type":"Point"},"placekey":"@6cg-pfq-5cq","address":{"country_code":"LB","formatted_address":"Aabbasiyyeh, Lebanon","locality":"Aabbasiyyeh"}},"labels":["soccer","sport"],"duration":0,"start_local":"2024-04-21T16:00:00","end":"2024-04-21T13:00:00Z","end_local":"2024-04-21T16:00:00","updated":"2024-06-12T09:26:43Z"},{"title":"Hadi","description":"Sourced from predicthq.com","category":"concerts","start":"2024-04-20T17:00:00Z","geo":{"geometry":{"coordinates":[35.6619167,34.246761],"type":"Point"},"placekey":"@6cb-gg4-8vz","address":{"country_code":"LB","formatted_address":"Sea Side Rd, Batroun 1400, Lebanon","postcode":"1400","locality":"Batroun","region":"North Governorate"}},"labels":["concert","music"],"duration":0,"start_local":"2024-04-20T20:00:00","end":"2024-04-20T17:00:00Z","end_local":"2024-04-20T20:00:00","updated":"2024-06-12T06:29:39Z"},{"title":"Lebanese League - Quarter-finals - Antranik vs Sagesse","description":"Sourced from predicthq.com","category":"sports","start":"2024-04-20T14:45:00Z","geo":{"geometry":{"coordinates":[35.586884399999995,33.92365378920879],"type":"Point"},"placekey":"@6cb-gkr-ht9","address":{"country_code":"LB","formatted_address":"Beirut, Lebanon","locality":"Beirut"}},"labels":["basketball","sport"],"duration":0,"start_local":"2024-04-20T17:45:00","end":"2024-04-20T14:45:00Z","end_local":"2024-04-20T17:45:00","updated":"2024-06-12T06:21:47Z"},{"title":"Hadi","description":"Sourced from predicthq.com","category":"concerts","start":"2024-04-19T17:00:00Z","geo":{"geometry":{"coordinates":[35.50178,33.89379],"type":"Point"},"placekey":"@6cb-f74-7bk","address":{"country_code":"LB","formatted_address":"Zahle, Lebanon, Beirut, Lebanon","locality":"Beirut"}},"labels":["concert","music"],"duration":0,"start_local":"2024-04-19T20:00:00","end":"2024-04-19T17:00:00Z","end_local":"2024-04-19T20:00:00","updated":"2024-06-12T15:04:36Z"},{"title":"West Asia Super League - West Asia Semi-finals - Al Riyadi vs Sagesse","description":"Sourced from predicthq.com","category":"sports","start":"2024-04-17T18:45:00Z","geo":{"geometry":{"coordinates":[35.624947,33.97157],"type":"Point"},"placekey":"@6cb-gh4-pgk","address":{"country_code":"LB","formatted_address":"Zouk Mkayel, Jounieh, Lebanon","locality":"Jounieh"}},"labels":["basketball","sport"],"duration":0,"start_local":"2024-04-17T21:45:00","end":"2024-04-17T18:45:00Z","end_local":"2024-04-17T21:45:00","updated":"2024-06-12T11:27:33Z"},{"title":"Horeca Lebanon","description":"Sourced from predicthq.com - The Levant's Largest and most regional Hospitality and Food Event","category":"expos","start":"2024-04-15T21:00:00Z","geo":{"geometry":{"coordinates":[35.5097437,33.9061031],"type":"Point"},"placekey":"@6cb-f7p-w6k","address":{"country_code":"LB","formatted_address":"Beirut, Beirut Governorate, Lebanon","locality":"Beirut","region":"Beirut Governorate"}},"labels":["expo","food"],"duration":345599,"start_local":"2024-04-16T00:00:00","end":"2024-04-19T20:59:59Z","end_local":"2024-04-19T23:59:59","updated":"2024-06-05T15:27:24Z"},{"title":"Lebanese League - Quarter-finals - Antonine vs Beirut","description":"Sourced from predicthq.com","category":"sports","start":"2024-04-15T13:45:00Z","geo":{"geometry":{"coordinates":[35.53771468465645,33.83818762425715],"type":"Point"},"placekey":"@6cb-f5c-6hq","address":{"country_code":"LB","formatted_address":"RGQQ+65R, Baabda, Lebanon","locality":"Baabda","region":"Mount Lebanon Governorate"}},"labels":["basketball","sport"],"duration":0,"start_local":"2024-04-15T16:45:00","end":"2024-04-15T13:45:00Z","end_local":"2024-04-15T16:45:00","updated":"2024-06-12T04:11:18Z"},{"title":"Hadi","description":"Sourced from predicthq.com","category":"concerts","start":"2024-04-14T17:00:00Z","geo":{"geometry":{"coordinates":[35.51357,33.89497],"type":"Point"},"placekey":"@6cb-f7t-5s5","address":{"country_code":"LB","formatted_address":"VGV9+X9M, Beirut, Lebanon","locality":"Beirut","region":"Beirut Governorate"}},"labels":["concert","music"],"duration":0,"start_local":"2024-04-14T20:00:00","end":"2024-04-14T17:00:00Z","end_local":"2024-04-14T20:00:00","updated":"2024-06-12T14:10:36Z"},{"title":"Lebanese League - Quarter-finals - Nadim Souaid Academy vs Al Riyadi","description":"Sourced from predicthq.com","category":"sports","start":"2024-04-13T18:00:00Z","geo":{"geometry":{"coordinates":[35.6391069,33.9867261],"type":"Point"},"placekey":"@6cb-gh6-b49","address":{"country_code":"LB","formatted_address":"Juniyah, Mount Lebanon Governorate, Lebanon","locality":"Juniyah","region":"Mount Lebanon Governorate"}},"labels":["basketball","sport"],"duration":0,"start_local":"2024-04-13T21:00:00","end":"2024-04-13T18:00:00Z","end_local":"2024-04-13T21:00:00","updated":"2024-06-11T22:43:26Z"},{"title":"Lebanese League - Quarter-finals - Sagesse vs Antranik","description":"Sourced from predicthq.com","category":"sports","start":"2024-04-13T13:45:00Z","geo":{"geometry":{"coordinates":[35.657554869312904,34.01698141592487],"type":"Point"},"placekey":"@6cb-gk4-zzz","address":{"country_code":"LB","formatted_address":"2M85+H3P, Ghazir, Lebanon","locality":"Ghazir","region":"Mount Lebanon Governorate"}},"labels":["basketball","sport"],"duration":0,"start_local":"2024-04-13T16:45:00","end":"2024-04-13T13:45:00Z","end_local":"2024-04-13T16:45:00","updated":"2024-06-12T07:46:48Z"},{"title":"Premier League - Relegation Round - Shabab Al Ghazieh vs Tripoli SC","description":"Sourced from predicthq.com","category":"sports","start":"2024-04-13T13:00:00Z","geo":{"geometry":{"coordinates":[35.386065896,33.379863998],"type":"Point"},"placekey":"@6cg-nqy-xwk","address":{"country_code":"LB","formatted_address":"Nabatiyeh - Tyre Road, Mazraat Chelbael, Ansar, Lebanon","locality":"Ansar"}},"labels":["soccer","sport"],"duration":0,"start_local":"2024-04-13T16:00:00","end":"2024-04-13T13:00:00Z","end_local":"2024-04-13T16:00:00","updated":"2024-06-12T00:56:34Z"},{"title":"SPRING CHAMPIONSHIP","description":"Sourced from predicthq.com - Multi-Game\nBackgammon & Frenjieh","category":"community","start":"2024-04-13T08:00:00Z","geo":{"geometry":{"coordinates":[35.5904767,33.9382582],"type":"Point"},"placekey":"@6cb-gkg-d7q","address":{"country_code":"LB","formatted_address":"Mount Lebanon Governorate, Lebanon","region":"Mount Lebanon Governorate"}},"labels":["community","sport"],"duration":43200,"start_local":"2024-04-13T11:00:00","end":"2024-04-13T20:00:00Z","end_local":"2024-04-13T23:00:00","updated":"2024-06-05T00:37:58Z"},{"title":"Lebanese League - Quarter-finals - Homenetmen vs Champville","description":"Sourced from predicthq.com","category":"sports","start":"2024-04-12T18:45:00Z","geo":{"geometry":{"coordinates":[35.59388535381162,33.90905384829571],"type":"Point"},"placekey":"@6cb-f63-54v","address":{"country_code":"LB","formatted_address":"Mezher Street 2, Beirut, Lebanon","locality":"Beirut"}},"labels":["basketball","sport"],"duration":0,"start_local":"2024-04-12T21:45:00","end":"2024-04-12T18:45:00Z","end_local":"2024-04-12T21:45:00","updated":"2024-06-11T21:31:03Z"},{"title":"El Far3i","description":"Sourced from predicthq.com","category":"concerts","start":"2024-04-12T17:00:00Z","geo":{"geometry":{"coordinates":[35.52386,33.89888],"type":"Point"},"placekey":"@6cb-f7t-d5f","address":{"country_code":"LB","formatted_address":"VGXF+886, Beirut, Lebanon","locality":"Beirut","region":"Mount Lebanon Governorate"}},"labels":["concert","music"],"duration":0,"start_local":"2024-04-12T20:00:00","end":"2024-04-12T17:00:00Z","end_local":"2024-04-12T20:00:00","updated":"2024-06-12T16:56:42Z"},{"title":"Premier League - Relegation Round - Al Ahli Nabatiya vs Al Hikma","description":"Sourced from predicthq.com","category":"sports","start":"2024-04-12T13:00:00Z","geo":{"geometry":{"coordinates":[35.470859706401825,33.39768826715336],"type":"Point"},"placekey":"@6cg-nrk-sqz","address":{"country_code":"LB","formatted_address":"Kfar El Jouz, Nabatieh, Lebanon","locality":"Nabatieh"}},"labels":["soccer","sport"],"duration":0,"start_local":"2024-04-12T16:00:00","end":"2024-04-12T13:00:00Z","end_local":"2024-04-12T16:00:00","updated":"2024-06-12T06:10:46Z"},{"title":"Lebanese League - Quarter-finals - Beirut vs Antonine","description":"Sourced from predicthq.com","category":"sports","start":"2024-04-08T18:00:00Z","geo":{"geometry":{"coordinates":[35.52631379659858,33.864977962741904],"type":"Point"},"placekey":"@6cb-f5m-b8v","address":{"country_code":"LB","formatted_address":"Beirut, Lebanon","locality":"Beirut"}},"labels":["basketball","sport"],"duration":0,"start_local":"2024-04-08T21:00:00","end":"2024-04-08T18:00:00Z","end_local":"2024-04-08T21:00:00","updated":"2024-06-12T14:30:08Z"},{"title":"Lebanese League - Quarter-finals - Al Riyadi vs Nadim Souaid Academy","description":"Sourced from predicthq.com","category":"sports","start":"2024-04-07T18:00:00Z","geo":{"geometry":{"coordinates":[35.471024,33.897161],"type":"Point"},"placekey":"@6cb-f7b-n5z","address":{"country_code":"LB","formatted_address":"VFXC+39F, Beirut, Lebanon","locality":"Beirut","region":"Beirut Governorate"}},"labels":["basketball","sport"],"duration":0,"start_local":"2024-04-07T21:00:00","end":"2024-04-07T18:00:00Z","end_local":"2024-04-07T21:00:00","updated":"2024-06-12T01:02:21Z"},{"title":"Lebanese League - Quarter-finals - Champville vs Homenetmen","description":"Sourced from predicthq.com","category":"sports","start":"2024-04-07T13:45:00Z","geo":{"geometry":{"coordinates":[35.615597,33.935594],"type":"Point"},"placekey":"@6cb-gkm-y9z","address":{"country_code":"LB","formatted_address":"Dik El Mehdi, Lebanon","locality":"Dik El Mehdi"}},"labels":["basketball","sport"],"duration":0,"start_local":"2024-04-07T16:45:00","end":"2024-04-07T13:45:00Z","end_local":"2024-04-07T16:45:00","updated":"2024-06-12T06:03:23Z"},{"title":"Premier League - Relegation Round - Shabab Al Sahel vs Tripoli SC","description":"Sourced from predicthq.com","category":"sports","start":"2024-04-07T12:30:00Z","geo":{"geometry":{"coordinates":[35.48975586891174,33.84054573997569],"type":"Point"},"placekey":"@6cb-f7y-wff","address":{"country_code":"LB","formatted_address":"Airport Road, Bayrūt (Beirut), Lebanon","locality":"Bayrūt (Beirut)"}},"labels":["soccer","sport"],"duration":0,"start_local":"2024-04-07T15:30:00","end":"2024-04-07T12:30:00Z","end_local":"2024-04-07T15:30:00","updated":"2024-06-12T05:32:41Z"},{"title":"Premier League - Relegation Round - Al Ahli Nabatiya vs Shabab Al Ghazieh","description":"Sourced from predicthq.com","category":"sports","start":"2024-04-07T12:30:00Z","geo":{"geometry":{"coordinates":[35.470859706401825,33.39768826715336],"type":"Point"},"placekey":"@6cg-nrk-sqz","address":{"country_code":"LB","formatted_address":"Kfar El Jouz, Nabatieh, Lebanon","locality":"Nabatieh"}},"labels":["soccer","sport"],"duration":0,"start_local":"2024-04-07T15:30:00","end":"2024-04-07T12:30:00Z","end_local":"2024-04-07T15:30:00","updated":"2024-06-12T08:39:28Z"}]