[{"title":"St. Lucia Kings vs Antigua And Barbuda Falcons","description":"Sourced from predicthq.com","category":"sports","start":"2024-09-15T23:00:00Z","geo":{"geometry":{"coordinates":[-60.931653,14.070556],"type":"Point"},"placekey":"@bs6-ntk-87q","address":{"country_code":"LC","formatted_address":"33C9+57V, Gros Islet, St Lucia","locality":"Gros Islet","region":"Gros Islet"}},"labels":["cricket","sport"],"duration":0,"start_local":"2024-09-15T19:00:00","end":"2024-09-15T23:00:00Z","end_local":"2024-09-15T19:00:00","updated":"2024-06-04T05:18:37Z"},{"title":"St. Lucia Kings vs St. Kitts and Nevis Patriots","description":"Sourced from predicthq.com","category":"sports","start":"2024-09-12T23:00:00Z","geo":{"geometry":{"coordinates":[-60.931653,14.070556],"type":"Point"},"placekey":"@bs6-ntk-87q","address":{"country_code":"LC","formatted_address":"33C9+57V, Gros Islet, St Lucia","locality":"Gros Islet","region":"Gros Islet"}},"labels":["cricket","sport"],"duration":0,"start_local":"2024-09-12T19:00:00","end":"2024-09-12T23:00:00Z","end_local":"2024-09-12T19:00:00","updated":"2024-06-04T03:15:44Z"},{"title":"St. Lucia Kings vs Trinbago Knight Riders","description":"Sourced from predicthq.com","category":"sports","start":"2024-09-10T23:00:00Z","geo":{"geometry":{"coordinates":[-60.931653,14.070556],"type":"Point"},"placekey":"@bs6-ntk-87q","address":{"country_code":"LC","formatted_address":"33C9+57V, Gros Islet, St Lucia","locality":"Gros Islet","region":"Gros Islet"}},"labels":["cricket","sport"],"duration":0,"start_local":"2024-09-10T19:00:00","end":"2024-09-10T23:00:00Z","end_local":"2024-09-10T19:00:00","updated":"2024-06-04T04:50:11Z"},{"title":"St. Lucia Kings vs Guyana Amazon Warriors","description":"Sourced from predicthq.com","category":"sports","start":"2024-09-07T23:00:00Z","geo":{"geometry":{"coordinates":[-60.931653,14.070556],"type":"Point"},"placekey":"@bs6-ntk-87q","address":{"country_code":"LC","formatted_address":"33C9+57V, Gros Islet, St Lucia","locality":"Gros Islet","region":"Gros Islet"}},"labels":["cricket","sport"],"duration":0,"start_local":"2024-09-07T19:00:00","end":"2024-09-07T23:00:00Z","end_local":"2024-09-07T19:00:00","updated":"2024-06-03T23:54:33Z"},{"title":"Gros Islet Reunion 2024","description":"Sourced from predicthq.com - Get ready to reunite with old friends and make new memories at Gros Islet Reunion 2024!","category":"conferences","start":"2024-07-19T04:01:00Z","geo":{"geometry":{"coordinates":[-60.949982999999975,14.0809142],"type":"Point"},"placekey":"@bs6-nv5-p35","address":{"country_code":"LC","formatted_address":"Gros Islet, Saint Lucia","locality":"Gros Islet","region":"Gros Islet"}},"labels":["community","conference"],"duration":863880,"start_local":"2024-07-19T00:01:00","end":"2024-07-29T03:59:00Z","end_local":"2024-07-28T23:59:00","updated":"2024-06-04T12:05:52Z"},{"title":"Saint Lucia Carnival 2024 Makeup Hair and Photoshoot  Bookings","description":"Sourced from predicthq.com - Saint Lucia Carnival Glam Services. Book appointments for Makeup, Hair, Photo and Shuttle Services. Drink Inclusive experience","category":"festivals","start":"2024-07-15T07:00:00Z","geo":{"geometry":{"coordinates":[-60.9477787,14.0754632],"type":"Point"},"placekey":"@bs6-nwq-rrk","address":{"country_code":"LC","formatted_address":"Rodney Bay Marina, Gros Islet, Saint Lucia","region":"Gros Islet"}},"labels":["fashion","festival"],"duration":118800,"start_local":"2024-07-15T03:00:00","end":"2024-07-16T16:00:00Z","end_local":"2024-07-16T12:00:00","updated":"2024-06-04T09:51:25Z"},{"title":"Foreign Invasion 2024","description":"Sourced from predicthq.com - Get ready for the ultimate party of 2024 as we bring you Foreign Invasionâ€”a mind-blowing in-person event that will leave you begging for mor","category":"community","start":"2024-07-14T15:30:00Z","geo":{"geometry":{"coordinates":[-60.978893,13.909444],"type":"Point"},"placekey":"@bs6-pd9-rp9","address":{"country_code":"LC","formatted_address":"L Abbayee, Castries, Saint Lucia","locality":"L Abbayee","region":"Castries"}},"labels":["concert","music","outdoor"],"duration":23400,"start_local":"2024-07-14T11:30:00","end":"2024-07-14T22:00:00Z","end_local":"2024-07-14T18:00:00","updated":"2024-06-04T01:38:24Z"},{"title":"U12 - Beautiful People","description":"Sourced from predicthq.com - U4RIA 12 - The Ultimate Love Concert For 2024","category":"concerts","start":"2024-07-12T00:00:00Z","geo":{"geometry":{"coordinates":[-60.96805560000001,14.0325],"type":"Point"},"placekey":"@bs6-nwv-d7q","address":{"country_code":"LC","formatted_address":"Choc, Gros Islet, Saint Lucia","locality":"Choc","region":"Gros Islet"}},"labels":["concert","music"],"duration":21600,"start_local":"2024-07-11T20:00:00","end":"2024-07-12T06:00:00Z","end_local":"2024-07-12T02:00:00","updated":"2024-05-30T01:29:55Z"},{"title":"Australia vs India","description":"Sourced from predicthq.com","category":"sports","start":"2024-06-24T14:30:00Z","geo":{"geometry":{"coordinates":[-60.931653,14.070556],"type":"Point"},"placekey":"@bs6-ntk-87q","address":{"country_code":"LC","formatted_address":"33C9+57V, Gros Islet, St Lucia","locality":"Gros Islet","region":"Gros Islet"}},"labels":["cricket","sport"],"duration":13717,"start_local":"2024-06-24T10:30:00","end":"2024-06-24T18:18:37Z","end_local":"2024-06-24T14:18:37","updated":"2024-06-28T08:59:41Z"},{"title":"England vs South Africa","description":"Sourced from predicthq.com","category":"sports","start":"2024-06-21T14:30:00Z","geo":{"geometry":{"coordinates":[-60.931653,14.070556],"type":"Point"},"placekey":"@bs6-ntk-87q","address":{"country_code":"LC","formatted_address":"33C9+57V, Gros Islet, St Lucia","locality":"Gros Islet","region":"Gros Islet"}},"labels":["cricket","sport"],"duration":12585,"start_local":"2024-06-21T10:30:00","end":"2024-06-21T17:59:45Z","end_local":"2024-06-21T13:59:45","updated":"2024-06-28T07:16:10Z"},{"title":"England vs West Indies","description":"Sourced from predicthq.com","category":"sports","start":"2024-06-20T00:30:00Z","geo":{"geometry":{"coordinates":[-60.931653,14.070556],"type":"Point"},"placekey":"@bs6-ntk-87q","address":{"country_code":"LC","formatted_address":"33C9+57V, Gros Islet, St Lucia","locality":"Gros Islet","region":"Gros Islet"}},"labels":["cricket","sport"],"duration":11870,"start_local":"2024-06-19T20:30:00","end":"2024-06-20T03:47:50Z","end_local":"2024-06-19T23:47:50","updated":"2024-06-21T16:33:48Z"},{"title":"ICC Mens T20 World Cup 2024 - B1 vs C2","description":"Sourced from predicthq.com","category":"sports","start":"2024-06-19T14:00:00Z","geo":{"geometry":{"coordinates":[-60.931653,14.070556],"type":"Point"},"placekey":"@bs6-ntk-87q","address":{"country_code":"LC","formatted_address":"33C9+57V, Gros Islet, St Lucia","locality":"Gros Islet","region":"Gros Islet"}},"labels":["cricket","sport"],"duration":0,"start_local":"2024-06-19T10:00:00","end":"2024-06-19T14:00:00Z","end_local":"2024-06-19T10:00:00","updated":"2024-06-04T03:02:52Z"},{"title":"West Indies vs Afghanistan","description":"Sourced from predicthq.com","category":"sports","start":"2024-06-18T00:30:00Z","geo":{"geometry":{"coordinates":[-60.931653,14.070556],"type":"Point"},"placekey":"@bs6-ntk-87q","address":{"country_code":"LC","formatted_address":"33C9+57V, Gros Islet, St Lucia","locality":"Gros Islet","region":"Gros Islet"}},"labels":["cricket","sport"],"duration":11488,"start_local":"2024-06-17T20:30:00","end":"2024-06-18T03:41:28Z","end_local":"2024-06-17T23:41:28","updated":"2024-06-19T23:48:23Z"},{"title":"Sri Lanka vs Netherlands","description":"Sourced from predicthq.com","category":"sports","start":"2024-06-17T00:30:00Z","geo":{"geometry":{"coordinates":[-60.931653,14.070556],"type":"Point"},"placekey":"@bs6-ntk-87q","address":{"country_code":"LC","formatted_address":"33C9+57V, Gros Islet, St Lucia","locality":"Gros Islet","region":"Gros Islet"}},"labels":["cricket","sport"],"duration":11198,"start_local":"2024-06-16T20:30:00","end":"2024-06-17T03:36:38Z","end_local":"2024-06-16T23:36:38","updated":"2024-06-18T05:40:48Z"},{"title":"Australia vs Scotland","description":"Sourced from predicthq.com","category":"sports","start":"2024-06-16T00:30:00Z","geo":{"geometry":{"coordinates":[-60.931653,14.070556],"type":"Point"},"placekey":"@bs6-ntk-87q","address":{"country_code":"LC","formatted_address":"33C9+57V, Gros Islet, St Lucia","locality":"Gros Islet","region":"Gros Islet"}},"labels":["cricket","sport"],"duration":11934,"start_local":"2024-06-15T20:30:00","end":"2024-06-16T03:48:54Z","end_local":"2024-06-15T23:48:54","updated":"2024-06-17T04:39:45Z"},{"title":"Rugby Union Internationals - Friendlies 3 - Saint Lucia vs Barbados","description":"Sourced from predicthq.com","category":"sports","start":"2024-06-08T20:00:00Z","geo":{"geometry":{"coordinates":[-60.953926,13.7290844],"type":"Point"},"placekey":"@bsm-m5c-6kz","address":{"country_code":"LC","formatted_address":"Vieux Fort, Saint Lucia","locality":"Vieux Fort","region":"Vieux Fort"}},"labels":["rugby","sport"],"duration":0,"start_local":"2024-06-08T16:00:00","end":"2024-06-08T20:00:00Z","end_local":"2024-06-08T16:00:00","updated":"2024-06-12T19:29:18Z"},{"title":"Untamed","description":"Sourced from predicthq.com - Get ready to unleash your wild side at Untamed, where you can let loose and embrace your untamed spirit with like-minded individuals!","category":"concerts","start":"2024-05-20T00:00:00Z","geo":{"geometry":{"coordinates":[-60.9534263,14.070112],"type":"Point"},"placekey":"@bs6-nwr-kvf","address":{"country_code":"LC","formatted_address":"Rodney Bay, Gros Islet, Saint Lucia","locality":"Rodney Bay","region":"Gros Islet"}},"labels":["concert","food","music"],"duration":21600,"start_local":"2024-05-19T20:00:00","end":"2024-05-20T06:00:00Z","end_local":"2024-05-20T02:00:00","updated":"2024-06-03T19:30:37Z"}]