[{"title":"CCA Token Summit 2024","description":"Sourced from predicthq.com - Pre Register for the Token Summit 2024","category":"conferences","start":"2024-10-03T06:00:00Z","geo":{"geometry":{"coordinates":[9.5186753,47.1386108],"type":"Point"},"placekey":"@53g-nyb-zxq","address":{"country_code":"LI","formatted_address":"Giessenstrasse 7, 9490 Vaduz, Liechtenstein","postcode":"9490","locality":"Vaduz","region":"Vaduz"}},"labels":["business","conference"],"duration":36000,"start_local":"2024-10-03T08:00:00","end":"2024-10-03T16:00:00Z","end_local":"2024-10-03T18:00:00","updated":"2024-06-04T03:06:08Z"},{"title":"Jazzanova","description":"Sourced from predicthq.com","category":"concerts","start":"2024-09-14T17:00:00Z","geo":{"geometry":{"coordinates":[9.5209277,47.1410303],"type":"Point"},"placekey":"@53g-nyb-f9f","address":{"country_code":"LI","formatted_address":"Vaduz, Städtle, 9490 Vaduz, Liechtenstein","postcode":"9490","locality":"Vaduz","region":"Vaduz"}},"labels":["concert","music"],"duration":0,"start_local":"2024-09-14T19:00:00","end":"2024-09-14T17:00:00Z","end_local":"2024-09-14T19:00:00","updated":"2024-06-15T04:10:42Z"},{"title":"Jazzanova","description":"Sourced from predicthq.com","category":"concerts","start":"2024-09-13T17:00:00Z","geo":{"geometry":{"coordinates":[9.5209277,47.1410303],"type":"Point"},"placekey":"@53g-nyb-f9f","address":{"country_code":"LI","formatted_address":"Vaduz, Städtle, 9490 Vaduz, Liechtenstein","postcode":"9490","locality":"Vaduz","region":"Vaduz"}},"labels":["concert","music"],"duration":0,"start_local":"2024-09-13T19:00:00","end":"2024-09-13T17:00:00Z","end_local":"2024-09-13T19:00:00","updated":"2024-06-11T01:00:37Z"},{"title":"Sommernachtstraum mit dem Sinfonieorchester Liechtenstein","description":"Sourced from predicthq.com","category":"performing-arts","start":"2024-08-24T18:00:00Z","geo":{"geometry":{"coordinates":[9.5219501,47.140756],"type":"Point"},"placekey":"@53g-nyb-pjv","address":{"country_code":"LI","formatted_address":"Städtle 6, 9490 Vaduz, Liechtenstein","postcode":"9490","locality":"Vaduz","region":"Vaduz"}},"labels":["entertainment","music","performing-arts"],"duration":0,"start_local":"2024-08-24T20:00:00","end":"2024-08-24T18:00:00Z","end_local":"2024-08-24T20:00:00","updated":"2024-06-10T23:58:23Z"},{"title":"Hélène Grimaud und das Kammerorchester Basel im Vaduzer-Saal","description":"Sourced from predicthq.com","category":"performing-arts","start":"2024-08-23T18:00:00Z","geo":{"geometry":{"coordinates":[9.5186753,47.1386108],"type":"Point"},"placekey":"@53g-nyb-zxq","address":{"country_code":"LI","formatted_address":"Giessenstrasse 7, 9490 Vaduz, Liechtenstein","postcode":"9490","locality":"Vaduz","region":"Vaduz"}},"labels":["entertainment","music","performing-arts"],"duration":0,"start_local":"2024-08-23T20:00:00","end":"2024-08-23T18:00:00Z","end_local":"2024-08-23T20:00:00","updated":"2024-06-11T04:01:51Z"},{"title":"Eröffnungskonzert: Nigel Kennedy und das Sinfonieorchester LIE","description":"Sourced from predicthq.com","category":"performing-arts","start":"2024-08-22T18:00:00Z","geo":{"geometry":{"coordinates":[9.5219501,47.140756],"type":"Point"},"placekey":"@53g-nyb-pjv","address":{"country_code":"LI","formatted_address":"Städtle 6, 9490 Vaduz, Liechtenstein","postcode":"9490","locality":"Vaduz","region":"Vaduz"}},"labels":["entertainment","music","performing-arts"],"duration":0,"start_local":"2024-08-22T20:00:00","end":"2024-08-22T18:00:00Z","end_local":"2024-08-22T20:00:00","updated":"2024-06-11T02:02:31Z"},{"title":"VaduzSOUNDZ | Rääs (FL) + Plüsch «Zuegab»","description":"Sourced from predicthq.com","category":"concerts","start":"2024-07-27T17:00:00Z","geo":{"geometry":{"coordinates":[9.5223795,47.1392545],"type":"Point"},"placekey":"@53g-nyc-2kz","address":{"country_code":"LI","formatted_address":"Städtle 34, 9490 Vaduz, Liechtenstein","postcode":"9490","locality":"Vaduz","region":"Vaduz"}},"labels":["concert","music"],"duration":0,"start_local":"2024-07-27T19:00:00","end":"2024-07-27T17:00:00Z","end_local":"2024-07-27T19:00:00","updated":"2024-06-11T00:34:17Z"},{"title":"Plusch and RAAS","description":"Sourced from predicthq.com","category":"community","start":"2024-07-27T17:00:00Z","geo":{"geometry":{"coordinates":[9.5219501,47.140756],"type":"Point"},"placekey":"@53g-nyb-pjv","address":{"country_code":"LI","formatted_address":"Städtle 6, 9490 Vaduz, Liechtenstein","postcode":"9490","locality":"Vaduz","region":"Vaduz"}},"labels":["concert","music"],"duration":0,"start_local":"2024-07-27T19:00:00","end":"2024-07-27T17:00:00Z","end_local":"2024-07-27T19:00:00","updated":"2024-06-04T04:39:11Z"},{"title":"VaduzSOUNDZ | Loco Escrito  + Stress MTV Unplugged","description":"Sourced from predicthq.com","category":"concerts","start":"2024-07-26T17:00:00Z","geo":{"geometry":{"coordinates":[9.5223795,47.1392545],"type":"Point"},"placekey":"@53g-nyc-2kz","address":{"country_code":"LI","formatted_address":"Städtle 34, 9490 Vaduz, Liechtenstein","postcode":"9490","locality":"Vaduz","region":"Vaduz"}},"labels":["concert","music"],"duration":0,"start_local":"2024-07-26T19:00:00","end":"2024-07-26T17:00:00Z","end_local":"2024-07-26T19:00:00","updated":"2024-06-11T04:10:35Z"},{"title":"VaduzSOUNDZ | Ophelia (FL) + Baschi","description":"Sourced from predicthq.com","category":"performing-arts","start":"2024-07-25T17:00:00Z","geo":{"geometry":{"coordinates":[9.5223795,47.1392545],"type":"Point"},"placekey":"@53g-nyc-2kz","address":{"country_code":"LI","formatted_address":"Städtle 34, 9490 Vaduz, Liechtenstein","postcode":"9490","locality":"Vaduz","region":"Vaduz"}},"labels":["entertainment","performing-arts"],"duration":0,"start_local":"2024-07-25T19:00:00","end":"2024-07-25T17:00:00Z","end_local":"2024-07-25T19:00:00","updated":"2024-06-11T03:21:52Z"},{"title":"Bluebones and Stephan Eicher","description":"Sourced from predicthq.com","category":"concerts","start":"2024-07-24T17:00:00Z","geo":{"geometry":{"coordinates":[9.5219501,47.140756],"type":"Point"},"placekey":"@53g-nyb-pjv","address":{"country_code":"LI","formatted_address":"Städtle 6, 9490 Vaduz, Liechtenstein","postcode":"9490","locality":"Vaduz","region":"Vaduz"}},"labels":["concert","music"],"duration":0,"start_local":"2024-07-24T19:00:00","end":"2024-07-24T17:00:00Z","end_local":"2024-07-24T19:00:00","updated":"2024-06-11T00:47:36Z"},{"title":"VaduzSOUNDZ | Bluebones (FL) + Stephan Eicher „Best of“","description":"Sourced from predicthq.com","category":"concerts","start":"2024-07-24T17:00:00Z","geo":{"geometry":{"coordinates":[9.5223795,47.1392545],"type":"Point"},"placekey":"@53g-nyc-2kz","address":{"country_code":"LI","formatted_address":"Städtle 34, 9490 Vaduz, Liechtenstein","postcode":"9490","locality":"Vaduz","region":"Vaduz"}},"labels":["concert","music"],"duration":0,"start_local":"2024-07-24T19:00:00","end":"2024-07-24T17:00:00Z","end_local":"2024-07-24T19:00:00","updated":"2024-06-11T09:27:48Z"},{"title":"Crossing Switzerland","description":"Sourced from predicthq.com","category":"sports","start":"2024-07-20T20:00:00Z","geo":{"geometry":{"coordinates":[9.5209277,47.1410303],"type":"Point"},"placekey":"@53g-nyb-f9f","address":{"country_code":"LI","formatted_address":"9490 Vaduz, Liechtenstein","locality":"Vaduz","postcode":"9490","region":"Vaduz"}},"labels":["outdoor-sports","running","sport"],"duration":0,"start_local":"2024-07-20T22:00:00","end":"2024-07-20T20:00:00Z","end_local":"2024-07-20T22:00:00","updated":"2024-06-04T05:17:51Z"},{"title":"Friendlies Women - Friendlies 2 - Liechtenstein vs Namibia","description":"Sourced from predicthq.com","category":"sports","start":"2024-07-14T08:00:00Z","geo":{"geometry":{"coordinates":[9.528563619,47.247054553],"type":"Point"},"placekey":"@53g-jv4-qpv","address":{"country_code":"LI","formatted_address":"Freizeitpark Widau, Widaustrasse 15, 9491 Ruggell, Liechtenstein","postcode":"9491","locality":"Ruggell","region":"Ruggell"}},"labels":["soccer","sport"],"duration":0,"start_local":"2024-07-14T10:00:00","end":"2024-07-14T08:00:00Z","end_local":"2024-07-14T10:00:00","updated":"2024-06-13T19:09:55Z"},{"title":"Friendlies Women - Friendlies 2 - Liechtenstein vs Namibia","description":"Sourced from predicthq.com","category":"sports","start":"2024-07-11T16:00:00Z","geo":{"geometry":{"coordinates":[9.528563619,47.247054553],"type":"Point"},"placekey":"@53g-jv4-qpv","address":{"country_code":"LI","formatted_address":"Freizeitpark Widau, Widaustrasse 15, 9491 Ruggell, Liechtenstein","postcode":"9491","locality":"Ruggell","region":"Ruggell"}},"labels":["soccer","sport"],"duration":0,"start_local":"2024-07-11T18:00:00","end":"2024-07-11T16:00:00Z","end_local":"2024-07-11T18:00:00","updated":"2024-06-14T00:30:21Z"},{"title":"Jan Delay","description":"Sourced from predicthq.com","category":"concerts","start":"2024-07-06T18:30:00Z","geo":{"geometry":{"coordinates":[9.5096513,47.1661004],"type":"Point"},"placekey":"@53g-nyk-9cq","address":{"country_code":"LI","formatted_address":"Landstrasse 19, 9494 Schaan, Liechtenstein","postcode":"9494","locality":"Schaan","region":"Schaan"}},"labels":["concert","music"],"duration":0,"start_local":"2024-07-06T20:30:00","end":"2024-07-06T18:30:00Z","end_local":"2024-07-06T20:30:00","updated":"2024-06-11T06:40:34Z"},{"title":"Michael Patrick Kelly","description":"Sourced from predicthq.com","category":"concerts","start":"2024-07-05T18:30:00Z","geo":{"geometry":{"coordinates":[9.5096513,47.1661004],"type":"Point"},"placekey":"@53g-nyk-9cq","address":{"country_code":"LI","formatted_address":"Landstrasse 19, 9494 Schaan, Liechtenstein","postcode":"9494","locality":"Schaan","region":"Schaan"}},"labels":["concert","music"],"duration":0,"start_local":"2024-07-05T20:30:00","end":"2024-07-05T18:30:00Z","end_local":"2024-07-05T20:30:00","updated":"2024-06-11T05:46:18Z"},{"title":"Nik West","description":"Sourced from predicthq.com","category":"concerts","start":"2024-07-05T17:00:00Z","geo":{"geometry":{"coordinates":[9.50988,47.16641],"type":"Point"},"placekey":"@53g-nyk-9pv","address":{"country_code":"LI","formatted_address":"Postfach 801, 9494 Schaan, Liechtenstein","postcode":"9494","locality":"Schaan","region":"Schaan"}},"labels":["concert","music"],"duration":0,"start_local":"2024-07-05T19:00:00","end":"2024-07-05T17:00:00Z","end_local":"2024-07-05T19:00:00","updated":"2024-06-11T07:05:27Z"},{"title":"Nik West","description":"Sourced from predicthq.com","category":"concerts","start":"2024-07-03T17:00:00Z","geo":{"geometry":{"coordinates":[9.5209277,47.1410303],"type":"Point"},"placekey":"@53g-nyb-f9f","address":{"country_code":"LI","formatted_address":"Vaduz, Städtle, 9490 Vaduz, Liechtenstein","postcode":"9490","locality":"Vaduz","region":"Vaduz"}},"labels":["concert","music"],"duration":0,"start_local":"2024-07-03T19:00:00","end":"2024-07-03T17:00:00Z","end_local":"2024-07-03T19:00:00","updated":"2024-06-11T08:07:13Z"},{"title":"Club Friendlies - Club Friendlies 3 - Vaduz vs Kriens","description":"Sourced from predicthq.com","category":"sports","start":"2024-06-22T12:00:00Z","geo":{"geometry":{"coordinates":[9.5102862,47.1405293],"type":"Point"},"placekey":"@53g-nyb-vcq","address":{"country_code":"LI","formatted_address":"Lettstrasse 74, 9490 Vaduz, Liechtenstein","postcode":"9490","locality":"Vaduz","region":"Vaduz"}},"labels":["soccer","sport"],"duration":0,"start_local":"2024-06-22T14:00:00","end":"2024-06-22T12:00:00Z","end_local":"2024-06-22T14:00:00","updated":"2024-06-22T12:23:47Z"},{"title":"How Karma Works, Overcoming It and Improving Relationships","description":"Sourced from predicthq.com - Recognize Karma & Have a Blissful Life","category":"conferences","start":"2024-06-21T07:00:00Z","geo":{"geometry":{"coordinates":[9.5042255,47.2166092],"type":"Point"},"placekey":"@53g-jtx-y35","address":{"country_code":"LI","formatted_address":"Grossabünt, 9487 Gamprin, Liechtenstein","locality":"Gamprin","postcode":"9487","region":"Gamprin"}},"labels":["conference","religion"],"duration":3600,"start_local":"2024-06-21T09:00:00","end":"2024-06-21T08:00:00Z","end_local":"2024-06-21T10:00:00","updated":"2024-06-06T00:34:57Z"},{"title":"HOI-Klassik | Abendkonzert","description":"Sourced from predicthq.com","category":"performing-arts","start":"2024-06-18T17:00:00Z","geo":{"geometry":{"coordinates":[9.5098799,47.1664072],"type":"Point"},"placekey":"@53g-nyk-9pv","address":{"country_code":"LI","formatted_address":"Landstrasse 19, 9494 Schaan, Liechtenstein","postcode":"9494","locality":"Schaan","region":"Schaan"}},"labels":["entertainment","performing-arts"],"duration":0,"start_local":"2024-06-18T19:00:00","end":"2024-06-18T17:00:00Z","end_local":"2024-06-18T19:00:00","updated":"2024-07-02T17:32:47Z"},{"title":"Referendum Liechtenstein","description":"Sourced from predicthq.com - Liechtenstein will hold a referendum (the third this year)-- on a supplementary loan for the construction of a new national hospital-- on 16 June 2024.","category":"politics","start":"2024-06-16T00:00:00Z","geo":{"geometry":{"coordinates":[9.520935,47.1410392],"type":"Point"},"address":{"country_code":"LI","formatted_address":"Liechtenstein"}},"labels":["politics","referendum"],"duration":86399,"start_local":"2024-06-16T00:00:00","end":"2024-06-16T23:59:59Z","end_local":"2024-06-16T23:59:59","updated":"2024-06-19T07:20:07Z"},{"title":"LGT Alpin Marathon","description":"Sourced from predicthq.com","category":"sports","start":"2024-06-08T07:00:00Z","geo":{"geometry":{"coordinates":[9.555373,47.166],"type":"Point"},"placekey":"@53g-jw9-92k","address":{"country_code":"LI","formatted_address":"Schaan, Liechtenstein","locality":"Schaan","region":"Schaan"}},"labels":["marathon","outdoor-sports","running","sport"],"duration":0,"start_local":"2024-06-08T09:00:00","end":"2024-06-08T07:00:00Z","end_local":"2024-06-08T09:00:00","updated":"2024-06-01T07:05:24Z"},{"title":"Die mystischen Kräfte der Mönche des Shaolin Kung Fu","description":"Sourced from predicthq.com","category":"sports","start":"2024-06-03T17:30:00Z","geo":{"geometry":{"coordinates":[9.5023279,47.0665449],"type":"Point"},"placekey":"@53g-nwp-cnq","address":{"country_code":"LI","formatted_address":"Fürstenstrasse 50, 9496 Balzers, Liechtenstein","postcode":"9496","locality":"Balzers","region":"Balzers"}},"labels":["mma","sport"],"duration":0,"start_local":"2024-06-03T19:30:00","end":"2024-06-03T17:30:00Z","end_local":"2024-06-03T19:30:00","updated":"2024-05-28T00:14:13Z"},{"title":"European Championship Small Countries - Group Stage - Republic of Ireland vs San Marino","description":"Sourced from predicthq.com","category":"sports","start":"2024-06-01T17:30:00Z","geo":{"geometry":{"coordinates":[9.515319276652853,47.16657709780485],"type":"Point"},"placekey":"@53g-jw8-tsq","address":{"country_code":"LI","formatted_address":"Duxgass, 9494 Schaan, Liechtenstein","locality":"Schaan","postcode":"9494","region":"Schaan"}},"labels":["sport","volleyball"],"duration":0,"start_local":"2024-06-01T19:30:00","end":"2024-06-01T17:30:00Z","end_local":"2024-06-01T19:30:00","updated":"2024-06-04T04:11:07Z"},{"title":"European Championship Small Countries - Group Stage - Liechtenstein vs Scotland","description":"Sourced from predicthq.com","category":"sports","start":"2024-06-01T15:00:00Z","geo":{"geometry":{"coordinates":[9.515319276652853,47.16657709780485],"type":"Point"},"placekey":"@53g-jw8-tsq","address":{"country_code":"LI","formatted_address":"Duxgass, 9494 Schaan, Liechtenstein","locality":"Schaan","postcode":"9494","region":"Schaan"}},"labels":["sport","volleyball"],"duration":0,"start_local":"2024-06-01T17:00:00","end":"2024-06-01T15:00:00Z","end_local":"2024-06-01T17:00:00","updated":"2024-06-03T23:59:35Z"},{"title":"European Championship Small Countries - Group Stage - Northern Ireland vs Republic of Ireland","description":"Sourced from predicthq.com","category":"sports","start":"2024-06-01T08:00:00Z","geo":{"geometry":{"coordinates":[9.515319276652853,47.16657709780485],"type":"Point"},"placekey":"@53g-jw8-tsq","address":{"country_code":"LI","formatted_address":"Duxgass, 9494 Schaan, Liechtenstein","locality":"Schaan","postcode":"9494","region":"Schaan"}},"labels":["sport","volleyball"],"duration":0,"start_local":"2024-06-01T10:00:00","end":"2024-06-01T08:00:00Z","end_local":"2024-06-01T10:00:00","updated":"2024-06-04T03:18:56Z"},{"title":"European Championship Small Countries - Group Stage - Scotland vs San Marino","description":"Sourced from predicthq.com","category":"sports","start":"2024-05-31T17:30:00Z","geo":{"geometry":{"coordinates":[9.515319276652853,47.16657709780485],"type":"Point"},"placekey":"@53g-jw8-tsq","address":{"country_code":"LI","formatted_address":"Duxgass, 9494 Schaan, Liechtenstein","locality":"Schaan","postcode":"9494","region":"Schaan"}},"labels":["sport","volleyball"],"duration":0,"start_local":"2024-05-31T19:30:00","end":"2024-05-31T17:30:00Z","end_local":"2024-05-31T19:30:00","updated":"2024-06-04T23:22:22Z"},{"title":"European Championship Small Countries - Group Stage - Liechtenstein vs Northern Ireland","description":"Sourced from predicthq.com","category":"sports","start":"2024-05-31T15:30:00Z","geo":{"geometry":{"coordinates":[9.515319276652853,47.16657709780485],"type":"Point"},"placekey":"@53g-jw8-tsq","address":{"country_code":"LI","formatted_address":"Duxgass, 9494 Schaan, Liechtenstein","locality":"Schaan","postcode":"9494","region":"Schaan"}},"labels":["sport","volleyball"],"duration":0,"start_local":"2024-05-31T17:30:00","end":"2024-05-31T15:30:00Z","end_local":"2024-05-31T17:30:00","updated":"2024-06-05T00:40:28Z"},{"title":"European Championship Small Countries - Group Stage - Scotland vs Republic of Ireland","description":"Sourced from predicthq.com","category":"sports","start":"2024-05-31T10:30:00Z","geo":{"geometry":{"coordinates":[9.515319276652853,47.16657709780485],"type":"Point"},"placekey":"@53g-jw8-tsq","address":{"country_code":"LI","formatted_address":"Duxgass, 9494 Schaan, Liechtenstein","locality":"Schaan","postcode":"9494","region":"Schaan"}},"labels":["sport","volleyball"],"duration":0,"start_local":"2024-05-31T12:30:00","end":"2024-05-31T10:30:00Z","end_local":"2024-05-31T12:30:00","updated":"2024-06-05T05:29:02Z"},{"title":"European Championship Small Countries - Group Stage - San Marino vs Northern Ireland","description":"Sourced from predicthq.com","category":"sports","start":"2024-05-31T08:00:00Z","geo":{"geometry":{"coordinates":[9.515319276652853,47.16657709780485],"type":"Point"},"placekey":"@53g-jw8-tsq","address":{"country_code":"LI","formatted_address":"Duxgass, 9494 Schaan, Liechtenstein","locality":"Schaan","postcode":"9494","region":"Schaan"}},"labels":["sport","volleyball"],"duration":0,"start_local":"2024-05-31T10:00:00","end":"2024-05-31T08:00:00Z","end_local":"2024-05-31T10:00:00","updated":"2024-06-05T06:02:31Z"},{"title":"European Championship Small Countries - Group Stage - Liechtenstein vs Republic of Ireland","description":"Sourced from predicthq.com","category":"sports","start":"2024-05-30T17:30:00Z","geo":{"geometry":{"coordinates":[9.515319276652853,47.16657709780485],"type":"Point"},"placekey":"@53g-jw8-tsq","address":{"country_code":"LI","formatted_address":"Duxgass, 9494 Schaan, Liechtenstein","locality":"Schaan","postcode":"9494","region":"Schaan"}},"labels":["sport","volleyball"],"duration":0,"start_local":"2024-05-30T19:30:00","end":"2024-05-30T17:30:00Z","end_local":"2024-05-30T19:30:00","updated":"2024-06-05T10:24:09Z"},{"title":"European Championship Small Countries - Group Stage - Scotland vs Northern Ireland","description":"Sourced from predicthq.com","category":"sports","start":"2024-05-30T15:00:00Z","geo":{"geometry":{"coordinates":[9.515319276652853,47.16657709780485],"type":"Point"},"placekey":"@53g-jw8-tsq","address":{"country_code":"LI","formatted_address":"Duxgass, 9494 Schaan, Liechtenstein","locality":"Schaan","postcode":"9494","region":"Schaan"}},"labels":["sport","volleyball"],"duration":0,"start_local":"2024-05-30T17:00:00","end":"2024-05-30T15:00:00Z","end_local":"2024-05-30T17:00:00","updated":"2024-06-05T05:24:06Z"},{"title":"European Championship Small Countries - Group Stage - Liechtenstein vs San Marino","description":"Sourced from predicthq.com","category":"sports","start":"2024-05-30T08:00:00Z","geo":{"geometry":{"coordinates":[9.515319276652853,47.16657709780485],"type":"Point"},"placekey":"@53g-jw8-tsq","address":{"country_code":"LI","formatted_address":"Duxgass, 9494 Schaan, Liechtenstein","locality":"Schaan","postcode":"9494","region":"Schaan"}},"labels":["sport","volleyball"],"duration":0,"start_local":"2024-05-30T10:00:00","end":"2024-05-30T08:00:00Z","end_local":"2024-05-30T10:00:00","updated":"2024-06-05T05:04:44Z"},{"title":"2. Orchesterkonzert | SOL im SAL| ABO B","description":"Sourced from predicthq.com","category":"performing-arts","start":"2024-05-29T17:00:00Z","geo":{"geometry":{"coordinates":[9.5098799,47.1664072],"type":"Point"},"placekey":"@53g-nyk-9pv","address":{"country_code":"LI","formatted_address":"Landstrasse 19, 9494 Schaan, Liechtenstein","postcode":"9494","locality":"Schaan","region":"Schaan"}},"labels":["entertainment","performing-arts"],"duration":0,"start_local":"2024-05-29T19:00:00","end":"2024-05-29T17:00:00Z","end_local":"2024-05-29T19:00:00","updated":"2024-06-12T17:22:36Z"},{"title":"2. Orchesterkonzert | SOL im SAL| ABO A","description":"Sourced from predicthq.com","category":"performing-arts","start":"2024-05-28T18:00:00Z","geo":{"geometry":{"coordinates":[9.5098799,47.1664072],"type":"Point"},"placekey":"@53g-nyk-9pv","address":{"country_code":"LI","formatted_address":"Landstrasse 19, 9494 Schaan, Liechtenstein","postcode":"9494","locality":"Schaan","region":"Schaan"}},"labels":["concert","music"],"duration":0,"start_local":"2024-05-28T20:00:00","end":"2024-05-28T18:00:00Z","end_local":"2024-05-28T20:00:00","updated":"2024-06-11T18:08:50Z"},{"title":"1. Liga Classic - Group 3 - Balzers vs Linth","description":"Sourced from predicthq.com","category":"sports","start":"2024-05-25T14:00:00Z","geo":{"geometry":{"coordinates":[9.4949925,47.0737899],"type":"Point"},"placekey":"@53g-nwp-vcq","address":{"country_code":"LI","formatted_address":"Rheinau 1, 9496 Balzers, Liechtenstein","postcode":"9496","locality":"Balzers","region":"Balzers"}},"labels":["soccer","sport"],"duration":0,"start_local":"2024-05-25T16:00:00","end":"2024-05-25T14:00:00Z","end_local":"2024-05-25T16:00:00","updated":"2024-06-12T08:02:12Z"},{"title":"Malbun Marathon","description":"Sourced from predicthq.com","category":"sports","start":"2024-05-24T22:00:00Z","geo":{"geometry":{"coordinates":[9.6096276,47.1015157],"type":"Point"},"placekey":"@53g-p2p-yjv","address":{"country_code":"LI","formatted_address":"9497 Malbun, Liechtenstein","locality":"Malbun","postcode":"9497","region":"Triesenberg"}},"labels":["marathon","outdoor-sports","running","sport"],"duration":86399,"start_local":"2024-05-25T00:00:00","end":"2024-05-25T21:59:59Z","end_local":"2024-05-25T23:59:59","updated":"2024-06-01T22:01:18Z"},{"title":"1. Liga Classic - Group 3 - Eschen / Mauren vs Wettswil-Bonstetten","description":"Sourced from predicthq.com","category":"sports","start":"2024-05-18T14:00:00Z","geo":{"geometry":{"coordinates":[9.5386683,47.2060569],"type":"Point"},"placekey":"@53g-jwc-k75","address":{"country_code":"LI","formatted_address":"9492 Eschen, Liechtenstein","postcode":"9492","locality":"Eschen","region":"Eschen"}},"labels":["soccer","sport"],"duration":0,"start_local":"2024-05-18T16:00:00","end":"2024-05-18T14:00:00Z","end_local":"2024-05-18T16:00:00","updated":"2024-06-12T01:00:22Z"},{"title":"Luca Sestak","description":"Sourced from predicthq.com","category":"concerts","start":"2024-05-11T18:00:00Z","geo":{"geometry":{"coordinates":[9.5209277,47.1410303],"type":"Point"},"placekey":"@53g-nyb-f9f","address":{"country_code":"LI","formatted_address":"Vaduz, Städtle, 9490 Vaduz, Liechtenstein","postcode":"9490","locality":"Vaduz","region":"Vaduz"}},"labels":["concert","music"],"duration":0,"start_local":"2024-05-11T20:00:00","end":"2024-05-11T18:00:00Z","end_local":"2024-05-11T20:00:00","updated":"2024-06-12T09:53:01Z"},{"title":"1. Liga Classic - Group 3 - Eschen / Mauren vs Uzwil","description":"Sourced from predicthq.com","category":"sports","start":"2024-05-11T14:00:00Z","geo":{"geometry":{"coordinates":[9.5386683,47.2060569],"type":"Point"},"placekey":"@53g-jwc-k75","address":{"country_code":"LI","formatted_address":"9492 Eschen, Liechtenstein","postcode":"9492","locality":"Eschen","region":"Eschen"}},"labels":["soccer","sport"],"duration":0,"start_local":"2024-05-11T16:00:00","end":"2024-05-11T14:00:00Z","end_local":"2024-05-11T16:00:00","updated":"2024-06-12T00:00:46Z"},{"title":"1. Liga Classic - Group 3 - Balzers vs Gossau","description":"Sourced from predicthq.com","category":"sports","start":"2024-05-04T14:00:00Z","geo":{"geometry":{"coordinates":[9.4949925,47.0737899],"type":"Point"},"placekey":"@53g-nwp-vcq","address":{"country_code":"LI","formatted_address":"Rheinau 1, 9496 Balzers, Liechtenstein","postcode":"9496","locality":"Balzers","region":"Balzers"}},"labels":["soccer","sport"],"duration":0,"start_local":"2024-05-04T16:00:00","end":"2024-05-04T14:00:00Z","end_local":"2024-05-04T16:00:00","updated":"2024-06-12T00:09:43Z"},{"title":"Breabach","description":"Sourced from predicthq.com","category":"concerts","start":"2024-05-03T17:30:00Z","geo":{"geometry":{"coordinates":[9.5116274,47.1673875],"type":"Point"},"placekey":"@53g-nyk-9mk","address":{"country_code":"LI","formatted_address":"Reberastrasse 12, 9494 Schaan, Liechtenstein","postcode":"9494","locality":"Schaan","region":"Schaan"}},"labels":["concert","music"],"duration":0,"start_local":"2024-05-03T19:30:00","end":"2024-05-03T17:30:00Z","end_local":"2024-05-03T19:30:00","updated":"2024-06-12T00:59:12Z"},{"title":"From Los Angeles, CA - JOEL BRYANT - Interactive Standup Comedy in English","description":"Sourced from predicthq.com - First time in Vaduz! From Los Angeles, CA comedian JOEL BRYANT brings you a night of hilarity...and bad decisions. Standup Comedy in English","category":"performing-arts","start":"2024-04-29T17:30:00Z","geo":{"geometry":{"coordinates":[9.508433199999999,47.1487218],"type":"Point"},"placekey":"@53g-nyc-m8v","address":{"country_code":"LI","formatted_address":"Schaanerstrasse, 9490 Vaduz, Liechtenstein","locality":"Vaduz","postcode":"9490","region":"Vaduz"}},"labels":["concert","music","performing-arts"],"duration":0,"start_local":"2024-04-29T19:30:00","end":"2024-04-29T17:30:00Z","end_local":"2024-04-29T19:30:00","updated":"2024-06-12T04:28:37Z"},{"title":"1. Liga Classic - Group 3 - Eschen / Mauren vs Freienbach","description":"Sourced from predicthq.com","category":"sports","start":"2024-04-27T14:00:00Z","geo":{"geometry":{"coordinates":[9.5386683,47.2060569],"type":"Point"},"placekey":"@53g-jwc-k75","address":{"country_code":"LI","formatted_address":"9492 Eschen, Liechtenstein","postcode":"9492","locality":"Eschen","region":"Eschen"}},"labels":["soccer","sport"],"duration":0,"start_local":"2024-04-27T16:00:00","end":"2024-04-27T14:00:00Z","end_local":"2024-04-27T16:00:00","updated":"2024-06-12T08:27:56Z"},{"title":"Future Summit Liechtenstein","description":"Sourced from predicthq.com - Zugang zu den neuesten Erkenntnissen der Zukunftsforschung aus Innovation, People und Culture sowie Technologie.","category":"conferences","start":"2024-04-25T06:30:00Z","geo":{"geometry":{"coordinates":[9.519961,47.1669221],"type":"Point"},"placekey":"@53g-jw8-vmk","address":{"country_code":"LI","formatted_address":"Duxgass, 9494 Schaan, Liechtenstein","locality":"Schaan","postcode":"9494","region":"Schaan"}},"labels":["conference","science","technology"],"duration":48600,"start_local":"2024-04-25T08:30:00","end":"2024-04-25T20:00:00Z","end_local":"2024-04-25T22:00:00","updated":"2024-06-05T12:28:59Z"},{"title":"1. Liga Classic - Group 3 - Balzers vs Taverne","description":"Sourced from predicthq.com","category":"sports","start":"2024-04-20T14:00:00Z","geo":{"geometry":{"coordinates":[9.4949925,47.0737899],"type":"Point"},"placekey":"@53g-nwp-vcq","address":{"country_code":"LI","formatted_address":"Rheinau 1, 9496 Balzers, Liechtenstein","postcode":"9496","locality":"Balzers","region":"Balzers"}},"labels":["soccer","sport"],"duration":0,"start_local":"2024-04-20T16:00:00","end":"2024-04-20T14:00:00Z","end_local":"2024-04-20T16:00:00","updated":"2024-06-12T03:16:51Z"},{"title":"Daniel Herskedal","description":"Sourced from predicthq.com","category":"concerts","start":"2024-04-17T17:30:00Z","geo":{"geometry":{"coordinates":[9.51163,47.16739],"type":"Point"},"placekey":"@53g-nyk-9mk","address":{"country_code":"LI","formatted_address":"Reberastrasse 12, 9494 Schaan, Liechtenstein","postcode":"9494","locality":"Schaan","region":"Schaan"}},"labels":["concert","music"],"duration":0,"start_local":"2024-04-17T19:30:00","end":"2024-04-17T17:30:00Z","end_local":"2024-04-17T19:30:00","updated":"2024-06-23T06:30:06Z"},{"title":"1. Liga Classic - Group 3 - Eschen / Mauren vs Kosova","description":"Sourced from predicthq.com","category":"sports","start":"2024-04-13T14:00:00Z","geo":{"geometry":{"coordinates":[9.5386683,47.2060569],"type":"Point"},"placekey":"@53g-jwc-k75","address":{"country_code":"LI","formatted_address":"9492 Eschen, Liechtenstein","postcode":"9492","locality":"Eschen","region":"Eschen"}},"labels":["soccer","sport"],"duration":0,"start_local":"2024-04-13T16:00:00","end":"2024-04-13T14:00:00Z","end_local":"2024-04-13T16:00:00","updated":"2024-06-12T08:06:34Z"}]