[{"title":"International Conference on Criminology and Criminal Justice","description":"Sourced from predicthq.com","category":"conferences","start":"2024-10-03T03:30:00Z","geo":{"geometry":{"coordinates":[79.903178,6.852419],"type":"Point"},"placekey":"@c2d-wyh-nt9","address":{"country_code":"LK","formatted_address":"Nugegoda, Sri Lanka","locality":"Nugegoda","region":"Western Province"}},"labels":["conference"],"duration":118800,"start_local":"2024-10-03T09:00:00","end":"2024-10-04T12:30:00Z","end_local":"2024-10-04T18:00:00","updated":"2024-06-30T08:15:46Z"},{"title":"Asian Conference on Remote Sensing","description":"Sourced from predicthq.com","category":"conferences","start":"2024-09-30T03:30:00Z","geo":{"geometry":{"coordinates":[79.930229,6.868019],"type":"Point"},"placekey":"@c2d-wyk-h5z","address":{"country_code":"LK","formatted_address":"New Hospital Road, Sri Jayawardenepura Kotte 10100, Sri Lanka","locality":"Sri Jayawardenepura Kotte","postcode":"10100","region":"Western Province"}},"labels":["conference"],"duration":378000,"start_local":"2024-09-30T09:00:00","end":"2024-10-04T12:30:00Z","end_local":"2024-10-04T18:00:00","updated":"2024-06-02T09:28:20Z"},{"title":"COMEXPO Sri Lanka","description":"Sourced from predicthq.com","category":"expos","start":"2024-09-30T03:30:00Z","geo":{"geometry":{"coordinates":[79.8729087,6.9018766],"type":"Point"},"placekey":"@c2d-wws-h5z","address":{"country_code":"LK","formatted_address":"3G, BMICH (Bandaranaike Memorial International Conference Hall), 21 Bauddhaloka Mawatha, Colombo 00700, Sri Lanka","postcode":"00700","locality":"Colombo","region":"Western Province"}},"labels":["expo"],"duration":118800,"start_local":"2024-09-30T09:00:00","end":"2024-10-01T12:30:00Z","end_local":"2024-10-01T18:00:00","updated":"2024-05-31T22:56:11Z"},{"title":"Election for Sri Lankan Presidency - Date not confirmed","description":"Sourced from predicthq.com - Sri Lanka is expected to hold a presidential election in fall 2024.","category":"politics","start":"2024-09-30T00:00:00Z","geo":{"geometry":{"coordinates":[80.771797,7.873054],"type":"Point"},"address":{"country_code":"LK","formatted_address":"Sri Lanka"}},"labels":["election","politics","president"],"duration":86399,"start_local":"2024-09-30T00:00:00","end":"2024-09-30T23:59:59Z","end_local":"2024-09-30T23:59:59","updated":"2024-06-11T03:13:59Z"},{"title":"Annual Congress of APSPOS","description":"Sourced from predicthq.com","category":"conferences","start":"2024-09-27T03:30:00Z","geo":{"geometry":{"coordinates":[79.8652,6.918553],"type":"Point"},"placekey":"@c2d-wwm-psq","address":{"country_code":"LK","formatted_address":"Ven Baddegama Wimalawansa Mawatha, Colombo 01000, Sri Lanka","locality":"Colombo","postcode":"01000","region":"Western Province"}},"labels":["conference"],"duration":118800,"start_local":"2024-09-27T09:00:00","end":"2024-09-28T12:30:00Z","end_local":"2024-09-28T18:00:00","updated":"2024-06-02T09:30:03Z"},{"title":"LANKAENERGY","description":"Sourced from predicthq.com","category":"expos","start":"2024-09-26T03:30:00Z","geo":{"geometry":{"coordinates":[79.848952,6.932361],"type":"Point"},"placekey":"@c2d-wxb-2ff","address":{"country_code":"LK","formatted_address":"12 McCallum Rd, Colombo 01000, Sri Lanka","postcode":"01000","locality":"Colombo","region":"Western Province"}},"labels":["expo"],"duration":205200,"start_local":"2024-09-26T09:00:00","end":"2024-09-28T12:30:00Z","end_local":"2024-09-28T18:00:00","updated":"2024-06-04T05:10:17Z"},{"title":"LANKABUILD","description":"Sourced from predicthq.com - Lanka Build is a highly anticipated expo event that brings together industry leaders, professionals, and innovators in the construction and building sectors. It showcases the latest technologies, products, and services while fostering valuable networking opportunities.","category":"expos","start":"2024-09-26T03:30:00Z","geo":{"geometry":{"coordinates":[79.848952,6.932361],"type":"Point"},"placekey":"@c2d-wxb-2ff","address":{"country_code":"LK","formatted_address":"12 McCallum Rd, Colombo 01000, Sri Lanka","postcode":"01000","locality":"Colombo","region":"Western Province"}},"labels":["expo"],"duration":205200,"start_local":"2024-09-26T09:00:00","end":"2024-09-28T12:30:00Z","end_local":"2024-09-28T18:00:00","updated":"2024-06-04T00:49:11Z"},{"title":"International Research Conference","description":"Sourced from predicthq.com","category":"conferences","start":"2024-09-26T03:30:00Z","geo":{"geometry":{"coordinates":[81.21274,8.653949],"type":"Point"},"placekey":"@c2b-7xf-y5f","address":{"country_code":"LK","formatted_address":"Trincomalee, Eastern Province, Sri Lanka","locality":"Trincomalee","region":"Eastern Province"}},"labels":["conference"],"duration":118800,"start_local":"2024-09-26T09:00:00","end":"2024-09-27T12:30:00Z","end_local":"2024-09-27T18:00:00","updated":"2024-06-30T07:13:01Z"},{"title":"LANKAWATER","description":"Sourced from predicthq.com - LANKAWATER 2024 - Sri Lanka's Biggest International Water Production & Treatment Exhibition will be held at the SLECC, Colombo, Sri Lanka from 26 - 28 September 2024. LANKAWATER 2024 is the perfect business-to-business platform for local and international companies to exhibit a wide range of products, services, and solutions to further upgrade the country's waterworks sector. LANKAWATER 2024 is the No.1 Marketing platform to power up your business in Sri Lanka.","category":"expos","start":"2024-09-25T18:30:00Z","geo":{"geometry":{"coordinates":[79.848952,6.932361],"type":"Point"},"placekey":"@c2d-wxb-2ff","address":{"country_code":"LK","formatted_address":"12 McCallum Rd, Colombo 01000, Sri Lanka","postcode":"01000","locality":"Colombo","region":"Western Province"}},"labels":["construction","environment","expo","industrial","technology"],"duration":259199,"start_local":"2024-09-26T00:00:00","end":"2024-09-28T18:29:59Z","end_local":"2024-09-28T23:59:59","updated":"2024-06-04T03:39:07Z"},{"title":"International Conference on Petroleum, Oil and Gas Sustainability","description":"Sourced from predicthq.com","category":"conferences","start":"2024-09-20T18:30:00Z","geo":{"geometry":{"coordinates":[79.84648,6.920114],"type":"Point"},"placekey":"@c2d-wwk-mhq","address":{"country_code":"LK","formatted_address":"2 CGHW Highway, Colombo 0300, Sri Lanka","postcode":"0300","locality":"Colombo","region":"Western Province"}},"labels":["conference"],"duration":172799,"start_local":"2024-09-21T00:00:00","end":"2024-09-22T18:29:59Z","end_local":"2024-09-22T23:59:59","updated":"2024-06-01T00:50:31Z"},{"title":"International Conference on Arts and Humanities","description":"Sourced from predicthq.com","category":"conferences","start":"2024-09-04T18:30:00Z","geo":{"geometry":{"coordinates":[79.846852,6.922633],"type":"Point"},"placekey":"@c2d-wwk-nnq","address":{"country_code":"LK","formatted_address":"25 Galle Face Center Rd, Colombo 80000, Sri Lanka","postcode":"80000","locality":"Colombo","region":"Western Province"}},"labels":["conference"],"duration":172799,"start_local":"2024-09-05T00:00:00","end":"2024-09-06T18:29:59Z","end_local":"2024-09-06T23:59:59","updated":"2024-06-30T08:28:21Z"},{"title":"Annual Academic Congress of Sri Lanka College of Obstetricians & Gynaecologists","description":"Sourced from predicthq.com","category":"conferences","start":"2024-08-30T03:30:00Z","geo":{"geometry":{"coordinates":[79.843155,6.931679],"type":"Point"},"placekey":"@c2d-wx9-mtv","address":{"country_code":"LK","formatted_address":"64 Lotus Road, Colombo 00100, Sri Lanka","postcode":"00100","locality":"Colombo","region":"Western Province"}},"labels":["conference"],"duration":205200,"start_local":"2024-08-30T09:00:00","end":"2024-09-01T12:30:00Z","end_local":"2024-09-01T18:00:00","updated":"2024-06-02T09:28:03Z"},{"title":"Elecxpo","description":"Sourced from predicthq.com","category":"expos","start":"2024-08-30T03:30:00Z","geo":{"geometry":{"coordinates":[79.8729087,6.9018766],"type":"Point"},"placekey":"@c2d-wws-h5z","address":{"country_code":"LK","formatted_address":"3G, BMICH (Bandaranaike Memorial International Conference Hall), 21 Bauddhaloka Mawatha, Colombo 00700, Sri Lanka","postcode":"00700","locality":"Colombo","region":"Western Province"}},"labels":["expo"],"duration":205200,"start_local":"2024-08-30T09:00:00","end":"2024-09-01T12:30:00Z","end_local":"2024-09-01T18:00:00","updated":"2024-06-04T05:26:19Z"},{"title":"Complast Sri Lanka","description":"Sourced from predicthq.com","category":"expos","start":"2024-08-29T18:30:00Z","geo":{"geometry":{"coordinates":[79.8729087,6.9018766],"type":"Point"},"placekey":"@c2d-wws-h5z","address":{"country_code":"LK","formatted_address":"3G, BMICH (Bandaranaike Memorial International Conference Hall), 21 Bauddhaloka Mawatha, Colombo 00700, Sri Lanka","postcode":"00700","locality":"Colombo","region":"Western Province"}},"labels":["expo"],"duration":259199,"start_local":"2024-08-30T00:00:00","end":"2024-09-01T18:29:59Z","end_local":"2024-09-01T23:59:59","updated":"2024-06-04T08:27:45Z"},{"title":"Compack Sri Lanka","description":"Sourced from predicthq.com","category":"expos","start":"2024-08-29T18:30:00Z","geo":{"geometry":{"coordinates":[79.8729087,6.9018766],"type":"Point"},"placekey":"@c2d-wws-h5z","address":{"country_code":"LK","formatted_address":"3G, BMICH (Bandaranaike Memorial International Conference Hall), 21 Bauddhaloka Mawatha, Colombo 00700, Sri Lanka","postcode":"00700","locality":"Colombo","region":"Western Province"}},"labels":["expo"],"duration":259199,"start_local":"2024-08-30T00:00:00","end":"2024-09-01T18:29:59Z","end_local":"2024-09-01T23:59:59","updated":"2024-05-31T22:54:20Z"},{"title":"Logmat","description":"Sourced from predicthq.com","category":"expos","start":"2024-08-29T18:30:00Z","geo":{"geometry":{"coordinates":[79.8729087,6.9018766],"type":"Point"},"placekey":"@c2d-wws-h5z","address":{"country_code":"LK","formatted_address":"3G, BMICH (Bandaranaike Memorial International Conference Hall), 21 Bauddhaloka Mawatha, Colombo 00700, Sri Lanka","postcode":"00700","locality":"Colombo","region":"Western Province"}},"labels":["expo"],"duration":259199,"start_local":"2024-08-30T00:00:00","end":"2024-09-01T18:29:59Z","end_local":"2024-09-01T23:59:59","updated":"2024-06-04T10:10:41Z"},{"title":"Profood Propack & Agbiz","description":"Sourced from predicthq.com","category":"expos","start":"2024-08-22T18:30:00Z","geo":{"geometry":{"coordinates":[79.8729087,6.9018766],"type":"Point"},"placekey":"@c2d-wws-h5z","address":{"country_code":"LK","formatted_address":"3G, BMICH (Bandaranaike Memorial International Conference Hall), 21 Bauddhaloka Mawatha, Colombo 00700, Sri Lanka","postcode":"00700","locality":"Colombo","region":"Western Province"}},"labels":["expo"],"duration":259199,"start_local":"2024-08-23T00:00:00","end":"2024-08-25T18:29:59Z","end_local":"2024-08-25T23:59:59","updated":"2024-06-11T02:33:04Z"},{"title":"International Conference on Living Values Education","description":"Sourced from predicthq.com","category":"conferences","start":"2024-08-21T03:30:00Z","geo":{"geometry":{"coordinates":[79.84648,6.920114],"type":"Point"},"placekey":"@c2d-wwk-mhq","address":{"country_code":"LK","formatted_address":"2 CGHW Highway, Colombo 0300, Sri Lanka","postcode":"0300","locality":"Colombo","region":"Western Province"}},"labels":["conference"],"duration":205200,"start_local":"2024-08-21T09:00:00","end":"2024-08-23T12:30:00Z","end_local":"2024-08-23T18:00:00","updated":"2024-06-30T09:41:45Z"},{"title":"International Conference on Agriculture, Food Security and Safety","description":"Sourced from predicthq.com","category":"conferences","start":"2024-08-20T18:30:00Z","geo":{"geometry":{"coordinates":[79.84648,6.920114],"type":"Point"},"placekey":"@c2d-wwk-mhq","address":{"country_code":"LK","formatted_address":"2 CGHW Highway, Colombo 0300, Sri Lanka","postcode":"0300","locality":"Colombo","region":"Western Province"}},"labels":["conference"],"duration":172799,"start_local":"2024-08-21T00:00:00","end":"2024-08-22T18:29:59Z","end_local":"2024-08-22T23:59:59","updated":"2024-05-31T22:53:50Z"},{"title":"Arugam Bay Half Marathon","description":"Sourced from predicthq.com","category":"sports","start":"2024-08-18T00:30:00Z","geo":{"geometry":{"coordinates":[81.8368478,6.8404078],"type":"Point"},"placekey":"@c2b-ryq-kfz","address":{"country_code":"LK","formatted_address":"Arugam Bay, Sri Lanka","locality":"Arugam Bay"}},"labels":["marathon","outdoor-sports","running","sport"],"duration":0,"start_local":"2024-08-18T06:00:00","end":"2024-08-18T00:30:00Z","end_local":"2024-08-18T06:00:00","updated":"2024-06-04T01:38:45Z"},{"title":"International Conference on Ayurveda, Traditional Medicine, Siddha, Unani and Medicinal Plants","description":"Sourced from predicthq.com","category":"conferences","start":"2024-08-09T03:30:00Z","geo":{"geometry":{"coordinates":[79.84648,6.920114],"type":"Point"},"placekey":"@c2d-wwk-mhq","address":{"country_code":"LK","formatted_address":"2 CGHW Highway, Colombo 0300, Sri Lanka","postcode":"0300","locality":"Colombo","region":"Western Province"}},"labels":["conference"],"duration":118800,"start_local":"2024-08-09T09:00:00","end":"2024-08-10T12:30:00Z","end_local":"2024-08-10T18:00:00","updated":"2024-06-02T04:00:09Z"},{"title":"International Conference on Heritage and Culture","description":"Sourced from predicthq.com","category":"conferences","start":"2024-08-09T03:30:00Z","geo":{"geometry":{"coordinates":[79.84648,6.920114],"type":"Point"},"placekey":"@c2d-wwk-mhq","address":{"country_code":"LK","formatted_address":"2 CGHW Highway, Colombo 0300, Sri Lanka","postcode":"0300","locality":"Colombo","region":"Western Province"}},"labels":["conference"],"duration":118800,"start_local":"2024-08-09T09:00:00","end":"2024-08-10T12:30:00Z","end_local":"2024-08-10T18:00:00","updated":"2024-06-02T04:00:10Z"},{"title":"International Conference on Apparel Textiles and Fashion Design","description":"Sourced from predicthq.com","category":"conferences","start":"2024-08-09T03:30:00Z","geo":{"geometry":{"coordinates":[79.84648,6.920114],"type":"Point"},"placekey":"@c2d-wwk-mhq","address":{"country_code":"LK","formatted_address":"2 CGHW Highway, Colombo 0300, Sri Lanka","postcode":"0300","locality":"Colombo","region":"Western Province"}},"labels":["conference"],"duration":118800,"start_local":"2024-08-09T09:00:00","end":"2024-08-10T12:30:00Z","end_local":"2024-08-10T18:00:00","updated":"2024-05-31T22:56:26Z"},{"title":"International Conference on Music, Drama, Visual & Performing Arts","description":"Sourced from predicthq.com","category":"conferences","start":"2024-08-09T03:30:00Z","geo":{"geometry":{"coordinates":[79.84648,6.920114],"type":"Point"},"placekey":"@c2d-wwk-mhq","address":{"country_code":"LK","formatted_address":"2 CGHW Highway, Colombo 0300, Sri Lanka","postcode":"0300","locality":"Colombo","region":"Western Province"}},"labels":["conference"],"duration":118800,"start_local":"2024-08-09T09:00:00","end":"2024-08-10T12:30:00Z","end_local":"2024-08-10T18:00:00","updated":"2024-05-31T23:01:08Z"},{"title":"International Conference on Contemporary Issues of Commerce, Education, Arts and Information Technology","description":"Sourced from predicthq.com","category":"conferences","start":"2024-08-09T03:30:00Z","geo":{"geometry":{"coordinates":[79.84648,6.920114],"type":"Point"},"placekey":"@c2d-wwk-mhq","address":{"country_code":"LK","formatted_address":"2 CGHW Highway, Colombo 0300, Sri Lanka","postcode":"0300","locality":"Colombo","region":"Western Province"}},"labels":["conference"],"duration":118800,"start_local":"2024-08-09T09:00:00","end":"2024-08-10T12:30:00Z","end_local":"2024-08-10T18:00:00","updated":"2024-06-04T08:13:20Z"},{"title":"International Conference on Nursing","description":"Sourced from predicthq.com","category":"conferences","start":"2024-08-09T03:30:00Z","geo":{"geometry":{"coordinates":[79.84648,6.920114],"type":"Point"},"placekey":"@c2d-wwk-mhq","address":{"country_code":"LK","formatted_address":"2 CGHW Highway, Colombo 0300, Sri Lanka","postcode":"0300","locality":"Colombo","region":"Western Province"}},"labels":["conference"],"duration":118800,"start_local":"2024-08-09T09:00:00","end":"2024-08-10T12:30:00Z","end_local":"2024-08-10T18:00:00","updated":"2024-05-31T23:10:59Z"},{"title":"International Conference On Language And Literature Studies","description":"Sourced from predicthq.com","category":"conferences","start":"2024-08-09T03:30:00Z","geo":{"geometry":{"coordinates":[79.84648,6.920114],"type":"Point"},"placekey":"@c2d-wwk-mhq","address":{"country_code":"LK","formatted_address":"2 CGHW Highway, Colombo 0300, Sri Lanka","postcode":"0300","locality":"Colombo","region":"Western Province"}},"labels":["conference"],"duration":118800,"start_local":"2024-08-09T09:00:00","end":"2024-08-10T12:30:00Z","end_local":"2024-08-10T18:00:00","updated":"2024-06-01T00:39:59Z"},{"title":"International Conference on Business Management and Economics","description":"Sourced from predicthq.com","category":"conferences","start":"2024-08-09T03:30:00Z","geo":{"geometry":{"coordinates":[79.84648,6.920114],"type":"Point"},"placekey":"@c2d-wwk-mhq","address":{"country_code":"LK","formatted_address":"2 CGHW Highway, Colombo 0300, Sri Lanka","postcode":"0300","locality":"Colombo","region":"Western Province"}},"labels":["conference"],"duration":118800,"start_local":"2024-08-09T09:00:00","end":"2024-08-10T12:30:00Z","end_local":"2024-08-10T18:00:00","updated":"2024-06-04T02:59:00Z"},{"title":"International Conference on Food Resources and Security","description":"Sourced from predicthq.com","category":"conferences","start":"2024-08-08T18:30:00Z","geo":{"geometry":{"coordinates":[79.84648,6.920114],"type":"Point"},"placekey":"@c2d-wwk-mhq","address":{"country_code":"LK","formatted_address":"2 CGHW Highway, Colombo 0300, Sri Lanka","postcode":"0300","locality":"Colombo","region":"Western Province"}},"labels":["conference"],"duration":172799,"start_local":"2024-08-09T00:00:00","end":"2024-08-10T18:29:59Z","end_local":"2024-08-10T23:59:59","updated":"2024-06-04T08:46:47Z"},{"title":"International Conference on Leisure and Tourism","description":"Sourced from predicthq.com","category":"conferences","start":"2024-08-08T18:30:00Z","geo":{"geometry":{"coordinates":[79.84648,6.920114],"type":"Point"},"placekey":"@c2d-wwk-mhq","address":{"country_code":"LK","formatted_address":"2 CGHW Highway, Colombo 0300, Sri Lanka","postcode":"0300","locality":"Colombo","region":"Western Province"}},"labels":["conference"],"duration":172799,"start_local":"2024-08-09T00:00:00","end":"2024-08-10T18:29:59Z","end_local":"2024-08-10T23:59:59","updated":"2024-06-04T07:16:47Z"},{"title":"SLENDO Endocrine Congress","description":"Sourced from predicthq.com","category":"conferences","start":"2024-08-08T03:30:00Z","geo":{"geometry":{"coordinates":[79.844608,6.928195],"type":"Point"},"placekey":"@c2d-wx9-q9f","address":{"country_code":"LK","formatted_address":"2, 1 Colombo - Galle - Hambantota - Wellawaya Hwy, Colombo 00200, Sri Lanka","postcode":"00200","locality":"Colombo","region":"Western Province"}},"labels":["conference"],"duration":291600,"start_local":"2024-08-08T09:00:00","end":"2024-08-11T12:30:00Z","end_local":"2024-08-11T18:00:00","updated":"2024-06-02T03:26:48Z"},{"title":"Moratuwa Engineering Research Conference","description":"Sourced from predicthq.com","category":"conferences","start":"2024-08-08T03:30:00Z","geo":{"geometry":{"coordinates":[79.901778,6.796877],"type":"Point"},"placekey":"@c25-trf-zzz","address":{"country_code":"LK","formatted_address":"Moratuwa 10400, Sri Lanka","locality":"Moratuwa","postcode":"10400","region":"Western Province"}},"labels":["conference"],"duration":205200,"start_local":"2024-08-08T09:00:00","end":"2024-08-10T12:30:00Z","end_local":"2024-08-10T18:00:00","updated":"2024-05-26T03:36:56Z"},{"title":"Universal Merit Awards in Colombo","description":"Sourced from predicthq.com","category":"conferences","start":"2024-08-06T18:30:00Z","geo":{"geometry":{"coordinates":[79.861243,6.927079],"type":"Point"},"placekey":"@c2d-wwk-xh5","address":{"country_code":"LK","formatted_address":"Colombo 01000, Sri Lanka","locality":"Colombo","postcode":"01000","region":"Western Province"}},"labels":["conference"],"duration":86399,"start_local":"2024-08-07T00:00:00","end":"2024-08-07T18:29:59Z","end_local":"2024-08-07T23:59:59","updated":"2024-06-16T01:56:27Z"},{"title":"Intex South Asia (Sri Lanka) 2024 - International Textile Sourcing Show","description":"Sourced from predicthq.com","category":"expos","start":"2024-08-06T18:30:00Z","geo":{"geometry":{"coordinates":[79.8735649,6.9003606],"type":"Point"},"placekey":"@c2d-wws-h89","address":{"country_code":"LK","formatted_address":"Bauddhaloka Mawatha, Colombo 00700, Sri Lanka","locality":"Colombo","postcode":"00700","region":"Western Province"}},"labels":["expo","industrial"],"duration":259199,"start_local":"2024-08-07T00:00:00","end":"2024-08-09T18:29:59Z","end_local":"2024-08-09T23:59:59","updated":"2024-06-04T11:07:44Z"},{"title":"Tenth International Conference on Transportation and Logistics","description":"Sourced from predicthq.com","category":"conferences","start":"2024-08-05T03:30:00Z","geo":{"geometry":{"coordinates":[79.901778,6.796877],"type":"Point"},"placekey":"@c25-trf-zzz","address":{"country_code":"LK","formatted_address":"Moratuwa 10400, Sri Lanka","locality":"Moratuwa","postcode":"10400","region":"Western Province"}},"labels":["conference"],"duration":205200,"start_local":"2024-08-05T09:00:00","end":"2024-08-07T12:30:00Z","end_local":"2024-08-07T18:00:00","updated":"2024-06-16T01:55:08Z"},{"title":"Annual Scientific Sessions of the Sri Lanka Veterinary Association","description":"Sourced from predicthq.com","category":"conferences","start":"2024-08-02T03:30:00Z","geo":{"geometry":{"coordinates":[80.636929,7.303001],"type":"Point"},"placekey":"@c29-trd-9s5","address":{"country_code":"LK","formatted_address":"89, 10 Lady Gordon's Dr, Kandy 20000, Sri Lanka","postcode":"20000","locality":"Kandy","region":"Central Province"}},"labels":["conference"],"duration":32400,"start_local":"2024-08-02T09:00:00","end":"2024-08-02T12:30:00Z","end_local":"2024-08-02T18:00:00","updated":"2024-06-02T12:23:21Z"},{"title":"\"MagicBanda LIVE\"","description":"Sourced from predicthq.com - Get ready for a night of enchanting Music and mesmerizing Magic by the electrifying MagicBanda - it's gonna be lit!","category":"performing-arts","start":"2024-07-28T11:30:00Z","geo":{"geometry":{"coordinates":[79.85032679999999,6.9195296],"type":"Point"},"placekey":"@c2d-wwk-fzz","address":{"country_code":"LK","formatted_address":"Nawam Mawatha, Colombo 00200, Sri Lanka","locality":"Colombo","postcode":"00200","region":"Western Province"}},"labels":["concert","music","performing-arts"],"duration":21600,"start_local":"2024-07-28T17:00:00","end":"2024-07-28T17:30:00Z","end_local":"2024-07-28T23:00:00","updated":"2024-07-05T02:46:26Z"},{"title":"MedEx Expo","description":"Sourced from predicthq.com","category":"expos","start":"2024-07-26T18:30:00Z","geo":{"geometry":{"coordinates":[80.636661,7.292783],"type":"Point"},"placekey":"@c29-tqk-bff","address":{"country_code":"LK","formatted_address":"Sri Wickrama Rajasinghe Mawatha, Kandy 20000, Sri Lanka","postcode":"20000","locality":"Kandy","region":"Central Province"}},"labels":["expo"],"duration":172799,"start_local":"2024-07-27T00:00:00","end":"2024-07-28T18:29:59Z","end_local":"2024-07-28T23:59:59","updated":"2024-06-02T14:52:22Z"},{"title":"Hotel Show Colombo","description":"Sourced from predicthq.com","category":"expos","start":"2024-07-25T18:30:00Z","geo":{"geometry":{"coordinates":[79.8726599,6.8997881],"type":"Point"},"placekey":"@c2d-wws-hbk","address":{"country_code":"LK","formatted_address":"Bauddhaloka Mawatha, Colombo 07., Bauddhaloka Mawatha, Colombo 00700, Sri Lanka","postcode":"00700","locality":"Colombo","region":"Western Province"}},"labels":["expo"],"duration":259199,"start_local":"2024-07-26T00:00:00","end":"2024-07-28T18:29:59Z","end_local":"2024-07-28T23:59:59","updated":"2024-05-31T23:00:56Z"},{"title":"SLIIT International Conference on Engineering and Technology","description":"Sourced from predicthq.com","category":"conferences","start":"2024-07-25T03:30:00Z","geo":{"geometry":{"coordinates":[79.972945,6.914678],"type":"Point"},"placekey":"@c2d-vj6-p7q","address":{"country_code":"LK","formatted_address":"Malabe, Western Province, Sri Lanka","locality":"Malabe","region":"Western Province"}},"labels":["conference"],"duration":32400,"start_local":"2024-07-25T09:00:00","end":"2024-07-25T12:30:00Z","end_local":"2024-07-25T18:00:00","updated":"2024-05-21T14:40:51Z"},{"title":"ICSC LOCAL PALM BEACH","description":"Sourced from predicthq.com","category":"expos","start":"2024-07-25T03:30:00Z","geo":{"geometry":{"coordinates":[79.861309,6.922158],"type":"Point"},"placekey":"@c2d-wwm-mkz","address":{"country_code":"LK","formatted_address":"Colombo 01000, Sri Lanka","locality":"Colombo","postcode":"01000","region":"Western Province"}},"labels":["expo"],"duration":32400,"start_local":"2024-07-25T09:00:00","end":"2024-07-25T12:30:00Z","end_local":"2024-07-25T18:00:00","updated":"2024-05-21T09:10:24Z"},{"title":"Annual International Conference on Hospitality and Tourism Management","description":"Sourced from predicthq.com","category":"conferences","start":"2024-07-24T18:30:00Z","geo":{"geometry":{"coordinates":[79.84648,6.920114],"type":"Point"},"placekey":"@c2d-wwk-mhq","address":{"country_code":"LK","formatted_address":"2 CGHW Highway, Colombo 0300, Sri Lanka","postcode":"0300","locality":"Colombo","region":"Western Province"}},"labels":["conference"],"duration":172799,"start_local":"2024-07-25T00:00:00","end":"2024-07-26T18:29:59Z","end_local":"2024-07-26T23:59:59","updated":"2024-06-30T05:53:19Z"},{"title":"Womens Asia Cup T20 - Bangladesh Women vs Malaysia Women","description":"Sourced from predicthq.com","category":"sports","start":"2024-07-24T08:30:00Z","geo":{"geometry":{"coordinates":[80.633889,7.859444],"type":"Point"},"placekey":"@c29-pxz-btv","address":{"country_code":"LK","formatted_address":"VJ5M+FCQ, Dambulla, Sri Lanka","locality":"Dambulla","region":"Central Province"}},"labels":["cricket","sport"],"duration":0,"start_local":"2024-07-24T14:00:00","end":"2024-07-24T08:30:00Z","end_local":"2024-07-24T14:00:00","updated":"2024-06-04T10:32:42Z"},{"title":"Colombo International Tea Convention","description":"Sourced from predicthq.com","category":"conferences","start":"2024-07-23T18:30:00Z","geo":{"geometry":{"coordinates":[79.848477,6.917879],"type":"Point"},"placekey":"@c2d-wwk-q4v","address":{"country_code":"LK","formatted_address":"77 Galle Rd, Colombo 00300, Sri Lanka","postcode":"00300","locality":"Colombo","region":"Western Province"}},"labels":["conference"],"duration":259199,"start_local":"2024-07-24T00:00:00","end":"2024-07-26T18:29:59Z","end_local":"2024-07-26T23:59:59","updated":"2024-05-27T09:31:36Z"},{"title":"Womens Asia Cup T20 - Pakistan Women vs United Arab Emirates Women","description":"Sourced from predicthq.com","category":"sports","start":"2024-07-23T08:30:00Z","geo":{"geometry":{"coordinates":[80.633889,7.859444],"type":"Point"},"placekey":"@c29-pxz-btv","address":{"country_code":"LK","formatted_address":"VJ5M+FCQ, Dambulla, Sri Lanka","locality":"Dambulla","region":"Central Province"}},"labels":["cricket","sport"],"duration":0,"start_local":"2024-07-23T14:00:00","end":"2024-07-23T08:30:00Z","end_local":"2024-07-23T14:00:00","updated":"2024-06-04T02:18:24Z"},{"title":"Womens Asia Cup T20 - Sri Lanka Women vs Malaysia Women","description":"Sourced from predicthq.com","category":"sports","start":"2024-07-22T08:30:00Z","geo":{"geometry":{"coordinates":[80.633889,7.859444],"type":"Point"},"placekey":"@c29-pxz-btv","address":{"country_code":"LK","formatted_address":"VJ5M+FCQ, Dambulla, Sri Lanka","locality":"Dambulla","region":"Central Province"}},"labels":["cricket","sport"],"duration":0,"start_local":"2024-07-22T14:00:00","end":"2024-07-22T08:30:00Z","end_local":"2024-07-22T14:00:00","updated":"2024-06-04T09:55:32Z"},{"title":"Womens Asia Cup T20 - India Women vs United Arab Emirates Women","description":"Sourced from predicthq.com","category":"sports","start":"2024-07-21T08:30:00Z","geo":{"geometry":{"coordinates":[80.633889,7.859444],"type":"Point"},"placekey":"@c29-pxz-btv","address":{"country_code":"LK","formatted_address":"VJ5M+FCQ, Dambulla, Sri Lanka","locality":"Dambulla","region":"Central Province"}},"labels":["cricket","sport"],"duration":0,"start_local":"2024-07-21T14:00:00","end":"2024-07-21T08:30:00Z","end_local":"2024-07-21T14:00:00","updated":"2024-06-28T06:34:58Z"},{"title":"Womens Asia Cup T20 - Malaysia Women vs Thailand Women","description":"Sourced from predicthq.com","category":"sports","start":"2024-07-20T08:30:00Z","geo":{"geometry":{"coordinates":[80.633889,7.859444],"type":"Point"},"placekey":"@c29-pxz-btv","address":{"country_code":"LK","formatted_address":"VJ5M+FCQ, Dambulla, Sri Lanka","locality":"Dambulla","region":"Central Province"}},"labels":["cricket","sport"],"duration":0,"start_local":"2024-07-20T14:00:00","end":"2024-07-20T08:30:00Z","end_local":"2024-07-20T14:00:00","updated":"2024-06-04T01:49:41Z"},{"title":"Electric Vehicle & Energy Storage Systems Expo","description":"Sourced from predicthq.com","category":"expos","start":"2024-07-20T03:30:00Z","geo":{"geometry":{"coordinates":[79.8729087,6.9018766],"type":"Point"},"placekey":"@c2d-wws-h5z","address":{"country_code":"LK","formatted_address":"3G, BMICH (Bandaranaike Memorial International Conference Hall), 21 Bauddhaloka Mawatha, Colombo 00700, Sri Lanka","postcode":"00700","locality":"Colombo","region":"Western Province"}},"labels":["expo"],"duration":118800,"start_local":"2024-07-20T09:00:00","end":"2024-07-21T12:30:00Z","end_local":"2024-07-21T18:00:00","updated":"2024-06-30T06:31:35Z"},{"title":"International Conference on Sustainable Design And The Creative Industries","description":"Sourced from predicthq.com","category":"conferences","start":"2024-07-19T18:30:00Z","geo":{"geometry":{"coordinates":[79.846956,6.918177],"type":"Point"},"placekey":"@c2d-wwk-q75","address":{"country_code":"LK","formatted_address":"Galle Road, Colombo, Sri Lanka","locality":"Colombo","region":"Western Province"}},"labels":["conference"],"duration":172799,"start_local":"2024-07-20T00:00:00","end":"2024-07-21T18:29:59Z","end_local":"2024-07-21T23:59:59","updated":"2024-05-28T08:31:12Z"},{"title":"Womens Asia Cup T20 - United Arab Emirates Women vs Nepal Women","description":"Sourced from predicthq.com","category":"sports","start":"2024-07-19T08:30:00Z","geo":{"geometry":{"coordinates":[80.633889,7.859444],"type":"Point"},"placekey":"@c29-pxz-btv","address":{"country_code":"LK","formatted_address":"VJ5M+FCQ, Dambulla, Sri Lanka","locality":"Dambulla","region":"Central Province"}},"labels":["cricket","sport"],"duration":0,"start_local":"2024-07-19T14:00:00","end":"2024-07-19T08:30:00Z","end_local":"2024-07-19T14:00:00","updated":"2024-06-28T08:28:38Z"},{"title":"Lanka Water Expo","description":"Sourced from predicthq.com","category":"expos","start":"2024-07-18T18:30:00Z","geo":{"geometry":{"coordinates":[79.861243,6.927079],"type":"Point"},"placekey":"@c2d-wwk-xh5","address":{"country_code":"LK","formatted_address":"Colombo 01000, Sri Lanka","locality":"Colombo","postcode":"01000","region":"Western Province"}},"labels":["expo"],"duration":259199,"start_local":"2024-07-19T00:00:00","end":"2024-07-21T18:29:59Z","end_local":"2024-07-21T23:59:59","updated":"2024-06-30T05:54:51Z"},{"title":"Join Us for the Southern Cross University Open Day!","description":"Sourced from predicthq.com - Come hang out with us at the Southern Cross University Open Day to explore our campus, meet faculty members, and learn about our programs!","category":"expos","start":"2024-07-18T05:00:00Z","geo":{"geometry":{"coordinates":[79.85564,6.896461599999999],"type":"Point"},"placekey":"@c2d-wvt-6c5","address":{"country_code":"LK","formatted_address":"School Lane, Colombo, Sri Lanka","locality":"Colombo","region":"Western Province"}},"labels":["expo"],"duration":10800,"start_local":"2024-07-18T10:30:00","end":"2024-07-18T08:00:00Z","end_local":"2024-07-18T13:30:00","updated":"2024-06-27T01:15:09Z"},{"title":"World Conference on Science Engineering and Technology","description":"Sourced from predicthq.com","category":"conferences","start":"2024-07-18T03:30:00Z","geo":{"geometry":{"coordinates":[80.584069,7.221901],"type":"Point"},"placekey":"@c29-tsr-s3q","address":{"country_code":"LK","formatted_address":"Meewaladeniya Road, Udunuwara, Sri Lanka","locality":"Udunuwara","region":"Central Province"}},"labels":["conference"],"duration":118800,"start_local":"2024-07-18T09:00:00","end":"2024-07-19T12:30:00Z","end_local":"2024-07-19T18:00:00","updated":"2024-06-30T06:05:13Z"},{"title":"Third Workshop on Personalization and Recommendations in Search","description":"Sourced from predicthq.com","category":"expos","start":"2024-07-18T03:30:00Z","geo":{"geometry":{"coordinates":[80.740547,7.947282],"type":"Point"},"placekey":"@c29-s9t-3bk","address":{"country_code":"LK","formatted_address":"Sigiriya, Central Province, Sri Lanka","locality":"Sigiriya","region":"Central Province"}},"labels":["expo"],"duration":32400,"start_local":"2024-07-18T09:00:00","end":"2024-07-18T12:30:00Z","end_local":"2024-07-18T18:00:00","updated":"2024-06-16T01:53:48Z"},{"title":"Workshop on Patent Text Mining and Semantic Technologies","description":"Sourced from predicthq.com","category":"expos","start":"2024-07-18T03:30:00Z","geo":{"geometry":{"coordinates":[80.740547,7.947282],"type":"Point"},"placekey":"@c29-s9t-3bk","address":{"country_code":"LK","formatted_address":"Sigiriya, Central Province, Sri Lanka","locality":"Sigiriya","region":"Central Province"}},"labels":["expo"],"duration":32400,"start_local":"2024-07-18T09:00:00","end":"2024-07-18T12:30:00Z","end_local":"2024-07-18T18:00:00","updated":"2024-06-16T01:55:14Z"},{"title":"Lanka Premier League - Dambulla Sixers vs Colombo Strikers","description":"Sourced from predicthq.com","category":"sports","start":"2024-07-16T14:00:00Z","geo":{"geometry":{"coordinates":[79.872028,6.939667],"type":"Point"},"placekey":"@c2d-wwn-vs5","address":{"country_code":"LK","formatted_address":"WVQC+XWP, Khettarama Temple Rd, Colombo 01000, Sri Lanka","postcode":"01000","locality":"Colombo","region":"Western Province"}},"labels":["cricket","sport"],"duration":0,"start_local":"2024-07-16T19:30:00","end":"2024-07-16T14:00:00Z","end_local":"2024-07-16T19:30:00","updated":"2024-06-28T06:29:43Z"},{"title":"International Conference on Business Management, Humanities and Social Science","description":"Sourced from predicthq.com","category":"conferences","start":"2024-07-16T03:30:00Z","geo":{"geometry":{"coordinates":[80.036313,7.158069],"type":"Point"},"placekey":"@c2d-r3n-45f","address":{"country_code":"LK","formatted_address":"323 Airport Road, Naiwala Roundabout, Veyangoda 11100, Sri Lanka","postcode":"11100","locality":"Veyangoda","region":"Western Province"}},"labels":["conference"],"duration":32400,"start_local":"2024-07-16T09:00:00","end":"2024-07-16T12:30:00Z","end_local":"2024-07-16T18:00:00","updated":"2024-06-30T05:58:05Z"},{"title":"International Conference on Renewable, Environment and Agriculture","description":"Sourced from predicthq.com","category":"conferences","start":"2024-07-16T03:30:00Z","geo":{"geometry":{"coordinates":[80.036313,7.158069],"type":"Point"},"placekey":"@c2d-r3n-45f","address":{"country_code":"LK","formatted_address":"323 Airport Road, Naiwala Roundabout, Veyangoda 11100, Sri Lanka","postcode":"11100","locality":"Veyangoda","region":"Western Province"}},"labels":["conference"],"duration":32400,"start_local":"2024-07-16T09:00:00","end":"2024-07-16T12:30:00Z","end_local":"2024-07-16T18:00:00","updated":"2024-06-30T06:04:12Z"},{"title":"Lanka Premier League - B-Love Kandy vs Dambulla Sixers","description":"Sourced from predicthq.com","category":"sports","start":"2024-07-15T09:30:00Z","geo":{"geometry":{"coordinates":[79.872028,6.939667],"type":"Point"},"placekey":"@c2d-wwn-vs5","address":{"country_code":"LK","formatted_address":"WVQC+XWP, Khettarama Temple Rd, Colombo 01000, Sri Lanka","postcode":"01000","locality":"Colombo","region":"Western Province"}},"labels":["cricket","sport"],"duration":0,"start_local":"2024-07-15T15:00:00","end":"2024-07-15T09:30:00Z","end_local":"2024-07-15T15:00:00","updated":"2024-06-28T06:29:43Z"},{"title":"UK Universities Application Day - AHZ Colombo Office","description":"Sourced from predicthq.com - The UK Universities Application Day, organised by AHZ Sri Lanka, will take place at our Colombo Office on June 15 from 10 am to 4 pm.","category":"expos","start":"2024-07-15T04:30:00Z","geo":{"geometry":{"coordinates":[79.8519129,6.911142300000001],"type":"Point"},"placekey":"@c2d-wwm-hkf","address":{"country_code":"LK","formatted_address":"R. A. De Mel Mawatha, Colombo 00300, Sri Lanka","locality":"Colombo","postcode":"00300","region":"Western Province"}},"labels":["education","expo","family"],"duration":7200,"start_local":"2024-07-15T10:00:00","end":"2024-07-15T06:30:00Z","end_local":"2024-07-15T12:00:00","updated":"2024-06-06T01:33:59Z"},{"title":"Lanka Premier League - Dambulla Sixers vs Galle Marvels","description":"Sourced from predicthq.com","category":"sports","start":"2024-07-14T09:30:00Z","geo":{"geometry":{"coordinates":[79.872028,6.939667],"type":"Point"},"placekey":"@c2d-wwn-vs5","address":{"country_code":"LK","formatted_address":"WVQC+XWP, Khettarama Temple Rd, Colombo 01000, Sri Lanka","postcode":"01000","locality":"Colombo","region":"Western Province"}},"labels":["cricket","sport"],"duration":0,"start_local":"2024-07-14T15:00:00","end":"2024-07-14T09:30:00Z","end_local":"2024-07-14T15:00:00","updated":"2024-06-28T06:29:43Z"},{"title":"The Workshop on Multimodal Representation and Retrieval at SIGIR","description":"Sourced from predicthq.com","category":"expos","start":"2024-07-14T03:30:00Z","geo":{"geometry":{"coordinates":[80.740547,7.947282],"type":"Point"},"placekey":"@c29-s9t-3bk","address":{"country_code":"LK","formatted_address":"Sigiriya, Central Province, Sri Lanka","locality":"Sigiriya","region":"Central Province"}},"labels":["expo"],"duration":378000,"start_local":"2024-07-14T09:00:00","end":"2024-07-18T12:30:00Z","end_local":"2024-07-18T18:00:00","updated":"2024-06-14T04:03:29Z"},{"title":"Lanka Premier League - Jaffna Kings vs B-Love Kandy","description":"Sourced from predicthq.com","category":"sports","start":"2024-07-13T14:00:00Z","geo":{"geometry":{"coordinates":[79.872028,6.939667],"type":"Point"},"placekey":"@c2d-wwn-vs5","address":{"country_code":"LK","formatted_address":"WVQC+XWP, Khettarama Temple Rd, Colombo 01000, Sri Lanka","postcode":"01000","locality":"Colombo","region":"Western Province"}},"labels":["cricket","sport"],"duration":0,"start_local":"2024-07-13T19:30:00","end":"2024-07-13T14:00:00Z","end_local":"2024-07-13T19:30:00","updated":"2024-05-27T17:27:07Z"},{"title":"'Salt River' Performance by Ravibandu Vidyapathi and Ensemble","description":"Sourced from predicthq.com - Acclaimed musician Ravibandu Vidyapathi will perform his original soundtrack to 'Salt River' on the Front Terrace.","category":"performing-arts","start":"2024-07-13T12:00:00Z","geo":{"geometry":{"coordinates":[80.02187909999999,6.403383799999999],"type":"Point"},"placekey":"@c25-ysh-jd9","address":{"country_code":"LK","formatted_address":"Haburugala, Southern Province, Sri Lanka","locality":"Haburugala","region":"Southern Province"}},"labels":["concert","music","performing-arts"],"duration":3600,"start_local":"2024-07-13T17:30:00","end":"2024-07-13T13:00:00Z","end_local":"2024-07-13T18:30:00","updated":"2024-06-21T22:29:25Z"},{"title":"UK Education Expo at AHZ Colombo Office","description":"Sourced from predicthq.com - Come check out the UK Education Expo at our AHZ Colombo Office - it's your chance to explore study opportunities in the UK!","category":"expos","start":"2024-07-13T04:30:00Z","geo":{"geometry":{"coordinates":[79.8519129,6.911142300000001],"type":"Point"},"placekey":"@c2d-wwm-hkf","address":{"country_code":"LK","formatted_address":"R. A. De Mel Mawatha, Colombo 00300, Sri Lanka","locality":"Colombo","postcode":"00300","region":"Western Province"}},"labels":["education","expo","family"],"duration":25200,"start_local":"2024-07-13T10:00:00","end":"2024-07-13T11:30:00Z","end_local":"2024-07-13T17:00:00","updated":"2024-07-04T06:46:22Z"},{"title":"The Wedding Show","description":"Sourced from predicthq.com","category":"expos","start":"2024-07-12T03:30:00Z","geo":{"geometry":{"coordinates":[79.8729087,6.9018766],"type":"Point"},"placekey":"@c2d-wws-h5z","address":{"country_code":"LK","formatted_address":"3G, BMICH (Bandaranaike Memorial International Conference Hall), 21 Bauddhaloka Mawatha, Colombo 00700, Sri Lanka","postcode":"00700","locality":"Colombo","region":"Western Province"}},"labels":["expo"],"duration":205200,"start_local":"2024-07-12T09:00:00","end":"2024-07-14T12:30:00Z","end_local":"2024-07-14T18:00:00","updated":"2024-06-16T00:29:39Z"},{"title":"International Feed and Livestock Production Expo","description":"Sourced from predicthq.com - 'Lanka Livestock' is a remarkable expo event dedicated to showcasing the latest advancements and innovations in the livestock industry. With a focus on promoting sustainable practices and fostering growth in the sector, it provides a platform for industry professionals to network, exchange knowledge, and explore cutting-edge technologies.","category":"expos","start":"2024-07-10T18:30:00Z","geo":{"geometry":{"coordinates":[79.848952,6.932361],"type":"Point"},"placekey":"@c2d-wxb-2ff","address":{"country_code":"LK","formatted_address":"12 McCallum Rd, Colombo 01000, Sri Lanka","postcode":"01000","locality":"Colombo","region":"Western Province"}},"labels":["expo"],"duration":259199,"start_local":"2024-07-11T00:00:00","end":"2024-07-13T18:29:59Z","end_local":"2024-07-13T23:59:59","updated":"2024-06-04T08:46:24Z"},{"title":"Lanka Premier League - Colombo Strikers vs Jaffna Kings","description":"Sourced from predicthq.com","category":"sports","start":"2024-07-10T09:30:00Z","geo":{"geometry":{"coordinates":[80.633889,7.859444],"type":"Point"},"placekey":"@c29-pxz-btv","address":{"country_code":"LK","formatted_address":"VJ5M+FCQ, Dambulla, Sri Lanka","locality":"Dambulla","region":"Central Province"}},"labels":["cricket","sport"],"duration":0,"start_local":"2024-07-10T15:00:00","end":"2024-07-10T09:30:00Z","end_local":"2024-07-10T15:00:00","updated":"2024-06-04T06:18:49Z"},{"title":"Lanka Premier League - B-Love Kandy vs Jaffna Kings","description":"Sourced from predicthq.com","category":"sports","start":"2024-07-09T09:30:00Z","geo":{"geometry":{"coordinates":[80.633889,7.859444],"type":"Point"},"placekey":"@c29-pxz-btv","address":{"country_code":"LK","formatted_address":"VJ5M+FCQ, Dambulla, Sri Lanka","locality":"Dambulla","region":"Central Province"}},"labels":["cricket","sport"],"duration":0,"start_local":"2024-07-09T15:00:00","end":"2024-07-09T09:30:00Z","end_local":"2024-07-09T15:00:00","updated":"2024-06-04T02:20:07Z"},{"title":"UK University Open Day - AHZ Sri Lanka","description":"Sourced from predicthq.com - Come check out the UK University Open Day in Sri Lanka hosted by AHZ - it's your chance to explore study options and meet representatives fr","category":"expos","start":"2024-07-08T08:30:00Z","geo":{"geometry":{"coordinates":[79.8519129,6.911142300000001],"type":"Point"},"placekey":"@c2d-wwm-hkf","address":{"country_code":"LK","formatted_address":"R. A. De Mel Mawatha, Colombo 00300, Sri Lanka","locality":"Colombo","postcode":"00300","region":"Western Province"}},"labels":["education","expo","family"],"duration":7200,"start_local":"2024-07-08T14:00:00","end":"2024-07-08T10:30:00Z","end_local":"2024-07-08T16:00:00","updated":"2024-07-04T01:11:55Z"},{"title":"Sri Lanka Transport and Logistics","description":"Sourced from predicthq.com","category":"conferences","start":"2024-07-07T18:30:00Z","geo":{"geometry":{"coordinates":[79.850242,6.910273],"type":"Point"},"placekey":"@c2d-wwm-ckf","address":{"country_code":"LK","formatted_address":"19th Lane, Colombo, Sri Lanka","locality":"Colombo","region":"Western Province"}},"labels":["conference"],"duration":172799,"start_local":"2024-07-08T00:00:00","end":"2024-07-09T18:29:59Z","end_local":"2024-07-09T23:59:59","updated":"2024-05-21T08:39:30Z"},{"title":"Lanka Premier League - Galle Marvels vs B-Love Kandy","description":"Sourced from predicthq.com","category":"sports","start":"2024-07-07T09:30:00Z","geo":{"geometry":{"coordinates":[80.633889,7.859444],"type":"Point"},"placekey":"@c29-pxz-btv","address":{"country_code":"LK","formatted_address":"VJ5M+FCQ, Dambulla, Sri Lanka","locality":"Dambulla","region":"Central Province"}},"labels":["cricket","sport"],"duration":0,"start_local":"2024-07-07T15:00:00","end":"2024-07-07T09:30:00Z","end_local":"2024-07-07T15:00:00","updated":"2024-06-04T03:13:28Z"},{"title":"\"ආර්ථිකය\"  - කලා ප්‍රොජෙක්ෂන් ප්‍රදර්ශනය  + මණ්ඩල සාකච්චාව (සිංහල බසින් )","description":"Sourced from predicthq.com - PROJECT.ACTIVATE is a 4 part Art projection + Panel Discussion event organized by Artivists Society Sri Lanka","category":"conferences","start":"2024-07-06T11:30:00Z","geo":{"geometry":{"coordinates":[80.636661,7.292783],"type":"Point"},"placekey":"@c29-tqk-bff","address":{"country_code":"LK","formatted_address":"Sri Wickrama Rajasinghe Mawatha, Kandy 20000, Sri Lanka","postcode":"20000","locality":"Kandy","region":"Central Province"}},"labels":["community","conference"],"duration":14400,"start_local":"2024-07-06T17:00:00","end":"2024-07-06T15:30:00Z","end_local":"2024-07-06T21:00:00","updated":"2024-07-04T08:08:14Z"},{"title":"Lanka Premier League - B-Love Kandy vs Colombo Strikers","description":"Sourced from predicthq.com","category":"sports","start":"2024-07-06T09:30:00Z","geo":{"geometry":{"coordinates":[80.633889,7.859444],"type":"Point"},"placekey":"@c29-pxz-btv","address":{"country_code":"LK","formatted_address":"VJ5M+FCQ, Dambulla, Sri Lanka","locality":"Dambulla","region":"Central Province"}},"labels":["cricket","sport"],"duration":0,"start_local":"2024-07-06T15:00:00","end":"2024-07-06T09:30:00Z","end_local":"2024-07-06T15:00:00","updated":"2024-06-04T10:00:19Z"},{"title":"Lanka Premier League - Galle Marvels vs Jaffna Kings","description":"Sourced from predicthq.com","category":"sports","start":"2024-07-05T14:00:00Z","geo":{"geometry":{"coordinates":[80.633889,7.859444],"type":"Point"},"placekey":"@c29-pxz-btv","address":{"country_code":"LK","formatted_address":"VJ5M+FCQ, Dambulla, Sri Lanka","locality":"Dambulla","region":"Central Province"}},"labels":["cricket","sport"],"duration":0,"start_local":"2024-07-05T19:30:00","end":"2024-07-05T14:00:00Z","end_local":"2024-07-05T19:30:00","updated":"2024-06-04T01:41:23Z"},{"title":"Gallery Talk: ‘The Art of Documentary Filmmaking?'","description":"Sourced from predicthq.com - Gallery Talk: ‘The Art of Documentary Filmmaking?' with Irushi Tennekoon, Anomaa Rajakaruna and Sharni Jayawardena","category":"conferences","start":"2024-07-05T12:30:00Z","geo":{"geometry":{"coordinates":[79.8485391,6.9171432],"type":"Point"},"placekey":"@c2d-wwk-py9","address":{"country_code":"LK","formatted_address":"Colombo, Western Province, Sri Lanka","locality":"Colombo","region":"Western Province"}},"labels":["conference","entertainment"],"duration":3600,"start_local":"2024-07-05T18:00:00","end":"2024-07-05T13:30:00Z","end_local":"2024-07-05T19:00:00","updated":"2024-07-05T09:31:17Z"},{"title":"Construction, Power & Energy Expo","description":"Sourced from predicthq.com","category":"expos","start":"2024-07-04T18:30:00Z","geo":{"geometry":{"coordinates":[79.8726599,6.8997881],"type":"Point"},"placekey":"@c2d-wws-hbk","address":{"country_code":"LK","formatted_address":"Bauddhaloka Mawatha, Colombo 07., Bauddhaloka Mawatha, Colombo 00700, Sri Lanka","postcode":"00700","locality":"Colombo","region":"Western Province"}},"labels":["expo"],"duration":259199,"start_local":"2024-07-05T00:00:00","end":"2024-07-07T18:29:59Z","end_local":"2024-07-07T23:59:59","updated":"2024-06-16T00:37:59Z"},{"title":"Lanka Premier League - Dambulla Sixers vs Jaffna Kings","description":"Sourced from predicthq.com","category":"sports","start":"2024-07-03T09:30:00Z","geo":{"geometry":{"coordinates":[80.7224512,7.2806593],"type":"Point"},"placekey":"@c29-tpb-qxq","address":{"country_code":"LK","formatted_address":"Pallekele, Central Province, Sri Lanka","locality":"Pallekele","region":"Central Province"}},"labels":["cricket","sport"],"duration":0,"start_local":"2024-07-03T15:00:00","end":"2024-07-03T09:30:00Z","end_local":"2024-07-03T15:00:00","updated":"2024-06-28T06:36:06Z"},{"title":"Lanka Premier League - Jaffna Kings vs Galle Marvels","description":"Sourced from predicthq.com","category":"sports","start":"2024-07-02T09:30:00Z","geo":{"geometry":{"coordinates":[80.7224512,7.2806593],"type":"Point"},"placekey":"@c29-tpb-qxq","address":{"country_code":"LK","formatted_address":"Pallekele, Central Province, Sri Lanka","locality":"Pallekele","region":"Central Province"}},"labels":["cricket","sport"],"duration":0,"start_local":"2024-07-02T15:00:00","end":"2024-07-02T09:30:00Z","end_local":"2024-07-02T15:00:00","updated":"2024-06-04T02:21:10Z"},{"title":"Lanka Premier League - B-Love Kandy vs Dambulla Sixers","description":"Sourced from predicthq.com","category":"sports","start":"2024-07-01T14:00:00Z","geo":{"geometry":{"coordinates":[80.7224512,7.2806593],"type":"Point"},"placekey":"@c29-tpb-qxq","address":{"country_code":"LK","formatted_address":"Pallekele, Central Province, Sri Lanka","locality":"Pallekele","region":"Central Province"}},"labels":["cricket","sport"],"duration":0,"start_local":"2024-07-01T19:30:00","end":"2024-07-01T14:00:00Z","end_local":"2024-07-01T19:30:00","updated":"2024-06-28T06:35:34Z"},{"title":"FREEDOM - Art Projection show + Panel Discussion","description":"Sourced from predicthq.com - PROJECT.ACTIVATE is a 4 part Art projection + Panel Discussion event organized by Artivists Society Sri Lanka","category":"conferences","start":"2024-06-29T11:30:00Z","geo":{"geometry":{"coordinates":[80.636661,7.292783],"type":"Point"},"placekey":"@c29-tqk-bff","address":{"country_code":"LK","formatted_address":"Sri Wickrama Rajasinghe Mawatha, Kandy 20000, Sri Lanka","postcode":"20000","locality":"Kandy","region":"Central Province"}},"labels":["conference","performing-arts"],"duration":14400,"start_local":"2024-06-29T17:00:00","end":"2024-06-29T15:30:00Z","end_local":"2024-06-29T21:00:00","updated":"2024-06-27T07:01:53Z"},{"title":"UK Universities Application Day - AHZ Colombo Office","description":"Sourced from predicthq.com - Come to our UK Universities Application Day at AHZ Colombo Office to get help with your applications!","category":"expos","start":"2024-06-29T04:30:00Z","geo":{"geometry":{"coordinates":[79.8519129,6.911142300000001],"type":"Point"},"placekey":"@c2d-wwm-hkf","address":{"country_code":"LK","formatted_address":"R. A. De Mel Mawatha, Colombo 00300, Sri Lanka","locality":"Colombo","postcode":"00300","region":"Western Province"}},"labels":["education","expo","family"],"duration":21600,"start_local":"2024-06-29T10:00:00","end":"2024-06-29T10:30:00Z","end_local":"2024-06-29T16:00:00","updated":"2024-06-16T00:35:55Z"},{"title":"West Indies Women tour of Sri Lanka - Sri Lanka Women vs West Indies Women","description":"Sourced from predicthq.com","category":"sports","start":"2024-06-28T04:30:00Z","geo":{"geometry":{"coordinates":[81.02687360000004,6.3536012],"type":"Point"},"placekey":"@c25-mwh-59f","address":{"country_code":"LK","formatted_address":"923G+CPX Score Board, Old Rd, Sooriyawewa, Sri Lanka","locality":"Sooriyawewa","region":"Southern Province"}},"labels":["cricket","sport"],"duration":0,"start_local":"2024-06-28T10:00:00","end":"2024-06-28T04:30:00Z","end_local":"2024-06-28T10:00:00","updated":"2024-06-28T06:44:14Z"},{"title":"International Symposium on Advances in Civil and Environmental Engineering Practices for Sustainable Development","description":"Sourced from predicthq.com","category":"conferences","start":"2024-06-27T03:30:00Z","geo":{"geometry":{"coordinates":[80.191965,6.079368],"type":"Point"},"placekey":"@c25-yy6-vcq","address":{"country_code":"LK","formatted_address":"Hapugala, Southern Province, Sri Lanka","locality":"Hapugala","region":"Southern Province"}},"labels":["conference"],"duration":32400,"start_local":"2024-06-27T09:00:00","end":"2024-06-27T12:30:00Z","end_local":"2024-06-27T18:00:00","updated":"2024-05-27T17:01:56Z"},{"title":"West Indies Women tour of Sri Lanka - Sri Lanka Women vs West Indies Women","description":"Sourced from predicthq.com","category":"sports","start":"2024-06-26T04:30:00Z","geo":{"geometry":{"coordinates":[81.02687360000004,6.3536012],"type":"Point"},"placekey":"@c25-mwh-59f","address":{"country_code":"LK","formatted_address":"923G+CPX Score Board, Old Rd, Sooriyawewa, Sri Lanka","locality":"Sooriyawewa","region":"Southern Province"}},"labels":["cricket","sport"],"duration":0,"start_local":"2024-06-26T10:00:00","end":"2024-06-26T04:30:00Z","end_local":"2024-06-26T10:00:00","updated":"2024-06-28T10:21:39Z"},{"title":"Discursive Space 4: Colonialism, Law and Cultural Property","description":"Sourced from predicthq.com - A conversation about how the international colonial legal regime has impacted the treatment of cultural property throughout history.","category":"conferences","start":"2024-06-25T11:30:00Z","geo":{"geometry":{"coordinates":[79.8631223,6.8855501],"type":"Point"},"placekey":"@c2d-wvz-nqz","address":{"country_code":"LK","formatted_address":"Elibank Road, Colombo 00500, Sri Lanka","locality":"Colombo","postcode":"00500","region":"Western Province"}},"labels":["community","conference"],"duration":7200,"start_local":"2024-06-25T17:00:00","end":"2024-06-25T13:30:00Z","end_local":"2024-06-25T19:00:00","updated":"2024-06-21T20:48:52Z"},{"title":"West Indies Women tour of Sri Lanka - West Indies Women vs Sri Lanka Women","description":"Sourced from predicthq.com","category":"sports","start":"2024-06-24T04:30:00Z","geo":{"geometry":{"coordinates":[81.02687360000004,6.3536012],"type":"Point"},"placekey":"@c25-mwh-59f","address":{"country_code":"LK","formatted_address":"923G+CPX Score Board, Old Rd, Sooriyawewa, Sri Lanka","locality":"Sooriyawewa","region":"Southern Province"}},"labels":["cricket","sport"],"duration":0,"start_local":"2024-06-24T10:00:00","end":"2024-06-24T04:30:00Z","end_local":"2024-06-24T10:00:00","updated":"2024-06-28T06:32:55Z"},{"title":"West Indies Women tour of Sri Lanka - Sri Lanka Women vs West Indies Women","description":"Sourced from predicthq.com","category":"sports","start":"2024-06-21T04:30:00Z","geo":{"geometry":{"coordinates":[80.2157484,6.0315438],"type":"Point"},"placekey":"@c25-2gj-v4v","address":{"country_code":"LK","formatted_address":"Colombo Main Rd, Galle 80000, Sri Lanka","postcode":"80000","locality":"Galle","region":"Southern Province"}},"labels":["cricket","sport"],"duration":0,"start_local":"2024-06-21T10:00:00","end":"2024-06-21T04:30:00Z","end_local":"2024-06-21T10:00:00","updated":"2024-05-28T09:34:04Z"},{"title":"Second International Conference on Frontiers in Chemical Technology","description":"Sourced from predicthq.com","category":"conferences","start":"2024-06-20T03:30:00Z","geo":{"geometry":{"coordinates":[79.851504,6.89984],"type":"Point"},"placekey":"@c2d-wvs-3yv","address":{"country_code":"LK","formatted_address":"Galle Road, Colombo 00300, Sri Lanka","locality":"Colombo","postcode":"00300","region":"Western Province"}},"labels":["conference"],"duration":205200,"start_local":"2024-06-20T09:00:00","end":"2024-06-22T12:30:00Z","end_local":"2024-06-22T18:00:00","updated":"2024-05-28T05:24:48Z"},{"title":"International Symposium on Green Industry Initiative for Sustainable Industrial Development","description":"Sourced from predicthq.com","category":"conferences","start":"2024-06-20T03:30:00Z","geo":{"geometry":{"coordinates":[79.8729087,6.9018766],"type":"Point"},"placekey":"@c2d-wws-h5z","address":{"country_code":"LK","formatted_address":"3G, BMICH (Bandaranaike Memorial International Conference Hall), 21 Bauddhaloka Mawatha, Colombo 00700, Sri Lanka","postcode":"00700","locality":"Colombo","region":"Western Province"}},"labels":["conference"],"duration":118800,"start_local":"2024-06-20T09:00:00","end":"2024-06-21T12:30:00Z","end_local":"2024-06-21T18:00:00","updated":"2024-06-02T08:57:13Z"},{"title":"International Industry Expo","description":"Sourced from predicthq.com - This expo focuses on showcasing a wide range of imported products and services, covering industries such as consumer goods, food and beverages, electronics, machinery, and more. The event aims to promote international trade and provide a platform for businesses to explore opportunities in the Chinese market.","category":"expos","start":"2024-06-19T03:30:00Z","geo":{"geometry":{"coordinates":[79.8729087,6.9018766],"type":"Point"},"placekey":"@c2d-wws-h5z","address":{"country_code":"LK","formatted_address":"3G, BMICH (Bandaranaike Memorial International Conference Hall), 21 Bauddhaloka Mawatha, Colombo 00700, Sri Lanka","postcode":"00700","locality":"Colombo","region":"Western Province"}},"labels":["expo"],"duration":378000,"start_local":"2024-06-19T09:00:00","end":"2024-06-23T12:30:00Z","end_local":"2024-06-23T18:00:00","updated":"2024-06-05T16:02:52Z"},{"title":"MAKING AN ARCHIVES LAW","description":"Sourced from predicthq.com - A Discussion on the Framework for National Archives and Records Management Legislation","category":"conferences","start":"2024-06-18T12:00:00Z","geo":{"geometry":{"coordinates":[79.8631223,6.8855501],"type":"Point"},"placekey":"@c2d-wvz-nqz","address":{"country_code":"LK","formatted_address":"Elibank Road, Colombo 00500, Sri Lanka","locality":"Colombo","postcode":"00500","region":"Western Province"}},"labels":["conference"],"duration":7200,"start_local":"2024-06-18T17:30:00","end":"2024-06-18T14:00:00Z","end_local":"2024-06-18T19:30:00","updated":"2024-06-06T01:11:58Z"},{"title":"West Indies Women tour of Sri Lanka - West Indies Women vs Sri Lanka Women","description":"Sourced from predicthq.com","category":"sports","start":"2024-06-18T04:30:00Z","geo":{"geometry":{"coordinates":[80.2157484,6.0315438],"type":"Point"},"placekey":"@c25-2gj-v4v","address":{"country_code":"LK","formatted_address":"Colombo Main Rd, Galle 80000, Sri Lanka","postcode":"80000","locality":"Galle","region":"Southern Province"}},"labels":["cricket","sport"],"duration":0,"start_local":"2024-06-18T10:00:00","end":"2024-06-18T04:30:00Z","end_local":"2024-06-18T10:00:00","updated":"2024-06-28T06:30:47Z"},{"title":"World Conference on Science Engineering and Technology","description":"Sourced from predicthq.com","category":"conferences","start":"2024-06-18T03:30:00Z","geo":{"geometry":{"coordinates":[80.584069,7.221901],"type":"Point"},"placekey":"@c29-tsr-s3q","address":{"country_code":"LK","formatted_address":"Elamaldeniya, Central Province, Sri Lanka","locality":"Elamaldeniya","region":"Central Province"}},"labels":["conference"],"duration":118800,"start_local":"2024-06-18T09:00:00","end":"2024-06-19T12:30:00Z","end_local":"2024-06-19T18:00:00","updated":"2024-05-26T00:56:14Z"},{"title":"International Conference on Renewable, Environment and Agriculture","description":"Sourced from predicthq.com","category":"conferences","start":"2024-06-16T03:30:00Z","geo":{"geometry":{"coordinates":[80.036313,7.158069],"type":"Point"},"placekey":"@c2d-r3n-45f","address":{"country_code":"LK","formatted_address":"323 Airport Road, Naiwala Roundabout, Veyangoda 11100, Sri Lanka","postcode":"11100","locality":"Veyangoda","region":"Western Province"}},"labels":["conference"],"duration":118800,"start_local":"2024-06-16T09:00:00","end":"2024-06-17T12:30:00Z","end_local":"2024-06-17T18:00:00","updated":"2024-06-02T08:00:19Z"},{"title":"International Conferences on Medical and Health Science","description":"Sourced from predicthq.com","category":"conferences","start":"2024-06-15T18:30:00Z","geo":{"geometry":{"coordinates":[79.862474,6.867778],"type":"Point"},"placekey":"@c2d-wvw-g8v","address":{"country_code":"LK","formatted_address":"382 Galle Rd, Colombo 00600, Sri Lanka","postcode":"00600","locality":"Colombo","region":"Western Province"}},"labels":["conference"],"duration":172799,"start_local":"2024-06-16T00:00:00","end":"2024-06-17T18:29:59Z","end_local":"2024-06-17T23:59:59","updated":"2024-05-31T22:55:17Z"},{"title":"International Conference on E-Education, E-Business, E-Management and E-Learning","description":"Sourced from predicthq.com","category":"conferences","start":"2024-06-15T18:30:00Z","geo":{"geometry":{"coordinates":[79.862474,6.867778],"type":"Point"},"placekey":"@c2d-wvw-g8v","address":{"country_code":"LK","formatted_address":"382 Galle Rd, Colombo 00600, Sri Lanka","postcode":"00600","locality":"Colombo","region":"Western Province"}},"labels":["conference"],"duration":172799,"start_local":"2024-06-16T00:00:00","end":"2024-06-17T18:29:59Z","end_local":"2024-06-17T23:59:59","updated":"2024-05-31T23:00:32Z"},{"title":"West Indies Women tour of Sri Lanka - West Indies Women vs Sri Lanka Women","description":"Sourced from predicthq.com","category":"sports","start":"2024-06-15T04:30:00Z","geo":{"geometry":{"coordinates":[81.02687360000004,6.3536012],"type":"Point"},"placekey":"@c25-mwh-59f","address":{"country_code":"LK","formatted_address":"923G+CPX Score Board, Old Rd, Sooriyawewa, Sri Lanka","locality":"Sooriyawewa","region":"Southern Province"}},"labels":["cricket","sport"],"duration":0,"start_local":"2024-06-15T10:00:00","end":"2024-06-15T04:30:00Z","end_local":"2024-06-15T10:00:00","updated":"2024-06-28T10:10:54Z"},{"title":"International Conference on Recycling and Waste Management","description":"Sourced from predicthq.com","category":"conferences","start":"2024-06-12T03:30:00Z","geo":{"geometry":{"coordinates":[79.845226,6.932339],"type":"Point"},"placekey":"@c2d-wxb-3bk","address":{"country_code":"LK","formatted_address":"2 Sir Chittampalam A Gardiner Mawatha, Colombo 02, Sri Lanka","postcode":"02","locality":"Colombo","region":"Western Province"}},"labels":["conference"],"duration":291600,"start_local":"2024-06-12T09:00:00","end":"2024-06-15T12:30:00Z","end_local":"2024-06-15T18:00:00","updated":"2024-05-28T01:50:47Z"},{"title":"International Conference on Contemporary Management","description":"Sourced from predicthq.com","category":"conferences","start":"2024-06-12T03:30:00Z","geo":{"geometry":{"coordinates":[80.022041,9.684856],"type":"Point"},"placekey":"@c3v-5mn-tn5","address":{"country_code":"LK","formatted_address":"Kokuvil East, Northern Province, Sri Lanka","locality":"Kokuvil East","region":"Northern Province"}},"labels":["conference"],"duration":118800,"start_local":"2024-06-12T09:00:00","end":"2024-06-13T12:30:00Z","end_local":"2024-06-13T18:00:00","updated":"2024-06-02T08:57:18Z"},{"title":"Culinary Art Food Expo","description":"Sourced from predicthq.com","category":"expos","start":"2024-06-07T03:30:00Z","geo":{"geometry":{"coordinates":[79.8729087,6.9018766],"type":"Point"},"placekey":"@c2d-wws-h5z","address":{"country_code":"LK","formatted_address":"3G, BMICH (Bandaranaike Memorial International Conference Hall), 21 Bauddhaloka Mawatha, Colombo 00700, Sri Lanka","postcode":"00700","locality":"Colombo","region":"Western Province"}},"labels":["expo"],"duration":205200,"start_local":"2024-06-07T09:00:00","end":"2024-06-09T12:30:00Z","end_local":"2024-06-09T18:00:00","updated":"2024-06-30T11:37:08Z"},{"title":"Discursive Space 4: Colonialism, Law and Cultural Property","description":"Sourced from predicthq.com - Prof. Naazima Kamardeen on how the international colonial legal regime has impacted the treatment of cultural property throughout history","category":"conferences","start":"2024-06-05T11:30:00Z","geo":{"geometry":{"coordinates":[79.8631223,6.8855501],"type":"Point"},"placekey":"@c2d-wvz-nqz","address":{"country_code":"LK","formatted_address":"Elibank Road, Colombo 00500, Sri Lanka","locality":"Colombo","postcode":"00500","region":"Western Province"}},"labels":["community","conference"],"duration":7200,"start_local":"2024-06-05T17:00:00","end":"2024-06-05T13:30:00Z","end_local":"2024-06-05T19:00:00","updated":"2024-05-30T01:14:20Z"},{"title":"Asian Legends League 2024 - Pakistan Stars vs Sri Lankan Lions","description":"Sourced from predicthq.com","category":"sports","start":"2024-05-31T09:00:00Z","geo":{"geometry":{"coordinates":[80.633889,7.859444],"type":"Point"},"placekey":"@c29-pxz-btv","address":{"country_code":"LK","formatted_address":"VJ5M+FCQ, Dambulla, Sri Lanka","locality":"Dambulla","region":"Central Province"}},"labels":["cricket","sport"],"duration":0,"start_local":"2024-05-31T14:30:00","end":"2024-05-31T09:00:00Z","end_local":"2024-05-31T14:30:00","updated":"2024-06-05T13:43:21Z"},{"title":"Asian Legends League 2024 - Pakistan Stars vs Bangladesh Tigers","description":"Sourced from predicthq.com","category":"sports","start":"2024-05-30T09:30:00Z","geo":{"geometry":{"coordinates":[80.633889,7.859444],"type":"Point"},"placekey":"@c29-pxz-btv","address":{"country_code":"LK","formatted_address":"VJ5M+FCQ, Dambulla, Sri Lanka","locality":"Dambulla","region":"Central Province"}},"labels":["cricket","sport"],"duration":0,"start_local":"2024-05-30T15:00:00","end":"2024-05-30T09:30:00Z","end_local":"2024-05-30T15:00:00","updated":"2024-06-04T23:32:03Z"},{"title":"Knowledge Forum with Taz Rajabali","description":"Sourced from predicthq.com - It's our first Public Knowledge Forum with Taz Rajabali!","category":"conferences","start":"2024-05-30T07:30:00Z","geo":{"geometry":{"coordinates":[79.843155,6.931679],"type":"Point"},"placekey":"@c2d-wx9-mtv","address":{"country_code":"LK","formatted_address":"64 Lotus Road, Colombo 00100, Sri Lanka","postcode":"00100","locality":"Colombo","region":"Western Province"}},"labels":["business","conference"],"duration":16200,"start_local":"2024-05-30T13:00:00","end":"2024-05-30T12:00:00Z","end_local":"2024-05-30T17:30:00","updated":"2024-05-25T06:22:14Z"},{"title":"The 10th World Conference on Women’s Studies 2024","description":"Sourced from predicthq.com - Join us for the 10th World Conference on Women’s Studies 2024, where we celebrate and empower women in person on May 30th, 2024!","category":"conferences","start":"2024-05-30T02:30:00Z","geo":{"geometry":{"coordinates":[79.84648,6.920114],"type":"Point"},"placekey":"@c2d-wwk-mhq","address":{"country_code":"LK","formatted_address":"2 CGHW Highway, Colombo 0300, Sri Lanka","postcode":"0300","locality":"Colombo","region":"Western Province"}},"labels":["conference"],"duration":122400,"start_local":"2024-05-30T08:00:00","end":"2024-05-31T12:30:00Z","end_local":"2024-05-31T18:00:00","updated":"2024-06-05T11:51:52Z"},{"title":"Asian Legends League 2024 - Sri Lankan Lions vs Afghanistan Pathans","description":"Sourced from predicthq.com","category":"sports","start":"2024-05-29T09:30:00Z","geo":{"geometry":{"coordinates":[80.633889,7.859444],"type":"Point"},"placekey":"@c29-pxz-btv","address":{"country_code":"LK","formatted_address":"VJ5M+FCQ, Dambulla, Sri Lanka","locality":"Dambulla","region":"Central Province"}},"labels":["cricket","sport"],"duration":0,"start_local":"2024-05-29T15:00:00","end":"2024-05-29T09:30:00Z","end_local":"2024-05-29T15:00:00","updated":"2024-06-05T05:08:26Z"},{"title":"Asian Legends League 2024 - Afghanistan Pathans vs Bangladesh Tigers","description":"Sourced from predicthq.com","category":"sports","start":"2024-05-28T09:30:00Z","geo":{"geometry":{"coordinates":[80.633889,7.859444],"type":"Point"},"placekey":"@c29-pxz-btv","address":{"country_code":"LK","formatted_address":"VJ5M+FCQ, Dambulla, Sri Lanka","locality":"Dambulla","region":"Central Province"}},"labels":["cricket","sport"],"duration":0,"start_local":"2024-05-28T15:00:00","end":"2024-05-28T09:30:00Z","end_local":"2024-05-28T15:00:00","updated":"2024-06-05T12:11:37Z"},{"title":"Iora Business Forum Conclave","description":"Sourced from predicthq.com","category":"conferences","start":"2024-05-28T03:30:00Z","geo":{"geometry":{"coordinates":[79.844608,6.928195],"type":"Point"},"placekey":"@c2d-wx9-q9f","address":{"country_code":"LK","formatted_address":"2, 1 Colombo - Galle - Hambantota - Wellawaya Hwy, Colombo 00200, Sri Lanka","postcode":"00200","locality":"Colombo","region":"Western Province"}},"labels":["conference"],"duration":118800,"start_local":"2024-05-28T09:00:00","end":"2024-05-29T12:30:00Z","end_local":"2024-05-29T18:00:00","updated":"2024-06-05T04:09:27Z"},{"title":"Asian Legends League 2024 - Pakistan Stars vs Afghanistan Pathans","description":"Sourced from predicthq.com","category":"sports","start":"2024-05-27T09:30:00Z","geo":{"geometry":{"coordinates":[80.633889,7.859444],"type":"Point"},"placekey":"@c29-pxz-btv","address":{"country_code":"LK","formatted_address":"VJ5M+FCQ, Dambulla, Sri Lanka","locality":"Dambulla","region":"Central Province"}},"labels":["cricket","sport"],"duration":0,"start_local":"2024-05-27T15:00:00","end":"2024-05-27T09:30:00Z","end_local":"2024-05-27T15:00:00","updated":"2024-06-05T12:58:14Z"},{"title":"Andre A. Montes","description":"Sourced from predicthq.com - ¡Ven y únete a la fiesta de Andre A. Montes para celebrar la vida, la música y la diversión juntos!","category":"performing-arts","start":"2024-05-19T04:30:00Z","geo":{"geometry":{"coordinates":[79.85613699999999,6.8919032],"type":"Point"},"placekey":"@c2d-wvt-975","address":{"country_code":"LK","formatted_address":"Colombo - Galle Main Road, Colombo, Sri Lanka","locality":"Colombo","region":"Western Province"}},"labels":["concert","music","performing-arts"],"duration":7200,"start_local":"2024-05-19T10:00:00","end":"2024-05-19T06:30:00Z","end_local":"2024-05-19T12:00:00","updated":"2024-06-02T04:32:10Z"},{"title":"World Conference on Science Engineering and Technology","description":"Sourced from predicthq.com","category":"conferences","start":"2024-05-18T03:30:00Z","geo":{"geometry":{"coordinates":[80.584069,7.221901],"type":"Point"},"placekey":"@c29-tsr-s3q","address":{"country_code":"LK","formatted_address":"Elamaldeniya, Central Province, Sri Lanka","locality":"Elamaldeniya","region":"Central Province"}},"labels":["conference"],"duration":118800,"start_local":"2024-05-18T09:00:00","end":"2024-05-19T12:30:00Z","end_local":"2024-05-19T18:00:00","updated":"2024-05-26T00:56:14Z"},{"title":"Sancharaka Udawa","description":"Sourced from predicthq.com","category":"expos","start":"2024-05-16T18:30:00Z","geo":{"geometry":{"coordinates":[79.8726599,6.8997881],"type":"Point"},"placekey":"@c2d-wws-hbk","address":{"country_code":"LK","formatted_address":"Bauddhaloka Mawatha, Colombo 07., Bauddhaloka Mawatha, Colombo 00700, Sri Lanka","postcode":"00700","locality":"Colombo","region":"Western Province"}},"labels":["expo"],"duration":172799,"start_local":"2024-05-17T00:00:00","end":"2024-05-18T18:29:59Z","end_local":"2024-05-18T23:59:59","updated":"2024-06-05T03:55:31Z"},{"title":"International Conference on Business Management, Humanities and Social Science","description":"Sourced from predicthq.com","category":"conferences","start":"2024-05-16T03:30:00Z","geo":{"geometry":{"coordinates":[80.036313,7.158069],"type":"Point"},"placekey":"@c2d-r3n-45f","address":{"country_code":"LK","formatted_address":"323 Airport Road, Naiwala Roundabout, Veyangoda 11100, Sri Lanka","postcode":"11100","locality":"Veyangoda","region":"Western Province"}},"labels":["conference"],"duration":32400,"start_local":"2024-05-16T09:00:00","end":"2024-05-16T12:30:00Z","end_local":"2024-05-16T18:00:00","updated":"2024-06-02T07:55:56Z"},{"title":"International Conference on Renewable, Environment and Agriculture","description":"Sourced from predicthq.com","category":"conferences","start":"2024-05-16T03:30:00Z","geo":{"geometry":{"coordinates":[80.036313,7.158069],"type":"Point"},"placekey":"@c2d-r3n-45f","address":{"country_code":"LK","formatted_address":"323 Airport Road, Naiwala Roundabout, Veyangoda 11100, Sri Lanka","postcode":"11100","locality":"Veyangoda","region":"Western Province"}},"labels":["conference"],"duration":32400,"start_local":"2024-05-16T09:00:00","end":"2024-05-16T12:30:00Z","end_local":"2024-05-16T18:00:00","updated":"2024-06-02T08:00:19Z"},{"title":"ඔබේ අනාගතය තීරණයකරන රටේ  ආර් ථිකයේ දිශානතිය","description":"Sourced from predicthq.com - රාජ්‍ය ව්‍යාපාර ප‍‍්‍රතිව්‍යූහගත කිරීම හා රාජ්‍ය විදයම් කළමණාකරණය, බදු ක‍්‍රමයේ අවශ්‍ය ප‍‍්‍රතිසංස්කරණ ඇතුලත් විද්වත් කතාබහ","category":"conferences","start":"2024-05-12T09:30:00Z","geo":{"geometry":{"coordinates":[81.0053359,6.8420062],"type":"Point"},"placekey":"@c25-jrq-f75","address":{"country_code":"LK","formatted_address":"Bandarawela, Uva Province, Sri Lanka","locality":"Bandarawela","region":"Uva Province"}},"labels":["business","conference"],"duration":7200,"start_local":"2024-05-12T15:00:00","end":"2024-05-12T11:30:00Z","end_local":"2024-05-12T17:00:00","updated":"2024-06-05T09:35:20Z"},{"title":"Housing & Construction Expo","description":"Sourced from predicthq.com - The Housing & Construction Expo is a premier event that showcases the latest trends and innovations in the housing and construction industry. Discover an extensive range of products and services, network with industry professionals, and gain valuable insights to build or renovate your dream home.","category":"expos","start":"2024-05-09T18:30:00Z","geo":{"geometry":{"coordinates":[79.8729087,6.9018766],"type":"Point"},"placekey":"@c2d-wws-h5z","address":{"country_code":"LK","formatted_address":"3G, BMICH (Bandaranaike Memorial International Conference Hall), 21 Bauddhaloka Mawatha, Colombo 00700, Sri Lanka","postcode":"00700","locality":"Colombo","region":"Western Province"}},"labels":["expo"],"duration":259199,"start_local":"2024-05-10T00:00:00","end":"2024-05-12T18:29:59Z","end_local":"2024-05-12T23:59:59","updated":"2024-06-05T13:00:25Z"},{"title":"The 9th World Conference on Media and Mass Communication 2024","description":"Sourced from predicthq.com - Welcome to the 9th World Conference on Media and Mass Communication 2024 which will take place from the 09th – 10th May 2024 in Colombo.","category":"conferences","start":"2024-05-09T02:30:00Z","geo":{"geometry":{"coordinates":[79.84648,6.920114],"type":"Point"},"placekey":"@c2d-wwk-mhq","address":{"country_code":"LK","formatted_address":"2 CGHW Highway, Colombo 0300, Sri Lanka","postcode":"0300","locality":"Colombo","region":"Western Province"}},"labels":["business","conference"],"duration":122400,"start_local":"2024-05-09T08:00:00","end":"2024-05-10T12:30:00Z","end_local":"2024-05-10T18:00:00","updated":"2024-06-05T10:05:48Z"},{"title":"Koku Samagama Live at SNAFU","description":"Sourced from predicthq.com - An evening of original music and performance from 7-piece jazz act, Koku Samagama.","category":"performing-arts","start":"2024-05-04T14:30:00Z","geo":{"geometry":{"coordinates":[79.8758349,6.911763599999999],"type":"Point"},"placekey":"@c2d-wws-rx5","address":{"country_code":"LK","formatted_address":"Kynsey Road, Colombo 00700, Sri Lanka","locality":"Colombo","postcode":"00700","region":"Western Province"}},"labels":["concert","music","performing-arts"],"duration":12600,"start_local":"2024-05-04T20:00:00","end":"2024-05-04T18:00:00Z","end_local":"2024-05-04T23:30:00","updated":"2024-06-05T11:30:39Z"},{"title":"Rugby Union Internationals - Friendlies 3 - Kazakhstan vs Sri Lanka","description":"Sourced from predicthq.com","category":"sports","start":"2024-05-04T13:30:00Z","geo":{"geometry":{"coordinates":[79.86395233747687,6.90529064741616],"type":"Point"},"placekey":"@c2d-wws-n5z","address":{"country_code":"LK","formatted_address":"Colombo 00700, Sri Lanka","locality":"Colombo","postcode":"00700","region":"Western Province"}},"labels":["rugby","sport"],"duration":0,"start_local":"2024-05-04T19:00:00","end":"2024-05-04T13:30:00Z","end_local":"2024-05-04T19:00:00","updated":"2024-06-12T05:18:35Z"},{"title":"Rugby Union Internationals - Friendlies 3 - Qatar vs India","description":"Sourced from predicthq.com","category":"sports","start":"2024-05-04T10:30:00Z","geo":{"geometry":{"coordinates":[79.86395233747687,6.90529064741616],"type":"Point"},"placekey":"@c2d-wws-n5z","address":{"country_code":"LK","formatted_address":"Colombo 00700, Sri Lanka","locality":"Colombo","postcode":"00700","region":"Western Province"}},"labels":["rugby","sport"],"duration":0,"start_local":"2024-05-04T16:00:00","end":"2024-05-04T10:30:00Z","end_local":"2024-05-04T16:00:00","updated":"2024-06-12T03:45:24Z"},{"title":"UK Education Expo - Mandarina Colombo","description":"Sourced from predicthq.com - Come join us at the UK Education Expo in Mandarina Colombo to explore study opportunities in the UK!","category":"expos","start":"2024-05-04T05:30:00Z","geo":{"geometry":{"coordinates":[79.8535668,6.900072100000001],"type":"Point"},"placekey":"@c2d-wvs-j7q","address":{"country_code":"LK","formatted_address":"Galle Road, Mandarina 00300, Sri Lanka","locality":"Mandarina","postcode":"00300","region":"Western Province"}},"labels":["education","expo","family"],"duration":21600,"start_local":"2024-05-04T11:00:00","end":"2024-05-04T11:30:00Z","end_local":"2024-05-04T17:00:00","updated":"2024-06-05T20:56:52Z"},{"title":"Upcoming Dubai Property Expo in Srilanka! Don't Miss","description":"Sourced from predicthq.com - Hey guys! Get ready for the ultimate Dubai Property Expo in Srilanka! Don't miss out on this amazing event showcasing the best properties in","category":"expos","start":"2024-05-04T04:30:00Z","geo":{"geometry":{"coordinates":[79.8495,6.9292],"type":"Point"},"placekey":"@c2d-wwm-2hq","address":{"country_code":"LK","formatted_address":"115, Sir Chittampalam A Gardiner Mawatha, Colombo 00200, Sri Lanka","postcode":"00200","locality":"Colombo","region":"Western Province"}},"labels":["expo","outdoor"],"duration":122400,"start_local":"2024-05-04T10:00:00","end":"2024-05-05T14:30:00Z","end_local":"2024-05-05T20:00:00","updated":"2024-06-05T00:29:54Z"},{"title":"Gallery Talk: ‘Geddes and the Garden City’ with Ramla and Sumedha","description":"Sourced from predicthq.com - Gallery Talk: ‘Geddes and the Garden City’ with Ramla Wahab-Salman and Sumedha Kelegama","category":"conferences","start":"2024-05-03T12:30:00Z","geo":{"geometry":{"coordinates":[79.8485391,6.9171432],"type":"Point"},"placekey":"@c2d-wwk-py9","address":{"country_code":"LK","formatted_address":"Colombo, Western Province, Sri Lanka","locality":"Colombo","region":"Western Province"}},"labels":["conference","performing-arts"],"duration":3600,"start_local":"2024-05-03T18:00:00","end":"2024-05-03T13:30:00Z","end_local":"2024-05-03T19:00:00","updated":"2024-06-04T21:38:56Z"},{"title":"AyurEx Colombo","description":"Sourced from predicthq.com","category":"conferences","start":"2024-05-03T03:30:00Z","geo":{"geometry":{"coordinates":[79.8729087,6.9018766],"type":"Point"},"placekey":"@c2d-wws-h5z","address":{"country_code":"LK","formatted_address":"3G, BMICH (Bandaranaike Memorial International Conference Hall), 21 Bauddhaloka Mawatha, Colombo 00700, Sri Lanka","postcode":"00700","locality":"Colombo","region":"Western Province"}},"labels":["conference"],"duration":205200,"start_local":"2024-05-03T09:00:00","end":"2024-05-05T12:30:00Z","end_local":"2024-05-05T18:00:00","updated":"2024-06-04T04:28:27Z"},{"title":"The 10th International Conference on Education 2024","description":"Sourced from predicthq.com - Join us at this premier conference to explore the latest trends and challenges in the field and engage with top researchers and experts.","category":"conferences","start":"2024-05-02T03:30:00Z","geo":{"geometry":{"coordinates":[79.84433709999999,6.9338586],"type":"Point"},"placekey":"@c2d-wx9-yy9","address":{"country_code":"LK","formatted_address":"Hospital Street, Colombo, Sri Lanka","locality":"Colombo","region":"Western Province"}},"labels":["conference","education","family"],"duration":205200,"start_local":"2024-05-02T09:00:00","end":"2024-05-04T12:30:00Z","end_local":"2024-05-04T18:00:00","updated":"2024-06-05T02:45:49Z"},{"title":"International Conference on Education","description":"Sourced from predicthq.com","category":"conferences","start":"2024-05-01T18:30:00Z","geo":{"geometry":{"coordinates":[79.84648,6.920114],"type":"Point"},"placekey":"@c2d-wwk-mhq","address":{"country_code":"LK","formatted_address":"2 CGHW Highway, Colombo 0300, Sri Lanka","postcode":"0300","locality":"Colombo","region":"Western Province"}},"labels":["conference"],"duration":259199,"start_local":"2024-05-02T00:00:00","end":"2024-05-04T18:29:59Z","end_local":"2024-05-04T23:59:59","updated":"2024-06-05T06:34:01Z"},{"title":"Rugby Union Internationals - Friendlies 3 - Sri Lanka vs India","description":"Sourced from predicthq.com","category":"sports","start":"2024-04-30T13:30:00Z","geo":{"geometry":{"coordinates":[79.86395233747687,6.90529064741616],"type":"Point"},"placekey":"@c2d-wws-n5z","address":{"country_code":"LK","formatted_address":"Colombo 00700, Sri Lanka","locality":"Colombo","postcode":"00700","region":"Western Province"}},"labels":["rugby","sport"],"duration":0,"start_local":"2024-04-30T19:00:00","end":"2024-04-30T13:30:00Z","end_local":"2024-04-30T19:00:00","updated":"2024-06-12T10:33:57Z"},{"title":"Rugby Union Internationals - Friendlies 3 - Qatar vs Kazakhstan","description":"Sourced from predicthq.com","category":"sports","start":"2024-04-30T10:30:00Z","geo":{"geometry":{"coordinates":[79.86395233747687,6.90529064741616],"type":"Point"},"placekey":"@c2d-wws-n5z","address":{"country_code":"LK","formatted_address":"Colombo 00700, Sri Lanka","locality":"Colombo","postcode":"00700","region":"Western Province"}},"labels":["rugby","sport"],"duration":0,"start_local":"2024-04-30T16:00:00","end":"2024-04-30T10:30:00Z","end_local":"2024-04-30T16:00:00","updated":"2024-06-12T08:43:25Z"},{"title":"Crosstalk","description":"Sourced from predicthq.com - Sri Lankan Hip-Hop Showcase","category":"concerts","start":"2024-04-27T14:30:00Z","geo":{"geometry":{"coordinates":[79.8758349,6.911763599999999],"type":"Point"},"placekey":"@c2d-wws-rx5","address":{"country_code":"LK","formatted_address":"Kynsey Road, Colombo 00700, Sri Lanka","locality":"Colombo","postcode":"00700","region":"Western Province"}},"labels":["concert","music"],"duration":12600,"start_local":"2024-04-27T20:00:00","end":"2024-04-27T18:00:00Z","end_local":"2024-04-27T23:30:00","updated":"2024-06-04T23:31:23Z"},{"title":"Vice City","description":"Sourced from predicthq.com","category":"concerts","start":"2024-04-26T13:30:00Z","geo":{"geometry":{"coordinates":[79.8399887,7.2260852],"type":"Point"},"placekey":"@c2d-qpv-y5f","address":{"country_code":"LK","formatted_address":"Carron Place, Negombo 11500, Sri Lanka","locality":"Negombo","postcode":"11500","region":"Western Province"}},"labels":["concert","music"],"duration":0,"start_local":"2024-04-26T19:00:00","end":"2024-04-26T13:30:00Z","end_local":"2024-04-26T19:00:00","updated":"2024-06-11T22:29:23Z"},{"title":"Patient Safety in Healthcare Settings: The Role of Nurses","description":"Sourced from predicthq.com - Conducted by: A/Prof. Stephane Bouchoucha, Associate Head of School - International, School of Nursing & Midwifery, Deakin University","category":"conferences","start":"2024-04-25T13:00:00Z","geo":{"geometry":{"coordinates":[79.8557153,6.917499200000001],"type":"Point"},"placekey":"@c2d-wwk-hyv","address":{"country_code":"LK","formatted_address":"Colombo, Western Province, Sri Lanka","locality":"Colombo","region":"Western Province"}},"labels":["conference","health"],"duration":5400,"start_local":"2024-04-25T18:30:00","end":"2024-04-25T14:30:00Z","end_local":"2024-04-25T20:00:00","updated":"2024-06-05T04:00:16Z"},{"title":"Electric Vehicle & Energy Storage Systems Expo","description":"Sourced from predicthq.com","category":"expos","start":"2024-04-25T03:30:00Z","geo":{"geometry":{"coordinates":[79.8729087,6.9018766],"type":"Point"},"placekey":"@c2d-wws-h5z","address":{"country_code":"LK","formatted_address":"3G, BMICH (Bandaranaike Memorial International Conference Hall), 21 Bauddhaloka Mawatha, Colombo 00700, Sri Lanka","postcode":"00700","locality":"Colombo","region":"Western Province"}},"labels":["expo"],"duration":205200,"start_local":"2024-04-25T09:00:00","end":"2024-04-27T12:30:00Z","end_local":"2024-04-27T18:00:00","updated":"2024-06-04T22:56:29Z"},{"title":"LANKA WATER EXPO","description":"Sourced from predicthq.com - We invite you to be a part of a ground-breaking event in the B2B sector of water and wastewater treatment, the Lanka Water Expo, and make it an extraordinary and important experience. We will connect you with the most qualified equipment, and technology providers. Find contingency plans and product procurement options before you need them. You'll also learn about new, emerging water treatment technologies and products to help you prepare for the future.","category":"expos","start":"2024-04-24T18:30:00Z","geo":{"geometry":{"coordinates":[79.8729087,6.9018766],"type":"Point"},"placekey":"@c2d-wws-h5z","address":{"country_code":"LK","formatted_address":"3G, BMICH (Bandaranaike Memorial International Conference Hall), 21 Bauddhaloka Mawatha, Colombo 00700, Sri Lanka","postcode":"00700","locality":"Colombo","region":"Western Province"}},"labels":["expo","product","technology"],"duration":259199,"start_local":"2024-04-25T00:00:00","end":"2024-04-27T18:29:59Z","end_local":"2024-04-27T23:59:59","updated":"2024-06-05T10:50:41Z"},{"title":"British Boarding School: What Do You Need to Know to Send Your Children to Study in England? by Caterham School","description":"Sourced from predicthq.com","category":"expos","start":"2024-04-23T18:30:00Z","geo":{"geometry":{"coordinates":[79.846852,6.922633],"type":"Point"},"placekey":"@c2d-wwk-nnq","address":{"country_code":"LK","formatted_address":"25 Galle Face Center Rd, Colombo 80000, Sri Lanka","postcode":"80000","locality":"Colombo","region":"Western Province"}},"labels":["expo"],"duration":86399,"start_local":"2024-04-24T00:00:00","end":"2024-04-24T18:29:59Z","end_local":"2024-04-24T23:59:59","updated":"2024-05-27T01:17:06Z"},{"title":"World Conference on Science Engineering and Technology","description":"Sourced from predicthq.com","category":"conferences","start":"2024-04-18T03:30:00Z","geo":{"geometry":{"coordinates":[80.584069,7.221901],"type":"Point"},"placekey":"@c29-tsr-s3q","address":{"country_code":"LK","formatted_address":"Elamaldeniya, Central Province, Sri Lanka","locality":"Elamaldeniya","region":"Central Province"}},"labels":["conference"],"duration":118800,"start_local":"2024-04-18T09:00:00","end":"2024-04-19T12:30:00Z","end_local":"2024-04-19T18:00:00","updated":"2024-05-26T00:56:09Z"},{"title":"International Conference on Business Management, Humanities and Social Science","description":"Sourced from predicthq.com","category":"conferences","start":"2024-04-16T03:30:00Z","geo":{"geometry":{"coordinates":[80.036313,7.158069],"type":"Point"},"placekey":"@c2d-r3n-45f","address":{"country_code":"LK","formatted_address":"323 Airport Road, Naiwala Roundabout, Veyangoda 11100, Sri Lanka","postcode":"11100","locality":"Veyangoda","region":"Western Province"}},"labels":["conference"],"duration":32400,"start_local":"2024-04-16T09:00:00","end":"2024-04-16T12:30:00Z","end_local":"2024-04-16T18:00:00","updated":"2024-06-02T07:54:10Z"},{"title":"International Conference on Renewable, Environment and Agriculture","description":"Sourced from predicthq.com","category":"conferences","start":"2024-04-16T03:30:00Z","geo":{"geometry":{"coordinates":[80.036313,7.158069],"type":"Point"},"placekey":"@c2d-r3n-45f","address":{"country_code":"LK","formatted_address":"323 Airport Road, Naiwala Roundabout, Veyangoda 11100, Sri Lanka","postcode":"11100","locality":"Veyangoda","region":"Western Province"}},"labels":["conference"],"duration":32400,"start_local":"2024-04-16T09:00:00","end":"2024-04-16T12:30:00Z","end_local":"2024-04-16T18:00:00","updated":"2024-06-02T07:55:41Z"},{"title":"Curatorial Talk: \"But We've Already Met\" by Nada Raza","description":"Sourced from predicthq.com - Join us for a new series of talks on art and design, continuing with curator and researcher Nada Raza.","category":"conferences","start":"2024-04-09T12:30:00Z","geo":{"geometry":{"coordinates":[79.86553669999999,6.9169585],"type":"Point"},"placekey":"@c2d-wwm-n89","address":{"country_code":"LK","formatted_address":"Ward Place, Colombo 01000, Sri Lanka","locality":"Colombo","postcode":"01000","region":"Western Province"}},"labels":["conference","performing-arts"],"duration":5400,"start_local":"2024-04-09T18:00:00","end":"2024-04-09T14:00:00Z","end_local":"2024-04-09T19:30:00","updated":"2024-06-05T10:34:30Z"},{"title":"Colombo Shopping Festival","description":"Sourced from predicthq.com","category":"expos","start":"2024-04-04T18:30:00Z","geo":{"geometry":{"coordinates":[79.861243,6.927079],"type":"Point"},"placekey":"@c2d-wwk-xh5","address":{"country_code":"LK","formatted_address":"Colombo 01000, Sri Lanka","locality":"Colombo","postcode":"01000","region":"Western Province"}},"labels":["expo"],"duration":604799,"start_local":"2024-04-05T00:00:00","end":"2024-04-11T18:29:59Z","end_local":"2024-04-11T23:59:59","updated":"2024-06-30T09:15:16Z"}]