[{"title":"Inaugurating Techcrafters Africa 2024","description":"Sourced from predicthq.com - Get ready to witness the official launch of Techcrafters Africa 2024, where innovation and creativity collide in person!","category":"conferences","start":"2024-09-27T09:00:00Z","geo":{"geometry":{"coordinates":[-10.8021328,6.315466499999999],"type":"Point"},"placekey":"@dwd-cfy-hh5","address":{"country_code":"LR","formatted_address":"Broad Street, Monrovia, Liberia","locality":"Monrovia","region":"Montserrado"}},"labels":["conference","science","technology"],"duration":41400,"start_local":"2024-09-27T09:00:00","end":"2024-09-27T20:30:00Z","end_local":"2024-09-27T20:30:00","updated":"2024-06-22T07:06:01Z"},{"title":"Aquaculture Development Day in Liberia","description":"Sourced from predicthq.com - Come join us for Aquaculture Development Day in Liberia to learn about sustainable fish farming and its impact on local communities!","category":"conferences","start":"2024-07-03T09:30:00Z","geo":{"geometry":{"coordinates":[-10.7920356,6.2948215],"type":"Point"},"placekey":"@dwd-cfr-d5f","address":{"country_code":"LR","formatted_address":"Tubman Boulevard, Monrovia, Liberia","locality":"Monrovia","region":"Montserrado"}},"labels":["business","conference"],"duration":23400,"start_local":"2024-07-03T09:30:00","end":"2024-07-03T16:00:00Z","end_local":"2024-07-03T16:00:00","updated":"2024-06-20T19:52:27Z"},{"title":"Journey Home Film Festival","description":"Sourced from predicthq.com - The Journey Home Film Festival is a celebration of Liberian and African diaspora filmmaking that takes place annually in Monrovia, Liberia.","category":"festivals","start":"2024-06-19T09:00:00Z","geo":{"geometry":{"coordinates":[-10.7344422,6.2700677],"type":"Point"},"placekey":"@dwd-cfn-6kz","address":{"country_code":"LR","formatted_address":"Tubman Boulevard, Monrovia, Liberia","locality":"Monrovia","region":"Montserrado"}},"labels":["festival"],"duration":313140,"start_local":"2024-06-19T09:00:00","end":"2024-06-22T23:59:00Z","end_local":"2024-06-22T23:59:00","updated":"2024-06-18T09:15:29Z"}]