[{"title":"Ecsaconm's event","description":"Sourced from predicthq.com","category":"conferences","start":"2024-09-11T05:30:00Z","geo":{"geometry":{"coordinates":[27.4980633,-29.3233965],"type":"Point"},"placekey":"@nd4-sy9-tqf","address":{"country_code":"LS","formatted_address":"Maseru, Lesotho","locality":"Maseru","region":"Maseru"}},"labels":["business","conference"],"duration":196200,"start_local":"2024-09-11T07:30:00","end":"2024-09-13T12:00:00Z","end_local":"2024-09-13T14:00:00","updated":"2024-06-11T04:56:47Z"},{"title":"Premier League - Linare vs Manonyane","description":"Sourced from predicthq.com","category":"sports","start":"2024-05-18T12:00:00Z","geo":{"geometry":{"coordinates":[27.9110187292099,-28.891590596565496],"type":"Point"},"placekey":"@nd4-rg5-tqf","address":{"country_code":"LS","formatted_address":"4W56+9C Maputsoe, Lesotho","locality":"Maputsoe","region":"Leribe"}},"labels":["soccer","sport"],"duration":0,"start_local":"2024-05-18T14:00:00","end":"2024-05-18T12:00:00Z","end_local":"2024-05-18T14:00:00","updated":"2024-06-12T00:11:04Z"},{"title":"Premier League - LDF vs ACE Maseru","description":"Sourced from predicthq.com","category":"sports","start":"2024-05-18T12:00:00Z","geo":{"geometry":{"coordinates":[27.475728392601013,-29.3274608531527],"type":"Point"},"placekey":"@nd4-sy6-9pv","address":{"country_code":"LS","formatted_address":"MF9G+MP8, Maseru, Lesotho","locality":"Maseru","region":"Maseru"}},"labels":["soccer","sport"],"duration":0,"start_local":"2024-05-18T14:00:00","end":"2024-05-18T12:00:00Z","end_local":"2024-05-18T14:00:00","updated":"2024-06-12T06:27:43Z"},{"title":"Premier League - Lijabatho vs Naughty Boys","description":"Sourced from predicthq.com","category":"sports","start":"2024-05-18T12:00:00Z","geo":{"geometry":{"coordinates":[27.505646177909853,-29.624750420336706],"type":"Point"},"placekey":"@nd4-723-dgk","address":{"country_code":"LS","formatted_address":"9G93+FX3, Morija, Lesotho","locality":"Morija","region":"Maseru"}},"labels":["soccer","sport"],"duration":0,"start_local":"2024-05-18T14:00:00","end":"2024-05-18T12:00:00Z","end_local":"2024-05-18T14:00:00","updated":"2024-06-12T08:28:12Z"},{"title":"Premier League - Lioli vs Matlama","description":"Sourced from predicthq.com","category":"sports","start":"2024-05-18T12:00:00Z","geo":{"geometry":{"coordinates":[27.749265432357788,-29.149237862614868],"type":"Point"},"placekey":"@nd4-pd7-rkz","address":{"country_code":"LS","formatted_address":"VP2X+8Q9, Teyateyaneng, Lesotho","locality":"Teyateyaneng","region":"Berea"}},"labels":["soccer","sport"],"duration":0,"start_local":"2024-05-18T14:00:00","end":"2024-05-18T12:00:00Z","end_local":"2024-05-18T14:00:00","updated":"2024-06-12T08:57:52Z"},{"title":"Premier League - Liphakoe vs Likila United","description":"Sourced from predicthq.com","category":"sports","start":"2024-05-18T12:00:00Z","geo":{"geometry":{"coordinates":[27.48291939496994,-29.319364843301493],"type":"Point"},"placekey":"@nd4-sy8-y5f","address":{"country_code":"LS","formatted_address":"MFJM+766, Maseru, Lesotho","locality":"Maseru","region":"Maseru"}},"labels":["soccer","sport"],"duration":0,"start_local":"2024-05-18T14:00:00","end":"2024-05-18T12:00:00Z","end_local":"2024-05-18T14:00:00","updated":"2024-06-12T04:30:25Z"},{"title":"Premier League - CCX vs LCS","description":"Sourced from predicthq.com","category":"sports","start":"2024-05-18T12:00:00Z","geo":{"geometry":{"coordinates":[28.051480495,-28.865903656],"type":"Point"},"placekey":"@nd4-rbx-jjv","address":{"country_code":"LS","formatted_address":"43M2+763, Hlotse, Lesotho","locality":"Hlotse","region":"Leribe"}},"labels":["soccer","sport"],"duration":0,"start_local":"2024-05-18T14:00:00","end":"2024-05-18T12:00:00Z","end_local":"2024-05-18T14:00:00","updated":"2024-06-12T18:35:21Z"},{"title":"Premier League - Lifofane vs Machokha","description":"Sourced from predicthq.com","category":"sports","start":"2024-05-18T12:00:00Z","geo":{"geometry":{"coordinates":[28.256442912872316,-28.758496050428292],"type":"Point"},"placekey":"@nd4-rnz-nwk","address":{"country_code":"LS","formatted_address":"67R4+JH Butha Buthe, Lesotho","locality":"Butha Buthe"}},"labels":["soccer","sport"],"duration":0,"start_local":"2024-05-18T14:00:00","end":"2024-05-18T12:00:00Z","end_local":"2024-05-18T14:00:00","updated":"2024-06-11T23:39:33Z"},{"title":"Premier League - CCX vs Bantu","description":"Sourced from predicthq.com","category":"sports","start":"2024-05-12T13:00:00Z","geo":{"geometry":{"coordinates":[27.9110187292099,-28.891590596565496],"type":"Point"},"placekey":"@nd4-rg5-tqf","address":{"country_code":"LS","formatted_address":"4W56+9C Maputsoe, Lesotho","locality":"Maputsoe","region":"Leribe"}},"labels":["soccer","sport"],"duration":0,"start_local":"2024-05-12T15:00:00","end":"2024-05-12T13:00:00Z","end_local":"2024-05-12T15:00:00","updated":"2024-06-11T23:24:21Z"},{"title":"Premier League - Machokha vs Linare","description":"Sourced from predicthq.com","category":"sports","start":"2024-05-12T13:00:00Z","geo":{"geometry":{"coordinates":[27.475728392601013,-29.3274608531527],"type":"Point"},"placekey":"@nd4-sy6-9pv","address":{"country_code":"LS","formatted_address":"MF9G+MP8, Maseru, Lesotho","locality":"Maseru","region":"Maseru"}},"labels":["soccer","sport"],"duration":0,"start_local":"2024-05-12T15:00:00","end":"2024-05-12T13:00:00Z","end_local":"2024-05-12T15:00:00","updated":"2024-06-12T06:15:54Z"},{"title":"Premier League - LCS vs Matlama","description":"Sourced from predicthq.com","category":"sports","start":"2024-05-12T13:00:00Z","geo":{"geometry":{"coordinates":[27.48291939496994,-29.319364843301493],"type":"Point"},"placekey":"@nd4-sy8-y5f","address":{"country_code":"LS","formatted_address":"MFJM+766, Maseru, Lesotho","locality":"Maseru","region":"Maseru"}},"labels":["soccer","sport"],"duration":0,"start_local":"2024-05-12T15:00:00","end":"2024-05-12T13:00:00Z","end_local":"2024-05-12T15:00:00","updated":"2024-06-12T17:42:33Z"},{"title":"Premier League - Lijabatho vs LDF","description":"Sourced from predicthq.com","category":"sports","start":"2024-05-12T13:00:00Z","geo":{"geometry":{"coordinates":[27.505646177909853,-29.624750420336706],"type":"Point"},"placekey":"@nd4-723-dgk","address":{"country_code":"LS","formatted_address":"9G93+FX3, Morija, Lesotho","locality":"Morija","region":"Maseru"}},"labels":["soccer","sport"],"duration":0,"start_local":"2024-05-12T15:00:00","end":"2024-05-12T13:00:00Z","end_local":"2024-05-12T15:00:00","updated":"2024-06-12T08:57:44Z"},{"title":"Premier League - Likila United vs ACE Maseru","description":"Sourced from predicthq.com","category":"sports","start":"2024-05-11T13:00:00Z","geo":{"geometry":{"coordinates":[27.475728392601013,-29.3274608531527],"type":"Point"},"placekey":"@nd4-sy6-9pv","address":{"country_code":"LS","formatted_address":"MF9G+MP8, Maseru, Lesotho","locality":"Maseru","region":"Maseru"}},"labels":["soccer","sport"],"duration":0,"start_local":"2024-05-11T15:00:00","end":"2024-05-11T13:00:00Z","end_local":"2024-05-11T15:00:00","updated":"2024-06-12T04:13:56Z"},{"title":"Premier League - Lifofane vs Lioli","description":"Sourced from predicthq.com","category":"sports","start":"2024-05-11T13:00:00Z","geo":{"geometry":{"coordinates":[27.9110187292099,-28.891590596565496],"type":"Point"},"placekey":"@nd4-rg5-tqf","address":{"country_code":"LS","formatted_address":"4W56+9C Maputsoe, Lesotho","locality":"Maputsoe","region":"Leribe"}},"labels":["soccer","sport"],"duration":0,"start_local":"2024-05-11T15:00:00","end":"2024-05-11T13:00:00Z","end_local":"2024-05-11T15:00:00","updated":"2024-06-12T06:53:06Z"},{"title":"Premier League - LMPS vs Naughty Boys","description":"Sourced from predicthq.com","category":"sports","start":"2024-05-11T13:00:00Z","geo":{"geometry":{"coordinates":[27.482192516326904,-29.33031371331492],"type":"Point"},"placekey":"@nd4-sy6-54v","address":{"country_code":"LS","formatted_address":"MF9M+H9F, Maseru, Lesotho","locality":"Maseru","region":"Maseru"}},"labels":["soccer","sport"],"duration":0,"start_local":"2024-05-11T15:00:00","end":"2024-05-11T13:00:00Z","end_local":"2024-05-11T15:00:00","updated":"2024-06-12T13:30:31Z"},{"title":"Premier League - Naughty Boys vs LCS","description":"Sourced from predicthq.com","category":"sports","start":"2024-05-05T13:00:00Z","geo":{"geometry":{"coordinates":[27.235783338546753,-29.81449434797132],"type":"Point"},"placekey":"@nd4-6xs-v4v","address":{"country_code":"LS","formatted_address":"56PP+2CW, Mafeteng, Lesotho","locality":"Mafeteng","region":"Mafeteng"}},"labels":["soccer","sport"],"duration":0,"start_local":"2024-05-05T15:00:00","end":"2024-05-05T13:00:00Z","end_local":"2024-05-05T15:00:00","updated":"2024-06-12T00:36:51Z"},{"title":"Premier League - Bantu vs Lioli","description":"Sourced from predicthq.com","category":"sports","start":"2024-05-05T13:00:00Z","geo":{"geometry":{"coordinates":[27.472571892234765,-30.149123241855904],"type":"Point"},"placekey":"@nd4-3vg-8gk","address":{"country_code":"LS","formatted_address":"VF2F+92, Mohales Hoek, Lesotho","locality":"Mohales Hoek","region":"Mohale's Hoek"}},"labels":["soccer","sport"],"duration":0,"start_local":"2024-05-05T15:00:00","end":"2024-05-05T13:00:00Z","end_local":"2024-05-05T15:00:00","updated":"2024-06-11T23:53:00Z"},{"title":"Premier League - LDF vs Lifofane","description":"Sourced from predicthq.com","category":"sports","start":"2024-05-05T13:00:00Z","geo":{"geometry":{"coordinates":[27.475728392601013,-29.3274608531527],"type":"Point"},"placekey":"@nd4-sy6-9pv","address":{"country_code":"LS","formatted_address":"MF9G+MP8, Maseru, Lesotho","locality":"Maseru","region":"Maseru"}},"labels":["soccer","sport"],"duration":0,"start_local":"2024-05-05T15:00:00","end":"2024-05-05T13:00:00Z","end_local":"2024-05-05T15:00:00","updated":"2024-06-12T05:03:24Z"},{"title":"Premier League - Linare vs Lijabatho","description":"Sourced from predicthq.com","category":"sports","start":"2024-05-05T13:00:00Z","geo":{"geometry":{"coordinates":[27.9110187292099,-28.891590596565496],"type":"Point"},"placekey":"@nd4-rg5-tqf","address":{"country_code":"LS","formatted_address":"4W56+9C Maputsoe, Lesotho","locality":"Maputsoe","region":"Leribe"}},"labels":["soccer","sport"],"duration":0,"start_local":"2024-05-05T15:00:00","end":"2024-05-05T13:00:00Z","end_local":"2024-05-05T15:00:00","updated":"2024-06-12T04:06:26Z"},{"title":"Premier League - Manonyane vs CCX","description":"Sourced from predicthq.com","category":"sports","start":"2024-05-04T13:00:00Z","geo":{"geometry":{"coordinates":[27.772947,-29.526485],"type":"Point"},"placekey":"@nd4-t97-hqz","address":{"country_code":"LS","formatted_address":"FQFF+C5 Nyakosoba, Lesotho","locality":"Nyakosoba","region":"Maseru"}},"labels":["soccer","sport"],"duration":0,"start_local":"2024-05-04T15:00:00","end":"2024-05-04T13:00:00Z","end_local":"2024-05-04T15:00:00","updated":"2024-06-12T07:05:36Z"},{"title":"Premier League - ACE Maseru vs Liphakoe","description":"Sourced from predicthq.com","category":"sports","start":"2024-05-04T13:00:00Z","geo":{"geometry":{"coordinates":[27.475728392601013,-29.3274608531527],"type":"Point"},"placekey":"@nd4-sy6-9pv","address":{"country_code":"LS","formatted_address":"MF9G+MP8, Maseru, Lesotho","locality":"Maseru","region":"Maseru"}},"labels":["soccer","sport"],"duration":0,"start_local":"2024-05-04T15:00:00","end":"2024-05-04T13:00:00Z","end_local":"2024-05-04T15:00:00","updated":"2024-06-12T04:51:23Z"},{"title":"Premier League - Matlama vs Bantu","description":"Sourced from predicthq.com","category":"sports","start":"2024-04-28T13:00:00Z","geo":{"geometry":{"coordinates":[27.4901103921,-29.306160093],"type":"Point"},"placekey":"@nd7-xd2-7yv","address":{"country_code":"LS","formatted_address":"MFQ8+382, Maseru, Lesotho","locality":"Maseru","region":"Maseru"}},"labels":["soccer","sport"],"duration":0,"start_local":"2024-04-28T15:00:00","end":"2024-04-28T13:00:00Z","end_local":"2024-04-28T15:00:00","updated":"2024-06-12T18:35:40Z"},{"title":"Premier League - Likila United vs Lijabatho","description":"Sourced from predicthq.com","category":"sports","start":"2024-04-27T13:00:00Z","geo":{"geometry":{"coordinates":[27.4901103921,-29.306160093],"type":"Point"},"placekey":"@nd7-xd2-7yv","address":{"country_code":"LS","formatted_address":"MFQ8+382, Maseru, Lesotho","locality":"Maseru","region":"Maseru"}},"labels":["soccer","sport"],"duration":0,"start_local":"2024-04-27T15:00:00","end":"2024-04-27T13:00:00Z","end_local":"2024-04-27T15:00:00","updated":"2024-06-12T08:26:44Z"},{"title":"Premier League - Lioli vs Linare","description":"Sourced from predicthq.com","category":"sports","start":"2024-04-27T13:00:00Z","geo":{"geometry":{"coordinates":[27.749265432357788,-29.149237862614868],"type":"Point"},"placekey":"@nd4-pd7-rkz","address":{"country_code":"LS","formatted_address":"VP2X+8Q9, Teyateyaneng, Lesotho","locality":"Teyateyaneng","region":"Berea"}},"labels":["soccer","sport"],"duration":0,"start_local":"2024-04-27T15:00:00","end":"2024-04-27T13:00:00Z","end_local":"2024-04-27T15:00:00","updated":"2024-06-12T04:22:13Z"},{"title":"Premier League - LDF vs Naughty Boys","description":"Sourced from predicthq.com","category":"sports","start":"2024-04-27T13:00:00Z","geo":{"geometry":{"coordinates":[27.475728392601013,-29.3274608531527],"type":"Point"},"placekey":"@nd4-sy6-9pv","address":{"country_code":"LS","formatted_address":"MF9G+MP8, Maseru, Lesotho","locality":"Maseru","region":"Maseru"}},"labels":["soccer","sport"],"duration":0,"start_local":"2024-04-27T15:00:00","end":"2024-04-27T13:00:00Z","end_local":"2024-04-27T15:00:00","updated":"2024-06-11T21:37:00Z"},{"title":"Premier League - CCX vs LMPS","description":"Sourced from predicthq.com","category":"sports","start":"2024-04-27T13:00:00Z","geo":{"geometry":{"coordinates":[28.051480495,-28.865903656],"type":"Point"},"placekey":"@nd4-rbx-jjv","address":{"country_code":"LS","formatted_address":"43M2+763, Hlotse, Lesotho","locality":"Hlotse","region":"Leribe"}},"labels":["soccer","sport"],"duration":0,"start_local":"2024-04-27T15:00:00","end":"2024-04-27T13:00:00Z","end_local":"2024-04-27T15:00:00","updated":"2024-06-12T12:26:02Z"},{"title":"Premier League - Liphakoe vs Machokha","description":"Sourced from predicthq.com","category":"sports","start":"2024-04-27T11:00:00Z","geo":{"geometry":{"coordinates":[27.475728392601013,-29.3274608531527],"type":"Point"},"placekey":"@nd4-sy6-9pv","address":{"country_code":"LS","formatted_address":"MF9G+MP8, Maseru, Lesotho","locality":"Maseru","region":"Maseru"}},"labels":["soccer","sport"],"duration":0,"start_local":"2024-04-27T13:00:00","end":"2024-04-27T11:00:00Z","end_local":"2024-04-27T13:00:00","updated":"2024-06-11T20:54:57Z"},{"title":"Premier League - Linare vs Matlama","description":"Sourced from predicthq.com","category":"sports","start":"2024-04-21T13:00:00Z","geo":{"geometry":{"coordinates":[27.9110187292099,-28.891590596565496],"type":"Point"},"placekey":"@nd4-rg5-tqf","address":{"country_code":"LS","formatted_address":"4W56+9C Maputsoe, Lesotho","locality":"Maputsoe","region":"Leribe"}},"labels":["soccer","sport"],"duration":0,"start_local":"2024-04-21T15:00:00","end":"2024-04-21T13:00:00Z","end_local":"2024-04-21T15:00:00","updated":"2024-06-12T01:35:14Z"},{"title":"Premier League - LDF vs LCS","description":"Sourced from predicthq.com","category":"sports","start":"2024-04-20T13:00:00Z","geo":{"geometry":{"coordinates":[27.475728392601013,-29.3274608531527],"type":"Point"},"placekey":"@nd4-sy6-9pv","address":{"country_code":"LS","formatted_address":"MF9G+MP8, Maseru, Lesotho","locality":"Maseru","region":"Maseru"}},"labels":["soccer","sport"],"duration":0,"start_local":"2024-04-20T15:00:00","end":"2024-04-20T13:00:00Z","end_local":"2024-04-20T15:00:00","updated":"2024-06-12T04:48:18Z"},{"title":"Premier League - Lijabatho vs Bantu","description":"Sourced from predicthq.com","category":"sports","start":"2024-04-20T13:00:00Z","geo":{"geometry":{"coordinates":[27.4901103921,-29.306160093],"type":"Point"},"placekey":"@nd7-xd2-7yv","address":{"country_code":"LS","formatted_address":"MFQ8+382, Maseru, Lesotho","locality":"Maseru","region":"Maseru"}},"labels":["soccer","sport"],"duration":0,"start_local":"2024-04-20T15:00:00","end":"2024-04-20T13:00:00Z","end_local":"2024-04-20T15:00:00","updated":"2024-06-11T23:46:32Z"},{"title":"420 Expo Lesotho","description":"Sourced from predicthq.com","category":"expos","start":"2024-04-20T08:00:00Z","geo":{"geometry":{"coordinates":[27.47533,-29.31213],"type":"Point"},"placekey":"@nd7-xc7-35z","address":{"country_code":"LS","formatted_address":"United Nations Road, Maseru, Lesotho","locality":"Maseru","region":"Maseru"}},"labels":["expo"],"duration":0,"start_local":"2024-04-20T10:00:00","end":"2024-04-20T08:00:00Z","end_local":"2024-04-20T10:00:00","updated":"2024-06-05T02:17:16Z"},{"title":"Premier League - Lijabatho vs ACE Maseru","description":"Sourced from predicthq.com","category":"sports","start":"2024-04-14T13:00:00Z","geo":{"geometry":{"coordinates":[27.505646177909853,-29.624750420336706],"type":"Point"},"placekey":"@nd4-723-dgk","address":{"country_code":"LS","formatted_address":"9G93+FX3, Morija, Lesotho","locality":"Morija","region":"Maseru"}},"labels":["soccer","sport"],"duration":0,"start_local":"2024-04-14T15:00:00","end":"2024-04-14T13:00:00Z","end_local":"2024-04-14T15:00:00","updated":"2024-06-12T08:49:23Z"},{"title":"Premier League - Lifofane vs Manonyane","description":"Sourced from predicthq.com","category":"sports","start":"2024-04-14T13:00:00Z","geo":{"geometry":{"coordinates":[28.256442912872316,-28.758496050428292],"type":"Point"},"placekey":"@nd4-rnz-nwk","address":{"country_code":"LS","formatted_address":"67R4+JH Butha Buthe, Lesotho","locality":"Butha Buthe"}},"labels":["soccer","sport"],"duration":0,"start_local":"2024-04-14T15:00:00","end":"2024-04-14T13:00:00Z","end_local":"2024-04-14T15:00:00","updated":"2024-06-12T02:36:38Z"},{"title":"Premier League - Machokha vs Matlama","description":"Sourced from predicthq.com","category":"sports","start":"2024-04-14T13:00:00Z","geo":{"geometry":{"coordinates":[27.4901103921,-29.306160093],"type":"Point"},"placekey":"@nd7-xd2-7yv","address":{"country_code":"LS","formatted_address":"MFQ8+382, Maseru, Lesotho","locality":"Maseru","region":"Maseru"}},"labels":["soccer","sport"],"duration":0,"start_local":"2024-04-14T15:00:00","end":"2024-04-14T13:00:00Z","end_local":"2024-04-14T15:00:00","updated":"2024-06-12T02:18:39Z"},{"title":"Premier League - Lioli vs CCX","description":"Sourced from predicthq.com","category":"sports","start":"2024-04-14T13:00:00Z","geo":{"geometry":{"coordinates":[27.9110187292099,-28.891590596565496],"type":"Point"},"placekey":"@nd4-rg5-tqf","address":{"country_code":"LS","formatted_address":"4W56+9C Maputsoe, Lesotho","locality":"Maputsoe","region":"Leribe"}},"labels":["soccer","sport"],"duration":0,"start_local":"2024-04-14T15:00:00","end":"2024-04-14T13:00:00Z","end_local":"2024-04-14T15:00:00","updated":"2024-06-12T07:17:34Z"},{"title":"Premier League - Linare vs Likila United","description":"Sourced from predicthq.com","category":"sports","start":"2024-04-13T13:00:00Z","geo":{"geometry":{"coordinates":[27.9110187292099,-28.891590596565496],"type":"Point"},"placekey":"@nd4-rg5-tqf","address":{"country_code":"LS","formatted_address":"4W56+9C Maputsoe, Lesotho","locality":"Maputsoe","region":"Leribe"}},"labels":["soccer","sport"],"duration":0,"start_local":"2024-04-13T15:00:00","end":"2024-04-13T13:00:00Z","end_local":"2024-04-13T15:00:00","updated":"2024-06-12T04:04:56Z"},{"title":"Premier League - Naughty Boys vs Bantu","description":"Sourced from predicthq.com","category":"sports","start":"2024-04-13T13:00:00Z","geo":{"geometry":{"coordinates":[27.505646177909853,-29.624750420336706],"type":"Point"},"placekey":"@nd4-723-dgk","address":{"country_code":"LS","formatted_address":"9G93+FX3, Morija, Lesotho","locality":"Morija","region":"Maseru"}},"labels":["soccer","sport"],"duration":0,"start_local":"2024-04-13T15:00:00","end":"2024-04-13T13:00:00Z","end_local":"2024-04-13T15:00:00","updated":"2024-06-12T08:47:10Z"},{"title":"Premier League - LDF vs Liphakoe","description":"Sourced from predicthq.com","category":"sports","start":"2024-04-13T13:00:00Z","geo":{"geometry":{"coordinates":[27.475728392601013,-29.3274608531527],"type":"Point"},"placekey":"@nd4-sy6-9pv","address":{"country_code":"LS","formatted_address":"MF9G+MP8, Maseru, Lesotho","locality":"Maseru","region":"Maseru"}},"labels":["soccer","sport"],"duration":0,"start_local":"2024-04-13T15:00:00","end":"2024-04-13T13:00:00Z","end_local":"2024-04-13T15:00:00","updated":"2024-06-12T12:54:10Z"},{"title":"Premier League - LMPS vs LCS","description":"Sourced from predicthq.com","category":"sports","start":"2024-04-13T13:00:00Z","geo":{"geometry":{"coordinates":[27.482192516326904,-29.33031371331492],"type":"Point"},"placekey":"@nd4-sy6-54v","address":{"country_code":"LS","formatted_address":"MF9M+H9F, Maseru, Lesotho","locality":"Maseru","region":"Maseru"}},"labels":["soccer","sport"],"duration":0,"start_local":"2024-04-13T15:00:00","end":"2024-04-13T13:00:00Z","end_local":"2024-04-13T15:00:00","updated":"2024-06-12T02:55:48Z"},{"title":"Premier League - Naughty Boys vs Matlama","description":"Sourced from predicthq.com","category":"sports","start":"2024-04-07T13:00:00Z","geo":{"geometry":{"coordinates":[27.505646177909853,-29.624750420336706],"type":"Point"},"placekey":"@nd4-723-dgk","address":{"country_code":"LS","formatted_address":"9G93+FX3, Morija, Lesotho","locality":"Morija","region":"Maseru"}},"labels":["soccer","sport"],"duration":0,"start_local":"2024-04-07T15:00:00","end":"2024-04-07T13:00:00Z","end_local":"2024-04-07T15:00:00","updated":"2024-06-11T21:02:31Z"},{"title":"Premier League - Machokha vs LDF","description":"Sourced from predicthq.com","category":"sports","start":"2024-04-07T13:00:00Z","geo":{"geometry":{"coordinates":[27.48291939496994,-29.319364843301493],"type":"Point"},"placekey":"@nd4-sy8-y5f","address":{"country_code":"LS","formatted_address":"MFJM+766, Maseru, Lesotho","locality":"Maseru","region":"Maseru"}},"labels":["soccer","sport"],"duration":0,"start_local":"2024-04-07T15:00:00","end":"2024-04-07T13:00:00Z","end_local":"2024-04-07T15:00:00","updated":"2024-06-12T08:59:11Z"},{"title":"Upcoming Dubai Real Estate Event in Lesotho","description":"Sourced from predicthq.com - Get ready for an exclusive Dubai real estate event in Lesotho, where you can explore investment opportunities and meet industry experts!","category":"conferences","start":"2024-04-06T08:00:00Z","geo":{"geometry":{"coordinates":[27.7413482,-29.1480123],"type":"Point"},"placekey":"@nd4-pd7-mzf","address":{"country_code":"LS","formatted_address":"Teyateyaneng, Berea, Lesotho","locality":"Teyateyaneng","region":"Berea"}},"labels":["business","conference"],"duration":122400,"start_local":"2024-04-06T10:00:00","end":"2024-04-07T18:00:00Z","end_local":"2024-04-07T20:00:00","updated":"2024-06-05T00:57:36Z"}]