[{"title":"Skaņu Mežs","description":"Sourced from predicthq.com","category":"festivals","start":"2024-10-03T21:00:00Z","geo":{"geometry":{"coordinates":[24.1078,56.96305],"type":"Point"},"placekey":"@52z-r5j-xqz","address":{"country_code":"LV","formatted_address":"Hanzas iela 16A, Vidzemes priekšpilsēta, Rīga, LV-1045, Latvia","postcode":"1045","locality":"Rīga"}},"labels":["festival","music"],"duration":172799,"start_local":"2024-10-04T00:00:00","end":"2024-10-05T20:59:59Z","end_local":"2024-10-05T23:59:59","updated":"2024-06-02T01:30:36Z"},{"title":"Fintech Conference","description":"Sourced from predicthq.com","category":"conferences","start":"2024-10-03T06:00:00Z","geo":{"geometry":{"coordinates":[24.0792663,56.955588],"type":"Point"},"placekey":"@52z-v7p-dqf","address":{"country_code":"LV","formatted_address":"8 Ķīpsalas iela, Rīga, LV-1048, Latvia","postcode":"LV-1048","locality":"Rīga"}},"labels":["conference"],"duration":118800,"start_local":"2024-10-03T09:00:00","end":"2024-10-04T15:00:00Z","end_local":"2024-10-04T18:00:00","updated":"2024-06-01T01:15:28Z"},{"title":"Riga Comm","description":"Sourced from predicthq.com","category":"expos","start":"2024-10-03T06:00:00Z","geo":{"geometry":{"coordinates":[24.079628,56.954874],"type":"Point"},"placekey":"@52z-v7p-dd9","address":{"country_code":"LV","formatted_address":"Ķīpsalas iela, Rīga, 1048, Latvia","locality":"Rīga","postcode":"1048"}},"labels":["expo"],"duration":118800,"start_local":"2024-10-03T09:00:00","end":"2024-10-04T15:00:00Z","end_local":"2024-10-04T18:00:00","updated":"2024-05-28T11:38:16Z"},{"title":"Zabbix Summit","description":"Sourced from predicthq.com","category":"conferences","start":"2024-10-03T06:00:00Z","geo":{"geometry":{"coordinates":[24.1176857,56.9549231],"type":"Point"},"placekey":"@52z-vcp-cdv","address":{"country_code":"LV","formatted_address":"55 Elizabetes iela, Rīga, LV-1010, Latvia","postcode":"LV-1010","locality":"Rīga"}},"labels":["conference"],"duration":205200,"start_local":"2024-10-03T09:00:00","end":"2024-10-05T15:00:00Z","end_local":"2024-10-05T18:00:00","updated":"2024-06-04T02:33:34Z"},{"title":"ITMS : The International Scientific Conference on Information Technology and Management Science of Riga Technical University","description":"Sourced from predicthq.com","category":"conferences","start":"2024-10-03T06:00:00Z","geo":{"geometry":{"coordinates":[24.105169,56.947201],"type":"Point"},"placekey":"@52z-vcp-rx5","address":{"country_code":"LV","formatted_address":"Kaļķu iela 1, Centra rajons, Rīga, LV-1050, Latvia","postcode":"1050","locality":"Rīga"}},"labels":["conference"],"duration":118800,"start_local":"2024-10-03T09:00:00","end":"2024-10-04T15:00:00Z","end_local":"2024-10-04T18:00:00","updated":"2024-05-31T23:21:25Z"},{"title":"Smart HR Conference","description":"Sourced from predicthq.com","category":"conferences","start":"2024-10-03T06:00:00Z","geo":{"geometry":{"coordinates":[24.0792663,56.955588],"type":"Point"},"placekey":"@52z-v7p-dqf","address":{"country_code":"LV","formatted_address":"8 Ķīpsalas iela, Rīga, LV-1048, Latvia","postcode":"LV-1048","locality":"Rīga"}},"labels":["conference"],"duration":118800,"start_local":"2024-10-03T09:00:00","end":"2024-10-04T15:00:00Z","end_local":"2024-10-04T18:00:00","updated":"2024-05-31T23:07:19Z"},{"title":"Internet of Things Conference","description":"Sourced from predicthq.com","category":"conferences","start":"2024-10-03T06:00:00Z","geo":{"geometry":{"coordinates":[24.079628,56.954874],"type":"Point"},"placekey":"@52z-v7p-dd9","address":{"country_code":"LV","formatted_address":"Ķīpsalas iela, Rīga, 1048, Latvia","locality":"Rīga","postcode":"1048"}},"labels":["conference"],"duration":118800,"start_local":"2024-10-03T09:00:00","end":"2024-10-04T15:00:00Z","end_local":"2024-10-04T18:00:00","updated":"2024-05-28T06:07:27Z"},{"title":"Business Technology Fair And Conferences","description":"Sourced from predicthq.com","category":"expos","start":"2024-10-03T06:00:00Z","geo":{"geometry":{"coordinates":[24.079628,56.954874],"type":"Point"},"placekey":"@52z-v7p-dd9","address":{"country_code":"LV","formatted_address":"Ķīpsalas iela, Rīga, 1048, Latvia","locality":"Rīga","postcode":"1048"}},"labels":["expo"],"duration":118800,"start_local":"2024-10-03T09:00:00","end":"2024-10-04T15:00:00Z","end_local":"2024-10-04T18:00:00","updated":"2024-05-27T07:21:44Z"},{"title":"ML Conference","description":"Sourced from predicthq.com","category":"conferences","start":"2024-10-02T21:00:00Z","geo":{"geometry":{"coordinates":[24.079628,56.954874],"type":"Point"},"placekey":"@52z-v7p-dd9","address":{"country_code":"LV","formatted_address":"Ķīpsalas iela, Rīga, 1048, Latvia","locality":"Rīga","postcode":"1048"}},"labels":["conference"],"duration":172799,"start_local":"2024-10-03T00:00:00","end":"2024-10-04T20:59:59Z","end_local":"2024-10-04T23:59:59","updated":"2024-07-02T08:29:35Z"},{"title":"Workshop on Microwave Theory and Technology in Wireless Communications","description":"Sourced from predicthq.com","category":"expos","start":"2024-10-02T06:00:00Z","geo":{"geometry":{"coordinates":[24.105169,56.947201],"type":"Point"},"placekey":"@52z-vcp-rx5","address":{"country_code":"LV","formatted_address":"Kaļķu iela 1, Centra rajons, Rīga, LV-1050, Latvia","postcode":"1050","locality":"Rīga"}},"labels":["expo"],"duration":205200,"start_local":"2024-10-02T09:00:00","end":"2024-10-04T15:00:00Z","end_local":"2024-10-04T18:00:00","updated":"2024-07-02T12:11:44Z"},{"title":"Big Brave and MJ Guider","description":"Sourced from predicthq.com","category":"concerts","start":"2024-09-28T16:00:00Z","geo":{"geometry":{"coordinates":[23.71599,56.6472],"type":"Point"},"placekey":"@532-gvj-mtv","address":{"country_code":"LV","formatted_address":"Raiņa Iela 28, Jelgava, LV-3001, Latvia","postcode":"3001","locality":"Jelgava"}},"labels":["concert","music"],"duration":0,"start_local":"2024-09-28T19:00:00","end":"2024-09-28T16:00:00Z","end_local":"2024-09-28T19:00:00","updated":"2024-06-29T00:34:08Z"},{"title":"Solo Ansamblis","description":"Sourced from predicthq.com","category":"concerts","start":"2024-09-27T16:00:00Z","geo":{"geometry":{"coordinates":[24.15324,56.95056],"type":"Point"},"placekey":"@52z-vcq-w6k","address":{"country_code":"LV","formatted_address":"Vagonu iela 21, Latgales priekšpilsēta, Rīga, LV-1009, Latvia","postcode":"1009","locality":"Rīga"}},"labels":["concert","music"],"duration":0,"start_local":"2024-09-27T19:00:00","end":"2024-09-27T16:00:00Z","end_local":"2024-09-27T19:00:00","updated":"2024-07-05T23:46:19Z"},{"title":"Pediatric Innovation Day 2024","description":"Sourced from predicthq.com - Join us to experience exciting new ideas in pediatric healthcare at Pediatric Innovation Day 2024!","category":"conferences","start":"2024-09-27T06:00:00Z","geo":{"geometry":{"coordinates":[24.114365,56.9421519],"type":"Point"},"placekey":"@52z-vcn-z9f","address":{"country_code":"LV","formatted_address":"Ģenerāļa Radziņa krastmala, Rīga, 1050, Latvia","locality":"Rīga","postcode":"1050"}},"labels":["conference","science","technology"],"duration":28800,"start_local":"2024-09-27T09:00:00","end":"2024-09-27T14:00:00Z","end_local":"2024-09-27T17:00:00","updated":"2024-06-13T00:58:58Z"},{"title":"Bambie Thug","description":"Sourced from predicthq.com","category":"concerts","start":"2024-09-26T16:00:00Z","geo":{"geometry":{"coordinates":[24.1256686,56.9508745],"type":"Point"},"placekey":"@52z-vcp-p7q","address":{"country_code":"LV","formatted_address":"Palladium, SIA, 21 Marijas iela, Rīga, 1050, Latvia","postcode":"1050","locality":"Rīga"}},"labels":["concert","music"],"duration":0,"start_local":"2024-09-26T19:00:00","end":"2024-09-26T16:00:00Z","end_local":"2024-09-26T19:00:00","updated":"2024-07-03T13:45:12Z"},{"title":"RelStat : International Conference Reliability and Statistics in Transportation and Communication: Human Sustainability and Resilience in the Digital Age: Using Tech Innovation and Smart Algo","description":"Sourced from predicthq.com","category":"conferences","start":"2024-09-25T06:00:00Z","geo":{"geometry":{"coordinates":[24.603189,56.879635],"type":"Point"},"placekey":"@52z-ryh-ghq","address":{"country_code":"LV","formatted_address":"5015, Latvia","postcode":"5015","region":"Ogres novads"}},"labels":["conference"],"duration":291600,"start_local":"2024-09-25T09:00:00","end":"2024-09-28T15:00:00Z","end_local":"2024-09-28T18:00:00","updated":"2024-07-02T23:17:56Z"},{"title":"Distant","description":"Sourced from predicthq.com","category":"concerts","start":"2024-09-19T16:00:00Z","geo":{"geometry":{"coordinates":[24.1348,56.96431],"type":"Point"},"placekey":"@52z-r5n-jy9","address":{"country_code":"LV","formatted_address":"Tallinas iela 10-3, Centra rajons, Rīga, LV-1001, Latvia","postcode":"1001","locality":"Rīga"}},"labels":["concert","music"],"duration":0,"start_local":"2024-09-19T19:00:00","end":"2024-09-19T16:00:00Z","end_local":"2024-09-19T19:00:00","updated":"2024-06-11T08:15:34Z"},{"title":"Medbaltica","description":"Sourced from predicthq.com","category":"expos","start":"2024-09-19T06:00:00Z","geo":{"geometry":{"coordinates":[24.0792663,56.955588],"type":"Point"},"placekey":"@52z-v7p-dqf","address":{"country_code":"LV","formatted_address":"8 Ķīpsalas iela, Rīga, LV-1048, Latvia","postcode":"LV-1048","locality":"Rīga"}},"labels":["expo"],"duration":118800,"start_local":"2024-09-19T09:00:00","end":"2024-09-20T15:00:00Z","end_local":"2024-09-20T18:00:00","updated":"2024-05-31T22:51:13Z"},{"title":"Baltic Fire Safety Technology Forum","description":"Sourced from predicthq.com","category":"conferences","start":"2024-09-12T06:00:00Z","geo":{"geometry":{"coordinates":[24.0792663,56.955588],"type":"Point"},"placekey":"@52z-v7p-dqf","address":{"country_code":"LV","formatted_address":"8 Ķīpsalas iela, Rīga, LV-1048, Latvia","postcode":"LV-1048","locality":"Rīga"}},"labels":["conference"],"duration":32400,"start_local":"2024-09-12T09:00:00","end":"2024-09-12T15:00:00Z","end_local":"2024-09-12T18:00:00","updated":"2024-06-04T04:05:19Z"},{"title":"UEFA Nations League - League C - Latvia vs Faroe Islands","description":"Sourced from predicthq.com","category":"sports","start":"2024-09-10T16:00:00Z","geo":{"geometry":{"coordinates":[24.1162445,56.9612283],"type":"Point"},"placekey":"@52z-r5k-4qf","address":{"country_code":"LV","formatted_address":"1 Emiļa Melngaiļa iela, Rīga, LV-1010, Latvia","postcode":"LV-1010","locality":"Rīga"}},"labels":["soccer","sport"],"duration":0,"start_local":"2024-09-10T19:00:00","end":"2024-09-10T16:00:00Z","end_local":"2024-09-10T19:00:00","updated":"2024-06-11T04:23:25Z"},{"title":"International Conference on Nanomaterials: Applications & Properties","description":"Sourced from predicthq.com","category":"conferences","start":"2024-09-08T06:00:00Z","geo":{"geometry":{"coordinates":[24.1176857,56.9549231],"type":"Point"},"placekey":"@52z-vcp-cdv","address":{"country_code":"LV","formatted_address":"55 Elizabetes iela, Rīga, LV-1010, Latvia","postcode":"LV-1010","locality":"Rīga"}},"labels":["conference"],"duration":464400,"start_local":"2024-09-08T09:00:00","end":"2024-09-13T15:00:00Z","end_local":"2024-09-13T18:00:00","updated":"2024-05-31T22:53:09Z"},{"title":"Bellavita Expo Riga","description":"Sourced from predicthq.com","category":"expos","start":"2024-09-05T06:00:00Z","geo":{"geometry":{"coordinates":[24.0792663,56.955588],"type":"Point"},"placekey":"@52z-v7p-dqf","address":{"country_code":"LV","formatted_address":"8 Ķīpsalas iela, Rīga, LV-1048, Latvia","postcode":"LV-1048","locality":"Rīga"}},"labels":["expo"],"duration":205200,"start_local":"2024-09-05T09:00:00","end":"2024-09-07T15:00:00Z","end_local":"2024-09-07T18:00:00","updated":"2024-06-04T04:12:25Z"},{"title":"Riga Food","description":"Sourced from predicthq.com","category":"expos","start":"2024-09-05T06:00:00Z","geo":{"geometry":{"coordinates":[24.0792663,56.955588],"type":"Point"},"placekey":"@52z-v7p-dqf","address":{"country_code":"LV","formatted_address":"8 Ķīpsalas iela, Rīga, LV-1048, Latvia","postcode":"LV-1048","locality":"Rīga"}},"labels":["expo"],"duration":205200,"start_local":"2024-09-05T09:00:00","end":"2024-09-07T15:00:00Z","end_local":"2024-09-07T18:00:00","updated":"2024-06-04T09:10:50Z"},{"title":"Iberica Expo Riga","description":"Sourced from predicthq.com","category":"expos","start":"2024-09-05T06:00:00Z","geo":{"geometry":{"coordinates":[24.0792663,56.955588],"type":"Point"},"placekey":"@52z-v7p-dqf","address":{"country_code":"LV","formatted_address":"8 Ķīpsalas iela, Rīga, LV-1048, Latvia","postcode":"LV-1048","locality":"Rīga"}},"labels":["expo"],"duration":205200,"start_local":"2024-09-05T09:00:00","end":"2024-09-07T15:00:00Z","end_local":"2024-09-07T18:00:00","updated":"2024-05-31T23:21:49Z"},{"title":"Kautkaili","description":"Sourced from predicthq.com","category":"concerts","start":"2024-08-31T17:00:00Z","geo":{"geometry":{"coordinates":[25.0378246,57.2360801],"type":"Point"},"placekey":"@532-86v-5j9","address":{"country_code":"LV","formatted_address":"Gaujas iela 4, Līgatne, Līgatnes pilsēta, LV-4110, Latvia","postcode":"4110","locality":"Līgatne"}},"labels":["concert","music"],"duration":0,"start_local":"2024-08-31T20:00:00","end":"2024-08-31T17:00:00Z","end_local":"2024-08-31T20:00:00","updated":"2024-06-11T04:03:57Z"},{"title":"European Championship Qualifiers - Group Stage - Latvia vs Slovakia","description":"Sourced from predicthq.com","category":"sports","start":"2024-08-25T14:15:00Z","geo":{"geometry":{"coordinates":[23.7540089,56.6614273],"type":"Point"},"placekey":"@532-gtq-yy9","address":{"country_code":"LV","formatted_address":"24 Kronvalda iela, Jelgava, LV-3004, Latvia","postcode":"LV-3004","locality":"Jelgava"}},"labels":["sport","volleyball"],"duration":0,"start_local":"2024-08-25T17:15:00","end":"2024-08-25T14:15:00Z","end_local":"2024-08-25T17:15:00","updated":"2024-05-27T00:52:02Z"},{"title":"Baltic Honeybadger Bitcoin conference","description":"Sourced from predicthq.com","category":"conferences","start":"2024-08-24T06:00:00Z","geo":{"geometry":{"coordinates":[24.165859,56.976229],"type":"Point"},"placekey":"@52z-r5h-hnq","address":{"country_code":"LV","formatted_address":"Gustava Zemgala gatve, Rīga, 1039, Latvia","locality":"Rīga","postcode":"1039"}},"labels":["conference"],"duration":118800,"start_local":"2024-08-24T09:00:00","end":"2024-08-25T15:00:00Z","end_local":"2024-08-25T18:00:00","updated":"2024-05-28T02:55:30Z"},{"title":"Carnival Youth","description":"Sourced from predicthq.com","category":"concerts","start":"2024-08-23T17:00:00Z","geo":{"geometry":{"coordinates":[21.00778,56.50282],"type":"Point"},"placekey":"@537-kz8-fvf","address":{"country_code":"LV","formatted_address":"Kuršu iela 20, Liepāja, LV-3401, Latvia","postcode":"3401","locality":"Liepāja"}},"labels":["concert","music"],"duration":0,"start_local":"2024-08-23T20:00:00","end":"2024-08-23T17:00:00Z","end_local":"2024-08-23T20:00:00","updated":"2024-06-11T07:25:49Z"},{"title":"Finnish-Baltic Voice Meeting And Conference","description":"Sourced from predicthq.com","category":"conferences","start":"2024-08-22T06:00:00Z","geo":{"geometry":{"coordinates":[24.0815464,56.9414617],"type":"Point"},"placekey":"@52z-v7p-7nq","address":{"country_code":"LV","formatted_address":"1 Slokas iela, Rīga, LV-1048, Latvia","postcode":"LV-1048","locality":"Rīga","region":"Rīgas pilsēta"}},"labels":["conference"],"duration":118800,"start_local":"2024-08-22T09:00:00","end":"2024-08-23T15:00:00Z","end_local":"2024-08-23T18:00:00","updated":"2024-06-16T04:19:02Z"},{"title":"Heathen","description":"Sourced from predicthq.com","category":"concerts","start":"2024-08-19T16:00:00Z","geo":{"geometry":{"coordinates":[23.71599,56.6472],"type":"Point"},"placekey":"@532-gvj-mtv","address":{"country_code":"LV","formatted_address":"Raiņa Iela 28, Jelgava, LV-3001, Latvia","postcode":"3001","locality":"Jelgava"}},"labels":["concert","music"],"duration":0,"start_local":"2024-08-19T19:00:00","end":"2024-08-19T16:00:00Z","end_local":"2024-08-19T19:00:00","updated":"2024-06-28T23:57:32Z"},{"title":"Intars Busulis","description":"Sourced from predicthq.com","category":"concerts","start":"2024-08-18T16:00:00Z","geo":{"geometry":{"coordinates":[23.8120224,56.9778858],"type":"Point"},"placekey":"@52z-r2c-y9z","address":{"country_code":"LV","formatted_address":"Turaidas iela 1, Jūrmala, LV-2015, Latvia","postcode":"2015","locality":"Jūrmala"}},"labels":["concert","music"],"duration":0,"start_local":"2024-08-18T19:00:00","end":"2024-08-18T16:00:00Z","end_local":"2024-08-18T19:00:00","updated":"2024-06-11T09:08:14Z"},{"title":"Tautumeitas","description":"Sourced from predicthq.com","category":"community","start":"2024-08-17T17:00:00Z","geo":{"geometry":{"coordinates":[25.0378246,57.2360801],"type":"Point"},"placekey":"@532-86v-5j9","address":{"country_code":"LV","formatted_address":"Gaujas iela 4, Līgatne, Līgatnes pilsēta, LV-4110, Latvia","postcode":"4110","locality":"Līgatne"}},"labels":["concert","music"],"duration":0,"start_local":"2024-08-17T20:00:00","end":"2024-08-17T17:00:00Z","end_local":"2024-08-17T20:00:00","updated":"2024-06-04T11:54:37Z"},{"title":"European Championship Qualifiers (W) - Group Stage - Latvia vs Montenegro","description":"Sourced from predicthq.com","category":"sports","start":"2024-08-17T14:15:00Z","geo":{"geometry":{"coordinates":[23.7540089,56.6614273],"type":"Point"},"placekey":"@532-gtq-yy9","address":{"country_code":"LV","formatted_address":"24 Kronvalda iela, Jelgava, LV-3004, Latvia","postcode":"LV-3004","locality":"Jelgava"}},"labels":["sport","volleyball"],"duration":0,"start_local":"2024-08-17T17:15:00","end":"2024-08-17T14:15:00Z","end_local":"2024-08-17T17:15:00","updated":"2024-05-27T00:30:02Z"},{"title":"C4 Yourself Event","description":"Sourced from predicthq.com - C4 Yourself Event","category":"conferences","start":"2024-08-16T07:00:00Z","geo":{"geometry":{"coordinates":[22.5914996,57.2467578],"type":"Point"},"placekey":"@533-knz-qxq","address":{"country_code":"LV","formatted_address":"Ezera iela, Talsi, 3201, Latvia","locality":"Talsi","postcode":"3201","region":"Talsu novads"}},"labels":["conference","science","technology"],"duration":21600,"start_local":"2024-08-16T10:00:00","end":"2024-08-16T13:00:00Z","end_local":"2024-08-16T16:00:00","updated":"2024-06-20T05:55:43Z"},{"title":"Nothing Sacred","description":"Sourced from predicthq.com","category":"concerts","start":"2024-08-15T16:00:00Z","geo":{"geometry":{"coordinates":[24.10326,56.95042],"type":"Point"},"placekey":"@52z-vcp-vvf","address":{"country_code":"LV","formatted_address":"Mazā Pils iela 11, Centra rajons, Rīga, LV-1050, Latvia","postcode":"1050","locality":"Rīga"}},"labels":["concert","music"],"duration":0,"start_local":"2024-08-15T19:00:00","end":"2024-08-15T16:00:00Z","end_local":"2024-08-15T19:00:00","updated":"2024-06-19T07:51:06Z"},{"title":"THE SMILE and James Holden","description":"Sourced from predicthq.com","category":"concerts","start":"2024-08-13T16:00:00Z","geo":{"geometry":{"coordinates":[24.85122,57.16531],"type":"Point"},"placekey":"@52z-sdp-bc5","address":{"country_code":"LV","formatted_address":"Pils iela 16, Sigulda, Riga, Latvia","locality":"Riga"}},"labels":["concert","music"],"duration":0,"start_local":"2024-08-13T19:00:00","end":"2024-08-13T16:00:00Z","end_local":"2024-08-13T19:00:00","updated":"2024-06-11T06:21:57Z"},{"title":"Artemas","description":"Sourced from predicthq.com","category":"concerts","start":"2024-08-12T16:00:00Z","geo":{"geometry":{"coordinates":[24.16413,56.96913],"type":"Point"},"placekey":"@52z-r5j-3dv","address":{"country_code":"LV","formatted_address":"Ūnijas iela 8 k-7, Vidzemes priekšpilsēta, Rīga, LV-1084, Latvia","postcode":"1084","locality":"Rīga"}},"labels":["concert","music"],"duration":0,"start_local":"2024-08-12T19:00:00","end":"2024-08-12T16:00:00Z","end_local":"2024-08-12T19:00:00","updated":"2024-07-05T00:16:17Z"},{"title":"Very Cool People and Aija Andrejeva","description":"Sourced from predicthq.com","category":"concerts","start":"2024-08-10T16:00:00Z","geo":{"geometry":{"coordinates":[20.99635,56.50644],"type":"Point"},"placekey":"@537-kz8-8gk","address":{"country_code":"LV","formatted_address":"Miķeļa Valtera iela 7, Liepāja, LV-3401, Latvia","postcode":"3401","locality":"Liepāja"}},"labels":["concert","music"],"duration":0,"start_local":"2024-08-10T19:00:00","end":"2024-08-10T16:00:00Z","end_local":"2024-08-10T19:00:00","updated":"2024-06-10T23:55:21Z"},{"title":"Kartupeļpalma Vējiem Līdzi","description":"Sourced from predicthq.com","category":"festivals","start":"2024-08-08T21:00:00Z","geo":{"geometry":{"coordinates":[21.00587,56.51006],"type":"Point"},"placekey":"@537-kz9-6rk","address":{"country_code":"LV","formatted_address":"Graudu iela 34, Liepāja, LV-3401, Latvia","postcode":"3401","locality":"Liepāja"}},"labels":["festival","music"],"duration":172799,"start_local":"2024-08-09T00:00:00","end":"2024-08-10T20:59:59Z","end_local":"2024-08-10T23:59:59","updated":"2024-06-04T04:54:12Z"},{"title":"Bauska TasTe","description":"Sourced from predicthq.com","category":"festivals","start":"2024-08-08T21:00:00Z","geo":{"geometry":{"coordinates":[24.1693,56.40359],"type":"Point"},"placekey":"@532-s2d-yd9","address":{"country_code":"LV","formatted_address":"Pilskalna Parks, Bauska, Bauskas pilsēta, LV-3901, Latvia","postcode":"3901","locality":"Bauska"}},"labels":["festival","music"],"duration":172799,"start_local":"2024-08-09T00:00:00","end":"2024-08-10T20:59:59Z","end_local":"2024-08-10T23:59:59","updated":"2024-06-04T01:24:40Z"},{"title":"Palina","description":"Sourced from predicthq.com","category":"concerts","start":"2024-08-08T16:00:00Z","geo":{"geometry":{"coordinates":[24.15324,56.95056],"type":"Point"},"placekey":"@52z-vcq-w6k","address":{"country_code":"LV","formatted_address":"Vagonu iela 21, Latgales priekšpilsēta, Rīga, LV-1009, Latvia","postcode":"1009","locality":"Rīga"}},"labels":["concert","music"],"duration":0,"start_local":"2024-08-08T19:00:00","end":"2024-08-08T16:00:00Z","end_local":"2024-08-08T19:00:00","updated":"2024-07-05T23:46:56Z"},{"title":"Nesen","description":"Sourced from predicthq.com","category":"concerts","start":"2024-08-08T15:00:00Z","geo":{"geometry":{"coordinates":[24.0947951,56.9455951],"type":"Point"},"placekey":"@52z-v7n-tqf","address":{"country_code":"LV","formatted_address":"AB Dam, Zemgales priekšpilsēta, Rīga, LV-1048, Latvia","postcode":"1048","locality":"Rīga"}},"labels":["concert","music"],"duration":0,"start_local":"2024-08-08T18:00:00","end":"2024-08-08T15:00:00Z","end_local":"2024-08-08T18:00:00","updated":"2024-06-30T09:21:00Z"},{"title":"ISTQB® Automation Engineer Training Course - Riga (3 days, in English)","description":"Sourced from predicthq.com - ISTQB® Automation Engineer Training Course","category":"conferences","start":"2024-08-05T06:00:00Z","geo":{"geometry":{"coordinates":[24.1597639,56.9716209],"type":"Point"},"placekey":"@52z-r5j-59f","address":{"country_code":"LV","formatted_address":"Brīvības iela 199c, Vidzemes priekšpilsēta, Rīga, LV-1039, Latvia","postcode":"1039","locality":"Rīga"}},"labels":["conference","science","technology"],"duration":0,"start_local":"2024-08-05T09:00:00","end":"2024-08-05T06:00:00Z","end_local":"2024-08-05T09:00:00","updated":"2024-07-04T14:11:03Z"},{"title":"Flute concecrt","description":"Sourced from predicthq.com - Join us for a magical night filled with beautiful melodies played on the enchanting flute!","category":"performing-arts","start":"2024-08-04T07:00:00Z","geo":{"geometry":{"coordinates":[24.1067734,56.9554957],"type":"Point"},"placekey":"@52z-r5k-k2k","address":{"country_code":"LV","formatted_address":"Krišjāņa Valdemāra iela, Rīga, 1010, Latvia","locality":"Rīga","postcode":"1010"}},"labels":["concert","music","performing-arts"],"duration":7200,"start_local":"2024-08-04T10:00:00","end":"2024-08-04T09:00:00Z","end_local":"2024-08-04T12:00:00","updated":"2024-06-27T11:19:15Z"},{"title":"BAIBA","description":"Sourced from predicthq.com","category":"concerts","start":"2024-08-03T16:00:00Z","geo":{"geometry":{"coordinates":[24.15324,56.95056],"type":"Point"},"placekey":"@52z-vcq-w6k","address":{"country_code":"LV","formatted_address":"Vagonu iela 21, Latgales priekšpilsēta, Rīga, LV-1009, Latvia","postcode":"1009","locality":"Rīga"}},"labels":["concert","music"],"duration":0,"start_local":"2024-08-03T19:00:00","end":"2024-08-03T16:00:00Z","end_local":"2024-08-03T19:00:00","updated":"2024-07-05T03:22:50Z"},{"title":"Summer Sound Festival","description":"Sourced from predicthq.com","category":"festivals","start":"2024-08-02T21:00:00Z","geo":{"geometry":{"coordinates":[20.99692,56.49997],"type":"Point"},"placekey":"@537-kz8-wff","address":{"country_code":"LV","formatted_address":"Jūrmalas iela 2, Liepāja, LV-3401, Latvia","postcode":"3401","locality":"Liepāja"}},"labels":["festival","music"],"duration":86399,"start_local":"2024-08-03T00:00:00","end":"2024-08-03T20:59:59Z","end_local":"2024-08-03T23:59:59","updated":"2024-06-04T07:58:49Z"},{"title":"Kaurna Cronin","description":"Sourced from predicthq.com","category":"community","start":"2024-08-02T17:00:00Z","geo":{"geometry":{"coordinates":[25.06884,56.61256],"type":"Point"},"placekey":"@532-q6x-zzz","address":{"country_code":"LV","formatted_address":"No street, Ceriņi, Jaunjelgava, Jaunjelgava pilsēta, Aizkraukles novads, LV-5134, Latvia","postcode":"5134","locality":"Jaunjelgava","region":"Aizkraukles novads"}},"labels":["concert","music"],"duration":0,"start_local":"2024-08-02T20:00:00","end":"2024-08-02T17:00:00Z","end_local":"2024-08-02T20:00:00","updated":"2024-06-04T07:38:03Z"},{"title":"Kaurna Cronin","description":"Sourced from predicthq.com","category":"community","start":"2024-08-01T17:00:00Z","geo":{"geometry":{"coordinates":[24.101124,57.036828],"type":"Point"},"placekey":"@52z-r46-yd9","address":{"country_code":"LV","formatted_address":"Ziemeļblāzmas iela 36, Ziemeļu rajons, Rīga, LV-1015, Latvia","postcode":"1015","locality":"Rīga"}},"labels":["concert","music"],"duration":0,"start_local":"2024-08-01T20:00:00","end":"2024-08-01T17:00:00Z","end_local":"2024-08-01T20:00:00","updated":"2024-06-04T10:22:49Z"},{"title":"Pamirt","description":"Sourced from predicthq.com","category":"concerts","start":"2024-08-01T15:00:00Z","geo":{"geometry":{"coordinates":[24.0947951,56.9455951],"type":"Point"},"placekey":"@52z-v7n-tqf","address":{"country_code":"LV","formatted_address":"AB Dam, Zemgales priekšpilsēta, Rīga, LV-1048, Latvia","postcode":"1048","locality":"Rīga"}},"labels":["concert","music"],"duration":0,"start_local":"2024-08-01T18:00:00","end":"2024-08-01T15:00:00Z","end_local":"2024-08-01T18:00:00","updated":"2024-07-02T15:24:12Z"},{"title":"Adrians Grīns and Ivars Bez F","description":"Sourced from predicthq.com","category":"community","start":"2024-07-31T16:00:00Z","geo":{"geometry":{"coordinates":[24.13061,56.94941],"type":"Point"},"placekey":"@52z-vcp-kzz","address":{"country_code":"LV","formatted_address":"Ernesta Birznieka-Upīša iela 22, Latgales priekšpilsēta, Rīga, LV-1050, Latvia","postcode":"1050","locality":"Rīga"}},"labels":["concert","music"],"duration":0,"start_local":"2024-07-31T19:00:00","end":"2024-07-31T16:00:00Z","end_local":"2024-07-31T19:00:00","updated":"2024-07-04T00:14:43Z"},{"title":"Menuets","description":"Sourced from predicthq.com","category":"concerts","start":"2024-07-31T16:00:00Z","geo":{"geometry":{"coordinates":[24.13116,56.96484],"type":"Point"},"placekey":"@52z-r5n-kcq","address":{"country_code":"LV","formatted_address":"Aristida Briāna iela 9, Centra rajons, Rīga, LV-1001, Latvia","postcode":"1001","locality":"Rīga"}},"labels":["concert","music"],"duration":0,"start_local":"2024-07-31T19:00:00","end":"2024-07-31T16:00:00Z","end_local":"2024-07-31T19:00:00","updated":"2024-07-03T07:10:09Z"},{"title":"Devendra Banhart","description":"Sourced from predicthq.com","category":"concerts","start":"2024-07-31T16:00:00Z","geo":{"geometry":{"coordinates":[24.1078,56.96305],"type":"Point"},"placekey":"@52z-r5j-xqz","address":{"country_code":"LV","formatted_address":"Hanzas iela 16A, Vidzemes priekšpilsēta, Rīga, LV-1045, Latvia","postcode":"1045","locality":"Rīga"}},"labels":["concert","music"],"duration":0,"start_local":"2024-07-31T19:00:00","end":"2024-07-31T16:00:00Z","end_local":"2024-07-31T19:00:00","updated":"2024-06-11T01:08:12Z"},{"title":"Kaurna Cronin","description":"Sourced from predicthq.com","category":"community","start":"2024-07-30T16:00:00Z","geo":{"geometry":{"coordinates":[24.1841,56.40838],"type":"Point"},"placekey":"@532-s23-wtv","address":{"country_code":"LV","formatted_address":"Rūpniecības iela 22, Bauska, Bauskas pilsēta, Bauskas novads, LV-3901, Latvia","postcode":"3901","locality":"Bauska","region":"Bauskas novads"}},"labels":["concert","music"],"duration":0,"start_local":"2024-07-30T19:00:00","end":"2024-07-30T16:00:00Z","end_local":"2024-07-30T19:00:00","updated":"2024-06-04T12:11:56Z"},{"title":"Kaurna Cronin","description":"Sourced from predicthq.com","category":"community","start":"2024-07-28T17:00:00Z","geo":{"geometry":{"coordinates":[21.67828,57.22255],"type":"Point"},"placekey":"@533-mjp-zpv","address":{"country_code":"LV","formatted_address":"Maija iela 8, Piltene, Piltenes pilsēta, Ventspils novads, LV-3620, Latvia","postcode":"3620","locality":"Piltene","region":"Ventspils novads"}},"labels":["concert","music"],"duration":0,"start_local":"2024-07-28T20:00:00","end":"2024-07-28T17:00:00Z","end_local":"2024-07-28T20:00:00","updated":"2024-06-04T09:29:31Z"},{"title":"Trad.Attack!","description":"Sourced from predicthq.com","category":"concerts","start":"2024-07-27T17:30:00Z","geo":{"geometry":{"coordinates":[25.4209,57.5387],"type":"Point"},"placekey":"@533-7s4-hdv","address":{"country_code":"LV","formatted_address":"Rīgas iela 10, Valmiera, LV-4201, Latvia","postcode":"4201","locality":"Valmiera"}},"labels":["concert","music"],"duration":0,"start_local":"2024-07-27T20:30:00","end":"2024-07-27T17:30:00Z","end_local":"2024-07-27T20:30:00","updated":"2024-06-11T01:42:33Z"},{"title":"Carnival Youth","description":"Sourced from predicthq.com","category":"concerts","start":"2024-07-26T17:00:00Z","geo":{"geometry":{"coordinates":[23.74542,56.96318],"type":"Point"},"placekey":"@52z-swf-9zz","address":{"country_code":"LV","formatted_address":"Poruka prospekts 61, Jūrmala, LV-2008, Latvia","postcode":"2008","locality":"Jūrmala"}},"labels":["concert","music"],"duration":0,"start_local":"2024-07-26T20:00:00","end":"2024-07-26T17:00:00Z","end_local":"2024-07-26T20:00:00","updated":"2024-06-16T03:42:45Z"},{"title":"Saldus Saule","description":"Sourced from predicthq.com","category":"festivals","start":"2024-07-25T21:00:00Z","geo":{"geometry":{"coordinates":[22.51633,56.6674],"type":"Point"},"placekey":"@532-fzb-vmk","address":{"country_code":"LV","formatted_address":"Kalnsētas iela 24A, Saldus, Saldus pilsēta, LV-3801, Latvia","postcode":"3801","locality":"Saldus"}},"labels":["festival","music"],"duration":172799,"start_local":"2024-07-26T00:00:00","end":"2024-07-27T20:59:59Z","end_local":"2024-07-27T23:59:59","updated":"2024-06-04T00:21:01Z"},{"title":"Kaurna Cronin","description":"Sourced from predicthq.com","category":"community","start":"2024-07-25T17:00:00Z","geo":{"geometry":{"coordinates":[25.95203,57.58583],"type":"Point"},"placekey":"@532-64h-psq","address":{"country_code":"LV","formatted_address":"Klēts, Vijciems, Vijciema pagasts, Valkas novads, LV-4733, Latvia","postcode":"4733","locality":"Vijciems","region":"Valkas novads"}},"labels":["concert","music"],"duration":0,"start_local":"2024-07-25T20:00:00","end":"2024-07-25T17:00:00Z","end_local":"2024-07-25T20:00:00","updated":"2024-06-04T02:22:13Z"},{"title":"Ola Onabule and Latvian Radio Big Band","description":"Sourced from predicthq.com","category":"concerts","start":"2024-07-20T18:00:00Z","geo":{"geometry":{"coordinates":[24.4180565,57.2636108],"type":"Point"},"placekey":"@52z-wvj-66k","address":{"country_code":"LV","formatted_address":"Ainažu iela 42, Saulkrasti, Saulkrastu pilsēta, Saulkrastu novads, LV-2160, Latvia","postcode":"2160","locality":"Saulkrasti","region":"Saulkrastu novads"}},"labels":["concert","music"],"duration":0,"start_local":"2024-07-20T21:00:00","end":"2024-07-20T18:00:00Z","end_local":"2024-07-20T21:00:00","updated":"2024-06-16T01:36:57Z"},{"title":"Carnival Youth","description":"Sourced from predicthq.com","category":"concerts","start":"2024-07-20T17:00:00Z","geo":{"geometry":{"coordinates":[25.0378246,57.2360801],"type":"Point"},"placekey":"@532-86v-5j9","address":{"country_code":"LV","formatted_address":"Gaujas iela 4, Līgatne, Līgatnes pilsēta, LV-4110, Latvia","postcode":"4110","locality":"Līgatne"}},"labels":["concert","music"],"duration":0,"start_local":"2024-07-20T20:00:00","end":"2024-07-20T17:00:00Z","end_local":"2024-07-20T20:00:00","updated":"2024-06-11T01:04:05Z"},{"title":"Kautkaili","description":"Sourced from predicthq.com","category":"concerts","start":"2024-07-19T17:00:00Z","geo":{"geometry":{"coordinates":[23.74542,56.96318],"type":"Point"},"placekey":"@52z-swf-9zz","address":{"country_code":"LV","formatted_address":"Poruka prospekts 61, Jūrmala, LV-2008, Latvia","postcode":"2008","locality":"Jūrmala"}},"labels":["concert","music"],"duration":0,"start_local":"2024-07-19T20:00:00","end":"2024-07-19T17:00:00Z","end_local":"2024-07-19T20:00:00","updated":"2024-06-16T03:42:39Z"},{"title":"Stabs and Durduns","description":"Sourced from predicthq.com","category":"concerts","start":"2024-07-19T16:00:00Z","geo":{"geometry":{"coordinates":[24.14023,56.94867],"type":"Point"},"placekey":"@52z-vcr-c89","address":{"country_code":"LV","formatted_address":"Ādmiņu iela 4, Latgales priekšpilsēta, Rīga, LV-1009, Latvia","postcode":"1009","locality":"Rīga"}},"labels":["concert","music"],"duration":0,"start_local":"2024-07-19T19:00:00","end":"2024-07-19T16:00:00Z","end_local":"2024-07-19T19:00:00","updated":"2024-07-05T16:04:25Z"},{"title":"Positivus","description":"Sourced from predicthq.com","category":"festivals","start":"2024-07-18T21:00:00Z","geo":{"geometry":{"coordinates":[24.11833,56.92417],"type":"Point"},"placekey":"@52z-vck-grk","address":{"country_code":"LV","formatted_address":"Riga, Latvia","locality":"Riga"}},"labels":["festival","music"],"duration":172799,"start_local":"2024-07-19T00:00:00","end":"2024-07-20T20:59:59Z","end_local":"2024-07-20T23:59:59","updated":"2024-06-19T16:30:26Z"},{"title":"Grab and Trīne un Inga","description":"Sourced from predicthq.com","category":"concerts","start":"2024-07-18T15:00:00Z","geo":{"geometry":{"coordinates":[24.0947951,56.9455951],"type":"Point"},"placekey":"@52z-v7n-tqf","address":{"country_code":"LV","formatted_address":"AB Dam, Zemgales priekšpilsēta, Rīga, LV-1048, Latvia","postcode":"1048","locality":"Rīga"}},"labels":["concert","music"],"duration":0,"start_local":"2024-07-18T18:00:00","end":"2024-07-18T15:00:00Z","end_local":"2024-07-18T18:00:00","updated":"2024-07-04T20:47:15Z"},{"title":"Ensemble Nist-Nah","description":"Sourced from predicthq.com","category":"concerts","start":"2024-07-17T16:00:00Z","geo":{"geometry":{"coordinates":[24.1078,56.96305],"type":"Point"},"placekey":"@52z-r5j-xqz","address":{"country_code":"LV","formatted_address":"Hanzas iela 16A, Vidzemes priekšpilsēta, Rīga, LV-1045, Latvia","postcode":"1045","locality":"Rīga"}},"labels":["concert","music"],"duration":0,"start_local":"2024-07-17T19:00:00","end":"2024-07-17T16:00:00Z","end_local":"2024-07-17T19:00:00","updated":"2024-06-29T00:38:38Z"},{"title":"Juris Simanovičs un Bez Grēka Ieņemtie","description":"Sourced from predicthq.com","category":"concerts","start":"2024-07-17T15:00:00Z","geo":{"geometry":{"coordinates":[24.13116,56.96484],"type":"Point"},"placekey":"@52z-r5n-kcq","address":{"country_code":"LV","formatted_address":"Aristida Briāna iela 9, Centra rajons, Rīga, LV-1001, Latvia","postcode":"1001","locality":"Rīga"}},"labels":["concert","music"],"duration":0,"start_local":"2024-07-17T18:00:00","end":"2024-07-17T15:00:00Z","end_local":"2024-07-17T18:00:00","updated":"2024-07-03T22:54:15Z"},{"title":"Heilung","description":"Sourced from predicthq.com","category":"concerts","start":"2024-07-12T16:00:00Z","geo":{"geometry":{"coordinates":[24.1213798,56.9680612],"type":"Point"},"placekey":"@52z-r5k-w8v","address":{"country_code":"LV","formatted_address":"Skanstes iela 21, Vidzemes priekšpilsēta, Rīga, LV-1013, Latvia","postcode":"1013","locality":"Rīga"}},"labels":["concert","music"],"duration":0,"start_local":"2024-07-12T19:00:00","end":"2024-07-12T16:00:00Z","end_local":"2024-07-12T19:00:00","updated":"2024-07-05T10:14:02Z"},{"title":"Bel Tempo","description":"Sourced from predicthq.com","category":"concerts","start":"2024-07-11T17:00:00Z","geo":{"geometry":{"coordinates":[24.13116,56.96484],"type":"Point"},"placekey":"@52z-r5n-kcq","address":{"country_code":"LV","formatted_address":"Aristida Briāna iela 9, Centra rajons, Rīga, LV-1001, Latvia","postcode":"1001","locality":"Rīga"}},"labels":["concert","music"],"duration":0,"start_local":"2024-07-11T20:00:00","end":"2024-07-11T17:00:00Z","end_local":"2024-07-11T20:00:00","updated":"2024-07-05T23:27:06Z"},{"title":"UEFA Conference League - 1st Qualifying Round - Liepāja vs Víkingur","description":"Sourced from predicthq.com","category":"sports","start":"2024-07-11T15:00:00Z","geo":{"geometry":{"coordinates":[20.9953192,56.5031427],"type":"Point"},"placekey":"@537-kz8-mc5","address":{"country_code":"LV","formatted_address":"Piejūras parks, Liepāja, LV-3401, Latvia","postcode":"3401","locality":"Liepāja"}},"labels":["soccer","sport"],"duration":0,"start_local":"2024-07-11T18:00:00","end":"2024-07-11T15:00:00Z","end_local":"2024-07-11T18:00:00","updated":"2024-06-24T19:14:11Z"},{"title":"Amorālā Psihoze","description":"Sourced from predicthq.com","category":"community","start":"2024-07-11T15:00:00Z","geo":{"geometry":{"coordinates":[24.0947951,56.9455951],"type":"Point"},"placekey":"@52z-v7n-tqf","address":{"country_code":"LV","formatted_address":"AB Dam, Zemgales priekšpilsēta, Rīga, LV-1048, Latvia","postcode":"1048","locality":"Rīga"}},"labels":["concert","music"],"duration":0,"start_local":"2024-07-11T18:00:00","end":"2024-07-11T15:00:00Z","end_local":"2024-07-11T18:00:00","updated":"2024-06-30T11:39:48Z"},{"title":"Riga Infestation","description":"Sourced from predicthq.com","category":"festivals","start":"2024-07-10T21:00:00Z","geo":{"geometry":{"coordinates":[24.14023,56.94867],"type":"Point"},"placekey":"@52z-vcr-c89","address":{"country_code":"LV","formatted_address":"Ādmiņu iela 4, Latgales priekšpilsēta, Rīga, LV-1009, Latvia","postcode":"1009","locality":"Rīga"}},"labels":["festival","music"],"duration":86399,"start_local":"2024-07-11T00:00:00","end":"2024-07-11T20:59:59Z","end_local":"2024-07-11T23:59:59","updated":"2024-07-03T03:14:22Z"},{"title":"UEFA Conference League - 1st Qualifying Round - Auda vs B36","description":"Sourced from predicthq.com","category":"sports","start":"2024-07-10T19:00:00Z","geo":{"geometry":{"coordinates":[24.1162445,56.9612283],"type":"Point"},"placekey":"@52z-r5k-4qf","address":{"country_code":"LV","formatted_address":"1 Emiļa Melngaiļa iela, Rīga, LV-1010, Latvia","postcode":"LV-1010","locality":"Rīga"}},"labels":["soccer","sport"],"duration":0,"start_local":"2024-07-10T22:00:00","end":"2024-07-10T19:00:00Z","end_local":"2024-07-10T22:00:00","updated":"2024-06-25T17:30:16Z"},{"title":"UEFA Champions League - 1st Qualifying Round - Rīgas FS vs Larne","description":"Sourced from predicthq.com","category":"sports","start":"2024-07-10T17:00:00Z","geo":{"geometry":{"coordinates":[24.155300465,56.907960471],"type":"Point"},"placekey":"@52z-vcm-rx5","address":{"country_code":"LV","formatted_address":"Lejupes iela 5, Zemgales priekšpilsēta, Rīga (Riga), Latvia","locality":"Rīga (Riga)"}},"labels":["soccer","sport"],"duration":0,"start_local":"2024-07-10T20:00:00","end":"2024-07-10T17:00:00Z","end_local":"2024-07-10T20:00:00","updated":"2024-06-24T19:04:19Z"},{"title":"Klinta & Egons: Blues. Soul. Rock.","description":"Sourced from predicthq.com - Klinta un Egons kopā ir radījuši dinamisku muzikas projektu, kas apvieno blūza dvēseli, soula sirds ritmus un roka enerģiju.","category":"performing-arts","start":"2024-07-10T16:00:00Z","geo":{"geometry":{"coordinates":[23.7485908,56.6932619],"type":"Point"},"placekey":"@532-gtv-d35","address":{"country_code":"LV","formatted_address":"Alejas iela, Ozolnieki, 3018, Latvia","locality":"Ozolnieki","postcode":"3018","region":"Jelgavas novads"}},"labels":["concert","music","performing-arts"],"duration":7200,"start_local":"2024-07-10T19:00:00","end":"2024-07-10T18:00:00Z","end_local":"2024-07-10T21:00:00","updated":"2024-06-20T08:18:34Z"},{"title":"Kaprači, Metamorfoze, That Which I Seek, and 3 others","description":"Sourced from predicthq.com","category":"community","start":"2024-07-10T16:00:00Z","geo":{"geometry":{"coordinates":[24.1141988,56.9467317],"type":"Point"},"placekey":"@52z-vcn-r49","address":{"country_code":"LV","formatted_address":"32 Vaļņu iela, Rīga, LV-1050, Latvia","postcode":"LV-1050","locality":"Rīga"}},"labels":["concert","music"],"duration":0,"start_local":"2024-07-10T19:00:00","end":"2024-07-10T16:00:00Z","end_local":"2024-07-10T19:00:00","updated":"2024-07-04T23:42:54Z"},{"title":"P.S.PMS","description":"Sourced from predicthq.com","category":"concerts","start":"2024-07-10T15:00:00Z","geo":{"geometry":{"coordinates":[24.13116,56.96484],"type":"Point"},"placekey":"@52z-r5n-kcq","address":{"country_code":"LV","formatted_address":"Aristida Briāna iela 9, Centra rajons, Rīga, LV-1001, Latvia","postcode":"1001","locality":"Rīga"}},"labels":["concert","music"],"duration":0,"start_local":"2024-07-10T18:00:00","end":"2024-07-10T15:00:00Z","end_local":"2024-07-10T18:00:00","updated":"2024-07-03T23:10:33Z"},{"title":"Jordan Rakei","description":"Sourced from predicthq.com","category":"concerts","start":"2024-07-09T15:30:00Z","geo":{"geometry":{"coordinates":[24.1078,56.96305],"type":"Point"},"placekey":"@52z-r5j-xqz","address":{"country_code":"LV","formatted_address":"Hanzas iela 16A, Vidzemes priekšpilsēta, Rīga, LV-1045, Latvia","postcode":"1045","locality":"Rīga"}},"labels":["concert","music"],"duration":0,"start_local":"2024-07-09T18:30:00","end":"2024-07-09T15:30:00Z","end_local":"2024-07-09T18:30:00","updated":"2024-06-29T01:26:03Z"},{"title":"Olympic Qualification Tournament - Riga Tournament - Final - Winner Cameroon / Latvia vs Winner Brazil / Philippines","description":"Sourced from predicthq.com","category":"sports","start":"2024-07-07T16:00:00Z","geo":{"geometry":{"coordinates":[24.1213798,56.9680612],"type":"Point"},"placekey":"@52z-r5k-w8v","address":{"country_code":"LV","formatted_address":"Skanstes iela 21, Vidzemes priekšpilsēta, Rīga, LV-1013, Latvia","postcode":"1013","locality":"Rīga"}},"labels":["basketball","sport"],"duration":0,"start_local":"2024-07-07T19:00:00","end":"2024-07-07T16:00:00Z","end_local":"2024-07-07T19:00:00","updated":"2024-07-05T04:49:25Z"},{"title":"Fiņķis","description":"Sourced from predicthq.com","category":"concerts","start":"2024-07-06T18:00:00Z","geo":{"geometry":{"coordinates":[21.00778,56.50282],"type":"Point"},"placekey":"@537-kz8-fvf","address":{"country_code":"LV","formatted_address":"Kuršu iela 20, Liepāja, LV-3401, Latvia","postcode":"3401","locality":"Liepāja"}},"labels":["concert","music"],"duration":0,"start_local":"2024-07-06T21:00:00","end":"2024-07-06T18:00:00Z","end_local":"2024-07-06T21:00:00","updated":"2024-06-10T23:53:51Z"},{"title":"Teresa Banks and Pitchless Foundation","description":"Sourced from predicthq.com","category":"community","start":"2024-07-06T16:00:00Z","geo":{"geometry":{"coordinates":[24.10326,56.95042],"type":"Point"},"placekey":"@52z-vcp-vvf","address":{"country_code":"LV","formatted_address":"Mazā Pils iela 11, Centra rajons, Rīga, LV-1050, Latvia","postcode":"1050","locality":"Rīga"}},"labels":["concert","music"],"duration":0,"start_local":"2024-07-06T19:00:00","end":"2024-07-06T16:00:00Z","end_local":"2024-07-06T19:00:00","updated":"2024-06-30T06:08:09Z"},{"title":"Olympic Qualification Tournament - Riga Tournament - Semi-finals - Cameroon vs Latvia","description":"Sourced from predicthq.com","category":"sports","start":"2024-07-06T16:00:00Z","geo":{"geometry":{"coordinates":[24.1213798,56.9680612],"type":"Point"},"placekey":"@52z-r5k-w8v","address":{"country_code":"LV","formatted_address":"Skanstes iela 21, Vidzemes priekšpilsēta, Rīga, LV-1013, Latvia","postcode":"1013","locality":"Rīga"}},"labels":["basketball","sport"],"duration":0,"start_local":"2024-07-06T19:00:00","end":"2024-07-06T16:00:00Z","end_local":"2024-07-06T19:00:00","updated":"2024-07-05T07:44:25Z"},{"title":"Olympic Qualification Tournament - Riga Tournament - Semi-finals - Brazil vs Philippines","description":"Sourced from predicthq.com","category":"sports","start":"2024-07-06T12:30:00Z","geo":{"geometry":{"coordinates":[24.1213798,56.9680612],"type":"Point"},"placekey":"@52z-r5k-w8v","address":{"country_code":"LV","formatted_address":"Skanstes iela 21, Vidzemes priekšpilsēta, Rīga, LV-1013, Latvia","postcode":"1013","locality":"Rīga"}},"labels":["basketball","sport"],"duration":0,"start_local":"2024-07-06T15:30:00","end":"2024-07-06T12:30:00Z","end_local":"2024-07-06T15:30:00","updated":"2024-07-05T07:41:58Z"},{"title":"Keskkool, Hukk, Buzhold, and Alkomulaator","description":"Sourced from predicthq.com","category":"community","start":"2024-07-05T16:00:00Z","geo":{"geometry":{"coordinates":[24.1141988,56.9467317],"type":"Point"},"placekey":"@52z-vcn-r49","address":{"country_code":"LV","formatted_address":"32 Vaļņu iela, Rīga, LV-1050, Latvia","postcode":"LV-1050","locality":"Rīga"}},"labels":["concert","music"],"duration":0,"start_local":"2024-07-05T19:00:00","end":"2024-07-05T16:00:00Z","end_local":"2024-07-05T19:00:00","updated":"2024-07-05T00:04:15Z"},{"title":"Ansis Bētiņš un Artūrs Čukurs","description":"Sourced from predicthq.com","category":"concerts","start":"2024-07-05T15:00:00Z","geo":{"geometry":{"coordinates":[24.07137,56.93613],"type":"Point"},"placekey":"@52z-v7s-k75","address":{"country_code":"LV","formatted_address":"Nometņu iela 64, Zemgales priekšpilsēta, Rīga, LV-1002, Latvia","postcode":"1002","locality":"Rīga"}},"labels":["concert","music"],"duration":0,"start_local":"2024-07-05T18:00:00","end":"2024-07-05T15:00:00Z","end_local":"2024-07-05T18:00:00","updated":"2024-07-05T02:27:52Z"},{"title":"Straume","description":"Sourced from predicthq.com","category":"festivals","start":"2024-07-04T21:00:00Z","geo":{"geometry":{"coordinates":[25.0378246,57.2360801],"type":"Point"},"placekey":"@532-86v-5j9","address":{"country_code":"LV","formatted_address":"Gaujas iela 4, Līgatne, Līgatnes pilsēta, LV-4110, Latvia","postcode":"4110","locality":"Līgatne"}},"labels":["festival","music"],"duration":172799,"start_local":"2024-07-05T00:00:00","end":"2024-07-06T20:59:59Z","end_local":"2024-07-06T23:59:59","updated":"2024-06-04T07:58:53Z"},{"title":"VIŅA and Ūga","description":"Sourced from predicthq.com","category":"concerts","start":"2024-07-04T16:00:00Z","geo":{"geometry":{"coordinates":[24.06676,56.94323],"type":"Point"},"placekey":"@52z-v7p-5xq","address":{"country_code":"LV","formatted_address":"Kalnciema Iela 35, Zemgales priekšpilsēta, Rīga, LV-1046, Latvia","postcode":"1046","locality":"Rīga"}},"labels":["concert","music"],"duration":0,"start_local":"2024-07-04T19:00:00","end":"2024-07-04T16:00:00Z","end_local":"2024-07-04T19:00:00","updated":"2024-07-03T23:14:33Z"},{"title":"Olympic Qualification Tournament - Riga Tournament - Preliminary Round - Cameroon vs Brazil","description":"Sourced from predicthq.com","category":"sports","start":"2024-07-04T16:00:00Z","geo":{"geometry":{"coordinates":[24.1213798,56.9680612],"type":"Point"},"placekey":"@52z-r5k-w8v","address":{"country_code":"LV","formatted_address":"Skanstes iela 21, Vidzemes priekšpilsēta, Rīga, LV-1013, Latvia","postcode":"1013","locality":"Rīga"}},"labels":["basketball","sport"],"duration":0,"start_local":"2024-07-04T19:00:00","end":"2024-07-04T16:00:00Z","end_local":"2024-07-04T19:00:00","updated":"2024-06-11T03:40:44Z"},{"title":"Karlo the","description":"Sourced from predicthq.com","category":"concerts","start":"2024-07-04T16:00:00Z","geo":{"geometry":{"coordinates":[24.15324,56.95056],"type":"Point"},"placekey":"@52z-vcq-w6k","address":{"country_code":"LV","formatted_address":"Vagonu iela 21, Latgales priekšpilsēta, Rīga, LV-1009, Latvia","postcode":"1009","locality":"Rīga"}},"labels":["concert","music"],"duration":0,"start_local":"2024-07-04T19:00:00","end":"2024-07-04T16:00:00Z","end_local":"2024-07-04T19:00:00","updated":"2024-06-27T16:37:27Z"},{"title":"Olympic Qualification Tournament - Riga Tournament - Preliminary Round - Philippines vs Georgia","description":"Sourced from predicthq.com","category":"sports","start":"2024-07-04T12:30:00Z","geo":{"geometry":{"coordinates":[24.1213798,56.9680612],"type":"Point"},"placekey":"@52z-r5k-w8v","address":{"country_code":"LV","formatted_address":"Skanstes iela 21, Vidzemes priekšpilsēta, Rīga, LV-1013, Latvia","postcode":"1013","locality":"Rīga"}},"labels":["basketball","sport"],"duration":0,"start_local":"2024-07-04T15:30:00","end":"2024-07-04T12:30:00Z","end_local":"2024-07-04T15:30:00","updated":"2024-06-11T01:35:37Z"},{"title":"5K Color Run","description":"Sourced from predicthq.com - Join us for the most colorful 5K run of your life, where you'll be covered head to toe in vibrant hues while having a blast with friends and","category":"community","start":"2024-07-04T04:00:00Z","geo":{"geometry":{"coordinates":[24.8537283,56.7778028],"type":"Point"},"placekey":"@532-qnk-psq","address":{"country_code":"LV","formatted_address":"Glāžšķūnis, 5016, Latvia","locality":"Glāžšķūnis","postcode":"5016","region":"Ogre Municipality"}},"labels":["community","sport"],"duration":18000,"start_local":"2024-07-04T07:00:00","end":"2024-07-04T09:00:00Z","end_local":"2024-07-04T12:00:00","updated":"2024-07-04T00:35:41Z"},{"title":"Rigas Ritmi Festival","description":"Sourced from predicthq.com - The Rigas Ritmi Music Festival is one of the most visited and favorite music festivals in Latvia that brings together high-class artists. It is one of the leading music festivals in the Baltics, also known in Europe and worldwide.","category":"festivals","start":"2024-07-03T21:00:00Z","geo":{"geometry":{"coordinates":[24.1049786,56.9495269],"type":"Point"},"placekey":"@52z-vcp-qzz","address":{"country_code":"LV","formatted_address":"Mūku iela, Rīga, 1050, Latvia","locality":"Rīga","postcode":"1050"}},"labels":["entertainment","festival","music"],"duration":259199,"start_local":"2024-07-04T00:00:00","end":"2024-07-06T20:59:59Z","end_local":"2024-07-06T23:59:59","updated":"2024-06-04T00:12:10Z"},{"title":"Tautumeitas","description":"Sourced from predicthq.com","category":"community","start":"2024-07-03T17:00:00Z","geo":{"geometry":{"coordinates":[23.85898,56.66598],"type":"Point"},"placekey":"@52z-txh-cbk","address":{"country_code":"LV","formatted_address":"Saules 2, Cena, Jelgava, Latvia","locality":"Jelgava"}},"labels":["concert","music"],"duration":0,"start_local":"2024-07-03T20:00:00","end":"2024-07-03T17:00:00Z","end_local":"2024-07-03T20:00:00","updated":"2024-06-19T02:03:06Z"},{"title":"Olympic Qualification Tournament - Riga Tournament - Preliminary Round - Latvia vs Philippines","description":"Sourced from predicthq.com","category":"sports","start":"2024-07-03T16:00:00Z","geo":{"geometry":{"coordinates":[24.1213798,56.9680612],"type":"Point"},"placekey":"@52z-r5k-w8v","address":{"country_code":"LV","formatted_address":"Skanstes iela 21, Vidzemes priekšpilsēta, Rīga, LV-1013, Latvia","postcode":"1013","locality":"Rīga"}},"labels":["basketball","sport"],"duration":0,"start_local":"2024-07-03T19:00:00","end":"2024-07-03T16:00:00Z","end_local":"2024-07-03T19:00:00","updated":"2024-06-11T04:13:07Z"},{"title":"Two Feet and Toby Mai","description":"Sourced from predicthq.com","category":"concerts","start":"2024-07-03T16:00:00Z","geo":{"geometry":{"coordinates":[24.1256686,56.9508745],"type":"Point"},"placekey":"@52z-vcp-p7q","address":{"country_code":"LV","formatted_address":"Palladium, SIA, 21 Marijas iela, Rīga, 1050, Latvia","postcode":"1050","locality":"Rīga"}},"labels":["concert","music"],"duration":0,"start_local":"2024-07-03T19:00:00","end":"2024-07-03T16:00:00Z","end_local":"2024-07-03T19:00:00","updated":"2024-06-30T08:53:55Z"},{"title":"Zodiaks","description":"Sourced from predicthq.com","category":"community","start":"2024-07-03T15:00:00Z","geo":{"geometry":{"coordinates":[24.13116,56.96484],"type":"Point"},"placekey":"@52z-r5n-kcq","address":{"country_code":"LV","formatted_address":"Aristida Briāna iela 9, Centra rajons, Rīga, LV-1001, Latvia","postcode":"1001","locality":"Rīga"}},"labels":["concert","music"],"duration":0,"start_local":"2024-07-03T18:00:00","end":"2024-07-03T15:00:00Z","end_local":"2024-07-03T18:00:00","updated":"2024-06-29T03:01:53Z"},{"title":"Olympic Qualification Tournament - Riga Tournament - Preliminary Round - Montenegro vs Cameroon","description":"Sourced from predicthq.com","category":"sports","start":"2024-07-03T12:30:00Z","geo":{"geometry":{"coordinates":[24.1213798,56.9680612],"type":"Point"},"placekey":"@52z-r5k-w8v","address":{"country_code":"LV","formatted_address":"Skanstes iela 21, Vidzemes priekšpilsēta, Rīga, LV-1013, Latvia","postcode":"1013","locality":"Rīga"}},"labels":["basketball","sport"],"duration":0,"start_local":"2024-07-03T15:30:00","end":"2024-07-03T12:30:00Z","end_local":"2024-07-03T15:30:00","updated":"2024-06-10T23:19:29Z"},{"title":"ISPA Conference","description":"Sourced from predicthq.com","category":"conferences","start":"2024-07-03T06:00:00Z","geo":{"geometry":{"coordinates":[24.116313,56.95081],"type":"Point"},"placekey":"@52z-vcp-dgk","address":{"country_code":"LV","formatted_address":"Raiņa bulvāris 19, Centra rajons, Rīga, LV-1586, Latvia","postcode":"1586","locality":"Rīga"}},"labels":["conference"],"duration":291600,"start_local":"2024-07-03T09:00:00","end":"2024-07-06T15:00:00Z","end_local":"2024-07-06T18:00:00","updated":"2024-06-16T00:13:38Z"},{"title":"You Might Be Here @ Rigas Cherry Bar","description":"Sourced from predicthq.com - Hermes Ahmadi's comedy special about life as an Afghan in Europe! Comedy and storytelling at it's funniest and silliest!","category":"performing-arts","start":"2024-07-02T17:30:00Z","geo":{"geometry":{"coordinates":[24.111753,56.9471399],"type":"Point"},"placekey":"@52z-vcn-rkz","address":{"country_code":"LV","formatted_address":"Audēju iela, Rīga, 1050, Latvia","locality":"Rīga","postcode":"1050"}},"labels":["concert","music","performing-arts"],"duration":5400,"start_local":"2024-07-02T20:30:00","end":"2024-07-02T19:00:00Z","end_local":"2024-07-02T22:00:00","updated":"2024-06-03T23:56:59Z"},{"title":"FREE CONCERT RIGA- Everett Chorale","description":"Sourced from predicthq.com - Enjoy a free concert with the amazing singers from the Everett Chorale in Riga on July 02th!","category":"performing-arts","start":"2024-07-02T16:00:00Z","geo":{"geometry":{"coordinates":[24.110836,56.94747169999999],"type":"Point"},"placekey":"@52z-vcp-swk","address":{"country_code":"LV","formatted_address":"Skārņu iela, Rīga, 1050, Latvia","locality":"Rīga","postcode":"1050"}},"labels":["concert","music","performing-arts"],"duration":0,"start_local":"2024-07-02T19:00:00","end":"2024-07-02T16:00:00Z","end_local":"2024-07-02T19:00:00","updated":"2024-06-27T03:29:21Z"},{"title":"Olympic Qualification Tournament - Riga Tournament - Preliminary Round - Georgia vs Latvia","description":"Sourced from predicthq.com","category":"sports","start":"2024-07-02T16:00:00Z","geo":{"geometry":{"coordinates":[24.1213798,56.9680612],"type":"Point"},"placekey":"@52z-r5k-w8v","address":{"country_code":"LV","formatted_address":"Skanstes iela 21, Vidzemes priekšpilsēta, Rīga, LV-1013, Latvia","postcode":"1013","locality":"Rīga"}},"labels":["basketball","sport"],"duration":0,"start_local":"2024-07-02T19:00:00","end":"2024-07-02T16:00:00Z","end_local":"2024-07-02T19:00:00","updated":"2024-06-11T06:58:27Z"},{"title":"Olympic Qualification Tournament - Riga Tournament - Preliminary Round - Brazil vs Montenegro","description":"Sourced from predicthq.com","category":"sports","start":"2024-07-02T12:30:00Z","geo":{"geometry":{"coordinates":[24.1213798,56.9680612],"type":"Point"},"placekey":"@52z-r5k-w8v","address":{"country_code":"LV","formatted_address":"Skanstes iela 21, Vidzemes priekšpilsēta, Rīga, LV-1013, Latvia","postcode":"1013","locality":"Rīga"}},"labels":["basketball","sport"],"duration":0,"start_local":"2024-07-02T15:30:00","end":"2024-07-02T12:30:00Z","end_local":"2024-07-02T15:30:00","updated":"2024-06-11T06:25:31Z"},{"title":"ISTQB® Automation Engineer Training Course - Riga (3 days, in English)","description":"Sourced from predicthq.com - ISTQB® Automation Engineer Training Course","category":"conferences","start":"2024-07-01T06:00:00Z","geo":{"geometry":{"coordinates":[24.1597639,56.9716209],"type":"Point"},"placekey":"@52z-r5j-59f","address":{"country_code":"LV","formatted_address":"Brīvības iela 199c, Vidzemes priekšpilsēta, Rīga, LV-1039, Latvia","postcode":"1039","locality":"Rīga"}},"labels":["conference","science","technology"],"duration":0,"start_local":"2024-07-01T09:00:00","end":"2024-07-01T06:00:00Z","end_local":"2024-07-01T09:00:00","updated":"2024-06-06T03:21:57Z"},{"title":"Summer Sound Festival","description":"Sourced from predicthq.com - Experience a sensational celebration of music and culture at the Summer Sound Festival, where renowned international artists gather to create an unforgettable amalgamation of melodies, rhythms, and euphoria. Immerse yourself in a vibrant atmosphere, filled with captivating performances, thrilling activities, and a buzzing community of music enthusiasts.","category":"festivals","start":"2024-06-30T21:00:00Z","geo":{"geometry":{"coordinates":[20.99312,56.51057],"type":"Point"},"placekey":"@537-kz9-c89","address":{"country_code":"LV","formatted_address":"Zvejnieku aleja 2/4, Liepāja, LV-3401, Latvia","postcode":"3401","locality":"Liepāja"}},"labels":["festival","music"],"duration":5356799,"start_local":"2024-07-01T00:00:00","end":"2024-08-31T20:59:59Z","end_local":"2024-08-31T23:59:59","updated":"2024-06-04T07:48:24Z"},{"title":"Musia Totibadze","description":"Sourced from predicthq.com","category":"concerts","start":"2024-06-27T16:00:00Z","geo":{"geometry":{"coordinates":[24.16413,56.96913],"type":"Point"},"placekey":"@52z-r5j-3dv","address":{"country_code":"LV","formatted_address":"Ūnijas iela 8 k-7, Vidzemes priekšpilsēta, Rīga, LV-1084, Latvia","postcode":"1084","locality":"Rīga"}},"labels":["concert","music"],"duration":0,"start_local":"2024-06-27T19:00:00","end":"2024-06-27T16:00:00Z","end_local":"2024-06-27T19:00:00","updated":"2024-07-01T17:52:06Z"},{"title":"Tautumeitas","description":"Sourced from predicthq.com","category":"community","start":"2024-06-21T18:00:00Z","geo":{"geometry":{"coordinates":[25.27137,57.31328],"type":"Point"},"placekey":"@532-826-wkz","address":{"country_code":"LV","formatted_address":"Cēsis Castle Park, Lenču iela 9A, Cēsis, Cēsu pilsēta, Cēsu novads, LV-4101, Latvia","postcode":"4101","locality":"Cēsis","region":"Cēsu novads"}},"labels":["concert","music"],"duration":0,"start_local":"2024-06-21T21:00:00","end":"2024-06-21T18:00:00Z","end_local":"2024-06-21T21:00:00","updated":"2024-06-05T23:56:59Z"},{"title":"Annual Meeting of the Rhinoplasty Society of Europe","description":"Sourced from predicthq.com","category":"conferences","start":"2024-06-21T06:00:00Z","geo":{"geometry":{"coordinates":[24.1176857,56.9549231],"type":"Point"},"placekey":"@52z-vcp-cdv","address":{"country_code":"LV","formatted_address":"55 Elizabetes iela, Rīga, LV-1010, Latvia","postcode":"LV-1010","locality":"Rīga"}},"labels":["conference"],"duration":118800,"start_local":"2024-06-21T09:00:00","end":"2024-06-22T15:00:00Z","end_local":"2024-06-22T18:00:00","updated":"2024-06-02T06:12:44Z"},{"title":"Nine Brains Meetup","description":"Sourced from predicthq.com - .","category":"conferences","start":"2024-06-20T15:30:00Z","geo":{"geometry":{"coordinates":[24.1146928,56.9592591],"type":"Point"},"placekey":"@52z-r5k-5zz","address":{"country_code":"LV","formatted_address":"Skanstes iela, Rīga, 1013, Latvia","locality":"Rīga","postcode":"1013"}},"labels":["conference","science","technology"],"duration":0,"start_local":"2024-06-20T18:30:00","end":"2024-06-20T15:30:00Z","end_local":"2024-06-20T18:30:00","updated":"2024-06-20T08:53:26Z"},{"title":"Annual Baltic Summer congress","description":"Sourced from predicthq.com","category":"conferences","start":"2024-06-20T06:00:00Z","geo":{"geometry":{"coordinates":[24.116313,56.95081],"type":"Point"},"placekey":"@52z-vcp-dgk","address":{"country_code":"LV","formatted_address":"Raiņa bulvāris 19, Centra rajons, Rīga, LV-1586, Latvia","postcode":"1586","locality":"Rīga"}},"labels":["conference"],"duration":118800,"start_local":"2024-06-20T09:00:00","end":"2024-06-21T15:00:00Z","end_local":"2024-06-21T18:00:00","updated":"2024-06-11T05:44:44Z"},{"title":"Family Storytelling Show: Wild Atlantic Tales","description":"Sourced from predicthq.com - Irish storyteller Niall de Búrca is coming to the National Library of Latvia with his  family show Wild Atlantic Tales.","category":"performing-arts","start":"2024-06-18T08:30:00Z","geo":{"geometry":{"coordinates":[24.0968204,56.9410509],"type":"Point"},"placekey":"@52z-vcs-fpv","address":{"country_code":"LV","formatted_address":"Mūkusalas iela, Rīga, 1048, Latvia","locality":"Rīga","postcode":"1048"}},"labels":["concert","music","performing-arts"],"duration":3600,"start_local":"2024-06-18T11:30:00","end":"2024-06-18T09:30:00Z","end_local":"2024-06-18T12:30:00","updated":"2024-06-06T03:21:56Z"},{"title":"Bi-2","description":"Sourced from predicthq.com","category":"concerts","start":"2024-06-15T17:00:00Z","geo":{"geometry":{"coordinates":[24.0924067,56.9631776],"type":"Point"},"placekey":"@52z-r5m-4gk","address":{"country_code":"LV","formatted_address":"Andrejostas iela 17, Ziemeļu rajons, Rīga, LV-1045, Latvia","postcode":"1045","locality":"Rīga"}},"labels":["concert","music"],"duration":0,"start_local":"2024-06-15T20:00:00","end":"2024-06-15T17:00:00Z","end_local":"2024-06-15T20:00:00","updated":"2024-06-29T17:03:35Z"},{"title":"Fontaines D.C.","description":"Sourced from predicthq.com","category":"concerts","start":"2024-06-15T16:00:00Z","geo":{"geometry":{"coordinates":[24.1256686,56.9508745],"type":"Point"},"placekey":"@52z-vcp-p7q","address":{"country_code":"LV","formatted_address":"Palladium, SIA, 21 Marijas iela, Rīga, 1050, Latvia","postcode":"1050","locality":"Rīga"}},"labels":["concert","music"],"duration":0,"start_local":"2024-06-15T19:00:00","end":"2024-06-15T16:00:00Z","end_local":"2024-06-15T19:00:00","updated":"2024-06-29T16:14:53Z"},{"title":"Dima Midborn, Интурист, and Discours Synthetique","description":"Sourced from predicthq.com","category":"concerts","start":"2024-06-15T16:00:00Z","geo":{"geometry":{"coordinates":[24.13283,56.96527],"type":"Point"},"placekey":"@52z-r5n-jvz","address":{"country_code":"LV","formatted_address":"Miera iela 41, Centra rajons, Rīga, LV-1001, Latvia","postcode":"1001","locality":"Rīga"}},"labels":["concert","music"],"duration":0,"start_local":"2024-06-15T19:00:00","end":"2024-06-15T16:00:00Z","end_local":"2024-06-15T19:00:00","updated":"2024-06-29T16:02:29Z"},{"title":"Congress of the Baltic Neurosurgical Association","description":"Sourced from predicthq.com","category":"conferences","start":"2024-06-14T06:00:00Z","geo":{"geometry":{"coordinates":[24.1176857,56.9549231],"type":"Point"},"placekey":"@52z-vcp-cdv","address":{"country_code":"LV","formatted_address":"55 Elizabetes iela, Rīga, LV-1010, Latvia","postcode":"LV-1010","locality":"Rīga"}},"labels":["conference"],"duration":118800,"start_local":"2024-06-14T09:00:00","end":"2024-06-15T15:00:00Z","end_local":"2024-06-15T18:00:00","updated":"2024-06-02T06:01:03Z"},{"title":"American Red Cross 5K Color Run","description":"Sourced from predicthq.com - Join us for a fun-filled 5K Color Run to support the American Red Cross and make a difference in your community!","category":"community","start":"2024-06-14T04:00:00Z","geo":{"geometry":{"coordinates":[24.3586025,57.09602710000001],"type":"Point"},"placekey":"@52z-qvx-tsq","address":{"country_code":"LV","formatted_address":"Kadaga, Ādaži Municipality, Latvia","locality":"Kadaga","region":"Ādaži Municipality"}},"labels":["community","fundraiser","sport"],"duration":5400,"start_local":"2024-06-14T07:00:00","end":"2024-06-14T05:30:00Z","end_local":"2024-06-14T08:30:00","updated":"2024-06-13T18:29:03Z"},{"title":"Wolf Eyes, +K+M+B, and Zolitude","description":"Sourced from predicthq.com","category":"concerts","start":"2024-06-13T15:00:00Z","geo":{"geometry":{"coordinates":[24.15066,56.95002],"type":"Point"},"placekey":"@52z-vcr-bp9","address":{"country_code":"LV","formatted_address":"Vagonu iela 21, Latgales priekšpilsēta, Rīga, LV-1009, Latvia","postcode":"1009","locality":"Rīga"}},"labels":["concert","music"],"duration":0,"start_local":"2024-06-13T18:00:00","end":"2024-06-13T15:00:00Z","end_local":"2024-06-13T18:00:00","updated":"2024-06-28T03:29:01Z"},{"title":"Baltic Cup - 3rd Place Final - Latvia vs Faroe Islands","description":"Sourced from predicthq.com","category":"sports","start":"2024-06-11T16:00:00Z","geo":{"geometry":{"coordinates":[20.9953192,56.5031427],"type":"Point"},"placekey":"@537-kz8-mc5","address":{"country_code":"LV","formatted_address":"Piejūras parks, Liepāja, LV-3401, Latvia","postcode":"3401","locality":"Liepāja"}},"labels":["soccer","sport"],"duration":6686,"start_local":"2024-06-11T19:00:00","end":"2024-06-11T17:51:26Z","end_local":"2024-06-11T20:51:26","updated":"2024-06-11T18:52:27Z"},{"title":"Chelsea Wolfe and Kælan Mikla","description":"Sourced from predicthq.com","category":"concerts","start":"2024-06-11T15:00:00Z","geo":{"geometry":{"coordinates":[24.1348,56.96431],"type":"Point"},"placekey":"@52z-r5n-jy9","address":{"country_code":"LV","formatted_address":"Tallinas iela 10-3, Centra rajons, Rīga, LV-1001, Latvia","postcode":"1001","locality":"Rīga"}},"labels":["concert","music"],"duration":0,"start_local":"2024-06-11T18:00:00","end":"2024-06-11T15:00:00Z","end_local":"2024-06-11T18:00:00","updated":"2024-06-25T15:41:36Z"},{"title":"GenAI VisionAIres Summit Riga 2024","description":"Sourced from predicthq.com - Ignite your passion for GenAI! Join us on June 11, for a day of cutting-edge AI discussions and networking!","category":"conferences","start":"2024-06-11T06:00:00Z","geo":{"geometry":{"coordinates":[24.1658132,56.9762558],"type":"Point"},"placekey":"@52z-r5h-hnq","address":{"country_code":"LV","formatted_address":"Gustava Zemgala gatve, Rīga, 1039, Latvia","locality":"Rīga","postcode":"1039"}},"labels":["conference","science","technology"],"duration":36000,"start_local":"2024-06-11T09:00:00","end":"2024-06-11T16:00:00Z","end_local":"2024-06-11T19:00:00","updated":"2024-05-30T04:56:35Z"},{"title":"EAHIL Conference","description":"Sourced from predicthq.com","category":"conferences","start":"2024-06-11T06:00:00Z","geo":{"geometry":{"coordinates":[24.09604,56.941492],"type":"Point"},"placekey":"@52z-vcs-fpv","address":{"country_code":"LV","formatted_address":"Mūkusalas iela 3, Zemgales priekšpilsēta, Rīga, LV-1423, Latvia","postcode":"1423","locality":"Rīga"}},"labels":["conference"],"duration":291600,"start_local":"2024-06-11T09:00:00","end":"2024-06-14T15:00:00Z","end_local":"2024-06-14T18:00:00","updated":"2024-06-04T03:58:57Z"},{"title":"Stan Starry","description":"Sourced from predicthq.com","category":"concerts","start":"2024-06-08T20:30:00Z","geo":{"geometry":{"coordinates":[24.1542274,56.9720478],"type":"Point"},"placekey":"@52z-r5h-w49","address":{"country_code":"LV","formatted_address":"Brīvības iela 193C, Vidzemes priekšpilsēta, Rīga, LV-1039, Latvia","postcode":"1039","locality":"Rīga"}},"labels":["concert","music"],"duration":0,"start_local":"2024-06-08T23:30:00","end":"2024-06-08T20:30:00Z","end_local":"2024-06-08T23:30:00","updated":"2024-06-26T02:04:58Z"},{"title":"Skyforger","description":"Sourced from predicthq.com","category":"concerts","start":"2024-06-08T17:00:00Z","geo":{"geometry":{"coordinates":[25.43841,57.53786],"type":"Point"},"placekey":"@533-7s4-p35","address":{"country_code":"LV","formatted_address":"Atpūtas parks, Atpūtas parks, Valmiera, LV-4201, Latvia","postcode":"4201","locality":"Valmiera"}},"labels":["concert","music"],"duration":0,"start_local":"2024-06-08T20:00:00","end":"2024-06-08T17:00:00Z","end_local":"2024-06-08T20:00:00","updated":"2024-06-27T15:23:01Z"},{"title":"Depustūtes and Calico","description":"Sourced from predicthq.com","category":"concerts","start":"2024-06-08T17:00:00Z","geo":{"geometry":{"coordinates":[23.71599,56.6472],"type":"Point"},"placekey":"@532-gvj-mtv","address":{"country_code":"LV","formatted_address":"Raiņa Iela 28, Jelgava, LV-3001, Latvia","postcode":"3001","locality":"Jelgava"}},"labels":["concert","music"],"duration":0,"start_local":"2024-06-08T20:00:00","end":"2024-06-08T17:00:00Z","end_local":"2024-06-08T20:00:00","updated":"2024-06-22T17:03:51Z"},{"title":"Rīmdari","description":"Sourced from predicthq.com","category":"concerts","start":"2024-06-08T16:00:00Z","geo":{"geometry":{"coordinates":[25.2764,57.31336],"type":"Point"},"placekey":"@532-827-rrk","address":{"country_code":"LV","formatted_address":"Raunas iela 12, Cēsis, Cēsu pilsēta, Cēsu novads, LV-4101, Latvia","postcode":"4101","locality":"Cēsis","region":"Cēsu novads"}},"labels":["concert","music"],"duration":0,"start_local":"2024-06-08T19:00:00","end":"2024-06-08T16:00:00Z","end_local":"2024-06-08T19:00:00","updated":"2024-06-22T16:11:41Z"},{"title":"Baltic Cup - Semi-finals - Latvia vs Lithuania","description":"Sourced from predicthq.com","category":"sports","start":"2024-06-08T13:00:00Z","geo":{"geometry":{"coordinates":[20.9953192,56.5031427],"type":"Point"},"placekey":"@537-kz8-mc5","address":{"country_code":"LV","formatted_address":"Piejūras parks, Liepāja, LV-3401, Latvia","postcode":"3401","locality":"Liepāja"}},"labels":["soccer","sport"],"duration":6952,"start_local":"2024-06-08T16:00:00","end":"2024-06-08T14:55:52Z","end_local":"2024-06-08T17:55:52","updated":"2024-06-08T17:21:32Z"},{"title":"International Dog and Cat Show","description":"Sourced from predicthq.com - The International Dog and Cat Show is an exciting expo event showcasing a wide variety of dog and cat breeds from around the world. Attendees can enjoy stunning displays, competitions, and informative demonstrations, making it a must-visit for pet lovers and enthusiasts.","category":"expos","start":"2024-06-08T06:00:00Z","geo":{"geometry":{"coordinates":[24.0792663,56.955588],"type":"Point"},"placekey":"@52z-v7p-dqf","address":{"country_code":"LV","formatted_address":"8 Ķīpsalas iela, Rīga, LV-1048, Latvia","postcode":"LV-1048","locality":"Rīga"}},"labels":["expo"],"duration":118800,"start_local":"2024-06-08T09:00:00","end":"2024-06-09T15:00:00Z","end_local":"2024-06-09T18:00:00","updated":"2024-05-31T23:04:56Z"},{"title":"LATVIAN WINNER","description":"Sourced from predicthq.com","category":"expos","start":"2024-06-08T06:00:00Z","geo":{"geometry":{"coordinates":[24.079628,56.954874],"type":"Point"},"placekey":"@52z-v7p-dd9","address":{"country_code":"LV","formatted_address":"Ķīpsalas iela, Rīga, 1048, Latvia","locality":"Rīga","postcode":"1048"}},"labels":["expo"],"duration":118800,"start_local":"2024-06-08T09:00:00","end":"2024-06-09T15:00:00Z","end_local":"2024-06-09T18:00:00","updated":"2024-07-02T16:21:45Z"},{"title":"Smilšu skulptūru festivāls Jelgavā","description":"Sourced from predicthq.com","category":"festivals","start":"2024-06-07T21:00:00Z","geo":{"geometry":{"coordinates":[23.7763041,56.6231669],"type":"Point"},"placekey":"@532-gdd-grk","address":{"country_code":"LV","formatted_address":"Jelgava, Latvia","locality":"Jelgava"}},"labels":["festival","music"],"duration":172799,"start_local":"2024-06-08T00:00:00","end":"2024-06-09T20:59:59Z","end_local":"2024-06-09T23:59:59","updated":"2024-06-04T07:36:43Z"},{"title":"Moto XGP - Latvia","description":"Sourced from predicthq.com","category":"sports","start":"2024-06-07T21:00:00Z","geo":{"geometry":{"coordinates":[24.718165,56.74029],"type":"Point"},"placekey":"@532-q45-kj9","address":{"country_code":"LV","formatted_address":"Liepu aleja, Ķegums, 5020, Latvia","locality":"Ķegums","postcode":"5020","region":"Ogres novads"}},"labels":["auto-racing","sport"],"duration":172799,"start_local":"2024-06-08T00:00:00","end":"2024-06-09T20:59:59Z","end_local":"2024-06-09T23:59:59","updated":"2024-06-04T06:43:11Z"},{"title":"Holi Music Festival","description":"Sourced from predicthq.com","category":"festivals","start":"2024-06-07T21:00:00Z","geo":{"geometry":{"coordinates":[24.0924067,56.9631776],"type":"Point"},"placekey":"@52z-r5m-4gk","address":{"country_code":"LV","formatted_address":"Andrejostas iela 17, Ziemeļu rajons, Rīga, LV-1045, Latvia","postcode":"1045","locality":"Rīga"}},"labels":["festival","music"],"duration":86399,"start_local":"2024-06-08T00:00:00","end":"2024-06-08T20:59:59Z","end_local":"2024-06-08T23:59:59","updated":"2024-06-04T00:03:53Z"},{"title":"Urbanstep, maniken05, and Battery K","description":"Sourced from predicthq.com","category":"community","start":"2024-06-07T20:00:00Z","geo":{"geometry":{"coordinates":[24.13001,56.96496],"type":"Point"},"placekey":"@52z-r5n-kcq","address":{"country_code":"LV","formatted_address":"Šarlotes iela 18A, Centra rajons, Rīga, LV-1001, Latvia","postcode":"1001","locality":"Rīga"}},"labels":["concert","music"],"duration":0,"start_local":"2024-06-07T23:00:00","end":"2024-06-07T20:00:00Z","end_local":"2024-06-07T23:00:00","updated":"2024-06-06T20:09:02Z"},{"title":"Shipsea","description":"Sourced from predicthq.com","category":"concerts","start":"2024-06-07T18:00:00Z","geo":{"geometry":{"coordinates":[24.13116,56.96484],"type":"Point"},"placekey":"@52z-r5n-kcq","address":{"country_code":"LV","formatted_address":"Aristida Briāna iela 9, Centra rajons, Rīga, LV-1001, Latvia","postcode":"1001","locality":"Rīga"}},"labels":["concert","music"],"duration":0,"start_local":"2024-06-07T21:00:00","end":"2024-06-07T18:00:00Z","end_local":"2024-06-07T21:00:00","updated":"2024-06-21T18:15:14Z"},{"title":"International Baltic Conference on Healthy Longevity","description":"Sourced from predicthq.com - A two-day conference on healthy longevity, held in Riga, Latvia.","category":"conferences","start":"2024-06-07T07:00:00Z","geo":{"geometry":{"coordinates":[24.0968204,56.9410509],"type":"Point"},"placekey":"@52z-vcs-fpv","address":{"country_code":"LV","formatted_address":"Mūkusalas iela, Rīga, 1048, Latvia","locality":"Rīga","postcode":"1048"}},"labels":["conference","science","technology"],"duration":19800,"start_local":"2024-06-07T10:00:00","end":"2024-06-07T12:30:00Z","end_local":"2024-06-07T15:30:00","updated":"2024-06-04T09:16:39Z"},{"title":"Shipsea","description":"Sourced from predicthq.com","category":"concerts","start":"2024-06-06T18:00:00Z","geo":{"geometry":{"coordinates":[24.13116,56.96484],"type":"Point"},"placekey":"@52z-r5n-kcq","address":{"country_code":"LV","formatted_address":"Aristida Briāna iela 9, Centra rajons, Rīga, LV-1001, Latvia","postcode":"1001","locality":"Rīga"}},"labels":["concert","music"],"duration":0,"start_local":"2024-06-06T21:00:00","end":"2024-06-06T18:00:00Z","end_local":"2024-06-06T21:00:00","updated":"2024-06-20T18:07:21Z"},{"title":"Baltic Sea Region Film History Conference","description":"Sourced from predicthq.com","category":"conferences","start":"2024-06-06T06:00:00Z","geo":{"geometry":{"coordinates":[24.142826,56.940539],"type":"Point"},"placekey":"@52z-vcq-mkz","address":{"country_code":"LV","formatted_address":"Ludzas iela, Rīga, 1003, Latvia","locality":"Rīga","postcode":"1003"}},"labels":["conference"],"duration":205200,"start_local":"2024-06-06T09:00:00","end":"2024-06-08T15:00:00Z","end_local":"2024-06-08T18:00:00","updated":"2024-05-28T02:02:21Z"},{"title":"Nordic Congress of Psychiatry","description":"Sourced from predicthq.com","category":"conferences","start":"2024-06-06T06:00:00Z","geo":{"geometry":{"coordinates":[24.1176857,56.9549231],"type":"Point"},"placekey":"@52z-vcp-cdv","address":{"country_code":"LV","formatted_address":"55 Elizabetes iela, Rīga, LV-1010, Latvia","postcode":"LV-1010","locality":"Rīga"}},"labels":["conference"],"duration":118800,"start_local":"2024-06-06T09:00:00","end":"2024-06-07T15:00:00Z","end_local":"2024-06-07T18:00:00","updated":"2024-06-04T06:13:31Z"},{"title":"Election for European Parliament Latvia","description":"Sourced from predicthq.com - The European Parliament election will take place over four days, from June 6th to 9th, 2024.\nAt Stake in this Election:\n\nAll 720 seats in the European Union Parliament\n\nSeveral EU member states will also hold national elections (Belgian Chamber of Representatives, Bulgarian National Assembly) and local elections (Belgium, Cyprus, Ireland, Malta, Hungary, Romania).\nGovernment Structure: \n\nChief of State: European Commission President Ursula VON DER LEYEN (since 1 December 2019)\nHead of Government: President of the European Council Charles MICHEL (since 1 December 2019)\nAssembly: two legislative organs; the European Parliament (705 seats as of April 2024) and the Council of the European Union (27 seats)\n\nElectoral System: \n\nThe Council of the European Union is composed of heads of state or government from each of the 27 EU member states. \nMember states may choose their own electoral systems for European Parliament elections so long as they are based on proportional representation or the single transferable vote. Members serve 5-year renewable terms. By law, Parliament may contain up to 750 seats, and each member state is allocated 6 to 96 seats depending on its population. Seats are reapportioned each election, and 720 members will be elected in 2024 according to the following country divisions:\n\nGermany: 96 seats\nFrance: 81\nItaly: 76\nSpain: 61\nPoland: 53\nRomania: 33\nNetherlands: 31\nBelgium: 22\nGreece: 21\nCzechia: 21\nSweden: 21\nPortugal: 21\nHungary: 21\nAustria: 20\nBulgaria: 17\nDenmark: 15\nFinland: 15\nSlovakia: 15\nIreland: 14\nCroatia: 12\nLithuania: 11\nSlovenia: 9\nLatvia: 9\nEstonia: 7\nCyprus: 6\nLuxembourg: 6\nMalta: 6\n\n\n\nLast Election:\nIn 2019, the European People’s Party (Christian Democrats) won the largest share of seats with 182. Voter turnout was 50.97%.\nInformation for Voters:\nHow to vote (available in 24 languages)\nNew/Unique in this Election: \n720 seats will be contested in the 2024 EU Parliament election, down from 750 in the 2019 election but up from 705 active members as of April 2024.\nKey Deadlines:\n\nCandidate filing deadline:  Varies by member state\nVoter registration deadline: Varies by member state\n\nMain Parties in this Election:\n\nEuropean People’s Party / Christian Democrats (EPP)\n\nSeats won in last election: 177 out of 705\n\n\nProgressive Alliance of Socialists and Democrats (S&D)\n\nSeats won in last election: 140 out of 705\n\n\nRenew Europe\n\nSeats won in last election: 102 out of 705\n\n\nGreens/European Free Alliance\n\nSeats won in last election: 72 out of 705\n\n\nEuropean Conservatives and Reformists\n\nSeats won in last election: 68 out of 705\n\n\nIdentity and Democracy\n\nSeats won in last election: 59 out of 705\n\n\nThe Left – GUE/NGL\n\nSeats won in last election: 37 out of 705\n\n\n\nThere will also be independent/non-attached candidates, and 50 such candidates were elected in 2019.\nPopulation and Registered Voters:\n\nPopulation: 448,753,823 (2023)\n\nGender Data:\n\nFemale Population: 229,400,684 (2023)\nCEDAW Status: Not signed\nGender Quota:  Varies by member state; 11 member states have “binding” quotas that require a certain quantity of each gender to be elected, while an additional 10 member states require candidate lists to contain a certain proportion of candidates of different genders.\nFemale Candidates in this election: Yes\nNumber of Female Legislators (pre-election): 279 out of 705 (39.6%) in the EU Parliament\nHuman Development Index (HDI) Position: varies by member state \nSocial Institutions and Gender Index (SIGI) Categorization: Varies by member state\n\nDisability Data:\n\nCRPD Status: Signed 30 March 2007, Ratified 23 December 2010\nProjected population with a disability: 71,800,612 (2023 est.)\n\nIFES Resources:\n\nDoes IFES have a presence in the European Union: Yes, the IFES Regional Europe Office is located in the Czech Republic and coordinates programming in EU and non-EU countries  \nElection Snapshot: Yes","category":"politics","start":"2024-06-06T00:00:00Z","geo":{"geometry":{"coordinates":[24.603189,56.879635],"type":"Point"},"address":{"country_code":"LV","formatted_address":"Latvia"}},"labels":["election","parliament","politics"],"duration":86399,"start_local":"2024-06-06T00:00:00","end":"2024-06-06T23:59:59Z","end_local":"2024-06-06T23:59:59","updated":"2024-06-11T20:51:39Z"},{"title":"YUNGBLUD","description":"Sourced from predicthq.com","category":"concerts","start":"2024-06-04T16:00:00Z","geo":{"geometry":{"coordinates":[24.85765,57.14366],"type":"Point"},"placekey":"@52z-sdr-ct9","address":{"country_code":"LV","formatted_address":"Siguldas Pilsēta, Mālpils, Latvia","locality":"Mālpils"}},"labels":["concert","music"],"duration":0,"start_local":"2024-06-04T19:00:00","end":"2024-06-04T16:00:00Z","end_local":"2024-06-04T19:00:00","updated":"2024-06-29T05:12:44Z"},{"title":"ISTQB® Automation Engineer Training Course - Riga (3 days, in English)","description":"Sourced from predicthq.com - ISTQB® Automation Engineer Training Course","category":"conferences","start":"2024-06-03T06:00:00Z","geo":{"geometry":{"coordinates":[24.1597639,56.9716209],"type":"Point"},"placekey":"@52z-r5j-59f","address":{"country_code":"LV","formatted_address":"Brīvības iela 199c, Vidzemes priekšpilsēta, Rīga, LV-1039, Latvia","postcode":"1039","locality":"Rīga"}},"labels":["conference","science","technology"],"duration":0,"start_local":"2024-06-03T09:00:00","end":"2024-06-03T06:00:00Z","end_local":"2024-06-03T09:00:00","updated":"2024-06-04T06:39:32Z"},{"title":"Baltic Arbitration Days Conference","description":"Sourced from predicthq.com","category":"conferences","start":"2024-06-02T06:00:00Z","geo":{"geometry":{"coordinates":[24.107618,56.959153],"type":"Point"},"placekey":"@52z-r5k-mc5","address":{"country_code":"LV","formatted_address":"Strēlnieku iela 4A, Centra rajons, Rīga, LV-1010, Latvia","postcode":"1010","locality":"Rīga"}},"labels":["conference"],"duration":118800,"start_local":"2024-06-02T09:00:00","end":"2024-06-03T15:00:00Z","end_local":"2024-06-03T18:00:00","updated":"2024-06-01T10:14:54Z"},{"title":"Fiņķis","description":"Sourced from predicthq.com","category":"concerts","start":"2024-06-01T18:30:00Z","geo":{"geometry":{"coordinates":[21.98079,56.97071],"type":"Point"},"placekey":"@533-j27-ysq","address":{"country_code":"LV","formatted_address":"Stendes iela 2, Kuldīga, Kuldīgas pilsēta, Kuldīgas novads, LV-3301, Latvia","postcode":"3301","locality":"Kuldīga","region":"Kuldīgas novads"}},"labels":["concert","music"],"duration":0,"start_local":"2024-06-01T21:30:00","end":"2024-06-01T18:30:00Z","end_local":"2024-06-01T21:30:00","updated":"2024-06-15T18:40:32Z"},{"title":"Shipsea","description":"Sourced from predicthq.com","category":"concerts","start":"2024-06-01T17:30:00Z","geo":{"geometry":{"coordinates":[24.15381,57.01219],"type":"Point"},"placekey":"@52z-r4y-4y9","address":{"country_code":"LV","formatted_address":"Ostas prospekts 11, Ziemeļu rajons, Rīga, LV-1034, Latvia","postcode":"1034","locality":"Rīga"}},"labels":["concert","music"],"duration":0,"start_local":"2024-06-01T20:30:00","end":"2024-06-01T17:30:00Z","end_local":"2024-06-01T20:30:00","updated":"2024-06-15T17:32:28Z"},{"title":"Withered Lines","description":"Sourced from predicthq.com","category":"community","start":"2024-05-31T17:00:00Z","geo":{"geometry":{"coordinates":[21.0103,56.5125],"type":"Point"},"placekey":"@537-kz9-59f","address":{"country_code":"LV","formatted_address":"Dzirnavu iela 4, Liepaja, LV-3401, Latvia","postcode":"LV-3401","locality":"Liepaja"}},"labels":["concert","music"],"duration":0,"start_local":"2024-05-31T20:00:00","end":"2024-05-31T17:00:00Z","end_local":"2024-05-31T20:00:00","updated":"2024-06-05T02:31:27Z"},{"title":"Ayla Schafer","description":"Sourced from predicthq.com","category":"community","start":"2024-05-31T16:00:00Z","geo":{"geometry":{"coordinates":[24.1659994,56.9745121],"type":"Point"},"placekey":"@52z-r5h-hbk","address":{"country_code":"LV","formatted_address":"2 Ropažu iela, Rīga, LV-1039, Latvia","postcode":"LV-1039","locality":"Rīga"}},"labels":["concert","music"],"duration":0,"start_local":"2024-05-31T19:00:00","end":"2024-05-31T16:00:00Z","end_local":"2024-05-31T19:00:00","updated":"2024-06-05T10:30:23Z"},{"title":"Night Slasher and Mörkvarg","description":"Sourced from predicthq.com","category":"community","start":"2024-05-30T16:00:00Z","geo":{"geometry":{"coordinates":[24.1141988,56.9467317],"type":"Point"},"placekey":"@52z-vcn-r49","address":{"country_code":"LV","formatted_address":"32 Vaļņu iela, Rīga, LV-1050, Latvia","postcode":"LV-1050","locality":"Rīga"}},"labels":["concert","music"],"duration":0,"start_local":"2024-05-30T19:00:00","end":"2024-05-30T16:00:00Z","end_local":"2024-05-30T19:00:00","updated":"2024-05-28T20:50:13Z"},{"title":"Kautkaili","description":"Sourced from predicthq.com","category":"concerts","start":"2024-05-30T15:00:00Z","geo":{"geometry":{"coordinates":[24.06676,56.94323],"type":"Point"},"placekey":"@52z-v7p-5xq","address":{"country_code":"LV","formatted_address":"Kalnciema Iela 35, Zemgales priekšpilsēta, Rīga, LV-1046, Latvia","postcode":"1046","locality":"Rīga"}},"labels":["concert","music"],"duration":0,"start_local":"2024-05-30T18:00:00","end":"2024-05-30T15:00:00Z","end_local":"2024-05-30T18:00:00","updated":"2024-06-13T15:08:34Z"},{"title":"Annual Scientific Baltic Business Management Conference \"In Search for A Way Out of the Multicrisis: Challenges and Opportunities\" (Hybrid Mode)","description":"Sourced from predicthq.com","category":"conferences","start":"2024-05-28T06:00:00Z","geo":{"geometry":{"coordinates":[24.134693,56.975553],"type":"Point"},"placekey":"@52z-r5g-4vz","address":{"country_code":"LV","formatted_address":"Krišjāņa Valdemāra iela, Rīga, 1013, Latvia","locality":"Rīga","postcode":"1013"}},"labels":["conference"],"duration":205200,"start_local":"2024-05-28T09:00:00","end":"2024-05-30T15:00:00Z","end_local":"2024-05-30T18:00:00","updated":"2024-06-03T18:05:05Z"},{"title":"Secure Identification","description":"Sourced from predicthq.com","category":"conferences","start":"2024-05-28T06:00:00Z","geo":{"geometry":{"coordinates":[24.1176857,56.9549231],"type":"Point"},"placekey":"@52z-vcp-cdv","address":{"country_code":"LV","formatted_address":"55 Elizabetes iela, Rīga, LV-1010, Latvia","postcode":"LV-1010","locality":"Rīga"}},"labels":["conference"],"duration":205200,"start_local":"2024-05-28T09:00:00","end":"2024-05-30T15:00:00Z","end_local":"2024-05-30T18:00:00","updated":"2024-05-31T22:55:40Z"},{"title":"Riga City Festival","description":"Sourced from predicthq.com - Riga City Festival - involving countless concerts in Riga’s concert halls, gardens and parks, games, entertainment and sporting activities for grown-ups and children. The Riga City Festival is also a great opportunity to enjoy Riga and its wonderful architecture, as well as to get to know the suburbs.","category":"festivals","start":"2024-05-26T21:00:00Z","geo":{"geometry":{"coordinates":[24.1194967,56.9495191],"type":"Point"},"placekey":"@52z-vcn-q75","address":{"country_code":"LV","formatted_address":"Merķeļa iela, Rīga, 1050, Latvia","locality":"Rīga","postcode":"1050"}},"labels":["entertainment","festival"],"duration":604799,"start_local":"2024-05-27T00:00:00","end":"2024-06-02T20:59:59Z","end_local":"2024-06-02T23:59:59","updated":"2024-06-05T13:43:05Z"},{"title":"Dub FX","description":"Sourced from predicthq.com","category":"concerts","start":"2024-05-26T16:00:00Z","geo":{"geometry":{"coordinates":[24.16135,56.97063],"type":"Point"},"placekey":"@52z-r5j-4y9","address":{"country_code":"LV","formatted_address":"Brīvības iela 214B, Vidzemes priekšpilsēta, Rīga, LV-1039, Latvia","postcode":"1039","locality":"Rīga"}},"labels":["concert","music"],"duration":0,"start_local":"2024-05-26T19:00:00","end":"2024-05-26T16:00:00Z","end_local":"2024-05-26T19:00:00","updated":"2024-06-12T09:14:36Z"},{"title":"CEV European Silver League (W) - Group Stage - Latvia vs Bosnia-Herzegovina","description":"Sourced from predicthq.com","category":"sports","start":"2024-05-26T14:00:00Z","geo":{"geometry":{"coordinates":[24.121620655059814,56.96776653191023],"type":"Point"},"placekey":"@52z-r5k-w8v","address":{"country_code":"LV","formatted_address":"Grostonas iela 6B, Vidzemes priekšpilsēta, Rīga, LV-1013, Latvia","postcode":"1013","locality":"Rīga"}},"labels":["sport","volleyball"],"duration":0,"start_local":"2024-05-26T17:00:00","end":"2024-05-26T14:00:00Z","end_local":"2024-05-26T17:00:00","updated":"2024-06-12T07:37:13Z"},{"title":"Jacob Audrey Taves and Rinalds Maksimovs","description":"Sourced from predicthq.com","category":"concerts","start":"2024-05-25T16:00:00Z","geo":{"geometry":{"coordinates":[24.15066,56.95002],"type":"Point"},"placekey":"@52z-vcr-bp9","address":{"country_code":"LV","formatted_address":"Vagonu iela 21, Latgales priekšpilsēta, Rīga, LV-1009, Latvia","postcode":"1009","locality":"Rīga"}},"labels":["concert","music"],"duration":0,"start_local":"2024-05-25T19:00:00","end":"2024-05-25T16:00:00Z","end_local":"2024-05-25T19:00:00","updated":"2024-06-12T12:27:17Z"},{"title":"CEV European Silver League (W) - Group Stage - Bosnia-Herzegovina vs Georgia","description":"Sourced from predicthq.com","category":"sports","start":"2024-05-25T14:00:00Z","geo":{"geometry":{"coordinates":[24.121620655059814,56.96776653191023],"type":"Point"},"placekey":"@52z-r5k-w8v","address":{"country_code":"LV","formatted_address":"Grostonas iela 6B, Vidzemes priekšpilsēta, Rīga, LV-1013, Latvia","postcode":"1013","locality":"Rīga"}},"labels":["sport","volleyball"],"duration":0,"start_local":"2024-05-25T17:00:00","end":"2024-05-25T14:00:00Z","end_local":"2024-05-25T17:00:00","updated":"2024-06-12T05:38:29Z"},{"title":"Ansis, Arturs Skutelis, Čipsis Un Dullais, and Trīsas","description":"Sourced from predicthq.com","category":"concerts","start":"2024-05-25T14:00:00Z","geo":{"geometry":{"coordinates":[24.0947951,56.9455951],"type":"Point"},"placekey":"@52z-v7n-tqf","address":{"country_code":"LV","formatted_address":"AB Dam, Zemgales priekšpilsēta, Rīga, LV-1048, Latvia","postcode":"1048","locality":"Rīga"}},"labels":["concert","music"],"duration":0,"start_local":"2024-05-25T17:00:00","end":"2024-05-25T14:00:00Z","end_local":"2024-05-25T17:00:00","updated":"2024-06-12T00:37:54Z"},{"title":"CEV European Silver League (W) - Group Stage - Georgia vs Latvia","description":"Sourced from predicthq.com","category":"sports","start":"2024-05-24T16:30:00Z","geo":{"geometry":{"coordinates":[24.121620655059814,56.96776653191023],"type":"Point"},"placekey":"@52z-r5k-w8v","address":{"country_code":"LV","formatted_address":"Grostonas iela 6B, Vidzemes priekšpilsēta, Rīga, LV-1013, Latvia","postcode":"1013","locality":"Rīga"}},"labels":["sport","volleyball"],"duration":0,"start_local":"2024-05-24T19:30:00","end":"2024-05-24T16:30:00Z","end_local":"2024-05-24T19:30:00","updated":"2024-06-05T05:59:12Z"},{"title":"Laika Suns and Vēstulēs","description":"Sourced from predicthq.com","category":"concerts","start":"2024-05-24T16:00:00Z","geo":{"geometry":{"coordinates":[24.1256686,56.9508745],"type":"Point"},"placekey":"@52z-vcp-p7q","address":{"country_code":"LV","formatted_address":"Palladium, SIA, 21 Marijas iela, Rīga, 1050, Latvia","postcode":"1050","locality":"Rīga"}},"labels":["concert","music"],"duration":0,"start_local":"2024-05-24T19:00:00","end":"2024-05-24T16:00:00Z","end_local":"2024-05-24T19:00:00","updated":"2024-06-12T14:25:47Z"},{"title":"Rezekne Academy of Technologies","description":"Sourced from predicthq.com","category":"conferences","start":"2024-05-24T06:00:00Z","geo":{"geometry":{"coordinates":[27.332904,56.512689],"type":"Point"},"placekey":"@535-tfh-ffz","address":{"country_code":"LV","formatted_address":"Atbrīvošanas Aleja, Rēzekne, 4601, Latvia","locality":"Rēzekne","postcode":"4601"}},"labels":["conference"],"duration":118800,"start_local":"2024-05-24T09:00:00","end":"2024-05-25T15:00:00Z","end_local":"2024-05-25T18:00:00","updated":"2024-06-04T16:53:42Z"},{"title":"Bela and Eleonora Kampe","description":"Sourced from predicthq.com","category":"concerts","start":"2024-05-23T16:00:00Z","geo":{"geometry":{"coordinates":[24.07766,56.93854],"type":"Point"},"placekey":"@52z-v7s-pjv","address":{"country_code":"LV","formatted_address":"Eduarda Smiļģa iela 34A, Zemgales priekšpilsēta, Rīga, LV-1002, Latvia","postcode":"1002","locality":"Rīga"}},"labels":["concert","music"],"duration":0,"start_local":"2024-05-23T19:00:00","end":"2024-05-23T16:00:00Z","end_local":"2024-05-23T19:00:00","updated":"2024-06-12T09:18:33Z"},{"title":"Zefiro Torna","description":"Sourced from predicthq.com","category":"community","start":"2024-05-23T16:00:00Z","geo":{"geometry":{"coordinates":[24.1659994,56.9745121],"type":"Point"},"placekey":"@52z-r5h-hbk","address":{"country_code":"LV","formatted_address":"2 Ropažu iela, Rīga, LV-1039, Latvia","postcode":"LV-1039","locality":"Rīga"}},"labels":["concert","music"],"duration":0,"start_local":"2024-05-23T19:00:00","end":"2024-05-23T16:00:00Z","end_local":"2024-05-23T19:00:00","updated":"2024-06-05T16:06:00Z"},{"title":"LBL - Final - VEF Rīga vs Rīgas Zeļļi","description":"Sourced from predicthq.com","category":"sports","start":"2024-05-22T17:00:00Z","geo":{"geometry":{"coordinates":[24.1247179,56.9672274],"type":"Point"},"placekey":"@52z-r5n-mtv","address":{"country_code":"LV","formatted_address":"6B Grostonas iela, Rīga, LV-1013, Latvia","postcode":"LV-1013","locality":"Rīga"}},"labels":["basketball","sport"],"duration":0,"start_local":"2024-05-22T20:00:00","end":"2024-05-22T17:00:00Z","end_local":"2024-05-22T20:00:00","updated":"2024-06-12T15:22:53Z"},{"title":"Sabiwa, Posverdad Trax, and Sarma Gabrēna","description":"Sourced from predicthq.com","category":"concerts","start":"2024-05-22T16:00:00Z","geo":{"geometry":{"coordinates":[24.13061,56.94941],"type":"Point"},"placekey":"@52z-vcp-kzz","address":{"country_code":"LV","formatted_address":"Ernesta Birznieka-Upīša iela 22, Latgales priekšpilsēta, Rīga, LV-1050, Latvia","postcode":"1050","locality":"Rīga"}},"labels":["concert","music"],"duration":0,"start_local":"2024-05-22T19:00:00","end":"2024-05-22T16:00:00Z","end_local":"2024-05-22T19:00:00","updated":"2024-06-12T01:54:26Z"},{"title":"NACT Conference","description":"Sourced from predicthq.com","category":"conferences","start":"2024-05-22T06:00:00Z","geo":{"geometry":{"coordinates":[24.1176857,56.9549231],"type":"Point"},"placekey":"@52z-vcp-cdv","address":{"country_code":"LV","formatted_address":"55 Elizabetes iela, Rīga, LV-1010, Latvia","postcode":"LV-1010","locality":"Rīga"}},"labels":["conference"],"duration":205200,"start_local":"2024-05-22T09:00:00","end":"2024-05-24T15:00:00Z","end_local":"2024-05-24T18:00:00","updated":"2024-06-05T05:00:12Z"},{"title":"International Scientific Conference Engineering for Rural Development","description":"Sourced from predicthq.com","category":"conferences","start":"2024-05-21T21:00:00Z","geo":{"geometry":{"coordinates":[23.730869,56.651585],"type":"Point"},"placekey":"@532-gvj-5vf","address":{"country_code":"LV","formatted_address":"Jāņa Čakstes bulvāris, Jelgava, 3001, Latvia","locality":"Jelgava","postcode":"3001"}},"labels":["conference"],"duration":259199,"start_local":"2024-05-22T00:00:00","end":"2024-05-24T20:59:59Z","end_local":"2024-05-24T23:59:59","updated":"2024-06-04T03:01:42Z"},{"title":"LBL - Final - Rīgas Zeļļi vs VEF Rīga","description":"Sourced from predicthq.com","category":"sports","start":"2024-05-19T12:00:00Z","geo":{"geometry":{"coordinates":[24.1213798,56.9680612],"type":"Point"},"placekey":"@52z-r5k-w8v","address":{"country_code":"LV","formatted_address":"Skanstes iela 21, Vidzemes priekšpilsēta, Rīga, LV-1013, Latvia","postcode":"1013","locality":"Rīga"}},"labels":["basketball","sport"],"duration":0,"start_local":"2024-05-19T15:00:00","end":"2024-05-19T12:00:00Z","end_local":"2024-05-19T15:00:00","updated":"2024-06-11T22:20:41Z"},{"title":"Quest Pistols","description":"Sourced from predicthq.com","category":"community","start":"2024-05-18T20:00:00Z","geo":{"geometry":{"coordinates":[24.0935281,56.9647773],"type":"Point"},"placekey":"@52z-r5m-3bk","address":{"country_code":"LV","formatted_address":"Andrejostas iela 4a, Ziemeļu rajons, Rīga, LV-1045, Latvia","postcode":"1045","locality":"Rīga"}},"labels":["concert","music"],"duration":0,"start_local":"2024-05-18T23:00:00","end":"2024-05-18T20:00:00Z","end_local":"2024-05-18T23:00:00","updated":"2024-06-01T20:04:00Z"},{"title":"Jeremiah Kane, Yomi, and Overcast Rain","description":"Sourced from predicthq.com","category":"concerts","start":"2024-05-18T16:00:00Z","geo":{"geometry":{"coordinates":[24.10326,56.95042],"type":"Point"},"placekey":"@52z-vcp-vvf","address":{"country_code":"LV","formatted_address":"Mazā Pils iela 11, Centra rajons, Rīga, LV-1050, Latvia","postcode":"1050","locality":"Rīga"}},"labels":["concert","music"],"duration":0,"start_local":"2024-05-18T19:00:00","end":"2024-05-18T16:00:00Z","end_local":"2024-05-18T19:00:00","updated":"2024-06-12T00:20:51Z"},{"title":"Vīnu un mūzikas festivāls \"Itālijas pieskāriens\"","description":"Sourced from predicthq.com - Kopā baudīsim Itālijas vīnus un mūziku festivālā \"Itālijas pieskāriens\"!","category":"festivals","start":"2024-05-18T15:00:00Z","geo":{"geometry":{"coordinates":[24.2314872,56.9887695],"type":"Point"},"placekey":"@52z-r4r-rzf","address":{"country_code":"LV","formatted_address":"Brīvības iela, Rīga, 1024, Latvia","locality":"Rīga","postcode":"1024"}},"labels":["festival","food"],"duration":19800,"start_local":"2024-05-18T18:00:00","end":"2024-05-18T20:30:00Z","end_local":"2024-05-18T23:30:00","updated":"2024-06-12T02:03:47Z"},{"title":"Darshan with Paramahamsa Vishwananda","description":"Sourced from predicthq.com - Come experience the transformative power of meeting Paramahamsa Vishwananda - realised master - in person at the Darshan event!","category":"festivals","start":"2024-05-18T13:00:00Z","geo":{"geometry":{"coordinates":[24.1942746,56.8838868],"type":"Point"},"placekey":"@52z-v9s-gx5","address":{"country_code":"LV","formatted_address":"Katlakalns, 2111, Latvia","locality":"Katlakalns","postcode":"2111","region":"Ķekavas novads"}},"labels":["festival","religion"],"duration":25200,"start_local":"2024-05-18T16:00:00","end":"2024-05-18T20:00:00Z","end_local":"2024-05-18T23:00:00","updated":"2024-06-05T02:58:43Z"},{"title":"Rimi Riga Marathon","description":"Sourced from predicthq.com","category":"sports","start":"2024-05-18T07:00:00Z","geo":{"geometry":{"coordinates":[24.1010359,56.9492816],"type":"Point"},"placekey":"@52z-vcp-vfz","address":{"country_code":"LV","formatted_address":"11. novembra krastmala, Rīga, 1050, Latvia","locality":"Rīga","postcode":"1050"}},"labels":["marathon","outdoor-sports","running","sport"],"duration":0,"start_local":"2024-05-18T10:00:00","end":"2024-05-18T07:00:00Z","end_local":"2024-05-18T10:00:00","updated":"2024-06-05T06:19:48Z"},{"title":"Mason","description":"Sourced from predicthq.com","category":"concerts","start":"2024-05-17T20:00:00Z","geo":{"geometry":{"coordinates":[24.16135,56.97063],"type":"Point"},"placekey":"@52z-r5j-4y9","address":{"country_code":"LV","formatted_address":"Brīvības iela 214B, Vidzemes priekšpilsēta, Rīga, LV-1039, Latvia","postcode":"1039","locality":"Rīga"}},"labels":["concert","music"],"duration":0,"start_local":"2024-05-17T23:00:00","end":"2024-05-17T20:00:00Z","end_local":"2024-05-17T23:00:00","updated":"2024-06-12T08:44:39Z"},{"title":"Comedy Show in English: DADDYING with special guest Karl from Colombia","description":"Sourced from predicthq.com - Comedy show about queer family dynamics, parenting and survival of this world","category":"performing-arts","start":"2024-05-17T17:00:00Z","geo":{"geometry":{"coordinates":[24.1306908,56.9654552],"type":"Point"},"placekey":"@52z-r5n-kcq","address":{"country_code":"LV","formatted_address":"Aristida Briāna iela, Rīga, 1001, Latvia","locality":"Rīga","postcode":"1001"}},"labels":["concert","music","performing-arts"],"duration":5400,"start_local":"2024-05-17T20:00:00","end":"2024-05-17T18:30:00Z","end_local":"2024-05-17T21:30:00","updated":"2024-06-05T13:04:19Z"},{"title":"Very Cool People and S&T Syndicate","description":"Sourced from predicthq.com","category":"concerts","start":"2024-05-17T16:00:00Z","geo":{"geometry":{"coordinates":[24.13116,56.96484],"type":"Point"},"placekey":"@52z-r5n-kcq","address":{"country_code":"LV","formatted_address":"Aristida Briāna iela 9, Centra rajons, Rīga, LV-1001, Latvia","postcode":"1001","locality":"Rīga"}},"labels":["concert","music"],"duration":0,"start_local":"2024-05-17T19:00:00","end":"2024-05-17T16:00:00Z","end_local":"2024-05-17T19:00:00","updated":"2024-06-12T09:18:03Z"},{"title":"LBL - 3rd Place Final - Ventspils vs Liepāja","description":"Sourced from predicthq.com","category":"sports","start":"2024-05-17T16:00:00Z","geo":{"geometry":{"coordinates":[21.5713809,57.3869343],"type":"Point"},"placekey":"@533-mz4-649","address":{"country_code":"LV","formatted_address":"7/9 Sporta iela, Ventspils, LV-3601, Latvia","postcode":"LV-3601","locality":"Ventspils"}},"labels":["basketball","sport"],"duration":0,"start_local":"2024-05-17T19:00:00","end":"2024-05-17T16:00:00Z","end_local":"2024-05-17T19:00:00","updated":"2024-06-11T21:37:37Z"},{"title":"LBL - Final - VEF Rīga vs Rīgas Zeļļi","description":"Sourced from predicthq.com","category":"sports","start":"2024-05-16T17:00:00Z","geo":{"geometry":{"coordinates":[24.1247179,56.9672274],"type":"Point"},"placekey":"@52z-r5n-mtv","address":{"country_code":"LV","formatted_address":"6B Grostonas iela, Rīga, LV-1013, Latvia","postcode":"LV-1013","locality":"Rīga"}},"labels":["basketball","sport"],"duration":0,"start_local":"2024-05-16T20:00:00","end":"2024-05-16T17:00:00Z","end_local":"2024-05-16T20:00:00","updated":"2024-06-12T19:05:06Z"},{"title":"Dopelord and Смерть","description":"Sourced from predicthq.com","category":"concerts","start":"2024-05-16T16:00:00Z","geo":{"geometry":{"coordinates":[24.0947951,56.9455951],"type":"Point"},"placekey":"@52z-v7n-tqf","address":{"country_code":"LV","formatted_address":"AB Dam, Zemgales priekšpilsēta, Rīga, LV-1048, Latvia","postcode":"1048","locality":"Rīga"}},"labels":["concert","music"],"duration":0,"start_local":"2024-05-16T19:00:00","end":"2024-05-16T16:00:00Z","end_local":"2024-05-16T19:00:00","updated":"2024-06-12T14:15:21Z"},{"title":"Infrastructure Optimization focused 130th DevClub.lv","description":"Sourced from predicthq.com - .","category":"conferences","start":"2024-05-16T15:30:00Z","geo":{"geometry":{"coordinates":[24.1603502,56.971082],"type":"Point"},"placekey":"@52z-r5j-4y9","address":{"country_code":"LV","formatted_address":"Brīvības iela, Rīga, 1039, Latvia","locality":"Rīga","postcode":"1039"}},"labels":["conference","science","technology"],"duration":0,"start_local":"2024-05-16T18:30:00","end":"2024-05-16T15:30:00Z","end_local":"2024-05-16T18:30:00","updated":"2024-06-05T07:45:44Z"},{"title":"Riga Small Talks #13","description":"Sourced from predicthq.com - Everyone has an interesting experience. Let's share with it.","category":"conferences","start":"2024-05-16T15:30:00Z","geo":{"geometry":{"coordinates":[24.1301002,56.9651069],"type":"Point"},"placekey":"@52z-r5n-kcq","address":{"country_code":"LV","formatted_address":"Šarlotes iela, Rīga, 1001, Latvia","locality":"Rīga","postcode":"1001"}},"labels":["business","conference"],"duration":12600,"start_local":"2024-05-16T18:30:00","end":"2024-05-16T19:00:00Z","end_local":"2024-05-16T22:00:00","updated":"2024-06-04T21:28:28Z"},{"title":"Eyehategod and Mentem","description":"Sourced from predicthq.com","category":"concerts","start":"2024-05-16T15:00:00Z","geo":{"geometry":{"coordinates":[24.1348,56.96431],"type":"Point"},"placekey":"@52z-r5n-jy9","address":{"country_code":"LV","formatted_address":"Tallinas iela 10-3, Centra rajons, Rīga, LV-1001, Latvia","postcode":"1001","locality":"Rīga"}},"labels":["concert","music"],"duration":0,"start_local":"2024-05-16T18:00:00","end":"2024-05-16T15:00:00Z","end_local":"2024-05-16T18:00:00","updated":"2024-06-12T12:27:34Z"},{"title":"WHAT THE WORLD DON'T WANT YOU TO KNOW ABOUT MONEY & SUCCESS","description":"Sourced from predicthq.com - All the secrets about money and success","category":"conferences","start":"2024-05-16T15:00:00Z","geo":{"geometry":{"coordinates":[24.1294775,56.9495636],"type":"Point"},"placekey":"@52z-vcp-kzz","address":{"country_code":"LV","formatted_address":"Ernesta Birznieka-Upīša iela 21-21, Latgales priekšpilsēta, Rīga, LV-1011, Latvia","postcode":"1011","locality":"Rīga"}},"labels":["business","conference"],"duration":7200,"start_local":"2024-05-16T18:00:00","end":"2024-05-16T17:00:00Z","end_local":"2024-05-16T20:00:00","updated":"2024-06-05T13:12:42Z"},{"title":"Baltic Esri User Conference","description":"Sourced from predicthq.com","category":"conferences","start":"2024-05-15T06:00:00Z","geo":{"geometry":{"coordinates":[24.1176857,56.9549231],"type":"Point"},"placekey":"@52z-vcp-cdv","address":{"country_code":"LV","formatted_address":"55 Elizabetes iela, Rīga, LV-1010, Latvia","postcode":"LV-1010","locality":"Rīga"}},"labels":["conference"],"duration":205200,"start_local":"2024-05-15T09:00:00","end":"2024-05-17T15:00:00Z","end_local":"2024-05-17T18:00:00","updated":"2024-06-05T02:16:44Z"},{"title":"LBL - 3rd Place Final - Liepāja vs Ventspils","description":"Sourced from predicthq.com","category":"sports","start":"2024-05-14T17:00:00Z","geo":{"geometry":{"coordinates":[21.0179157,56.5194764],"type":"Point"},"placekey":"@537-m3g-389","address":{"country_code":"LV","formatted_address":"39 Brīvības iela, Liepāja, LV-3401, Latvia","postcode":"LV-3401","locality":"Liepāja"}},"labels":["basketball","sport"],"duration":0,"start_local":"2024-05-14T20:00:00","end":"2024-05-14T17:00:00Z","end_local":"2024-05-14T20:00:00","updated":"2024-06-12T01:14:18Z"},{"title":"Deerhoof and Bēdu Brāļi","description":"Sourced from predicthq.com","category":"concerts","start":"2024-05-14T16:00:00Z","geo":{"geometry":{"coordinates":[24.1078,56.96305],"type":"Point"},"placekey":"@52z-r5j-xqz","address":{"country_code":"LV","formatted_address":"Hanzas iela 16A, Vidzemes priekšpilsēta, Rīga, LV-1045, Latvia","postcode":"1045","locality":"Rīga"}},"labels":["concert","music"],"duration":0,"start_local":"2024-05-14T19:00:00","end":"2024-05-14T16:00:00Z","end_local":"2024-05-14T19:00:00","updated":"2024-06-11T23:20:27Z"},{"title":"LBL - Final - Rīgas Zeļļi vs VEF Rīga","description":"Sourced from predicthq.com","category":"sports","start":"2024-05-13T17:00:00Z","geo":{"geometry":{"coordinates":[24.143141,56.963538],"type":"Point"},"placekey":"@52z-r5m-jd9","address":{"country_code":"LV","formatted_address":"Krišjāņa Barona iela 107, Latgales priekšpilsēta, Rīga, LV-1012, Latvia","postcode":"1012","locality":"Rīga"}},"labels":["basketball","sport"],"duration":0,"start_local":"2024-05-13T20:00:00","end":"2024-05-13T17:00:00Z","end_local":"2024-05-13T20:00:00","updated":"2024-06-12T08:23:40Z"},{"title":"Baltic Earth Conference","description":"Sourced from predicthq.com","category":"conferences","start":"2024-05-13T06:00:00Z","geo":{"geometry":{"coordinates":[23.802581,56.973568],"type":"Point"},"placekey":"@52z-swc-r6k","address":{"country_code":"LV","formatted_address":"Jomas iela 47/49, Jūrmala, LV-2015, Latvia","postcode":"2015","locality":"Jūrmala"}},"labels":["conference"],"duration":378000,"start_local":"2024-05-13T09:00:00","end":"2024-05-17T15:00:00Z","end_local":"2024-05-17T18:00:00","updated":"2024-06-05T01:02:08Z"},{"title":"Elza Rozentāle, Miķelis Putniņš, Toms Mikāls, Kristians Priekulis, Rūdolfs Dankfelds and Žoržs Siksna","description":"Sourced from predicthq.com","category":"community","start":"2024-05-12T17:00:00Z","geo":{"geometry":{"coordinates":[21.00587,56.51006],"type":"Point"},"placekey":"@537-kz9-6rk","address":{"country_code":"LV","formatted_address":"Graudu iela 34, Liepāja, LV-3401, Latvia","postcode":"3401","locality":"Liepāja"}},"labels":["concert","music"],"duration":0,"start_local":"2024-05-12T20:00:00","end":"2024-05-12T17:00:00Z","end_local":"2024-05-12T20:00:00","updated":"2024-06-05T13:35:23Z"},{"title":"Balozu Pilni Pagalmi","description":"Sourced from predicthq.com","category":"community","start":"2024-05-11T16:00:00Z","geo":{"geometry":{"coordinates":[24.15034,57.01655],"type":"Point"},"placekey":"@52z-r48-7yv","address":{"country_code":"LV","formatted_address":"Ostas prospekts 11, Ziemeļu rajons, Rīga, LV-1034, Latvia","postcode":"1034","locality":"Rīga"}},"labels":["concert","music"],"duration":0,"start_local":"2024-05-11T19:00:00","end":"2024-05-11T16:00:00Z","end_local":"2024-05-11T19:00:00","updated":"2024-06-05T04:04:46Z"},{"title":"Grēcīgie Partizāni and Zaķis","description":"Sourced from predicthq.com","category":"concerts","start":"2024-05-11T16:00:00Z","geo":{"geometry":{"coordinates":[24.0947951,56.9455951],"type":"Point"},"placekey":"@52z-v7n-tqf","address":{"country_code":"LV","formatted_address":"AB Dam, Zemgales priekšpilsēta, Rīga, LV-1048, Latvia","postcode":"1048","locality":"Rīga"}},"labels":["concert","music"],"duration":0,"start_local":"2024-05-11T19:00:00","end":"2024-05-11T16:00:00Z","end_local":"2024-05-11T19:00:00","updated":"2024-06-12T11:20:27Z"},{"title":"LBL - 3rd Place Final - Ventspils vs Liepāja","description":"Sourced from predicthq.com","category":"sports","start":"2024-05-11T11:00:00Z","geo":{"geometry":{"coordinates":[21.5713809,57.3869343],"type":"Point"},"placekey":"@533-mz4-649","address":{"country_code":"LV","formatted_address":"7/9 Sporta iela, Ventspils, LV-3601, Latvia","postcode":"LV-3601","locality":"Ventspils"}},"labels":["basketball","sport"],"duration":0,"start_local":"2024-05-11T14:00:00","end":"2024-05-11T11:00:00Z","end_local":"2024-05-11T14:00:00","updated":"2024-06-12T17:28:10Z"},{"title":"Инвестиции для каждого","description":"Sourced from predicthq.com - На этом мероприятии мы поговорим о том, как каждый может начать инвестировать - присоединяйтесь!","category":"conferences","start":"2024-05-11T09:00:00Z","geo":{"geometry":{"coordinates":[24.1301002,56.9651069],"type":"Point"},"placekey":"@52z-r5n-kcq","address":{"country_code":"LV","formatted_address":"Šarlotes iela, Rīga, 1001, Latvia","locality":"Rīga","postcode":"1001"}},"labels":["business","conference"],"duration":3600,"start_local":"2024-05-11T12:00:00","end":"2024-05-11T10:00:00Z","end_local":"2024-05-11T13:00:00","updated":"2024-06-04T21:35:12Z"},{"title":"Chase & Status, Magnuss Erins, KETA MINE, and 2 others","description":"Sourced from predicthq.com","category":"concerts","start":"2024-05-10T19:00:00Z","geo":{"geometry":{"coordinates":[24.07297,56.95327],"type":"Point"},"placekey":"@52z-v7p-whq","address":{"country_code":"LV","formatted_address":"Aisteres iela 2, Durbes iela 4, Kurzemes rajons, Rīga, LV-1048, Latvia","postcode":"1048","locality":"Rīga"}},"labels":["concert","music"],"duration":0,"start_local":"2024-05-10T22:00:00","end":"2024-05-10T19:00:00Z","end_local":"2024-05-10T22:00:00","updated":"2024-06-11T23:38:59Z"},{"title":"FREE CONCERT RIGA- University of North Florida Singers","description":"Sourced from predicthq.com - Enjoy an incredible free concert featuring the talented young soloists from the University of North Florida Singers in Riga on May 10th!","category":"performing-arts","start":"2024-05-10T17:00:00Z","geo":{"geometry":{"coordinates":[24.1080462,56.9494311],"type":"Point"},"placekey":"@52z-vcp-qmk","address":{"country_code":"LV","formatted_address":"Amatu iela, Rīga, 1050, Latvia","locality":"Rīga","postcode":"1050"}},"labels":["concert","music","performing-arts"],"duration":0,"start_local":"2024-05-10T20:00:00","end":"2024-05-10T17:00:00Z","end_local":"2024-05-10T20:00:00","updated":"2024-06-12T17:04:31Z"},{"title":"Children's World-RIGA","description":"Sourced from predicthq.com - 'Children's World-RIGA' is a vibrant expo event that brings together families and kids of all ages to explore the wonders of play, education, and entertainment, featuring a diverse array of exhibitors and interactive activities guaranteed to spark joy and ignite curiosity. With its wide range of offerings, this event promises an unforgettable experience that will leave children and their parents with lasting memories and inspiration.","category":"expos","start":"2024-05-10T06:00:00Z","geo":{"geometry":{"coordinates":[24.0792663,56.955588],"type":"Point"},"placekey":"@52z-v7p-dqf","address":{"country_code":"LV","formatted_address":"8 Ķīpsalas iela, Rīga, LV-1048, Latvia","postcode":"LV-1048","locality":"Rīga"}},"labels":["expo"],"duration":205200,"start_local":"2024-05-10T09:00:00","end":"2024-05-12T15:00:00Z","end_local":"2024-05-12T18:00:00","updated":"2024-06-05T02:11:26Z"},{"title":"LBL - Final - VEF Rīga vs Rīgas Zeļļi","description":"Sourced from predicthq.com","category":"sports","start":"2024-05-09T16:45:00Z","geo":{"geometry":{"coordinates":[24.1247179,56.9672274],"type":"Point"},"placekey":"@52z-r5n-mtv","address":{"country_code":"LV","formatted_address":"6B Grostonas iela, Rīga, LV-1013, Latvia","postcode":"LV-1013","locality":"Rīga"}},"labels":["basketball","sport"],"duration":0,"start_local":"2024-05-09T19:45:00","end":"2024-05-09T16:45:00Z","end_local":"2024-05-09T19:45:00","updated":"2024-06-12T05:54:17Z"},{"title":"Meredith Monk & John Hollenbeck","description":"Sourced from predicthq.com","category":"concerts","start":"2024-05-09T15:00:00Z","geo":{"geometry":{"coordinates":[24.1078,56.96305],"type":"Point"},"placekey":"@52z-r5j-xqz","address":{"country_code":"LV","formatted_address":"Hanzas iela 16A, Vidzemes priekšpilsēta, Rīga, LV-1045, Latvia","postcode":"1045","locality":"Rīga"}},"labels":["concert","music"],"duration":0,"start_local":"2024-05-09T18:00:00","end":"2024-05-09T15:00:00Z","end_local":"2024-05-09T18:00:00","updated":"2024-06-12T08:42:00Z"},{"title":"Kautkaili","description":"Sourced from predicthq.com","category":"concerts","start":"2024-05-08T15:00:00Z","geo":{"geometry":{"coordinates":[23.85898,56.66598],"type":"Point"},"placekey":"@52z-txh-cbk","address":{"country_code":"LV","formatted_address":"Saules 2, Cena, Jelgava, Latvia","locality":"Jelgava"}},"labels":["concert","music"],"duration":0,"start_local":"2024-05-08T18:00:00","end":"2024-05-08T15:00:00Z","end_local":"2024-05-08T18:00:00","updated":"2024-06-12T19:50:12Z"},{"title":"ISTQB® Automation Engineer Training Course - Riga (3 days, in English)","description":"Sourced from predicthq.com - ISTQB® Automation Engineer Training Course","category":"conferences","start":"2024-05-06T06:00:00Z","geo":{"geometry":{"coordinates":[24.1597639,56.9716209],"type":"Point"},"placekey":"@52z-r5j-59f","address":{"country_code":"LV","formatted_address":"Brīvības iela 199c, Vidzemes priekšpilsēta, Rīga, LV-1039, Latvia","postcode":"1039","locality":"Rīga"}},"labels":["conference","science","technology"],"duration":0,"start_local":"2024-05-06T09:00:00","end":"2024-05-06T06:00:00Z","end_local":"2024-05-06T09:00:00","updated":"2024-06-05T08:06:39Z"},{"title":"Shipsea","description":"Sourced from predicthq.com","category":"concerts","start":"2024-05-05T12:00:00Z","geo":{"geometry":{"coordinates":[25.0378246,57.2360801],"type":"Point"},"placekey":"@532-86v-5j9","address":{"country_code":"LV","formatted_address":"Gaujas iela 4, Līgatne, Līgatnes pilsēta, LV-4110, Latvia","postcode":"4110","locality":"Līgatne"}},"labels":["concert","music"],"duration":0,"start_local":"2024-05-05T15:00:00","end":"2024-05-05T12:00:00Z","end_local":"2024-05-05T15:00:00","updated":"2024-06-12T05:22:31Z"},{"title":"LBL - Semi-finals - Rīgas Zeļļi vs Ventspils","description":"Sourced from predicthq.com","category":"sports","start":"2024-05-04T17:00:00Z","geo":{"geometry":{"coordinates":[24.143141,56.963538],"type":"Point"},"placekey":"@52z-r5m-jd9","address":{"country_code":"LV","formatted_address":"Krišjāņa Barona iela 107, Latgales priekšpilsēta, Rīga, LV-1012, Latvia","postcode":"1012","locality":"Rīga"}},"labels":["basketball","sport"],"duration":0,"start_local":"2024-05-04T20:00:00","end":"2024-05-04T17:00:00Z","end_local":"2024-05-04T20:00:00","updated":"2024-06-11T21:47:52Z"},{"title":"Re-Armed, Black Royal, Ulfhednar, and Bloodride","description":"Sourced from predicthq.com","category":"concerts","start":"2024-05-04T17:00:00Z","geo":{"geometry":{"coordinates":[21.0103,56.5125],"type":"Point"},"placekey":"@537-kz9-59f","address":{"country_code":"LV","formatted_address":"Dzirnavu iela 4, Liepaja, LV-3401, Latvia","postcode":"LV-3401","locality":"Liepaja"}},"labels":["concert","music"],"duration":0,"start_local":"2024-05-04T20:00:00","end":"2024-05-04T17:00:00Z","end_local":"2024-05-04T20:00:00","updated":"2024-06-12T13:35:25Z"},{"title":"Shipsea","description":"Sourced from predicthq.com","category":"concerts","start":"2024-05-04T16:00:00Z","geo":{"geometry":{"coordinates":[23.8120224,56.9778858],"type":"Point"},"placekey":"@52z-r2c-y9z","address":{"country_code":"LV","formatted_address":"Turaidas iela 1, Jūrmala, LV-2015, Latvia","postcode":"2015","locality":"Jūrmala"}},"labels":["concert","music"],"duration":0,"start_local":"2024-05-04T19:00:00","end":"2024-05-04T16:00:00Z","end_local":"2024-05-04T19:00:00","updated":"2024-06-12T06:51:22Z"},{"title":"Necro Weasel, Vivisektio, and Polycephaly","description":"Sourced from predicthq.com","category":"concerts","start":"2024-05-04T16:00:00Z","geo":{"geometry":{"coordinates":[24.14023,56.94867],"type":"Point"},"placekey":"@52z-vcr-c89","address":{"country_code":"LV","formatted_address":"Ādmiņu iela 4, Latgales priekšpilsēta, Rīga, LV-1009, Latvia","postcode":"1009","locality":"Rīga"}},"labels":["concert","music"],"duration":0,"start_local":"2024-05-04T19:00:00","end":"2024-05-04T16:00:00Z","end_local":"2024-05-04T19:00:00","updated":"2024-06-12T05:47:11Z"},{"title":"Tautumeitas","description":"Sourced from predicthq.com","category":"community","start":"2024-05-04T13:00:00Z","geo":{"geometry":{"coordinates":[24.101124,57.036828],"type":"Point"},"placekey":"@52z-r46-yd9","address":{"country_code":"LV","formatted_address":"Ziemeļblāzmas iela 36, Ziemeļu rajons, Rīga, LV-1015, Latvia","postcode":"1015","locality":"Rīga"}},"labels":["concert","music"],"duration":0,"start_local":"2024-05-04T16:00:00","end":"2024-05-04T13:00:00Z","end_local":"2024-05-04T16:00:00","updated":"2024-06-05T03:56:34Z"},{"title":"Willow Farm","description":"Sourced from predicthq.com","category":"community","start":"2024-05-03T17:00:00Z","geo":{"geometry":{"coordinates":[21.00587,56.51006],"type":"Point"},"placekey":"@537-kz9-6rk","address":{"country_code":"LV","formatted_address":"Graudu iela 34, Liepāja, LV-3401, Latvia","postcode":"3401","locality":"Liepāja"}},"labels":["concert","music"],"duration":0,"start_local":"2024-05-03T20:00:00","end":"2024-05-03T17:00:00Z","end_local":"2024-05-03T20:00:00","updated":"2024-06-05T05:43:20Z"},{"title":"Fiņķis","description":"Sourced from predicthq.com","category":"concerts","start":"2024-05-03T16:00:00Z","geo":{"geometry":{"coordinates":[24.0930956,56.962442],"type":"Point"},"placekey":"@52z-r5k-f4v","address":{"country_code":"LV","formatted_address":"Andrejostas iela 5k-14, Ziemeļu rajons, Rīga, LV-1045, Latvia","postcode":"1045","locality":"Rīga"}},"labels":["concert","music"],"duration":0,"start_local":"2024-05-03T19:00:00","end":"2024-05-03T16:00:00Z","end_local":"2024-05-03T19:00:00","updated":"2024-06-12T07:27:33Z"},{"title":"Shipsea","description":"Sourced from predicthq.com","category":"concerts","start":"2024-05-03T16:00:00Z","geo":{"geometry":{"coordinates":[25.42123,57.53705],"type":"Point"},"placekey":"@533-7s8-3wk","address":{"country_code":"LV","formatted_address":"Diakonāta iela 6, Valmiera, LV-4201, Latvia","postcode":"4201","locality":"Valmiera"}},"labels":["concert","music"],"duration":0,"start_local":"2024-05-03T19:00:00","end":"2024-05-03T16:00:00Z","end_local":"2024-05-03T19:00:00","updated":"2024-06-11T22:38:30Z"},{"title":"Glass Wipe, Suntrace, Zaķis, and 2 others","description":"Sourced from predicthq.com","category":"concerts","start":"2024-05-03T15:00:00Z","geo":{"geometry":{"coordinates":[24.14023,56.94867],"type":"Point"},"placekey":"@52z-vcr-c89","address":{"country_code":"LV","formatted_address":"Ādmiņu iela 4, Latgales priekšpilsēta, Rīga, LV-1009, Latvia","postcode":"1009","locality":"Rīga"}},"labels":["concert","music"],"duration":0,"start_local":"2024-05-03T18:00:00","end":"2024-05-03T15:00:00Z","end_local":"2024-05-03T18:00:00","updated":"2024-06-12T04:15:54Z"},{"title":"Black Royal, Bloodride, and Redneck Rampage","description":"Sourced from predicthq.com","category":"concerts","start":"2024-05-02T17:00:00Z","geo":{"geometry":{"coordinates":[24.1141988,56.9467317],"type":"Point"},"placekey":"@52z-vcn-r49","address":{"country_code":"LV","formatted_address":"32 Vaļņu iela, Rīga, LV-1050, Latvia","postcode":"LV-1050","locality":"Rīga"}},"labels":["concert","music"],"duration":0,"start_local":"2024-05-02T20:00:00","end":"2024-05-02T17:00:00Z","end_local":"2024-05-02T20:00:00","updated":"2024-06-12T03:28:29Z"},{"title":"Riga en Español #1 - Un show especial de comedia stand-up en tu idioma","description":"Sourced from predicthq.com - ¡Ven a disfrutar por primera vez en Riga un show de comedia stand-up en Español!  \"Importado\", un especial para los latinos en Europa.","category":"performing-arts","start":"2024-05-02T16:00:00Z","geo":{"geometry":{"coordinates":[24.111753,56.9471399],"type":"Point"},"placekey":"@52z-vcn-rkz","address":{"country_code":"LV","formatted_address":"Audēju iela, Rīga, 1050, Latvia","locality":"Rīga","postcode":"1050"}},"labels":["concert","entertainment","music","performing-arts"],"duration":0,"start_local":"2024-05-02T19:00:00","end":"2024-05-02T16:00:00Z","end_local":"2024-05-02T19:00:00","updated":"2024-06-12T07:42:14Z"},{"title":"LBL - Semi-finals - Ventspils vs Rīgas Zeļļi","description":"Sourced from predicthq.com","category":"sports","start":"2024-05-02T16:00:00Z","geo":{"geometry":{"coordinates":[21.5713809,57.3869343],"type":"Point"},"placekey":"@533-mz4-649","address":{"country_code":"LV","formatted_address":"7/9 Sporta iela, Ventspils, LV-3601, Latvia","postcode":"LV-3601","locality":"Ventspils"}},"labels":["basketball","sport"],"duration":0,"start_local":"2024-05-02T19:00:00","end":"2024-05-02T16:00:00Z","end_local":"2024-05-02T19:00:00","updated":"2024-06-12T06:54:41Z"},{"title":"LBL - Semi-finals - VEF Rīga vs Liepāja","description":"Sourced from predicthq.com","category":"sports","start":"2024-05-01T13:00:00Z","geo":{"geometry":{"coordinates":[24.1247179,56.9672274],"type":"Point"},"placekey":"@52z-r5n-mtv","address":{"country_code":"LV","formatted_address":"6B Grostonas iela, Rīga, LV-1013, Latvia","postcode":"LV-1013","locality":"Rīga"}},"labels":["basketball","sport"],"duration":0,"start_local":"2024-05-01T16:00:00","end":"2024-05-01T13:00:00Z","end_local":"2024-05-01T16:00:00","updated":"2024-06-12T12:30:32Z"},{"title":"LBL - Semi-finals - Rīgas Zeļļi vs Ventspils","description":"Sourced from predicthq.com","category":"sports","start":"2024-04-29T16:30:00Z","geo":{"geometry":{"coordinates":[24.143141,56.963538],"type":"Point"},"placekey":"@52z-r5m-jd9","address":{"country_code":"LV","formatted_address":"Krišjāņa Barona iela 107, Latgales priekšpilsēta, Rīga, LV-1012, Latvia","postcode":"1012","locality":"Rīga"}},"labels":["basketball","sport"],"duration":0,"start_local":"2024-04-29T19:30:00","end":"2024-04-29T16:30:00Z","end_local":"2024-04-29T19:30:00","updated":"2024-06-12T05:50:49Z"},{"title":"LBL - Semi-finals - Liepāja vs VEF Rīga","description":"Sourced from predicthq.com","category":"sports","start":"2024-04-28T15:00:00Z","geo":{"geometry":{"coordinates":[21.0179157,56.5194764],"type":"Point"},"placekey":"@537-m3g-389","address":{"country_code":"LV","formatted_address":"39 Brīvības iela, Liepāja, LV-3401, Latvia","postcode":"LV-3401","locality":"Liepāja"}},"labels":["basketball","sport"],"duration":0,"start_local":"2024-04-28T18:00:00","end":"2024-04-28T15:00:00Z","end_local":"2024-04-28T18:00:00","updated":"2024-06-12T18:26:46Z"},{"title":"Oranžās Brīvdienas and Alum Alu","description":"Sourced from predicthq.com","category":"community","start":"2024-04-27T18:00:00Z","geo":{"geometry":{"coordinates":[21.0103,56.5125],"type":"Point"},"placekey":"@537-kz9-59f","address":{"country_code":"LV","formatted_address":"Dzirnavu iela 4, Liepaja, LV-3401, Latvia","postcode":"LV-3401","locality":"Liepaja"}},"labels":["concert","music"],"duration":0,"start_local":"2024-04-27T21:00:00","end":"2024-04-27T18:00:00Z","end_local":"2024-04-27T21:00:00","updated":"2024-06-05T14:05:08Z"},{"title":"The Underground Youth and Orient","description":"Sourced from predicthq.com","category":"concerts","start":"2024-04-27T16:00:00Z","geo":{"geometry":{"coordinates":[24.0947951,56.9455951],"type":"Point"},"placekey":"@52z-v7n-tqf","address":{"country_code":"LV","formatted_address":"AB Dam, Zemgales priekšpilsēta, Rīga, LV-1048, Latvia","postcode":"1048","locality":"Rīga"}},"labels":["concert","music"],"duration":0,"start_local":"2024-04-27T19:00:00","end":"2024-04-27T16:00:00Z","end_local":"2024-04-27T19:00:00","updated":"2024-06-12T13:55:19Z"},{"title":"Spring Tour 2024 - Riga, Latvia","description":"Sourced from predicthq.com - Spring Tour 2024 - Riga, Latvia","category":"conferences","start":"2024-04-27T10:00:00Z","geo":{"geometry":{"coordinates":[24.093938,56.943926],"type":"Point"},"placekey":"@52z-v7n-wff","address":{"country_code":"LV","formatted_address":"24 Kuģu iela, Rīga, LV-1048, Latvia","postcode":"LV-1048","locality":"Rīga"}},"labels":["conference","health"],"duration":18000,"start_local":"2024-04-27T13:00:00","end":"2024-04-27T15:00:00Z","end_local":"2024-04-27T18:00:00","updated":"2024-06-05T02:04:20Z"},{"title":"Garden and Lifestyle","description":"Sourced from predicthq.com - Only at Garden and Lifestyle in Ķīpsala will you find everything you need for gardening and relaxing in the garden in one place. For gardening: flowers, plants, tools, greenhouses, garden equipment. For relaxing in the garden: barbecues, garden furniture, cabins, terraces, saunas, gazebos and sheds, playgrounds. At the fair, knowledgeable experts will share tips on how to create a beautiful garden.","category":"expos","start":"2024-04-27T07:00:00Z","geo":{"geometry":{"coordinates":[24.0981245041,56.9515044205],"type":"Point"},"placekey":"@52z-v7p-m8v","address":{"country_code":"LV","formatted_address":"11. novembra krastmala 3, Centra rajons, Rīga, LV-1050, Latvia","postcode":"1050","locality":"Rīga"}},"labels":["agriculture","expo"],"duration":115200,"start_local":"2024-04-27T10:00:00","end":"2024-04-28T15:00:00Z","end_local":"2024-04-28T18:00:00","updated":"2024-06-05T08:17:11Z"},{"title":"Oranžās Brīvdienas","description":"Sourced from predicthq.com","category":"concerts","start":"2024-04-26T18:00:00Z","geo":{"geometry":{"coordinates":[23.71599,56.6472],"type":"Point"},"placekey":"@532-gvj-mtv","address":{"country_code":"LV","formatted_address":"Raiņa Iela 28, Jelgava, LV-3001, Latvia","postcode":"3001","locality":"Jelgava"}},"labels":["concert","music"],"duration":0,"start_local":"2024-04-26T21:00:00","end":"2024-04-26T18:00:00Z","end_local":"2024-04-26T21:00:00","updated":"2024-06-12T03:40:47Z"},{"title":"Catalepsia and Pamirt","description":"Sourced from predicthq.com","category":"concerts","start":"2024-04-26T16:00:00Z","geo":{"geometry":{"coordinates":[24.0947951,56.9455951],"type":"Point"},"placekey":"@52z-v7n-tqf","address":{"country_code":"LV","formatted_address":"AB Dam, Zemgales priekšpilsēta, Rīga, LV-1048, Latvia","postcode":"1048","locality":"Rīga"}},"labels":["concert","music"],"duration":0,"start_local":"2024-04-26T19:00:00","end":"2024-04-26T16:00:00Z","end_local":"2024-04-26T19:00:00","updated":"2024-06-11T21:55:40Z"},{"title":"LBL - Semi-finals - Ventspils vs Rīgas Zeļļi","description":"Sourced from predicthq.com","category":"sports","start":"2024-04-26T16:00:00Z","geo":{"geometry":{"coordinates":[21.5713809,57.3869343],"type":"Point"},"placekey":"@533-mz4-649","address":{"country_code":"LV","formatted_address":"7/9 Sporta iela, Ventspils, LV-3601, Latvia","postcode":"LV-3601","locality":"Ventspils"}},"labels":["basketball","sport"],"duration":0,"start_local":"2024-04-26T19:00:00","end":"2024-04-26T16:00:00Z","end_local":"2024-04-26T19:00:00","updated":"2024-06-11T22:03:15Z"},{"title":"Auto - International MotorShow","description":"Sourced from predicthq.com - The Riga International MotorShow is a premier automobile exhibition that showcases the latest advancements and innovations in the automotive industry. It provides an immersive experience for car enthusiasts, featuring a wide range of cutting-edge vehicles, interactive displays, and informative presentations.","category":"expos","start":"2024-04-25T21:00:00Z","geo":{"geometry":{"coordinates":[24.0792663,56.955588],"type":"Point"},"placekey":"@52z-v7p-dqf","address":{"country_code":"LV","formatted_address":"8 Ķīpsalas iela, Rīga, LV-1048, Latvia","postcode":"LV-1048","locality":"Rīga"}},"labels":["automotive","expo","transportation"],"duration":259199,"start_local":"2024-04-26T00:00:00","end":"2024-04-28T20:59:59Z","end_local":"2024-04-28T23:59:59","updated":"2024-06-02T03:21:41Z"},{"title":"LBL - Semi-finals - VEF Rīga vs Liepāja","description":"Sourced from predicthq.com","category":"sports","start":"2024-04-25T16:00:00Z","geo":{"geometry":{"coordinates":[24.1247179,56.9672274],"type":"Point"},"placekey":"@52z-r5n-mtv","address":{"country_code":"LV","formatted_address":"6B Grostonas iela, Rīga, LV-1013, Latvia","postcode":"LV-1013","locality":"Rīga"}},"labels":["basketball","sport"],"duration":0,"start_local":"2024-04-25T19:00:00","end":"2024-04-25T16:00:00Z","end_local":"2024-04-25T19:00:00","updated":"2024-06-12T10:56:15Z"},{"title":"LSBL - Group A - 3rd Place Final - Daugavpils vs Liepāja LSSS","description":"Sourced from predicthq.com","category":"sports","start":"2024-04-25T15:00:00Z","geo":{"geometry":{"coordinates":[26.554813920410542,55.8871835547227],"type":"Point"},"placekey":"@535-rmy-4jv","address":{"country_code":"LV","formatted_address":"Smilšu iela 92, Daugavpils, LV-5410, Latvia","postcode":"5410","locality":"Daugavpils"}},"labels":["basketball","sport"],"duration":0,"start_local":"2024-04-25T18:00:00","end":"2024-04-25T15:00:00Z","end_local":"2024-04-25T18:00:00","updated":"2024-06-11T21:55:44Z"},{"title":"The Baltic DH Forum","description":"Sourced from predicthq.com","category":"conferences","start":"2024-04-25T06:00:00Z","geo":{"geometry":{"coordinates":[24.096979,56.936566],"type":"Point"},"placekey":"@52z-vcs-f4v","address":{"country_code":"LV","formatted_address":"University of Latvia Academic Centre, Jelgavas iela 1, Zemgales priekšpilsēta, Rīga, LV-1004, Latvia","postcode":"1004","locality":"Rīga"}},"labels":["conference"],"duration":118800,"start_local":"2024-04-25T09:00:00","end":"2024-04-26T15:00:00Z","end_local":"2024-04-26T18:00:00","updated":"2024-06-03T19:25:20Z"},{"title":"Arms and Sleepers","description":"Sourced from predicthq.com","category":"concerts","start":"2024-04-24T16:00:00Z","geo":{"geometry":{"coordinates":[24.0947951,56.9455951],"type":"Point"},"placekey":"@52z-v7n-tqf","address":{"country_code":"LV","formatted_address":"AB Dam, Zemgales priekšpilsēta, Rīga, LV-1048, Latvia","postcode":"1048","locality":"Rīga"}},"labels":["concert","music"],"duration":0,"start_local":"2024-04-24T19:00:00","end":"2024-04-24T16:00:00Z","end_local":"2024-04-24T19:00:00","updated":"2024-06-12T19:32:35Z"},{"title":"Datu Analītika","description":"Sourced from predicthq.com - Vidzeme TechGirls kopā ar Cēsu digitālo centru aicina Tevi iepazīt Datu analītikas pasauli no jomas speciālistiem","category":"conferences","start":"2024-04-24T15:00:00Z","geo":{"geometry":{"coordinates":[25.2746353,57.3109372],"type":"Point"},"placekey":"@532-826-syv","address":{"country_code":"LV","formatted_address":"Piebalgas iela, Cēsis, 4101, Latvia","locality":"Cēsis","postcode":"4101","region":"Cēsu novads"}},"labels":["conference","science","technology"],"duration":10800,"start_local":"2024-04-24T18:00:00","end":"2024-04-24T18:00:00Z","end_local":"2024-04-24T21:00:00","updated":"2024-06-05T07:32:54Z"},{"title":"International Conference for Young Scientists on Biorefinery Technologies and Products","description":"Sourced from predicthq.com","category":"conferences","start":"2024-04-24T06:00:00Z","geo":{"geometry":{"coordinates":[24.351398,56.869972],"type":"Point"},"placekey":"@52z-v9g-zcq","address":{"country_code":"LV","formatted_address":"Rīgas iela, Salaspils, 2169, Latvia","locality":"Salaspils","postcode":"2169","region":"Salaspils novads"}},"labels":["conference"],"duration":205200,"start_local":"2024-04-24T09:00:00","end":"2024-04-26T15:00:00Z","end_local":"2024-04-26T18:00:00","updated":"2024-06-04T21:41:17Z"},{"title":"LBL - Pre Play-offs - Ogre vs Liepāja","description":"Sourced from predicthq.com","category":"sports","start":"2024-04-22T16:00:00Z","geo":{"geometry":{"coordinates":[24.610004459349287,56.824692814434286],"type":"Point"},"placekey":"@532-qkp-vj9","address":{"country_code":"LV","formatted_address":"Gunāra Astras iela 1, Ogre, Ogres pilsēta, Ogres novads, LV-5001, Latvia","postcode":"5001","locality":"Ogre","region":"Ogres novads"}},"labels":["basketball","sport"],"duration":0,"start_local":"2024-04-22T19:00:00","end":"2024-04-22T16:00:00Z","end_local":"2024-04-22T19:00:00","updated":"2024-06-11T22:26:50Z"},{"title":"Colin Stetson and Tobias Preisig","description":"Sourced from predicthq.com","category":"concerts","start":"2024-04-21T14:00:00Z","geo":{"geometry":{"coordinates":[24.1078,56.96305],"type":"Point"},"placekey":"@52z-r5j-xqz","address":{"country_code":"LV","formatted_address":"Hanzas iela 16A, Vidzemes priekšpilsēta, Rīga, LV-1045, Latvia","postcode":"1045","locality":"Rīga"}},"labels":["concert","music"],"duration":0,"start_local":"2024-04-21T17:00:00","end":"2024-04-21T14:00:00Z","end_local":"2024-04-21T17:00:00","updated":"2024-06-12T07:33:51Z"},{"title":"Singapūras Satīns","description":"Sourced from predicthq.com","category":"concerts","start":"2024-04-20T19:00:00Z","geo":{"geometry":{"coordinates":[25.4217509,57.5352129],"type":"Point"},"placekey":"@533-7s8-3kf","address":{"country_code":"LV","formatted_address":"Tirgus iela 5, Valmiera, LV-4201, Latvia","postcode":"4201","locality":"Valmiera"}},"labels":["concert","music"],"duration":0,"start_local":"2024-04-20T22:00:00","end":"2024-04-20T19:00:00Z","end_local":"2024-04-20T22:00:00","updated":"2024-06-24T18:15:38Z"},{"title":"Kuusbārdis","description":"Sourced from predicthq.com","category":"concerts","start":"2024-04-20T16:30:00Z","geo":{"geometry":{"coordinates":[24.13069,56.96546],"type":"Point"},"placekey":"@52z-r5n-kcq","address":{"country_code":"LV","formatted_address":"Aristida Briāna iela 9a, Centra rajons, Rīga, LV-1001, Latvia","postcode":"1001","locality":"Rīga"}},"labels":["concert","music"],"duration":0,"start_local":"2024-04-20T19:30:00","end":"2024-04-20T16:30:00Z","end_local":"2024-04-20T19:30:00","updated":"2024-06-12T00:23:54Z"},{"title":"Nacionālajā Basketbola Līgā - Final - Jelgava vs Salaspils","description":"Sourced from predicthq.com","category":"sports","start":"2024-04-20T14:00:00Z","geo":{"geometry":{"coordinates":[23.721636,56.643774],"type":"Point"},"placekey":"@532-gvj-tgk","address":{"country_code":"LV","formatted_address":"Mātera iela 44A, Jelgava, LV-3001, Latvia","postcode":"3001","locality":"Jelgava"}},"labels":["basketball","sport"],"duration":0,"start_local":"2024-04-20T17:00:00","end":"2024-04-20T14:00:00Z","end_local":"2024-04-20T17:00:00","updated":"2024-06-12T04:52:25Z"},{"title":"LSBL - Group A - Final - TTT Rīga vs RSU","description":"Sourced from predicthq.com","category":"sports","start":"2024-04-20T13:00:00Z","geo":{"geometry":{"coordinates":[24.143141,56.963538],"type":"Point"},"placekey":"@52z-r5m-jd9","address":{"country_code":"LV","formatted_address":"Krišjāņa Barona iela 107, Latgales priekšpilsēta, Rīga, LV-1012, Latvia","postcode":"1012","locality":"Rīga"}},"labels":["basketball","sport"],"duration":0,"start_local":"2024-04-20T16:00:00","end":"2024-04-20T13:00:00Z","end_local":"2024-04-20T16:00:00","updated":"2024-06-11T20:58:27Z"},{"title":"Rugby Union Internationals - Friendlies 3 - Latvia vs Denmark","description":"Sourced from predicthq.com","category":"sports","start":"2024-04-20T10:00:00Z","geo":{"geometry":{"coordinates":[23.7540089,56.6614273],"type":"Point"},"placekey":"@532-gtq-yy9","address":{"country_code":"LV","formatted_address":"24 Kronvalda iela, Jelgava, LV-3004, Latvia","postcode":"LV-3004","locality":"Jelgava"}},"labels":["rugby","sport"],"duration":0,"start_local":"2024-04-20T13:00:00","end":"2024-04-20T10:00:00Z","end_local":"2024-04-20T13:00:00","updated":"2024-06-12T06:31:08Z"},{"title":"Oranžās Brīvdienas","description":"Sourced from predicthq.com","category":"concerts","start":"2024-04-19T18:00:00Z","geo":{"geometry":{"coordinates":[25.2683,57.31056],"type":"Point"},"placekey":"@532-826-skf","address":{"country_code":"LV","formatted_address":"Rīgas iela 47, Cēsis, Cēsu pilsēta, Cēsu novads, LV-4101, Latvia","postcode":"4101","locality":"Cēsis","region":"Cēsu novads"}},"labels":["concert","music"],"duration":0,"start_local":"2024-04-19T21:00:00","end":"2024-04-19T18:00:00Z","end_local":"2024-04-19T21:00:00","updated":"2024-06-12T00:09:46Z"},{"title":"LBL - Pre Play-offs - Liepāja vs Ogre","description":"Sourced from predicthq.com","category":"sports","start":"2024-04-19T16:00:00Z","geo":{"geometry":{"coordinates":[21.0179157,56.5194764],"type":"Point"},"placekey":"@537-m3g-389","address":{"country_code":"LV","formatted_address":"39 Brīvības iela, Liepāja, LV-3401, Latvia","postcode":"LV-3401","locality":"Liepāja"}},"labels":["basketball","sport"],"duration":0,"start_local":"2024-04-19T19:00:00","end":"2024-04-19T16:00:00Z","end_local":"2024-04-19T19:00:00","updated":"2024-06-12T01:32:51Z"},{"title":"Estonian-Latvian Basketball League - 3rd Place Final - VEF Rīga vs Ventspils","description":"Sourced from predicthq.com","category":"sports","start":"2024-04-19T16:00:00Z","geo":{"geometry":{"coordinates":[24.1245764,56.9672203],"type":"Point"},"placekey":"@52z-r5n-mtv","address":{"country_code":"LV","formatted_address":"Grostonas iela, Rīga, 1013, Latvia","locality":"Rīga","postcode":"1013"}},"labels":["basketball","sport"],"duration":0,"start_local":"2024-04-19T19:00:00","end":"2024-04-19T16:00:00Z","end_local":"2024-04-19T19:00:00","updated":"2024-06-12T11:18:02Z"},{"title":"Auto","description":"Sourced from predicthq.com - The International Motor Show or Auto is a major and one of the largest and most splendid automotive industry event in the Baltic countries that welcomes all car fans and industry professionals from across Europe and Scandinavian countries.","category":"expos","start":"2024-04-19T06:00:00Z","geo":{"geometry":{"coordinates":[24.0792663,56.955588],"type":"Point"},"placekey":"@52z-v7p-dqf","address":{"country_code":"LV","formatted_address":"8 Ķīpsalas iela, Rīga, LV-1048, Latvia","postcode":"LV-1048","locality":"Rīga"}},"labels":["expo"],"duration":205200,"start_local":"2024-04-19T09:00:00","end":"2024-04-21T15:00:00Z","end_local":"2024-04-21T18:00:00","updated":"2024-06-05T20:11:32Z"},{"title":"Riga International MotorShow","description":"Sourced from predicthq.com","category":"expos","start":"2024-04-19T06:00:00Z","geo":{"geometry":{"coordinates":[24.0792663,56.955588],"type":"Point"},"placekey":"@52z-v7p-dqf","address":{"country_code":"LV","formatted_address":"8 Ķīpsalas iela, Rīga, LV-1048, Latvia","postcode":"LV-1048","locality":"Rīga"}},"labels":["expo"],"duration":205200,"start_local":"2024-04-19T09:00:00","end":"2024-04-21T15:00:00Z","end_local":"2024-04-21T18:00:00","updated":"2024-06-04T23:32:00Z"},{"title":"Filthy Hangout","description":"Sourced from predicthq.com","category":"festivals","start":"2024-04-18T21:00:00Z","geo":{"geometry":{"coordinates":[24.14023,56.94867],"type":"Point"},"placekey":"@52z-vcr-c89","address":{"country_code":"LV","formatted_address":"Ādmiņu iela 4, Latgales priekšpilsēta, Rīga, LV-1009, Latvia","postcode":"1009","locality":"Rīga"}},"labels":["festival","music"],"duration":259199,"start_local":"2024-04-19T00:00:00","end":"2024-04-21T20:59:59Z","end_local":"2024-04-21T23:59:59","updated":"2024-06-05T07:05:12Z"},{"title":"LSBL - Group A - Final - RSU vs TTT Rīga","description":"Sourced from predicthq.com","category":"sports","start":"2024-04-18T17:00:00Z","geo":{"geometry":{"coordinates":[24.1247179,56.9672274],"type":"Point"},"placekey":"@52z-r5n-mtv","address":{"country_code":"LV","formatted_address":"6B Grostonas iela, Rīga, LV-1013, Latvia","postcode":"LV-1013","locality":"Rīga"}},"labels":["basketball","sport"],"duration":0,"start_local":"2024-04-18T20:00:00","end":"2024-04-18T17:00:00Z","end_local":"2024-04-18T20:00:00","updated":"2024-06-12T09:43:23Z"},{"title":"LBL - Pre Play-offs - Valmiera Glass Via vs Rīgas Zeļļi","description":"Sourced from predicthq.com","category":"sports","start":"2024-04-18T16:00:00Z","geo":{"geometry":{"coordinates":[25.388086,57.5282073],"type":"Point"},"placekey":"@533-7s5-rp9","address":{"country_code":"LV","formatted_address":"Valmiera, LV-4201, Latvia","postcode":"LV-4201","locality":"Valmiera"}},"labels":["basketball","sport"],"duration":0,"start_local":"2024-04-18T19:00:00","end":"2024-04-18T16:00:00Z","end_local":"2024-04-18T19:00:00","updated":"2024-06-12T08:48:37Z"},{"title":"Riga Small Talks #12","description":"Sourced from predicthq.com - Everyone has an interesting experience. Let's share with it.","category":"conferences","start":"2024-04-18T15:30:00Z","geo":{"geometry":{"coordinates":[24.1301002,56.9651069],"type":"Point"},"placekey":"@52z-r5n-kcq","address":{"country_code":"LV","formatted_address":"Šarlotes iela, Rīga, 1001, Latvia","locality":"Rīga","postcode":"1001"}},"labels":["business","conference"],"duration":12600,"start_local":"2024-04-18T18:30:00","end":"2024-04-18T19:00:00Z","end_local":"2024-04-18T22:00:00","updated":"2024-06-05T00:38:47Z"},{"title":"Expo Latvia Dental","description":"Sourced from predicthq.com","category":"expos","start":"2024-04-18T06:00:00Z","geo":{"geometry":{"coordinates":[24.152498,56.931413],"type":"Point"},"placekey":"@52z-vcg-nbk","address":{"country_code":"LV","formatted_address":"Krasta iela 60\nLatgales priekšpilsēta\nRīga\nLV-1003\nLatvia","locality":"Valdlauči"}},"labels":["expo"],"duration":118800,"start_local":"2024-04-18T09:00:00","end":"2024-04-19T15:00:00Z","end_local":"2024-04-19T18:00:00","updated":"2024-06-12T10:41:00Z"},{"title":"Nacionālajā Basketbola Līgā - Final - Salaspils vs Jelgava","description":"Sourced from predicthq.com","category":"sports","start":"2024-04-17T16:30:00Z","geo":{"geometry":{"coordinates":[24.3344804,56.8587225],"type":"Point"},"placekey":"@52z-tv5-x89","address":{"country_code":"LV","formatted_address":"1 Smilšu iela, Salaspils, LV-2121, Latvia","postcode":"LV-2121","locality":"Salaspils","region":"Salaspils pilsēta"}},"labels":["basketball","sport"],"duration":0,"start_local":"2024-04-17T19:30:00","end":"2024-04-17T16:30:00Z","end_local":"2024-04-17T19:30:00","updated":"2024-06-12T04:40:45Z"},{"title":"LSBL - Group A - 3rd Place Final - Liepāja LSSS vs Daugavpils","description":"Sourced from predicthq.com","category":"sports","start":"2024-04-17T15:30:00Z","geo":{"geometry":{"coordinates":[21.0179157,56.5194764],"type":"Point"},"placekey":"@537-m3g-389","address":{"country_code":"LV","formatted_address":"39 Brīvības iela, Liepāja, LV-3401, Latvia","postcode":"LV-3401","locality":"Liepāja"}},"labels":["basketball","sport"],"duration":0,"start_local":"2024-04-17T18:30:00","end":"2024-04-17T15:30:00Z","end_local":"2024-04-17T18:30:00","updated":"2024-06-11T23:10:41Z"},{"title":"Riga CoNfEx -Mastery For Your Business Success","description":"Sourced from predicthq.com - Get ready to level up your business game at Riga CoNfEx - Mastery For Your Business Success, where experts share their secrets to help you.","category":"expos","start":"2024-04-17T12:00:00Z","geo":{"geometry":{"coordinates":[24.1076,56.946945],"type":"Point"},"placekey":"@52z-vcp-snq","address":{"country_code":"LV","formatted_address":"Grēcinieku iela, Rīga, 1050, Latvia","locality":"Rīga","postcode":"1050"}},"labels":["business","expo"],"duration":16200,"start_local":"2024-04-17T15:00:00","end":"2024-04-17T16:30:00Z","end_local":"2024-04-17T19:30:00","updated":"2024-06-05T21:41:51Z"},{"title":"Nordic Summit","description":"Sourced from predicthq.com","category":"conferences","start":"2024-04-17T06:00:00Z","geo":{"geometry":{"coordinates":[24.105169,56.947201],"type":"Point"},"placekey":"@52z-vcp-rx5","address":{"country_code":"LV","formatted_address":"Kaļķu iela 1, Centra rajons, Rīga, LV-1050, Latvia","postcode":"1050","locality":"Rīga"}},"labels":["conference"],"duration":118800,"start_local":"2024-04-17T09:00:00","end":"2024-04-18T15:00:00Z","end_local":"2024-04-18T18:00:00","updated":"2024-06-05T20:20:10Z"},{"title":"TechChill Riga","description":"Sourced from predicthq.com","category":"conferences","start":"2024-04-17T06:00:00Z","geo":{"geometry":{"coordinates":[24.1078,56.96305],"type":"Point"},"placekey":"@52z-r5j-xqz","address":{"country_code":"LV","formatted_address":"Hanzas iela 16A, Vidzemes priekšpilsēta, Rīga, LV-1045, Latvia","postcode":"1045","locality":"Rīga"}},"labels":["conference"],"duration":205200,"start_local":"2024-04-17T09:00:00","end":"2024-04-19T15:00:00Z","end_local":"2024-04-19T18:00:00","updated":"2024-06-05T04:03:20Z"},{"title":"LBL - Pre Play-offs - Ogre vs Liepāja","description":"Sourced from predicthq.com","category":"sports","start":"2024-04-16T16:00:00Z","geo":{"geometry":{"coordinates":[24.610004459349287,56.824692814434286],"type":"Point"},"placekey":"@532-qkp-vj9","address":{"country_code":"LV","formatted_address":"Gunāra Astras iela 1, Ogre, Ogres pilsēta, Ogres novads, LV-5001, Latvia","postcode":"5001","locality":"Ogre","region":"Ogres novads"}},"labels":["basketball","sport"],"duration":0,"start_local":"2024-04-16T19:00:00","end":"2024-04-16T16:00:00Z","end_local":"2024-04-16T19:00:00","updated":"2024-06-12T12:05:54Z"},{"title":"Nacionālajā Basketbola Līgā - 3rd Place Final - RSU vs Gulbenes Buki","description":"Sourced from predicthq.com","category":"sports","start":"2024-04-15T16:30:00Z","geo":{"geometry":{"coordinates":[24.1201354,56.9619126],"type":"Point"},"placekey":"@52z-r5k-59f","address":{"country_code":"LV","formatted_address":"65 Krišjāņa Valdemāra iela, Rīga, LV-1010, Latvia","postcode":"LV-1010","locality":"Rīga"}},"labels":["basketball","sport"],"duration":0,"start_local":"2024-04-15T19:30:00","end":"2024-04-15T16:30:00Z","end_local":"2024-04-15T19:30:00","updated":"2024-06-12T08:39:31Z"},{"title":"LBL - Pre Play-offs - Rīgas Zeļļi vs Valmiera Glass Via","description":"Sourced from predicthq.com","category":"sports","start":"2024-04-15T16:30:00Z","geo":{"geometry":{"coordinates":[24.143141,56.963538],"type":"Point"},"placekey":"@52z-r5m-jd9","address":{"country_code":"LV","formatted_address":"Krišjāņa Barona iela 107, Latgales priekšpilsēta, Rīga, LV-1012, Latvia","postcode":"1012","locality":"Rīga"}},"labels":["basketball","sport"],"duration":0,"start_local":"2024-04-15T19:30:00","end":"2024-04-15T16:30:00Z","end_local":"2024-04-15T19:30:00","updated":"2024-06-11T23:30:35Z"},{"title":"Zucchero","description":"Sourced from predicthq.com","category":"concerts","start":"2024-04-15T15:00:00Z","geo":{"geometry":{"coordinates":[24.1256686,56.9508745],"type":"Point"},"placekey":"@52z-vcp-p7q","address":{"country_code":"LV","formatted_address":"Palladium, SIA, 21 Marijas iela, Rīga, 1050, Latvia","postcode":"1050","locality":"Rīga"}},"labels":["concert","music"],"duration":0,"start_local":"2024-04-15T18:00:00","end":"2024-04-15T15:00:00Z","end_local":"2024-04-15T18:00:00","updated":"2024-06-27T01:30:16Z"},{"title":"Estonian-Latvian Basketball League - Semi-finals - VEF Rīga vs Prometey","description":"Sourced from predicthq.com","category":"sports","start":"2024-04-14T16:00:00Z","geo":{"geometry":{"coordinates":[24.1247179,56.9672274],"type":"Point"},"placekey":"@52z-r5n-mtv","address":{"country_code":"LV","formatted_address":"6B Grostonas iela, Rīga, LV-1013, Latvia","postcode":"LV-1013","locality":"Rīga"}},"labels":["basketball","sport"],"duration":0,"start_local":"2024-04-14T19:00:00","end":"2024-04-14T16:00:00Z","end_local":"2024-04-14T19:00:00","updated":"2024-06-12T07:35:48Z"},{"title":"Intars Busulis","description":"Sourced from predicthq.com","category":"concerts","start":"2024-04-14T15:00:00Z","geo":{"geometry":{"coordinates":[21.01065,56.51134],"type":"Point"},"placekey":"@537-kz9-575","address":{"country_code":"LV","formatted_address":"Radio iela 8, Liepāja, LV-3401, Latvia","postcode":"3401","locality":"Liepāja"}},"labels":["concert","music"],"duration":0,"start_local":"2024-04-14T18:00:00","end":"2024-04-14T15:00:00Z","end_local":"2024-04-14T18:00:00","updated":"2024-06-12T11:16:33Z"},{"title":"Selecta: KANINE (UK) @ H2O 6 kvartāls Riga","description":"Sourced from predicthq.com - Ticket link https://gateme.com/event/99490/","category":"performing-arts","start":"2024-04-13T20:00:00Z","geo":{"geometry":{"coordinates":[24.0731838,56.9532935],"type":"Point"},"placekey":"@52z-v7p-whq","address":{"country_code":"LV","formatted_address":"Daugavgrīvas iela, Rīga, 1007, Latvia","locality":"Rīga","postcode":"1007"}},"labels":["concert","music","performing-arts"],"duration":21600,"start_local":"2024-04-13T23:00:00","end":"2024-04-14T02:00:00Z","end_local":"2024-04-14T05:00:00","updated":"2024-06-05T02:04:57Z"},{"title":"Kanine and Sound In Noise","description":"Sourced from predicthq.com","category":"concerts","start":"2024-04-13T20:00:00Z","geo":{"geometry":{"coordinates":[24.07297,56.95327],"type":"Point"},"placekey":"@52z-v7p-whq","address":{"country_code":"LV","formatted_address":"Aisteres iela 2, Durbes iela 4, Kurzemes rajons, Rīga, LV-1048, Latvia","postcode":"1048","locality":"Rīga"}},"labels":["concert","music"],"duration":0,"start_local":"2024-04-13T23:00:00","end":"2024-04-13T20:00:00Z","end_local":"2024-04-13T23:00:00","updated":"2024-06-12T08:48:48Z"},{"title":"100. Debija and Mixeri","description":"Sourced from predicthq.com","category":"community","start":"2024-04-13T18:00:00Z","geo":{"geometry":{"coordinates":[21.00587,56.51006],"type":"Point"},"placekey":"@537-kz9-6rk","address":{"country_code":"LV","formatted_address":"Graudu iela 34, Liepāja, LV-3401, Latvia","postcode":"3401","locality":"Liepāja"}},"labels":["concert","music"],"duration":0,"start_local":"2024-04-13T21:00:00","end":"2024-04-13T18:00:00Z","end_local":"2024-04-13T21:00:00","updated":"2024-06-05T15:02:48Z"},{"title":"Comedy Show: DIRTY TALK with Bruno Mazzini (Peru) and Futurmamma (Latvia)","description":"Sourced from predicthq.com - Bruno & Mairita are trying to learn how to talk dirty. It’s not working...So they decided to practice on YOU, the audience","category":"performing-arts","start":"2024-04-13T17:00:00Z","geo":{"geometry":{"coordinates":[24.111753,56.9471399],"type":"Point"},"placekey":"@52z-vcn-rkz","address":{"country_code":"LV","formatted_address":"Audēju iela, Rīga, 1050, Latvia","locality":"Rīga","postcode":"1050"}},"labels":["concert","music","performing-arts"],"duration":7200,"start_local":"2024-04-13T20:00:00","end":"2024-04-13T19:00:00Z","end_local":"2024-04-13T22:00:00","updated":"2024-06-05T02:54:22Z"},{"title":"Daniel Herskedal","description":"Sourced from predicthq.com","category":"concerts","start":"2024-04-13T16:00:00Z","geo":{"geometry":{"coordinates":[24.13116,56.96484],"type":"Point"},"placekey":"@52z-r5n-kcq","address":{"country_code":"LV","formatted_address":"Aristida Briāna iela 9, Centra rajons, Rīga, LV-1001, Latvia","postcode":"1001","locality":"Rīga"}},"labels":["concert","music"],"duration":0,"start_local":"2024-04-13T19:00:00","end":"2024-04-13T16:00:00Z","end_local":"2024-04-13T19:00:00","updated":"2024-06-23T06:43:45Z"},{"title":"Ben Frost","description":"Sourced from predicthq.com","category":"concerts","start":"2024-04-13T16:00:00Z","geo":{"geometry":{"coordinates":[24.1078,56.96305],"type":"Point"},"placekey":"@52z-r5j-xqz","address":{"country_code":"LV","formatted_address":"Hanzas iela 16A, Vidzemes priekšpilsēta, Rīga, LV-1045, Latvia","postcode":"1045","locality":"Rīga"}},"labels":["concert","music"],"duration":0,"start_local":"2024-04-13T19:00:00","end":"2024-04-13T16:00:00Z","end_local":"2024-04-13T19:00:00","updated":"2024-06-12T06:07:10Z"},{"title":"Intars Busulis","description":"Sourced from predicthq.com","category":"concerts","start":"2024-04-13T16:00:00Z","geo":{"geometry":{"coordinates":[21.01065,56.51134],"type":"Point"},"placekey":"@537-kz9-575","address":{"country_code":"LV","formatted_address":"Radio iela 8, Liepāja, LV-3401, Latvia","postcode":"3401","locality":"Liepāja"}},"labels":["concert","music"],"duration":0,"start_local":"2024-04-13T19:00:00","end":"2024-04-13T16:00:00Z","end_local":"2024-04-13T19:00:00","updated":"2024-06-12T04:03:39Z"},{"title":"LBL - Pre Play-offs - Liepāja vs Ogre","description":"Sourced from predicthq.com","category":"sports","start":"2024-04-13T14:00:00Z","geo":{"geometry":{"coordinates":[21.0179157,56.5194764],"type":"Point"},"placekey":"@537-m3g-389","address":{"country_code":"LV","formatted_address":"39 Brīvības iela, Liepāja, LV-3401, Latvia","postcode":"LV-3401","locality":"Liepāja"}},"labels":["basketball","sport"],"duration":0,"start_local":"2024-04-13T17:00:00","end":"2024-04-13T14:00:00Z","end_local":"2024-04-13T17:00:00","updated":"2024-06-12T05:01:38Z"},{"title":"LSBL - Group A - Semi-finals - Liepāja LSSS vs RSU","description":"Sourced from predicthq.com","category":"sports","start":"2024-04-13T11:00:00Z","geo":{"geometry":{"coordinates":[21.0179157,56.5194764],"type":"Point"},"placekey":"@537-m3g-389","address":{"country_code":"LV","formatted_address":"39 Brīvības iela, Liepāja, LV-3401, Latvia","postcode":"LV-3401","locality":"Liepāja"}},"labels":["basketball","sport"],"duration":0,"start_local":"2024-04-13T14:00:00","end":"2024-04-13T11:00:00Z","end_local":"2024-04-13T14:00:00","updated":"2024-06-12T15:48:54Z"},{"title":"Pitchless Foundation","description":"Sourced from predicthq.com","category":"community","start":"2024-04-12T17:00:00Z","geo":{"geometry":{"coordinates":[24.1141988,56.9467317],"type":"Point"},"placekey":"@52z-vcn-r49","address":{"country_code":"LV","formatted_address":"32 Vaļņu iela, Rīga, LV-1050, Latvia","postcode":"LV-1050","locality":"Rīga"}},"labels":["concert","music"],"duration":0,"start_local":"2024-04-12T20:00:00","end":"2024-04-12T17:00:00Z","end_local":"2024-04-12T20:00:00","updated":"2024-05-28T20:50:58Z"},{"title":"Nacionālajā Basketbola Līgā - Final - Jelgava vs Salaspils","description":"Sourced from predicthq.com","category":"sports","start":"2024-04-12T17:00:00Z","geo":{"geometry":{"coordinates":[23.721636,56.643774],"type":"Point"},"placekey":"@532-gvj-tgk","address":{"country_code":"LV","formatted_address":"Mātera iela 44A, Jelgava, LV-3001, Latvia","postcode":"3001","locality":"Jelgava"}},"labels":["basketball","sport"],"duration":0,"start_local":"2024-04-12T20:00:00","end":"2024-04-12T17:00:00Z","end_local":"2024-04-12T20:00:00","updated":"2024-06-12T06:07:58Z"},{"title":"Olas","description":"Sourced from predicthq.com","category":"concerts","start":"2024-04-12T17:00:00Z","geo":{"geometry":{"coordinates":[24.1256686,56.9508745],"type":"Point"},"placekey":"@52z-vcp-p7q","address":{"country_code":"LV","formatted_address":"Palladium, SIA, 21 Marijas iela, Rīga, 1050, Latvia","postcode":"1050","locality":"Rīga"}},"labels":["concert","music"],"duration":0,"start_local":"2024-04-12T20:00:00","end":"2024-04-12T17:00:00Z","end_local":"2024-04-12T20:00:00","updated":"2024-06-12T15:14:56Z"},{"title":"Estonian-Latvian Basketball League - Semi-finals - Ventspils vs Kalev","description":"Sourced from predicthq.com","category":"sports","start":"2024-04-12T16:00:00Z","geo":{"geometry":{"coordinates":[21.5713809,57.3869343],"type":"Point"},"placekey":"@533-mz4-649","address":{"country_code":"LV","formatted_address":"7/9 Sporta iela, Ventspils, LV-3601, Latvia","postcode":"LV-3601","locality":"Ventspils"}},"labels":["basketball","sport"],"duration":0,"start_local":"2024-04-12T19:00:00","end":"2024-04-12T16:00:00Z","end_local":"2024-04-12T19:00:00","updated":"2024-06-12T00:04:12Z"},{"title":"Godspeed You! Black Emperor","description":"Sourced from predicthq.com","category":"concerts","start":"2024-04-12T16:00:00Z","geo":{"geometry":{"coordinates":[24.1078,56.96305],"type":"Point"},"placekey":"@52z-r5j-xqz","address":{"country_code":"LV","formatted_address":"Hanzas iela 16A, Vidzemes priekšpilsēta, Rīga, LV-1045, Latvia","postcode":"1045","locality":"Rīga"}},"labels":["concert","music"],"duration":0,"start_local":"2024-04-12T19:00:00","end":"2024-04-12T16:00:00Z","end_local":"2024-04-12T19:00:00","updated":"2024-06-12T10:37:22Z"},{"title":"Victoria De Angelis","description":"Sourced from predicthq.com","category":"concerts","start":"2024-04-12T16:00:00Z","geo":{"geometry":{"coordinates":[24.09547,56.96222],"type":"Point"},"placekey":"@52z-r5k-f75","address":{"country_code":"LV","formatted_address":"Andrejostas iela 5k-3, Ziemeļu rajons, Rīga, LV-1050, Latvia","postcode":"1050","locality":"Rīga"}},"labels":["concert","music"],"duration":0,"start_local":"2024-04-12T19:00:00","end":"2024-04-12T16:00:00Z","end_local":"2024-04-12T19:00:00","updated":"2024-06-15T00:18:04Z"},{"title":"LBL - Pre Play-offs - Valmiera Glass Via vs Rīgas Zeļļi","description":"Sourced from predicthq.com","category":"sports","start":"2024-04-12T16:00:00Z","geo":{"geometry":{"coordinates":[25.388086,57.5282073],"type":"Point"},"placekey":"@533-7s5-rp9","address":{"country_code":"LV","formatted_address":"Valmiera, LV-4201, Latvia","postcode":"LV-4201","locality":"Valmiera"}},"labels":["basketball","sport"],"duration":0,"start_local":"2024-04-12T19:00:00","end":"2024-04-12T16:00:00Z","end_local":"2024-04-12T19:00:00","updated":"2024-06-12T10:32:45Z"},{"title":"SDN Next Gen Conference 2024 Event at SDSI","description":"Sourced from predicthq.com - Connect with the global service design community at the SDN Next Gen Conference. Explore trends, collaborate, and shape the future.","category":"conferences","start":"2024-04-12T12:00:00Z","geo":{"geometry":{"coordinates":[21.9627797,56.96893919999999],"type":"Point"},"placekey":"@533-j27-4gk","address":{"country_code":"LV","formatted_address":"Kalpaka iela, Kuldīga, 3301, Latvia","locality":"Kuldīga","postcode":"3301","region":"Kuldīgas novads"}},"labels":["conference","science","technology"],"duration":14400,"start_local":"2024-04-12T15:00:00","end":"2024-04-12T16:00:00Z","end_local":"2024-04-12T19:00:00","updated":"2024-06-05T05:39:28Z"},{"title":"International Architectural Design Conference","description":"Sourced from predicthq.com","category":"conferences","start":"2024-04-12T06:00:00Z","geo":{"geometry":{"coordinates":[24.07297,56.95327],"type":"Point"},"placekey":"@52z-v7p-whq","address":{"country_code":"LV","formatted_address":"Aisteres iela 2, Durbes iela 4, Kurzemes rajons, Rīga, LV-1048, Latvia","postcode":"1048","locality":"Rīga"}},"labels":["conference"],"duration":118800,"start_local":"2024-04-12T09:00:00","end":"2024-04-13T15:00:00Z","end_local":"2024-04-13T18:00:00","updated":"2024-06-05T19:01:38Z"},{"title":"CHILDREN-S WORLD","description":"Sourced from predicthq.com","category":"expos","start":"2024-04-12T06:00:00Z","geo":{"geometry":{"coordinates":[24.079628,56.954874],"type":"Point"},"placekey":"@52z-v7p-dd9","address":{"country_code":"LV","formatted_address":"Ķīpsalas iela, Rīga, 1048, Latvia","locality":"Rīga","postcode":"1048"}},"labels":["expo"],"duration":205200,"start_local":"2024-04-12T09:00:00","end":"2024-04-14T15:00:00Z","end_local":"2024-04-14T18:00:00","updated":"2024-05-27T09:27:13Z"},{"title":"Garden and Lifestyle","description":"Sourced from predicthq.com - Garden and Lifestyle is an immersive expo event designed to showcase the latest trends and innovations in gardening, horticulture, and outdoor living. From stunning floral displays to cutting-edge gardening tools, this event offers a one-stop destination for enthusiasts and professionals alike to explore and be inspired by the world of gardens and lifestyle.","category":"expos","start":"2024-04-12T06:00:00Z","geo":{"geometry":{"coordinates":[24.079628,56.954874],"type":"Point"},"placekey":"@52z-v7p-dd9","address":{"country_code":"LV","formatted_address":"Ķīpsalas iela, Rīga, 1048, Latvia","locality":"Rīga","postcode":"1048"}},"labels":["expo"],"duration":205200,"start_local":"2024-04-12T09:00:00","end":"2024-04-14T15:00:00Z","end_local":"2024-04-14T18:00:00","updated":"2024-06-05T10:17:52Z"},{"title":"LSBL - Group A - Semi-finals - Daugavpils vs TTT Rīga","description":"Sourced from predicthq.com","category":"sports","start":"2024-04-11T15:30:00Z","geo":{"geometry":{"coordinates":[26.554813920410542,55.8871835547227],"type":"Point"},"placekey":"@535-rmy-4jv","address":{"country_code":"LV","formatted_address":"Smilšu iela 92, Daugavpils, LV-5410, Latvia","postcode":"5410","locality":"Daugavpils"}},"labels":["basketball","sport"],"duration":0,"start_local":"2024-04-11T18:30:00","end":"2024-04-11T15:30:00Z","end_local":"2024-04-11T18:30:00","updated":"2024-06-12T09:30:01Z"},{"title":"LBL - Pre Play-offs - Ogre vs Liepāja","description":"Sourced from predicthq.com","category":"sports","start":"2024-04-10T16:00:00Z","geo":{"geometry":{"coordinates":[24.610004459349287,56.824692814434286],"type":"Point"},"placekey":"@532-qkp-vj9","address":{"country_code":"LV","formatted_address":"Gunāra Astras iela 1, Ogre, Ogres pilsēta, Ogres novads, LV-5001, Latvia","postcode":"5001","locality":"Ogre","region":"Ogres novads"}},"labels":["basketball","sport"],"duration":0,"start_local":"2024-04-10T19:00:00","end":"2024-04-10T16:00:00Z","end_local":"2024-04-10T19:00:00","updated":"2024-06-12T13:02:30Z"},{"title":"Estonian-Latvian Basketball League - Semi-finals - Prometey vs VEF Rīga","description":"Sourced from predicthq.com","category":"sports","start":"2024-04-10T16:00:00Z","geo":{"geometry":{"coordinates":[24.1247179,56.9672274],"type":"Point"},"placekey":"@52z-r5n-mtv","address":{"country_code":"LV","formatted_address":"6B Grostonas iela, Rīga, LV-1013, Latvia","postcode":"LV-1013","locality":"Rīga"}},"labels":["basketball","sport"],"duration":0,"start_local":"2024-04-10T19:00:00","end":"2024-04-10T16:00:00Z","end_local":"2024-04-10T19:00:00","updated":"2024-06-12T14:23:20Z"},{"title":"Sinks and Fotbal","description":"Sourced from predicthq.com","category":"concerts","start":"2024-04-09T17:00:00Z","geo":{"geometry":{"coordinates":[24.1141988,56.9467317],"type":"Point"},"placekey":"@52z-vcn-r49","address":{"country_code":"LV","formatted_address":"32 Vaļņu iela, Rīga, LV-1050, Latvia","postcode":"LV-1050","locality":"Rīga"}},"labels":["concert","music"],"duration":0,"start_local":"2024-04-09T20:00:00","end":"2024-04-09T17:00:00Z","end_local":"2024-04-09T20:00:00","updated":"2024-06-12T04:49:33Z"},{"title":"LBL - Pre Play-offs - Rīgas Zeļļi vs Valmiera Glass Via","description":"Sourced from predicthq.com","category":"sports","start":"2024-04-08T16:30:00Z","geo":{"geometry":{"coordinates":[24.143141,56.963538],"type":"Point"},"placekey":"@52z-r5m-jd9","address":{"country_code":"LV","formatted_address":"Krišjāņa Barona iela 107, Latgales priekšpilsēta, Rīga, LV-1012, Latvia","postcode":"1012","locality":"Rīga"}},"labels":["basketball","sport"],"duration":0,"start_local":"2024-04-08T19:30:00","end":"2024-04-08T16:30:00Z","end_local":"2024-04-08T19:30:00","updated":"2024-06-12T11:09:31Z"},{"title":"LSBL - Group A - Semi-finals - RSU vs Liepāja LSSS","description":"Sourced from predicthq.com","category":"sports","start":"2024-04-07T16:00:00Z","geo":{"geometry":{"coordinates":[24.1247179,56.9672274],"type":"Point"},"placekey":"@52z-r5n-mtv","address":{"country_code":"LV","formatted_address":"6B Grostonas iela, Rīga, LV-1013, Latvia","postcode":"LV-1013","locality":"Rīga"}},"labels":["basketball","sport"],"duration":0,"start_local":"2024-04-07T19:00:00","end":"2024-04-07T16:00:00Z","end_local":"2024-04-07T19:00:00","updated":"2024-06-12T06:11:57Z"},{"title":"From Los Angeles, CA - JOEL BRYANT - Interactive standup comedy in English","description":"Sourced from predicthq.com - BACK IN RIGA! Standup Comedy in English - From Los Angeles, CA - JOEL BRAYNT with local favorite Joshua Perkins","category":"performing-arts","start":"2024-04-07T16:00:00Z","geo":{"geometry":{"coordinates":[24.111753,56.9471399],"type":"Point"},"placekey":"@52z-vcn-rkz","address":{"country_code":"LV","formatted_address":"Audēju iela, Rīga, 1050, Latvia","locality":"Rīga","postcode":"1050"}},"labels":["concert","music","performing-arts"],"duration":0,"start_local":"2024-04-07T19:00:00","end":"2024-04-07T16:00:00Z","end_local":"2024-04-07T19:00:00","updated":"2024-06-12T05:43:45Z"},{"title":"Outdoor Riga","description":"Sourced from predicthq.com - Promotion of outdoor adventure and recreational activities. Includes the International Exhibition of Boats and Yachts BALTIC BOAT SHOW, the International Fair for Hunting and Fishing Gear and Accessories HUNTING & FISHING and the Motorcycle and Bicycle Lifestyle Trade Show MOTO & VELO.","category":"expos","start":"2024-04-04T21:00:00Z","geo":{"geometry":{"coordinates":[24.0792663,56.955588],"type":"Point"},"placekey":"@52z-v7p-dqf","address":{"country_code":"LV","formatted_address":"8 Ķīpsalas iela, Rīga, LV-1048, Latvia","postcode":"LV-1048","locality":"Rīga"}},"labels":["expo","outdoor","product","sport"],"duration":259199,"start_local":"2024-04-05T00:00:00","end":"2024-04-07T20:59:59Z","end_local":"2024-04-07T23:59:59","updated":"2024-06-05T00:39:23Z"}]