[{"title":"International Conference on Friendly Mobility and Industry","description":"Sourced from predicthq.com","category":"conferences","start":"2024-10-03T08:00:00Z","geo":{"geometry":{"coordinates":[-7.589843,33.57311],"type":"Point"},"placekey":"@7fy-dbc-6x5","address":{"country_code":"MA","formatted_address":"20250 Casablanca, Morocco","locality":"Casablanca","postcode":"20250","region":"Casablanca-Settat"}},"labels":["conference"],"duration":205200,"start_local":"2024-10-03T09:00:00","end":"2024-10-05T17:00:00Z","end_local":"2024-10-05T18:00:00","updated":"2024-05-27T11:49:26Z"},{"title":"One-On-One Equity Conference","description":"Sourced from predicthq.com","category":"conferences","start":"2024-10-03T08:00:00Z","geo":{"geometry":{"coordinates":[-5.786409,35.773001],"type":"Point"},"placekey":"@7dj-4hb-kvf","address":{"country_code":"MA","formatted_address":"Avenue d'Espagne, Tanger, Morocco","locality":"Tanger","region":"Tanger-Tétouan-Al Hoceïma"}},"labels":["conference"],"duration":118800,"start_local":"2024-10-03T09:00:00","end":"2024-10-04T17:00:00Z","end_local":"2024-10-04T18:00:00","updated":"2024-05-28T04:53:43Z"},{"title":"Africa Pay & ID Expo","description":"Sourced from predicthq.com","category":"expos","start":"2024-10-02T08:00:00Z","geo":{"geometry":{"coordinates":[-7.9822639,31.5806507],"type":"Point"},"placekey":"@7fk-hm8-r6k","address":{"country_code":"MA","formatted_address":"Route d'Ourika, Marrakech, Morocco","locality":"Marrakech","region":"Marrakech"}},"labels":["expo"],"duration":291600,"start_local":"2024-10-02T09:00:00","end":"2024-10-05T17:00:00Z","end_local":"2024-10-05T18:00:00","updated":"2024-05-28T21:43:55Z"},{"title":"World Safety and Operations Conference","description":"Sourced from predicthq.com","category":"conferences","start":"2024-10-01T08:00:00Z","geo":{"geometry":{"coordinates":[-8.013657,31.623501],"type":"Point"},"placekey":"@7fk-hzz-y7q","address":{"country_code":"MA","formatted_address":"40000 Marrakesh, Morocco","locality":"Marrakesh","postcode":"40000","region":"Marrakesh-Safi"}},"labels":["conference"],"duration":205200,"start_local":"2024-10-01T09:00:00","end":"2024-10-03T17:00:00Z","end_local":"2024-10-03T18:00:00","updated":"2024-05-28T01:19:26Z"},{"title":"Sarab Festival","description":"Sourced from predicthq.com","category":"festivals","start":"2024-09-26T23:00:00Z","geo":{"geometry":{"coordinates":[-7.9894546,31.6260705],"type":"Point"},"placekey":"@7fk-j2m-f9f","address":{"country_code":"MA","formatted_address":"Marrakesh 40000, Morocco","postcode":"40000","locality":"Marrakesh","region":"Marrakesh-Safi"}},"labels":["festival","music"],"duration":172799,"start_local":"2024-09-27T00:00:00","end":"2024-09-28T22:59:59Z","end_local":"2024-09-28T23:59:59","updated":"2024-06-11T06:47:14Z"},{"title":"Morocco SIEMA FOOD EXPO","description":"Sourced from predicthq.com - Food processing and packaging technology and equipment industry","category":"expos","start":"2024-09-24T23:00:00Z","geo":{"geometry":{"coordinates":[-7.6291446,33.6044593],"type":"Point"},"placekey":"@7fy-dd5-zmk","address":{"country_code":"MA","formatted_address":"Rue Doukalla, 20030 Casablanca, Morocco","locality":"Casablanca","postcode":"20030","region":"Casablanca-Settat"}},"labels":["expo","packaging","product","technology"],"duration":259199,"start_local":"2024-09-25T00:00:00","end":"2024-09-27T22:59:59Z","end_local":"2024-09-27T23:59:59","updated":"2024-06-25T20:20:42Z"},{"title":"IMBIZO7","description":"Sourced from predicthq.com","category":"conferences","start":"2024-09-23T08:00:00Z","geo":{"geometry":{"coordinates":[-6.8666858,33.9764046],"type":"Point"},"placekey":"@7fx-r6k-f9f","address":{"country_code":"MA","formatted_address":"Rabat, Morocco","locality":"Rabat","region":"Rabat-Salé-Kénitra"}},"labels":["conference"],"duration":291600,"start_local":"2024-09-23T09:00:00","end":"2024-09-26T17:00:00Z","end_local":"2024-09-26T18:00:00","updated":"2024-06-04T04:13:50Z"},{"title":"International Conference on Behcet's Disease","description":"Sourced from predicthq.com","category":"conferences","start":"2024-09-17T23:00:00Z","geo":{"geometry":{"coordinates":[-8.009098,31.617707],"type":"Point"},"placekey":"@7fk-j2q-kmk","address":{"country_code":"MA","formatted_address":"40000 Marrakech, Morocco","locality":"Marrakech","postcode":"40000","region":"Marrakech-Safi"}},"labels":["conference"],"duration":431999,"start_local":"2024-09-18T00:00:00","end":"2024-09-22T22:59:59Z","end_local":"2024-09-22T23:59:59","updated":"2024-06-02T11:40:13Z"},{"title":"EMEC Expo","description":"Sourced from predicthq.com","category":"expos","start":"2024-09-10T23:00:00Z","geo":{"geometry":{"coordinates":[-7.62918,33.604377],"type":"Point"},"placekey":"@7fy-dd5-zmk","address":{"country_code":"MA","formatted_address":"J93C+Q8Q, Rue Doukalla, Casablanca 20030, Morocco","postcode":"20030","locality":"Casablanca","region":"Casablanca-Settat"}},"labels":["expo"],"duration":259199,"start_local":"2024-09-11T00:00:00","end":"2024-09-13T22:59:59Z","end_local":"2024-09-13T23:59:59","updated":"2024-06-03T19:44:22Z"},{"title":"Séjour Yoga à Agadir au Maroc du 10 au 15 septembre 2024.","description":"Sourced from predicthq.com","category":"community","start":"2024-09-10T10:00:00Z","geo":{"geometry":{"coordinates":[-9.60394,30.42021],"type":"Point"},"placekey":"@7fk-6g6-fzz","address":{"country_code":"MA","formatted_address":"80000 Agadir, Morocco","locality":"Agadir","postcode":"80000","region":"Souss-Massa"}},"labels":["community","health"],"duration":453600,"start_local":"2024-09-10T11:00:00","end":"2024-09-15T16:00:00Z","end_local":"2024-09-15T17:00:00","updated":"2024-06-05T11:29:58Z"},{"title":"Oasis Festival at The Source","description":"Sourced from predicthq.com","category":"festivals","start":"2024-09-07T23:00:00Z","geo":{"geometry":{"coordinates":[-7.9596371438,31.5262953973],"type":"Point"},"placekey":"@7fk-hmx-tjv","address":{"country_code":"MA","formatted_address":"Route de l’Ourika, km 10, Marrakech, Morocco","locality":"Marrakech"}},"labels":["festival"],"duration":86399,"start_local":"2024-09-08T00:00:00","end":"2024-09-08T22:59:59Z","end_local":"2024-09-08T23:59:59","updated":"2024-06-26T14:06:24Z"},{"title":"Oasis Festival at The Source","description":"Sourced from predicthq.com","category":"festivals","start":"2024-09-06T23:00:00Z","geo":{"geometry":{"coordinates":[-7.9596371438,31.5262953973],"type":"Point"},"placekey":"@7fk-hmx-tjv","address":{"country_code":"MA","formatted_address":"Route de l’Ourika, km 10, Marrakech, Morocco","locality":"Marrakech"}},"labels":["festival"],"duration":86399,"start_local":"2024-09-07T00:00:00","end":"2024-09-07T22:59:59Z","end_local":"2024-09-07T23:59:59","updated":"2024-06-26T19:55:15Z"},{"title":"Oasis Festival","description":"Sourced from predicthq.com - Oasis Festival brings a truly unique cultural experience to the ancient city of Marrakech, showcasing the finest musical talent.","category":"festivals","start":"2024-09-05T23:00:00Z","geo":{"geometry":{"coordinates":[-7.9848361,31.5895345],"type":"Point"},"placekey":"@7fk-j2h-hyv","address":{"country_code":"MA","formatted_address":"Route de l'Ourika, Marrakech, Morocco","locality":"Marrakech"}},"labels":["festival","music"],"duration":259199,"start_local":"2024-09-06T00:00:00","end":"2024-09-08T22:59:59Z","end_local":"2024-09-08T23:59:59","updated":"2024-07-05T23:11:38Z"},{"title":"Oasis Festival at The Source","description":"Sourced from predicthq.com","category":"festivals","start":"2024-09-05T23:00:00Z","geo":{"geometry":{"coordinates":[-7.9596371438,31.5262953973],"type":"Point"},"placekey":"@7fk-hmx-tjv","address":{"country_code":"MA","formatted_address":"Route de l’Ourika, km 10, Marrakech, Morocco","locality":"Marrakech"}},"labels":["festival"],"duration":86399,"start_local":"2024-09-06T00:00:00","end":"2024-09-06T22:59:59Z","end_local":"2024-09-06T23:59:59","updated":"2024-06-26T10:55:34Z"},{"title":"Glissa m3a Chadi & Amine","description":"Sourced from predicthq.com - Glissa m3a Chadi & Amine","category":"concerts","start":"2024-09-03T21:00:00Z","geo":{"geometry":{"coordinates":[-6.302078,34.302131],"type":"Point"},"placekey":"@7fx-ytw-mx5","address":{"country_code":"MA","formatted_address":"Sidi Yahya El Gharb, Rabat-Salé-Kénitra, Morocco","locality":"Sidi Yahya El Gharb","region":"Rabat-Salé-Kénitra"}},"labels":["concert","music"],"duration":5400,"start_local":"2024-09-03T22:00:00","end":"2024-09-03T22:30:00Z","end_local":"2024-09-03T23:30:00","updated":"2024-06-04T02:53:11Z"},{"title":"International Conference of Density Functional Theory and its applications","description":"Sourced from predicthq.com","category":"conferences","start":"2024-08-25T08:00:00Z","geo":{"geometry":{"coordinates":[-6.58754,34.24738],"type":"Point"},"placekey":"@7fx-pfs-ckf","address":{"country_code":"MA","formatted_address":"Kénitra, Rabat-Salé-Kénitra, Morocco","locality":"Kénitra","region":"Rabat-Salé-Kénitra"}},"labels":["conference"],"duration":464400,"start_local":"2024-08-25T09:00:00","end":"2024-08-30T17:00:00Z","end_local":"2024-08-30T18:00:00","updated":"2024-06-02T21:25:07Z"},{"title":"Dance Morocco 2 weeks incl accommodation","description":"Sourced from predicthq.com - Venez vous déhancher au rythme envoûtant de Dance Morocco, une soirée inoubliable pour découvrir la magie de la danse marocaine en personne!","category":"performing-arts","start":"2024-08-07T08:00:00Z","geo":{"geometry":{"coordinates":[-5.8406587,30.34589979999999],"type":"Point"},"placekey":"@7fn-bdp-hyv","address":{"country_code":"MA","formatted_address":"Zagora, Drâa-Tafilalet, Morocco","locality":"Zagora","region":"Drâa-Tafilalet"}},"labels":["concert","music","performing-arts"],"duration":10800,"start_local":"2024-08-07T09:00:00","end":"2024-08-07T11:00:00Z","end_local":"2024-08-07T12:00:00","updated":"2024-06-04T03:43:26Z"},{"title":"tunis","description":"Sourced from predicthq.com - Get ready for a vibrant celebration of Tunisian culture, music, and cuisine at our event \"Tunis\"!","category":"festivals","start":"2024-08-05T16:00:00Z","geo":{"geometry":{"coordinates":[-4.8506862,33.8208949],"type":"Point"},"placekey":"@7b8-ncj-q9f","address":{"country_code":"MA","formatted_address":"Sefrou, Fez-Meknès, Morocco","locality":"Sefrou","region":"Fez-Meknès"}},"labels":["community","festival"],"duration":9000,"start_local":"2024-08-05T17:00:00","end":"2024-08-05T18:30:00Z","end_local":"2024-08-05T19:30:00","updated":"2024-06-28T03:40:29Z"},{"title":"Duathlon TRIumphers 1st Edition","description":"Sourced from predicthq.com","category":"sports","start":"2024-08-04T09:00:00Z","geo":{"geometry":{"coordinates":[-5.93965,35.7130441],"type":"Point"},"placekey":"@7dj-9ym-q2k","address":{"country_code":"MA","formatted_address":"El Hajriyine, Tanger-Tétouan-Al Hoceïma, Morocco","locality":"El Hajriyine","region":"Tanger-Tétouan-Al Hoceïma"}},"labels":["bicycle","outdoor-sports","running","sport"],"duration":0,"start_local":"2024-08-04T10:00:00","end":"2024-08-04T09:00:00Z","end_local":"2024-08-04T10:00:00","updated":"2024-06-24T01:26:30Z"},{"title":"EwaMaru","description":"Sourced from predicthq.com","category":"concerts","start":"2024-07-30T18:00:00Z","geo":{"geometry":{"coordinates":[-6.8468854,33.9688614],"type":"Point"},"placekey":"@7fy-n7f-7bk","address":{"country_code":"MA","formatted_address":"2 Av. Mehdi Ben Barka, Rabat 10000, Morocco","postcode":"10000","locality":"Rabat","region":"Rabat-Salé-Kénitra"}},"labels":["concert","music"],"duration":0,"start_local":"2024-07-30T19:00:00","end":"2024-07-30T18:00:00Z","end_local":"2024-07-30T19:00:00","updated":"2024-06-11T01:06:13Z"},{"title":"Trail pour tous","description":"Sourced from predicthq.com - Viens participer à notre événement Trail pour tous, une journée de course en pleine nature ouverte à tous les niveaux de pratique !","category":"community","start":"2024-07-20T07:00:00Z","geo":{"geometry":{"coordinates":[-6.8635163,33.9709961],"type":"Point"},"placekey":"@7fy-n7c-cqz","address":{"country_code":"MA","formatted_address":"Rue Meziata, Rabat, Morocco","locality":"Rabat","region":"Rabat-Salé-Kénitra"}},"labels":["community","sport"],"duration":14400,"start_local":"2024-07-20T08:00:00","end":"2024-07-20T11:00:00Z","end_local":"2024-07-20T12:00:00","updated":"2024-06-13T00:57:45Z"},{"title":"African School of Physics Conference","description":"Sourced from predicthq.com","category":"conferences","start":"2024-07-17T08:00:00Z","geo":{"geometry":{"coordinates":[-8.019418,31.642951],"type":"Point"},"placekey":"@7fk-j46-zvf","address":{"country_code":"MA","formatted_address":"Bd Abdelkrim Khattabi\nMarrakesh 40000\nMorocco","locality":"Marrakesh"}},"labels":["conference"],"duration":378000,"start_local":"2024-07-17T09:00:00","end":"2024-07-21T17:00:00Z","end_local":"2024-07-21T18:00:00","updated":"2024-06-03T20:42:32Z"},{"title":"Exclusive concert at JEEM I Amina","description":"Sourced from predicthq.com - Join us for a night filled with soulful music at JEEM I Amina on July 12, 2024, starting at 7:30 PM!","category":"concerts","start":"2024-07-12T18:30:00Z","geo":{"geometry":{"coordinates":[-7.643435299999999,33.5945986],"type":"Point"},"placekey":"@7fy-byg-q4v","address":{"country_code":"MA","formatted_address":"Rue Essanaani, 20250 Dar-el-Beida, Morocco","locality":"Dar-el-Beida","postcode":"20250","region":"Casablanca-Settat"}},"labels":["concert","music"],"duration":5400,"start_local":"2024-07-12T19:30:00","end":"2024-07-12T20:00:00Z","end_local":"2024-07-12T21:00:00","updated":"2024-07-04T13:30:17Z"},{"title":"The African Fintech Summit","description":"Sourced from predicthq.com - Get ready for 2 days full of innovation and networking at The African Fintech Summit on July 11th, and 12th 2024! ⭐️  Casablanca Morocco","category":"expos","start":"2024-07-11T09:00:00Z","geo":{"geometry":{"coordinates":[-7.618803,33.596068],"type":"Point"},"placekey":"@7fy-dbm-2c5","address":{"country_code":"MA","formatted_address":"Pl. des Nations Unies, Casablanca 20000, Morocco","postcode":"20000","locality":"Casablanca","region":"Casablanca-Settat"}},"labels":["business","expo"],"duration":28800,"start_local":"2024-07-11T10:00:00","end":"2024-07-11T17:00:00Z","end_local":"2024-07-11T18:00:00","updated":"2024-06-20T02:05:54Z"},{"title":"IFAC Symposium on Control of Power and Energy Systems","description":"Sourced from predicthq.com","category":"conferences","start":"2024-07-10T08:00:00Z","geo":{"geometry":{"coordinates":[-6.877322,33.968861],"type":"Point"},"placekey":"@7fx-r6j-33q","address":{"country_code":"MA","formatted_address":"Avenue des Forces Armées Royales, 10100 Rabat, Morocco","locality":"Rabat","postcode":"10100","region":"Rabat-Salé-Kénitra"}},"labels":["conference"],"duration":205200,"start_local":"2024-07-10T09:00:00","end":"2024-07-12T17:00:00Z","end_local":"2024-07-12T18:00:00","updated":"2024-05-27T03:34:41Z"},{"title":"DEUTSCH FORUM CASABLANCA","description":"Sourced from predicthq.com - Rejoignez Deutsch Forum (DF) le 06 Juillet 2024 à Casablanca pour connecter avec unis & écoles en Allemagne. Inscrivez-vous !","category":"conferences","start":"2024-07-06T14:00:00Z","geo":{"geometry":{"coordinates":[-7.5969681,33.5913903],"type":"Point"},"placekey":"@7fy-dbm-hbk","address":{"country_code":"MA","formatted_address":"Rue d'Imouzzer Kandar, 20300 Casablanca, Morocco","locality":"Casablanca","postcode":"20300","region":"Casablanca-Settat"}},"labels":["community","conference"],"duration":14400,"start_local":"2024-07-06T15:00:00","end":"2024-07-06T18:00:00Z","end_local":"2024-07-06T19:00:00","updated":"2024-06-27T13:28:34Z"},{"title":"MEGA CERAMICA MOROCCO","description":"Sourced from predicthq.com - International Ceramic, Bathroom & Kitchen Exhibition","category":"expos","start":"2024-07-04T09:00:00Z","geo":{"geometry":{"coordinates":[-7.629407699999998,33.6044436],"type":"Point"},"placekey":"@7fy-dd5-xdv","address":{"country_code":"MA","formatted_address":"20250 Casablanca, Morocco","locality":"Casablanca","postcode":"20250","region":"Casablanca-Settat"}},"labels":["community","expo"],"duration":201600,"start_local":"2024-07-04T10:00:00","end":"2024-07-06T17:00:00Z","end_local":"2024-07-06T18:00:00","updated":"2024-06-04T04:48:50Z"},{"title":"MaDesign Expo","description":"Sourced from predicthq.com - Interior Design , Ceramic ,Furniture ,Lighting, Home Textile and Decoration","category":"expos","start":"2024-07-04T09:00:00Z","geo":{"geometry":{"coordinates":[-7.650063999999999,33.5440826],"type":"Point"},"placekey":"@7fy-7cm-qmk","address":{"country_code":"MA","formatted_address":"N1, Casablanca, Morocco","locality":"Casablanca","region":"Casablanca-Settat"}},"labels":["expo","performing-arts"],"duration":205200,"start_local":"2024-07-04T10:00:00","end":"2024-07-06T18:00:00Z","end_local":"2024-07-06T19:00:00","updated":"2024-06-04T06:33:21Z"},{"title":"4th International MaDesign Expo","description":"Sourced from predicthq.com","category":"expos","start":"2024-07-03T23:00:00Z","geo":{"geometry":{"coordinates":[-7.6291446,33.6044593],"type":"Point"},"placekey":"@7fy-dd5-zmk","address":{"country_code":"MA","formatted_address":"Rue Doukalla, 20030 Casablanca, Morocco","locality":"Casablanca","postcode":"20030","region":"Casablanca-Settat"}},"labels":["business","clothing","design","expo","furniture","household","industrial","print","product"],"duration":259199,"start_local":"2024-07-04T00:00:00","end":"2024-07-06T22:59:59Z","end_local":"2024-07-06T23:59:59","updated":"2024-06-03T23:36:50Z"},{"title":"buy verified skrill accounts","description":"Sourced from predicthq.com","category":"concerts","start":"2024-07-03T19:00:00Z","geo":{"geometry":{"coordinates":[-7.6163888,33.5930557],"type":"Point"},"placekey":"@7fy-dbk-xqz","address":{"country_code":"MA","formatted_address":"Rue Abdelkader Mouftakar, 20250 Casablanca, Morocco","locality":"Casablanca","postcode":"20250","region":"Casablanca-Settat"}},"labels":["concert","music"],"duration":0,"start_local":"2024-07-03T20:00:00","end":"2024-07-03T19:00:00Z","end_local":"2024-07-03T20:00:00","updated":"2024-06-30T09:51:50Z"},{"title":"Delta","description":"Sourced from predicthq.com - Event","category":"conferences","start":"2024-06-28T09:00:51Z","geo":{"geometry":{"coordinates":[-7.6120513,33.5963093],"type":"Point"},"placekey":"@7fy-dbk-yjv","address":{"country_code":"MA","formatted_address":"Avenue des FAR, 20000 Casablanca, Morocco","locality":"Casablanca","postcode":"20000","region":"Casablanca-Settat"}},"labels":["conference"],"duration":7200,"start_local":"2024-06-28T10:00:51","end":"2024-06-28T11:00:51Z","end_local":"2024-06-28T12:00:51","updated":"2024-05-23T01:48:06Z"},{"title":"International Conference on Innovation in Modern Applied Science, Environment, Energy and Health Studies","description":"Sourced from predicthq.com","category":"conferences","start":"2024-06-28T08:00:00Z","geo":{"geometry":{"coordinates":[-5.364568,35.560596],"type":"Point"},"placekey":"@7dj-796-bx5","address":{"country_code":"MA","formatted_address":"Av. Khenifra, Tétouan 93000, Morocco","postcode":"93000","locality":"Tétouan","region":"Tanger-Tétouan-Al Hoceïma"}},"labels":["conference"],"duration":205200,"start_local":"2024-06-28T09:00:00","end":"2024-06-30T17:00:00Z","end_local":"2024-06-30T18:00:00","updated":"2024-05-31T23:09:38Z"},{"title":"Public Management in the Era of Artificial Intelligence","description":"Sourced from predicthq.com","category":"conferences","start":"2024-06-28T08:00:00Z","geo":{"geometry":{"coordinates":[-5.845233,35.757263],"type":"Point"},"placekey":"@7dj-4gp-pjv","address":{"country_code":"MA","formatted_address":"Tangier, Tangier-Tétouan-Al Hoceima, Morocco","locality":"Tangier","region":"Tangier-Tétouan-Al Hoceima"}},"labels":["conference"],"duration":118800,"start_local":"2024-06-28T09:00:00","end":"2024-06-29T17:00:00Z","end_local":"2024-06-29T18:00:00","updated":"2024-06-30T05:17:39Z"},{"title":"Eran Hersh","description":"Sourced from predicthq.com","category":"concerts","start":"2024-06-27T21:00:00Z","geo":{"geometry":{"coordinates":[-8.0005908,31.6219845],"type":"Point"},"placekey":"@7fk-j2q-t5f","address":{"country_code":"MA","formatted_address":"10 Rue Haroun Errachid, Marrakech 40000, Morocco","postcode":"40000","locality":"Marrakech","region":"Marrakech-Safi"}},"labels":["concert","music"],"duration":0,"start_local":"2024-06-27T22:00:00","end":"2024-06-27T21:00:00Z","end_local":"2024-06-27T22:00:00","updated":"2024-06-14T01:00:01Z"},{"title":"International Symposium on Ubiquitous Networking","description":"Sourced from predicthq.com","category":"conferences","start":"2024-06-26T08:00:00Z","geo":{"geometry":{"coordinates":[-8.012534,31.623794],"type":"Point"},"placekey":"@7fk-j2q-n5z","address":{"country_code":"MA","formatted_address":"Grand Mogador\nMohammed Vi Street\nMarrakech 40000\nMorocco","locality":"Marrakesh"}},"labels":["conference"],"duration":205200,"start_local":"2024-06-26T09:00:00","end":"2024-06-28T17:00:00Z","end_local":"2024-06-28T18:00:00","updated":"2024-05-28T03:50:38Z"},{"title":"SSEC Conference","description":"Sourced from predicthq.com","category":"conferences","start":"2024-06-25T08:00:00Z","geo":{"geometry":{"coordinates":[-7.625392,33.57527],"type":"Point"},"placekey":"@7fy-dbq-249","address":{"country_code":"MA","formatted_address":"Boulevard Abdelmoumen, 20360 Casablanca, Morocco","locality":"Casablanca","postcode":"20360","region":"Casablanca-Settat"}},"labels":["conference"],"duration":464400,"start_local":"2024-06-25T09:00:00","end":"2024-06-30T17:00:00Z","end_local":"2024-06-30T18:00:00","updated":"2024-05-21T07:57:10Z"},{"title":"SSEC Conference","description":"Sourced from predicthq.com","category":"conferences","start":"2024-06-25T08:00:00Z","geo":{"geometry":{"coordinates":[-7.987685,31.596996],"type":"Point"},"placekey":"@7fk-j2g-tgk","address":{"country_code":"MA","formatted_address":"Route d'Ourika, 40000 Marrakesh, Morocco","locality":"Marrakesh","postcode":"40000","region":"Marrakesh-Safi"}},"labels":["conference"],"duration":464400,"start_local":"2024-06-25T09:00:00","end":"2024-06-30T17:00:00Z","end_local":"2024-06-30T18:00:00","updated":"2024-06-16T00:31:19Z"},{"title":"Greg Cerrone","description":"Sourced from predicthq.com","category":"concerts","start":"2024-06-22T19:00:00Z","geo":{"geometry":{"coordinates":[-7.65555,33.60819],"type":"Point"},"placekey":"@7fy-byp-m6k","address":{"country_code":"MA","formatted_address":"90 Boulevard de la Corniche, Casablanca 20000, Morocco","postcode":"20000","locality":"Casablanca","region":"Casablanca-Settat"}},"labels":["concert","music"],"duration":0,"start_local":"2024-06-22T20:00:00","end":"2024-06-22T19:00:00Z","end_local":"2024-06-22T20:00:00","updated":"2024-06-11T03:21:19Z"},{"title":"Morocco Adventure - 8 Days Ashtanga Retreat","description":"Sourced from predicthq.com","category":"community","start":"2024-06-22T14:00:00Z","geo":{"geometry":{"coordinates":[-9.56873,30.38909],"type":"Point"},"placekey":"@7fk-6gn-swk","address":{"country_code":"MA","formatted_address":"Rue Aourir, 80000 Agadir, Morocco","locality":"Agadir","postcode":"80000","region":"Souss Massa"}},"labels":["community","health"],"duration":586800,"start_local":"2024-06-22T15:00:00","end":"2024-06-29T09:00:00Z","end_local":"2024-06-29T10:00:00","updated":"2024-06-04T08:54:35Z"},{"title":"MERZOUGA GROOVERS FEST JUNE 21-23","description":"Sourced from predicthq.com - Ready for an incredible experience? The first edition of MERZOUGA GROOVERS FEST will take place facing the Erg Chebbi dunes in Merzouga","category":"festivals","start":"2024-06-21T17:00:00Z","geo":{"geometry":{"coordinates":[-4.0176462,31.0585612],"type":"Point"},"placekey":"@79x-psh-qxq","address":{"country_code":"MA","formatted_address":"Merzouga, Drâa-Tafilalet, Morocco","locality":"Merzouga","region":"Drâa-Tafilalet"}},"labels":["festival","music"],"duration":151200,"start_local":"2024-06-21T18:00:00","end":"2024-06-23T11:00:00Z","end_local":"2024-06-23T12:00:00","updated":"2024-06-04T05:21:11Z"},{"title":"Mawazine Festival","description":"Sourced from predicthq.com","category":"festivals","start":"2024-06-20T23:00:00Z","geo":{"geometry":{"coordinates":[-6.87213,33.95545],"type":"Point"},"placekey":"@7fy-n7c-4vz","address":{"country_code":"MA","formatted_address":"Olm, Rabat 10170, Morocco","postcode":"10170","locality":"Rabat","region":"Rabat-Salé-Kénitra"}},"labels":["festival","music"],"duration":777599,"start_local":"2024-06-21T00:00:00","end":"2024-06-29T22:59:59Z","end_local":"2024-06-29T23:59:59","updated":"2024-06-06T00:33:43Z"},{"title":"Trans Atlas Marathon","description":"Sourced from predicthq.com","category":"sports","start":"2024-06-17T23:00:00Z","geo":{"geometry":{"coordinates":[-6.4809854,31.6393021],"type":"Point"},"placekey":"@7fm-y5t-rc5","address":{"country_code":"MA","formatted_address":"Agouti, Béni Mellal-Khénifra, Morocco","locality":"Agouti","region":"Béni Mellal-Khénifra"}},"labels":["marathon","outdoor-sports","running","sport"],"duration":86399,"start_local":"2024-06-18T00:00:00","end":"2024-06-18T22:59:59Z","end_local":"2024-06-18T23:59:59","updated":"2024-06-04T05:35:57Z"},{"title":"Botola 2 - Olympique Dcheïra vs Difaâ El Jadida","description":"Sourced from predicthq.com","category":"sports","start":"2024-06-15T16:00:00Z","geo":{"geometry":{"coordinates":[-9.5544189,30.355837582],"type":"Point"},"placekey":"@7fk-6f6-54v","address":{"country_code":"MA","formatted_address":"9C4W+86V, Inezgane 80000, Morocco","postcode":"80000","locality":"Inezgane","region":"Souss Massa"}},"labels":["soccer","sport"],"duration":0,"start_local":"2024-06-15T17:00:00","end":"2024-06-15T16:00:00Z","end_local":"2024-06-15T17:00:00","updated":"2024-06-11T05:34:30Z"},{"title":"Botola 2 - Wydad Fès vs AS Salé","description":"Sourced from predicthq.com","category":"sports","start":"2024-06-15T16:00:00Z","geo":{"geometry":{"coordinates":[-4.999358654022217,34.04792140378408],"type":"Point"},"placekey":"@7b8-m94-yjv","address":{"country_code":"MA","formatted_address":"ملعب كرة القدم الحسن التاني, 22X2+56H, Fes 30050, Morocco","postcode":"30050","locality":"Fes","region":"Fez-Meknès"}},"labels":["soccer","sport"],"duration":0,"start_local":"2024-06-15T17:00:00","end":"2024-06-15T16:00:00Z","end_local":"2024-06-15T17:00:00","updated":"2024-06-11T02:57:18Z"},{"title":"Botola 2 - Khouribga vs Ittifaq Marrakech","description":"Sourced from predicthq.com","category":"sports","start":"2024-06-15T16:00:00Z","geo":{"geometry":{"coordinates":[-6.907339990139008,32.87818607285678],"type":"Point"},"placekey":"@7fn-ynb-cqz","address":{"country_code":"MA","formatted_address":"V3HV+83F, Khouribga, Morocco","locality":"Khouribga","region":"Béni Mellal-Khenifra"}},"labels":["soccer","sport"],"duration":0,"start_local":"2024-06-15T17:00:00","end":"2024-06-15T16:00:00Z","end_local":"2024-06-15T17:00:00","updated":"2024-06-11T03:55:51Z"},{"title":"Botola 2 - Racing de Casablanca vs CODM Meknès","description":"Sourced from predicthq.com","category":"sports","start":"2024-06-15T16:00:00Z","geo":{"geometry":{"coordinates":[-7.6517593,33.5575451],"type":"Point"},"placekey":"@7fy-byk-bzf","address":{"country_code":"MA","formatted_address":"Boulevard Al Abtal, Casablanca, Morocco","locality":"Casablanca","region":"Grand Casablanca"}},"labels":["soccer","sport"],"duration":0,"start_local":"2024-06-15T17:00:00","end":"2024-06-15T16:00:00Z","end_local":"2024-06-15T17:00:00","updated":"2024-06-11T10:30:03Z"},{"title":"Botola 2 - Stade Marocain vs Rapide Oued Zem","description":"Sourced from predicthq.com","category":"sports","start":"2024-06-15T16:00:00Z","geo":{"geometry":{"coordinates":[-6.840684413909912,34.00720176829028],"type":"Point"},"placekey":"@7fx-r6g-789","address":{"country_code":"MA","formatted_address":"2545+RPJ, Rabat, Morocco","locality":"Rabat","region":"Rabat-Salé-Kénitra"}},"labels":["soccer","sport"],"duration":0,"start_local":"2024-06-15T17:00:00","end":"2024-06-15T16:00:00Z","end_local":"2024-06-15T17:00:00","updated":"2024-06-11T03:41:45Z"},{"title":"Botola 2 - Kawkab Marrakech vs Chabab Ben Guerir","description":"Sourced from predicthq.com","category":"sports","start":"2024-06-15T16:00:00Z","geo":{"geometry":{"coordinates":[-8.707222645,32.627849102],"type":"Point"},"placekey":"@7fk-z33-vs5","address":{"country_code":"MA","formatted_address":"J7HV+379, Av. Prince Sidi Mohamed, Zemamra, Morocco","locality":"Zemamra","region":"Casablanca-Settat"}},"labels":["soccer","sport"],"duration":0,"start_local":"2024-06-15T17:00:00","end":"2024-06-15T16:00:00Z","end_local":"2024-06-15T17:00:00","updated":"2024-06-13T21:20:29Z"},{"title":"Botola 2 - Raja Beni Mellal vs Chabab Atlas Khénifra","description":"Sourced from predicthq.com","category":"sports","start":"2024-06-15T16:00:00Z","geo":{"geometry":{"coordinates":[-6.356132626533508,32.331265394587184],"type":"Point"},"placekey":"@7fn-vy2-d7q","address":{"country_code":"MA","formatted_address":"Beni-Mellal, Morocco","locality":"Beni-Mellal","region":"Béni Mellal-Khenifra"}},"labels":["soccer","sport"],"duration":0,"start_local":"2024-06-15T17:00:00","end":"2024-06-15T16:00:00Z","end_local":"2024-06-15T17:00:00","updated":"2024-06-11T04:12:28Z"},{"title":"Lotfi E.","description":"Sourced from predicthq.com","category":"concerts","start":"2024-06-14T18:00:00Z","geo":{"geometry":{"coordinates":[-6.83763,34.02125],"type":"Point"},"placekey":"@7fx-r5p-4d9","address":{"country_code":"MA","formatted_address":"266 Ave Mohammed V, Rabat, Morocco","locality":"Rabat","region":"Rabat-Salé-Kénitra"}},"labels":["concert","music"],"duration":0,"start_local":"2024-06-14T19:00:00","end":"2024-06-14T18:00:00Z","end_local":"2024-06-14T19:00:00","updated":"2024-06-28T18:05:42Z"},{"title":"Botola Pro - Wydad Casablanca vs Moghreb Tétouan","description":"Sourced from predicthq.com","category":"sports","start":"2024-06-14T17:00:00Z","geo":{"geometry":{"coordinates":[-7.399072051048279,33.695556970582416],"type":"Point"},"placekey":"@7fy-cmw-nqz","address":{"country_code":"MA","formatted_address":"MJW2+V64, N9, Mohammedia, Morocco","locality":"Mohammedia","region":"Casablanca-Settat"}},"labels":["soccer","sport"],"duration":0,"start_local":"2024-06-14T18:00:00","end":"2024-06-14T17:00:00Z","end_local":"2024-06-14T18:00:00","updated":"2024-06-11T00:43:39Z"},{"title":"Botola Pro - Youssoufia Berrechid vs JS Soualem","description":"Sourced from predicthq.com","category":"sports","start":"2024-06-14T17:00:00Z","geo":{"geometry":{"coordinates":[-7.594165205955505,33.28102339756449],"type":"Point"},"placekey":"@7fy-6q3-qs5","address":{"country_code":"MA","formatted_address":"7CJ4+CJ7, Berrechid, Morocco","locality":"Berrechid","region":"Casablanca-Settat"}},"labels":["soccer","sport"],"duration":0,"start_local":"2024-06-14T18:00:00","end":"2024-06-14T17:00:00Z","end_local":"2024-06-14T18:00:00","updated":"2024-06-11T06:38:32Z"},{"title":"Botola Pro - FAR Rabat vs FUS Rabat","description":"Sourced from predicthq.com","category":"sports","start":"2024-06-14T17:00:00Z","geo":{"geometry":{"coordinates":[-6.5713322,34.2525789],"type":"Point"},"placekey":"@7fx-pft-qmk","address":{"country_code":"MA","formatted_address":"Kenitra, Gharb-Chrarda-Beni Hssen, Morocco","locality":"Kenitra","region":"Gharb-Chrarda-Beni Hssen"}},"labels":["soccer","sport"],"duration":0,"start_local":"2024-06-14T18:00:00","end":"2024-06-14T17:00:00Z","end_local":"2024-06-14T18:00:00","updated":"2024-06-11T05:51:38Z"},{"title":"Botola Pro - Ittihad Tanger vs Chabab Mohammédia","description":"Sourced from predicthq.com","category":"sports","start":"2024-06-14T17:00:00Z","geo":{"geometry":{"coordinates":[-5.3486545,35.5726399],"type":"Point"},"placekey":"@7dj-79s-xdv","address":{"country_code":"MA","formatted_address":"Avenue Avril, Tétouan, Morocco","locality":"Tétouan","region":"Tanger-Tétouan"}},"labels":["soccer","sport"],"duration":0,"start_local":"2024-06-14T18:00:00","end":"2024-06-14T17:00:00Z","end_local":"2024-06-14T18:00:00","updated":"2024-06-11T01:07:56Z"},{"title":"Botola Pro - UTS Rabat vs Hassania Agadir","description":"Sourced from predicthq.com","category":"sports","start":"2024-06-14T17:00:00Z","geo":{"geometry":{"coordinates":[-6.824183464,33.97577397],"type":"Point"},"placekey":"@7fy-n6d-xyv","address":{"country_code":"MA","formatted_address":"P4014, Rabat, Morocco","locality":"Rabat","region":"Rabat-Salé-Kénitra"}},"labels":["soccer","sport"],"duration":0,"start_local":"2024-06-14T18:00:00","end":"2024-06-14T17:00:00Z","end_local":"2024-06-14T18:00:00","updated":"2024-06-11T01:51:48Z"},{"title":"Botola Pro - Mouloudia Oujda vs Raja Casablanca","description":"Sourced from predicthq.com","category":"sports","start":"2024-06-14T17:00:00Z","geo":{"geometry":{"coordinates":[-1.9345057010650635,34.659607546768775],"type":"Point"},"placekey":"@79r-w2n-xwk","address":{"country_code":"MA","formatted_address":"M358+R4X, Oujda, Morocco","locality":"Oujda","region":"Oriental"}},"labels":["soccer","sport"],"duration":0,"start_local":"2024-06-14T18:00:00","end":"2024-06-14T17:00:00Z","end_local":"2024-06-14T18:00:00","updated":"2024-06-11T08:28:58Z"},{"title":"Botola Pro - Maghreb Fès vs Olympic Safi","description":"Sourced from predicthq.com","category":"sports","start":"2024-06-14T17:00:00Z","geo":{"geometry":{"coordinates":[-4.999358654022217,34.04792140378408],"type":"Point"},"placekey":"@7b8-m94-yjv","address":{"country_code":"MA","formatted_address":"ملعب كرة القدم الحسن التاني, 22X2+56H, Fes 30050, Morocco","postcode":"30050","locality":"Fes","region":"Fez-Meknès"}},"labels":["soccer","sport"],"duration":0,"start_local":"2024-06-14T18:00:00","end":"2024-06-14T17:00:00Z","end_local":"2024-06-14T18:00:00","updated":"2024-06-11T05:50:31Z"},{"title":"Botola Pro - RSB Berkane vs Renaissance Zemamra","description":"Sourced from predicthq.com","category":"sports","start":"2024-06-13T17:00:00Z","geo":{"geometry":{"coordinates":[-2.3261726,34.9275921],"type":"Point"},"placekey":"@7b3-3xj-33q","address":{"country_code":"MA","formatted_address":"WMGF+VGX, Bd de la victoire, Berkane, Morocco","locality":"Berkane","region":"Oriental"}},"labels":["soccer","sport"],"duration":0,"start_local":"2024-06-13T18:00:00","end":"2024-06-13T17:00:00Z","end_local":"2024-06-13T18:00:00","updated":"2024-06-11T07:05:28Z"},{"title":"Data Center Forum Afrique 2024 - 2ème édition","description":"Sourced from predicthq.com - Le marché africain des datacenters affiche un incroyable potentiel. Rejoignez-nous le 13 juin 2024 a l'hôtel Haytt Regency Casablanca","category":"expos","start":"2024-06-13T07:30:00Z","geo":{"geometry":{"coordinates":[-7.618803,33.596068],"type":"Point"},"placekey":"@7fy-dbm-2c5","address":{"country_code":"MA","formatted_address":"Pl. des Nations Unies, Casablanca 20000, Morocco","postcode":"20000","locality":"Casablanca","region":"Casablanca-Settat"}},"labels":["business","expo"],"duration":30600,"start_local":"2024-06-13T08:30:00","end":"2024-06-13T16:00:00Z","end_local":"2024-06-13T17:00:00","updated":"2024-06-04T06:35:53Z"},{"title":"Maghreb HR Summit","description":"Sourced from predicthq.com","category":"conferences","start":"2024-06-12T08:00:00Z","geo":{"geometry":{"coordinates":[-7.618803,33.596068],"type":"Point"},"placekey":"@7fy-dbm-2c5","address":{"country_code":"MA","formatted_address":"Pl. des Nations Unies, Casablanca 20000, Morocco","postcode":"20000","locality":"Casablanca","region":"Casablanca-Settat"}},"labels":["conference"],"duration":118800,"start_local":"2024-06-12T09:00:00","end":"2024-06-13T17:00:00Z","end_local":"2024-06-13T18:00:00","updated":"2024-06-04T07:16:36Z"},{"title":"World Specialty Logistics Fair","description":"Sourced from predicthq.com","category":"expos","start":"2024-06-12T08:00:00Z","geo":{"geometry":{"coordinates":[-8.015669,31.624646],"type":"Point"},"placekey":"@7fk-hzz-ygk","address":{"country_code":"MA","formatted_address":"Avenue Mohamed VI\nMarrakech 40000\nMorocco","locality":"Marrakesh"}},"labels":["expo"],"duration":291600,"start_local":"2024-06-12T09:00:00","end":"2024-06-15T17:00:00Z","end_local":"2024-06-15T18:00:00","updated":"2024-05-31T22:52:47Z"},{"title":"Morocco Energy Week Summit & Exhibition","description":"Sourced from predicthq.com - The Morocco Energy Week Summit & Exhibition is the official platform of the country’s Green Energy sector, with 1:1 access to decision-maker","category":"conferences","start":"2024-06-11T08:00:00Z","geo":{"geometry":{"coordinates":[-7.9861392,31.663878],"type":"Point"},"placekey":"@7fk-j49-2zf","address":{"country_code":"MA","formatted_address":"Marrakesh, Marrakesh-Safi, Morocco","locality":"Marrakesh","region":"Marrakesh-Safi"}},"labels":["business","conference"],"duration":208800,"start_local":"2024-06-11T09:00:00","end":"2024-06-13T18:00:00Z","end_local":"2024-06-13T19:00:00","updated":"2024-06-04T06:43:07Z"},{"title":"WCA African Regional Conference","description":"Sourced from predicthq.com","category":"conferences","start":"2024-06-10T08:00:00Z","geo":{"geometry":{"coordinates":[-8.015669,31.624646],"type":"Point"},"placekey":"@7fk-hzz-ygk","address":{"country_code":"MA","formatted_address":"Avenue Mohamed VI\nMarrakech 40000\nMorocco","locality":"Marrakesh"}},"labels":["conference"],"duration":291600,"start_local":"2024-06-10T09:00:00","end":"2024-06-13T17:00:00Z","end_local":"2024-06-13T18:00:00","updated":"2024-05-31T22:55:45Z"},{"title":"Mont Rouge and Epsylon","description":"Sourced from predicthq.com","category":"community","start":"2024-06-08T20:00:00Z","geo":{"geometry":{"coordinates":[-6.85094,33.99517],"type":"Point"},"placekey":"@7fx-r6k-yn5","address":{"country_code":"MA","formatted_address":"BP 450 Souissi, Rabat 10000, Morocco","postcode":"10000","locality":"Rabat","region":"Rabat-Salé-Kénitra"}},"labels":["concert","music"],"duration":0,"start_local":"2024-06-08T21:00:00","end":"2024-06-08T20:00:00Z","end_local":"2024-06-08T21:00:00","updated":"2024-06-04T04:11:01Z"},{"title":"Botola 2 - CODM Meknès vs El Massira","description":"Sourced from predicthq.com","category":"sports","start":"2024-06-08T16:00:00Z","geo":{"geometry":{"coordinates":[-5.5395555496,33.8911155909],"type":"Point"},"placekey":"@7b8-sfz-28v","address":{"country_code":"MA","formatted_address":"Boulevard Moulay Youssef\n50 000 مكناس\nالمغرب","postcode":"50 000","locality":"مكناس","region":"Région de Meknès-Tafilalet"}},"labels":["soccer","sport"],"duration":0,"start_local":"2024-06-08T17:00:00","end":"2024-06-08T16:00:00Z","end_local":"2024-06-08T17:00:00","updated":"2024-06-11T22:57:48Z"},{"title":"Botola 2 - AS Salé vs Raja Beni Mellal","description":"Sourced from predicthq.com","category":"sports","start":"2024-06-08T16:00:00Z","geo":{"geometry":{"coordinates":[-6.7972464,34.0333997],"type":"Point"},"placekey":"@7fy-mwx-94v","address":{"country_code":"MA","formatted_address":"Salé, Rabat-Sale-Zemmour-Zaer, Morocco","locality":"Salé","region":"Rabat-Sale-Zemmour-Zaer"}},"labels":["soccer","sport"],"duration":0,"start_local":"2024-06-08T17:00:00","end":"2024-06-08T16:00:00Z","end_local":"2024-06-08T17:00:00","updated":"2024-06-12T07:16:08Z"},{"title":"Botola 2 - USM Oujda vs Wydad Fès","description":"Sourced from predicthq.com","category":"sports","start":"2024-06-08T16:00:00Z","geo":{"geometry":{"coordinates":[-1.9345057010650635,34.659607546768775],"type":"Point"},"placekey":"@79r-w2n-xwk","address":{"country_code":"MA","formatted_address":"M358+R4X, Oujda, Morocco","locality":"Oujda","region":"Oriental"}},"labels":["soccer","sport"],"duration":0,"start_local":"2024-06-08T17:00:00","end":"2024-06-08T16:00:00Z","end_local":"2024-06-08T17:00:00","updated":"2024-06-12T09:58:39Z"},{"title":"Botola 2 - Chabab Ben Guerir vs Khouribga","description":"Sourced from predicthq.com","category":"sports","start":"2024-06-08T16:00:00Z","geo":{"geometry":{"coordinates":[-7.954272317860391,32.240328632610215],"type":"Point"},"placekey":"@7fj-rzz-28v","address":{"country_code":"MA","formatted_address":"722Q+3MG, Ben Guerir, Morocco","locality":"Ben Guerir","region":"Marrakesh-Safi"}},"labels":["soccer","sport"],"duration":0,"start_local":"2024-06-08T17:00:00","end":"2024-06-08T16:00:00Z","end_local":"2024-06-08T17:00:00","updated":"2024-06-12T15:20:53Z"},{"title":"Botola 2 - Difaâ El Jadida vs Kawkab Marrakech","description":"Sourced from predicthq.com","category":"sports","start":"2024-06-08T16:00:00Z","geo":{"geometry":{"coordinates":[-8.4933848,33.2414934],"type":"Point"},"placekey":"@7fm-3dm-dd9","address":{"country_code":"MA","formatted_address":"El Jadida, Doukkala-Abda, Morocco","locality":"El Jadida","region":"Doukkala-Abda"}},"labels":["soccer","sport"],"duration":0,"start_local":"2024-06-08T17:00:00","end":"2024-06-08T16:00:00Z","end_local":"2024-06-08T17:00:00","updated":"2024-06-12T02:07:06Z"},{"title":"Botola 2 - Rapide Oued Zem vs Olympique Dcheïra","description":"Sourced from predicthq.com","category":"sports","start":"2024-06-08T16:00:00Z","geo":{"geometry":{"coordinates":[-6.5653274,32.8607722],"type":"Point"},"placekey":"@7fn-zq3-6x5","address":{"country_code":"MA","formatted_address":"Oued Zem, Région de Chaouia-Ouardigha, Morocco","locality":"Oued Zem","region":"Région de Chaouia-Ouardigha"}},"labels":["soccer","sport"],"duration":0,"start_local":"2024-06-08T17:00:00","end":"2024-06-08T16:00:00Z","end_local":"2024-06-08T17:00:00","updated":"2024-06-12T16:56:52Z"},{"title":"Botola 2 - Ittifaq Marrakech vs Racing de Casablanca","description":"Sourced from predicthq.com","category":"sports","start":"2024-06-08T16:00:00Z","geo":{"geometry":{"coordinates":[-7.9797219,31.7074542],"type":"Point"},"placekey":"@7fj-wnf-hdv","address":{"country_code":"MA","formatted_address":"N9, Ouahat Sidi Brahim, Morocco","locality":"Ouahat Sidi Brahim","region":"Marrakech-Tensift-Al Haouz"}},"labels":["soccer","sport"],"duration":0,"start_local":"2024-06-08T17:00:00","end":"2024-06-08T16:00:00Z","end_local":"2024-06-08T17:00:00","updated":"2024-06-12T01:35:25Z"},{"title":"Botola 2 - Chabab Atlas Khénifra vs Stade Marocain","description":"Sourced from predicthq.com","category":"sports","start":"2024-06-08T16:00:00Z","geo":{"geometry":{"coordinates":[-5.672118,32.9283917],"type":"Point"},"placekey":"@7fp-53j-4d9","address":{"country_code":"MA","formatted_address":"Khenifra, Meknes-Tafilalet, Morocco","locality":"Khenifra","region":"Meknes-Tafilalet"}},"labels":["soccer","sport"],"duration":0,"start_local":"2024-06-08T17:00:00","end":"2024-06-08T16:00:00Z","end_local":"2024-06-08T17:00:00","updated":"2024-06-12T05:19:50Z"},{"title":"15 km de Moulay Abdellah","description":"Sourced from predicthq.com","category":"sports","start":"2024-06-08T09:00:00Z","geo":{"geometry":{"coordinates":[-8.587212,33.1963963],"type":"Point"},"placekey":"@7fm-3dt-tn5","address":{"country_code":"MA","formatted_address":"Moulay Abdallah Amghar, Casablanca-Settat, Morocco","locality":"Moulay Abdallah Amghar","region":"Casablanca-Settat"}},"labels":["outdoor-sports","running","sport"],"duration":0,"start_local":"2024-06-08T10:00:00","end":"2024-06-08T09:00:00Z","end_local":"2024-06-08T10:00:00","updated":"2024-06-04T02:43:42Z"},{"title":"Jazzablanca Festival at Jazzablance Festival Grounds","description":"Sourced from predicthq.com","category":"festivals","start":"2024-06-07T23:00:00Z","geo":{"geometry":{"coordinates":[-7.6572400768,33.5636182744],"type":"Point"},"placekey":"@7fy-byj-rff","address":{"country_code":"MA","formatted_address":"H87V+94G Anfa Park, Casablanca 20250, Morocco","postcode":"20250","locality":"Casablanca","region":"Casablanca-Settat"}},"labels":["festival"],"duration":86399,"start_local":"2024-06-08T00:00:00","end":"2024-06-08T22:59:59Z","end_local":"2024-06-08T23:59:59","updated":"2024-06-04T03:06:53Z"},{"title":"Jaden Thompson","description":"Sourced from predicthq.com","category":"concerts","start":"2024-06-07T21:00:00Z","geo":{"geometry":{"coordinates":[-7.6864737,33.5863143],"type":"Point"},"placekey":"@7fy-bym-sbk","address":{"country_code":"MA","formatted_address":"10 Bd de l'Océan Atlantique, Casablanca 20000, Morocco","postcode":"20000","locality":"Casablanca","region":"Casablanca-Settat"}},"labels":["concert","music"],"duration":0,"start_local":"2024-06-07T22:00:00","end":"2024-06-07T21:00:00Z","end_local":"2024-06-07T22:00:00","updated":"2024-06-22T06:03:02Z"},{"title":"African Investment Day 24 (Invitation only event)","description":"Sourced from predicthq.com - The conference with business in mind!","category":"conferences","start":"2024-06-07T08:00:00Z","geo":{"geometry":{"coordinates":[-7.973848999999999,31.6862093],"type":"Point"},"placekey":"@7fk-j46-3t9","address":{"country_code":"MA","formatted_address":"Marrakesh, Marrakesh-Safi, Morocco","locality":"Marrakesh","region":"Marrakesh-Safi"}},"labels":["business","conference"],"duration":34200,"start_local":"2024-06-07T09:00:00","end":"2024-06-07T17:30:00Z","end_local":"2024-06-07T18:30:00","updated":"2024-06-06T08:30:41Z"},{"title":"Jazzablanca Festival at Jazzablance Festival Grounds","description":"Sourced from predicthq.com","category":"festivals","start":"2024-06-06T23:00:00Z","geo":{"geometry":{"coordinates":[-7.6572400768,33.5636182744],"type":"Point"},"placekey":"@7fy-byj-rff","address":{"country_code":"MA","formatted_address":"H87V+94G Anfa Park, Casablanca 20250, Morocco","postcode":"20250","locality":"Casablanca","region":"Casablanca-Settat"}},"labels":["festival"],"duration":86399,"start_local":"2024-06-07T00:00:00","end":"2024-06-07T22:59:59Z","end_local":"2024-06-07T23:59:59","updated":"2024-05-31T22:26:48Z"},{"title":"UB40","description":"Sourced from predicthq.com","category":"concerts","start":"2024-06-06T18:00:00Z","geo":{"geometry":{"coordinates":[-7.65717,33.56344],"type":"Point"},"placekey":"@7fy-byj-rff","address":{"country_code":"MA","formatted_address":"H87V+94G Anfa Park, Casablanca 20250, Morocco","postcode":"20250","locality":"Casablanca","region":"Casablanca-Settat"}},"labels":["concert","music"],"duration":0,"start_local":"2024-06-06T19:00:00","end":"2024-06-06T18:00:00Z","end_local":"2024-06-06T19:00:00","updated":"2024-06-20T18:07:05Z"},{"title":"CONFERENCE DYS DAY","description":"Sourced from predicthq.com - Conference Dys Day : Comprendre les Troubles et Difficultés d'Apprentissage pour prévenir le décrochage universitaire.","category":"conferences","start":"2024-06-06T08:00:00Z","geo":{"geometry":{"coordinates":[-7.656506400000001,33.5440318],"type":"Point"},"placekey":"@7fy-7cj-xt9","address":{"country_code":"MA","formatted_address":"Casablanca, Casablanca-Settat, Morocco","locality":"Casablanca","region":"Casablanca-Settat"}},"labels":["conference","education","family"],"duration":14400,"start_local":"2024-06-06T09:00:00","end":"2024-06-06T12:00:00Z","end_local":"2024-06-06T13:00:00","updated":"2024-06-06T00:42:03Z"},{"title":"MOROCCO DENTAL EXPO","description":"Sourced from predicthq.com","category":"expos","start":"2024-06-05T23:00:00Z","geo":{"geometry":{"coordinates":[-8.382128,33.267255],"type":"Point"},"placekey":"@7fy-f9x-4vz","address":{"country_code":"MA","formatted_address":"Ville d&#039;El Jadida\nRoute National 1 vers Azemmour. Region Doukala Aabda، N1\nMorocco","locality":"El Jadida"}},"labels":["expo"],"duration":345599,"start_local":"2024-06-06T00:00:00","end":"2024-06-09T22:59:59Z","end_local":"2024-06-09T23:59:59","updated":"2024-05-31T22:44:06Z"},{"title":"Jazzablanca Festival","description":"Sourced from predicthq.com","category":"festivals","start":"2024-06-05T23:00:00Z","geo":{"geometry":{"coordinates":[-7.65717,33.56344],"type":"Point"},"placekey":"@7fy-byj-rff","address":{"country_code":"MA","formatted_address":"H87V+94G Anfa Park, Casablanca 20250, Morocco","postcode":"20250","locality":"Casablanca","region":"Casablanca-Settat"}},"labels":["festival","music"],"duration":259199,"start_local":"2024-06-06T00:00:00","end":"2024-06-08T22:59:59Z","end_local":"2024-06-08T23:59:59","updated":"2024-06-04T01:18:43Z"},{"title":"Auto-Moto - The Future of Electric Mobility","description":"Sourced from predicthq.com","category":"expos","start":"2024-06-05T08:00:00Z","geo":{"geometry":{"coordinates":[-7.62918,33.604377],"type":"Point"},"placekey":"@7fy-dd5-zmk","address":{"country_code":"MA","formatted_address":"J93C+Q8Q, Rue Doukalla, Casablanca 20030, Morocco","postcode":"20030","locality":"Casablanca","region":"Casablanca-Settat"}},"labels":["expo"],"duration":291600,"start_local":"2024-06-05T09:00:00","end":"2024-06-08T17:00:00Z","end_local":"2024-06-08T18:00:00","updated":"2024-06-02T00:35:29Z"},{"title":"SIAB Expo Maroc","description":"Sourced from predicthq.com","category":"expos","start":"2024-06-05T08:00:00Z","geo":{"geometry":{"coordinates":[-7.650064,33.5440826],"type":"Point"},"placekey":"@7fy-7cm-qmk","address":{"country_code":"MA","formatted_address":"Route d’el Jadida km 7, 5- Route D'El Jadida, Casablanca, Morocco","locality":"Casablanca","region":"Grand Casablanca"}},"labels":["expo"],"duration":291600,"start_local":"2024-06-05T09:00:00","end":"2024-06-08T17:00:00Z","end_local":"2024-06-08T18:00:00","updated":"2024-05-28T23:15:37Z"},{"title":"Annual Meeting of the ID4Africa Movement","description":"Sourced from predicthq.com","category":"conferences","start":"2024-06-05T08:00:00Z","geo":{"geometry":{"coordinates":[-8.015669,31.624646],"type":"Point"},"placekey":"@7fk-hzz-ygk","address":{"country_code":"MA","formatted_address":"Avenue Mohamed VI\nMarrakech 40000\nMorocco","locality":"Marrakesh"}},"labels":["conference"],"duration":637200,"start_local":"2024-06-05T09:00:00","end":"2024-06-12T17:00:00Z","end_local":"2024-06-12T18:00:00","updated":"2024-05-31T23:05:15Z"},{"title":"CJM JOBDAY II","description":"Sourced from predicthq.com - Get ready for a jam-packed day of job opportunities, networking, and career growth at CJM JOBDAY II","category":"conferences","start":"2024-06-04T08:00:00Z","geo":{"geometry":{"coordinates":[-7.656506400000001,33.5440318],"type":"Point"},"placekey":"@7fy-7cj-xt9","address":{"country_code":"MA","formatted_address":"Casablanca, Casablanca-Settat, Morocco","locality":"Casablanca","region":"Casablanca-Settat"}},"labels":["business","conference"],"duration":28800,"start_local":"2024-06-04T09:00:00","end":"2024-06-04T16:00:00Z","end_local":"2024-06-04T17:00:00","updated":"2024-05-30T01:24:01Z"},{"title":"Friendlies Women - Friendlies 2 - Morocco vs Congo DR","description":"Sourced from predicthq.com","category":"sports","start":"2024-06-03T19:00:00Z","geo":{"geometry":{"coordinates":[-2.3261726,34.9275921],"type":"Point"},"placekey":"@7b3-3xj-33q","address":{"country_code":"MA","formatted_address":"WMGF+VGX, Bd de la victoire, Berkane, Morocco","locality":"Berkane","region":"Oriental"}},"labels":["soccer","sport"],"duration":0,"start_local":"2024-06-03T20:00:00","end":"2024-06-03T19:00:00Z","end_local":"2024-06-03T20:00:00","updated":"2024-06-12T11:36:32Z"},{"title":"Botola Pro - Raja Casablanca vs Wydad Casablanca","description":"Sourced from predicthq.com","category":"sports","start":"2024-06-02T17:00:00Z","geo":{"geometry":{"coordinates":[-7.594165205955505,33.28102339756449],"type":"Point"},"placekey":"@7fy-6q3-qs5","address":{"country_code":"MA","formatted_address":"7CJ4+CJ7, Berrechid, Morocco","locality":"Berrechid","region":"Casablanca-Settat"}},"labels":["soccer","sport"],"duration":0,"start_local":"2024-06-02T18:00:00","end":"2024-06-02T17:00:00Z","end_local":"2024-06-02T18:00:00","updated":"2024-06-11T22:49:40Z"},{"title":"Botola Pro - Moghreb Tétouan vs FAR Rabat","description":"Sourced from predicthq.com","category":"sports","start":"2024-06-02T17:00:00Z","geo":{"geometry":{"coordinates":[-5.3486545,35.5726399],"type":"Point"},"placekey":"@7dj-79s-xdv","address":{"country_code":"MA","formatted_address":"Avenue Avril, Tétouan, Morocco","locality":"Tétouan","region":"Tanger-Tétouan"}},"labels":["soccer","sport"],"duration":0,"start_local":"2024-06-02T18:00:00","end":"2024-06-02T17:00:00Z","end_local":"2024-06-02T18:00:00","updated":"2024-06-12T03:23:26Z"},{"title":"Meet Software And Blockchain Solutions Company at GITEX AFRICA 2024","description":"Sourced from predicthq.com - Get ready to be blown away at GITEX AFRICA 2024 with CDN Solutions in the house! Join us from May 29th to 31st, for top-notch discussions.","category":"expos","start":"2024-06-02T08:00:00Z","geo":{"geometry":{"coordinates":[-7.989825799999999,31.6225224],"type":"Point"},"placekey":"@7fk-j2f-2ff","address":{"country_code":"MA","formatted_address":"40000 Marrakesh, Morocco","locality":"Marrakesh","postcode":"40000","region":"Marrakesh-Safi"}},"labels":["business","expo"],"duration":30600,"start_local":"2024-06-02T09:00:00","end":"2024-06-02T16:30:00Z","end_local":"2024-06-02T17:30:00","updated":"2024-05-30T08:16:46Z"},{"title":"Nico de Andrea","description":"Sourced from predicthq.com","category":"concerts","start":"2024-06-01T21:00:00Z","geo":{"geometry":{"coordinates":[-8.00514,31.62142],"type":"Point"},"placekey":"@7fk-j2q-jy9","address":{"country_code":"MA","formatted_address":"JXCW+78V, Marrakesh 40000, Morocco","postcode":"40000","locality":"Marrakesh","region":"Marrakesh-Safi"}},"labels":["concert","music"],"duration":0,"start_local":"2024-06-01T22:00:00","end":"2024-06-01T21:00:00Z","end_local":"2024-06-01T22:00:00","updated":"2024-06-15T21:08:40Z"},{"title":"Botola Pro - Olympic Safi vs UTS Rabat","description":"Sourced from predicthq.com","category":"sports","start":"2024-06-01T18:00:00Z","geo":{"geometry":{"coordinates":[-9.22957,32.3002],"type":"Point"},"placekey":"@7fj-pt9-d7q","address":{"country_code":"MA","formatted_address":"8Q2C+485, Av. Moulay Youssef, Safi, Morocco","locality":"Safi","region":"Marrakech-Safi"}},"labels":["soccer","sport"],"duration":0,"start_local":"2024-06-01T19:00:00","end":"2024-06-01T18:00:00Z","end_local":"2024-06-01T19:00:00","updated":"2024-06-11T21:33:50Z"},{"title":"Botola Pro - Renaissance Zemamra vs Ittihad Tanger","description":"Sourced from predicthq.com","category":"sports","start":"2024-06-01T18:00:00Z","geo":{"geometry":{"coordinates":[-8.707222645,32.627849102],"type":"Point"},"placekey":"@7fk-z33-vs5","address":{"country_code":"MA","formatted_address":"J7HV+379, Av. Prince Sidi Mohamed, Zemamra, Morocco","locality":"Zemamra","region":"Casablanca-Settat"}},"labels":["soccer","sport"],"duration":0,"start_local":"2024-06-01T19:00:00","end":"2024-06-01T18:00:00Z","end_local":"2024-06-01T19:00:00","updated":"2024-06-12T10:32:31Z"},{"title":"Botola Pro - JS Soualem vs RSB Berkane","description":"Sourced from predicthq.com","category":"sports","start":"2024-06-01T18:00:00Z","geo":{"geometry":{"coordinates":[-7.594165205955505,33.28102339756449],"type":"Point"},"placekey":"@7fy-6q3-qs5","address":{"country_code":"MA","formatted_address":"7CJ4+CJ7, Berrechid, Morocco","locality":"Berrechid","region":"Casablanca-Settat"}},"labels":["soccer","sport"],"duration":0,"start_local":"2024-06-01T19:00:00","end":"2024-06-01T18:00:00Z","end_local":"2024-06-01T19:00:00","updated":"2024-06-12T05:32:27Z"},{"title":"Botola Pro - Chabab Mohammédia vs Maghreb Fès","description":"Sourced from predicthq.com","category":"sports","start":"2024-06-01T18:00:00Z","geo":{"geometry":{"coordinates":[-7.399072051048279,33.695556970582416],"type":"Point"},"placekey":"@7fy-cmw-nqz","address":{"country_code":"MA","formatted_address":"MJW2+V64, N9, Mohammedia, Morocco","locality":"Mohammedia","region":"Casablanca-Settat"}},"labels":["soccer","sport"],"duration":0,"start_local":"2024-06-01T19:00:00","end":"2024-06-01T18:00:00Z","end_local":"2024-06-01T19:00:00","updated":"2024-06-12T17:52:48Z"},{"title":"Botola Pro - Hassania Agadir vs Youssoufia Berrechid","description":"Sourced from predicthq.com","category":"sports","start":"2024-06-01T18:00:00Z","geo":{"geometry":{"coordinates":[-9.5402782,30.4274651],"type":"Point"},"placekey":"@7fk-6gn-35z","address":{"country_code":"MA","formatted_address":"80000 Agadir, Morocco","postcode":"80000","locality":"Agadir","region":"Souss-Massa-Draa"}},"labels":["soccer","sport"],"duration":0,"start_local":"2024-06-01T19:00:00","end":"2024-06-01T18:00:00Z","end_local":"2024-06-01T19:00:00","updated":"2024-06-11T23:54:15Z"},{"title":"Botola Pro - FUS Rabat vs Mouloudia Oujda","description":"Sourced from predicthq.com","category":"sports","start":"2024-06-01T18:00:00Z","geo":{"geometry":{"coordinates":[-6.824183464,33.97577397],"type":"Point"},"placekey":"@7fy-n6d-xyv","address":{"country_code":"MA","formatted_address":"P4014, Rabat, Morocco","locality":"Rabat","region":"Rabat-Salé-Kénitra"}},"labels":["soccer","sport"],"duration":0,"start_local":"2024-06-01T19:00:00","end":"2024-06-01T18:00:00Z","end_local":"2024-06-01T19:00:00","updated":"2024-06-12T12:53:07Z"},{"title":"Psychedelic Alliance: Season 2.024","description":"Sourced from predicthq.com","category":"community","start":"2024-06-01T15:00:00Z","geo":{"geometry":{"coordinates":[-7.58892,33.51647],"type":"Point"},"placekey":"@7fy-7d3-wff","address":{"country_code":"MA","formatted_address":"Casablanca, Casablanca-Settat, Morocco","locality":"Casablanca","region":"Casablanca-Settat"}},"labels":["community","entertainment","music"],"duration":104400,"start_local":"2024-06-01T16:00:00","end":"2024-06-02T20:00:00Z","end_local":"2024-06-02T21:00:00","updated":"2024-05-25T14:51:31Z"},{"title":"High Atlas Ultra Trail","description":"Sourced from predicthq.com","category":"sports","start":"2024-06-01T03:00:00Z","geo":{"geometry":{"coordinates":[-7.9197941,31.1377449],"type":"Point"},"placekey":"@7fk-ckd-xwk","address":{"country_code":"MA","formatted_address":"Imlil, Marrakesh-Safi, Morocco","locality":"Imlil","region":"Marrakesh-Safi"}},"labels":["outdoor-sports","running","sport"],"duration":0,"start_local":"2024-06-01T04:00:00","end":"2024-06-01T03:00:00Z","end_local":"2024-06-01T04:00:00","updated":"2024-05-31T22:53:41Z"},{"title":"Botola 2 - Olympique Dcheïra vs USM Oujda","description":"Sourced from predicthq.com","category":"sports","start":"2024-05-31T16:00:00Z","geo":{"geometry":{"coordinates":[-9.5544189,30.355837582],"type":"Point"},"placekey":"@7fk-6f6-54v","address":{"country_code":"MA","formatted_address":"9C4W+86V, Inezgane 80000, Morocco","postcode":"80000","locality":"Inezgane","region":"Souss Massa"}},"labels":["soccer","sport"],"duration":0,"start_local":"2024-05-31T17:00:00","end":"2024-05-31T16:00:00Z","end_local":"2024-05-31T17:00:00","updated":"2024-06-12T09:17:38Z"},{"title":"Botola 2 - Raja Beni Mellal vs Chabab Ben Guerir","description":"Sourced from predicthq.com","category":"sports","start":"2024-05-31T16:00:00Z","geo":{"geometry":{"coordinates":[-6.356132626533508,32.331265394587184],"type":"Point"},"placekey":"@7fn-vy2-d7q","address":{"country_code":"MA","formatted_address":"Beni-Mellal, Morocco","locality":"Beni-Mellal","region":"Béni Mellal-Khenifra"}},"labels":["soccer","sport"],"duration":0,"start_local":"2024-05-31T17:00:00","end":"2024-05-31T16:00:00Z","end_local":"2024-05-31T17:00:00","updated":"2024-06-11T21:50:50Z"},{"title":"Botola 2 - Stade Marocain vs CODM Meknès","description":"Sourced from predicthq.com","category":"sports","start":"2024-05-31T16:00:00Z","geo":{"geometry":{"coordinates":[-6.840684413909912,34.00720176829028],"type":"Point"},"placekey":"@7fx-r6g-789","address":{"country_code":"MA","formatted_address":"2545+RPJ, Rabat, Morocco","locality":"Rabat","region":"Rabat-Salé-Kénitra"}},"labels":["soccer","sport"],"duration":0,"start_local":"2024-05-31T17:00:00","end":"2024-05-31T16:00:00Z","end_local":"2024-05-31T17:00:00","updated":"2024-06-11T21:38:25Z"},{"title":"Botola 2 - Wydad Fès vs Chabab Atlas Khénifra","description":"Sourced from predicthq.com","category":"sports","start":"2024-05-31T16:00:00Z","geo":{"geometry":{"coordinates":[-4.999358654022217,34.04792140378408],"type":"Point"},"placekey":"@7b8-m94-yjv","address":{"country_code":"MA","formatted_address":"ملعب كرة القدم الحسن التاني, 22X2+56H, Fes 30050, Morocco","postcode":"30050","locality":"Fes","region":"Fez-Meknès"}},"labels":["soccer","sport"],"duration":0,"start_local":"2024-05-31T17:00:00","end":"2024-05-31T16:00:00Z","end_local":"2024-05-31T17:00:00","updated":"2024-06-12T03:17:59Z"},{"title":"Botola 2 - Khouribga vs AS Salé","description":"Sourced from predicthq.com","category":"sports","start":"2024-05-31T16:00:00Z","geo":{"geometry":{"coordinates":[-6.907339990139008,32.87818607285678],"type":"Point"},"placekey":"@7fn-ynb-cqz","address":{"country_code":"MA","formatted_address":"V3HV+83F, Khouribga, Morocco","locality":"Khouribga","region":"Béni Mellal-Khenifra"}},"labels":["soccer","sport"],"duration":0,"start_local":"2024-05-31T17:00:00","end":"2024-05-31T16:00:00Z","end_local":"2024-05-31T17:00:00","updated":"2024-06-12T06:52:02Z"},{"title":"Botola 2 - Racing de Casablanca vs Rapide Oued Zem","description":"Sourced from predicthq.com","category":"sports","start":"2024-05-31T16:00:00Z","geo":{"geometry":{"coordinates":[-7.6517593,33.5575451],"type":"Point"},"placekey":"@7fy-byk-bzf","address":{"country_code":"MA","formatted_address":"Boulevard Al Abtal, Casablanca, Morocco","locality":"Casablanca","region":"Grand Casablanca"}},"labels":["soccer","sport"],"duration":0,"start_local":"2024-05-31T17:00:00","end":"2024-05-31T16:00:00Z","end_local":"2024-05-31T17:00:00","updated":"2024-06-12T01:29:03Z"},{"title":"Botola 2 - Kawkab Marrakech vs Ittifaq Marrakech","description":"Sourced from predicthq.com","category":"sports","start":"2024-05-31T16:00:00Z","geo":{"geometry":{"coordinates":[-7.9797219,31.7074542],"type":"Point"},"placekey":"@7fj-wnf-hdv","address":{"country_code":"MA","formatted_address":"N9, Ouahat Sidi Brahim, Morocco","locality":"Ouahat Sidi Brahim","region":"Marrakech-Tensift-Al Haouz"}},"labels":["soccer","sport"],"duration":0,"start_local":"2024-05-31T17:00:00","end":"2024-05-31T16:00:00Z","end_local":"2024-05-31T17:00:00","updated":"2024-06-12T18:08:51Z"},{"title":"Keynote / Smart Retail: Using Data to stay ahead.","description":"Sourced from predicthq.com - Le secteur du retail connaît une transformation radicale avec l'intégration croissante des données et de l'intelligence artificielle.","category":"conferences","start":"2024-05-31T10:30:00Z","geo":{"geometry":{"coordinates":[-7.999300799999999,31.6209902],"type":"Point"},"placekey":"@7fk-j2q-q9f","address":{"country_code":"MA","formatted_address":"Boulevard Al Yarmouk, 40000 Marrakesh, Morocco","locality":"Marrakesh","postcode":"40000","region":"Marrakesh-Safi"}},"labels":["business","conference"],"duration":1800,"start_local":"2024-05-31T11:30:00","end":"2024-05-31T11:00:00Z","end_local":"2024-05-31T12:00:00","updated":"2024-05-31T23:17:15Z"},{"title":"Trail des Cèdres","description":"Sourced from predicthq.com","category":"sports","start":"2024-05-31T08:00:00Z","geo":{"geometry":{"coordinates":[-5.1166667,33.5333333],"type":"Point"},"placekey":"@7b8-q2g-vj9","address":{"country_code":"MA","formatted_address":"Ifran, Fez-Meknès, Morocco","locality":"Ifran","region":"Fez-Meknès"}},"labels":["outdoor-sports","running","sport"],"duration":0,"start_local":"2024-05-31T09:00:00","end":"2024-05-31T08:00:00Z","end_local":"2024-05-31T09:00:00","updated":"2024-06-05T06:49:25Z"},{"title":"Friendlies Women - Friendlies 2 - Morocco vs Congo DR","description":"Sourced from predicthq.com","category":"sports","start":"2024-05-30T18:00:00Z","geo":{"geometry":{"coordinates":[-2.3261726,34.9275921],"type":"Point"},"placekey":"@7b3-3xj-33q","address":{"country_code":"MA","formatted_address":"WMGF+VGX, Bd de la victoire, Berkane, Morocco","locality":"Berkane","region":"Oriental"}},"labels":["soccer","sport"],"duration":0,"start_local":"2024-05-30T19:00:00","end":"2024-05-30T18:00:00Z","end_local":"2024-05-30T19:00:00","updated":"2024-06-11T23:22:08Z"},{"title":"Conférence  \"Digital Entrepreneur : Outils de Management & Soft Skills\"","description":"Sourced from predicthq.com - Venez découvrir comment gérer votre entreprise digitale et développer vos compétences personnelles lors de notre conférence \"Digital Entrepr","category":"conferences","start":"2024-05-30T14:00:00Z","geo":{"geometry":{"coordinates":[-9.5303284,30.4040064],"type":"Point"},"placekey":"@7fk-6gq-73q","address":{"country_code":"MA","formatted_address":"Avenue Abdellah Guenoun, 80000 Agadir, Morocco","locality":"Agadir","postcode":"80000","region":"Souss Massa"}},"labels":["business","conference"],"duration":10800,"start_local":"2024-05-30T15:00:00","end":"2024-05-30T17:00:00Z","end_local":"2024-05-30T18:00:00","updated":"2024-05-23T02:59:39Z"},{"title":"Move to HyperAutomation (GITEX Africa - Stand 11B-20)","description":"Sourced from predicthq.com - IBM Cloud Pak for Business Automation helps clients transform fragmented workflows to stay competitive and boost efficiency.","category":"expos","start":"2024-05-30T13:00:00Z","geo":{"geometry":{"coordinates":[-7.999300799999999,31.6209902],"type":"Point"},"placekey":"@7fk-j2q-q9f","address":{"country_code":"MA","formatted_address":"Boulevard Al Yarmouk, 40000 Marrakesh, Morocco","locality":"Marrakesh","postcode":"40000","region":"Marrakesh-Safi"}},"labels":["expo","science","technology"],"duration":5400,"start_local":"2024-05-30T14:00:00","end":"2024-05-30T14:30:00Z","end_local":"2024-05-30T15:30:00","updated":"2024-05-30T01:18:00Z"},{"title":"Modernize with RKUBE (GITEX Africa - Stand 11B-20)","description":"Sourced from predicthq.com - rKube Modernize your legacy applications with ease using 6 powerful R modules and achieve up to 10x faster time to market.","category":"expos","start":"2024-05-30T12:00:00Z","geo":{"geometry":{"coordinates":[-7.999300799999999,31.6209902],"type":"Point"},"placekey":"@7fk-j2q-q9f","address":{"country_code":"MA","formatted_address":"Boulevard Al Yarmouk, 40000 Marrakesh, Morocco","locality":"Marrakesh","postcode":"40000","region":"Marrakesh-Safi"}},"labels":["expo","science","technology"],"duration":3600,"start_local":"2024-05-30T13:00:00","end":"2024-05-30T13:00:00Z","end_local":"2024-05-30T14:00:00","updated":"2024-05-30T03:22:46Z"},{"title":"Observability with AI (GITEX Africa - Stand 11B-20)","description":"Sourced from predicthq.com - During this session, you'll learn how Instana can help make sense of your chaotic cloud-native environments and uncover anomalies.","category":"expos","start":"2024-05-30T10:30:00Z","geo":{"geometry":{"coordinates":[-7.999300799999999,31.6209902],"type":"Point"},"placekey":"@7fk-j2q-q9f","address":{"country_code":"MA","formatted_address":"Boulevard Al Yarmouk, 40000 Marrakesh, Morocco","locality":"Marrakesh","postcode":"40000","region":"Marrakesh-Safi"}},"labels":["expo","science","technology"],"duration":5400,"start_local":"2024-05-30T11:30:00","end":"2024-05-30T12:00:00Z","end_local":"2024-05-30T13:00:00","updated":"2024-06-05T09:58:55Z"},{"title":"Keynote / Innovation with SAAS Banking","description":"Sourced from predicthq.com - Découvrez comment le SaaS Core Banking révolutionne la banque avec efficacité, sécurité et conformité.","category":"conferences","start":"2024-05-30T09:45:00Z","geo":{"geometry":{"coordinates":[-7.999300799999999,31.6209902],"type":"Point"},"placekey":"@7fk-j2q-q9f","address":{"country_code":"MA","formatted_address":"Boulevard Al Yarmouk, 40000 Marrakesh, Morocco","locality":"Marrakesh","postcode":"40000","region":"Marrakesh-Safi"}},"labels":["business","conference"],"duration":1800,"start_local":"2024-05-30T10:45:00","end":"2024-05-30T10:15:00Z","end_local":"2024-05-30T11:15:00","updated":"2024-05-31T23:13:57Z"},{"title":"Gitex Africa","description":"Sourced from predicthq.com - We are delighted to announce that ASH will participate in Gitex Africa as an exhibitor, taking place in Marrakech, 29-31 May 2024.","category":"expos","start":"2024-05-30T09:00:00Z","geo":{"geometry":{"coordinates":[-7.989825799999999,31.6225224],"type":"Point"},"placekey":"@7fk-j2f-2ff","address":{"country_code":"MA","formatted_address":"40000 Marrakesh, Morocco","locality":"Marrakesh","postcode":"40000","region":"Marrakesh-Safi"}},"labels":["expo","science","technology"],"duration":28800,"start_local":"2024-05-30T10:00:00","end":"2024-05-30T17:00:00Z","end_local":"2024-05-30T18:00:00","updated":"2024-06-02T01:16:00Z"},{"title":"Keynote / Super Apps: Building Bridges in Digital Ecosystems","description":"Sourced from predicthq.com - Explorez comment les Super Apps transforment les interactions numériques en intégrant divers services dans une seule application.","category":"conferences","start":"2024-05-29T23:15:00Z","geo":{"geometry":{"coordinates":[-7.999300799999999,31.6209902],"type":"Point"},"placekey":"@7fk-j2q-q9f","address":{"country_code":"MA","formatted_address":"Boulevard Al Yarmouk, 40000 Marrakesh, Morocco","locality":"Marrakesh","postcode":"40000","region":"Marrakesh-Safi"}},"labels":["business","conference"],"duration":45000,"start_local":"2024-05-30T00:15:00","end":"2024-05-30T11:45:00Z","end_local":"2024-05-30T12:45:00","updated":"2024-05-23T12:01:46Z"},{"title":"Africa Data Protection - Événement de lancement","description":"Sourced from predicthq.com - Nous avons le plaisir de vous convier à l’événement de lancement de l’association Africa Data Protection à Marrakech.","category":"conferences","start":"2024-05-29T17:30:00Z","geo":{"geometry":{"coordinates":[-8.0203655,31.6468681],"type":"Point"},"placekey":"@7fk-j46-y9z","address":{"country_code":"MA","formatted_address":"40000 Marrakech, Morocco","locality":"Marrakech","postcode":"40000","region":"Marrakech-Safi"}},"labels":["conference","science","technology"],"duration":0,"start_local":"2024-05-29T18:30:00","end":"2024-05-29T17:30:00Z","end_local":"2024-05-29T18:30:00","updated":"2024-05-22T18:03:00Z"},{"title":"Convergence du marketing digital et intelligence des affaires","description":"Sourced from predicthq.com - Venez découvrir comment le marketing digital et l'intelligence des affaires se rejoignent pour maximiser votre succès!","category":"conferences","start":"2024-05-29T12:00:00Z","geo":{"geometry":{"coordinates":[-7.530243,33.5938305],"type":"Point"},"placekey":"@7fy-dc3-jn5","address":{"country_code":"MA","formatted_address":"Casablanca, Casablanca-Settat, Morocco","locality":"Casablanca","region":"Casablanca-Settat"}},"labels":["business","conference"],"duration":14400,"start_local":"2024-05-29T13:00:00","end":"2024-05-29T16:00:00Z","end_local":"2024-05-29T17:00:00","updated":"2024-06-12T05:22:44Z"},{"title":"Africa Smart Health à Gitex Africa","description":"Sourced from predicthq.com - We are delighted to announce that ASH will participate in Gitex Africa as an exhibitor, taking place in Marrakech, 29-31 May 2024.","category":"expos","start":"2024-05-29T09:00:00Z","geo":{"geometry":{"coordinates":[-7.989825799999999,31.6225224],"type":"Point"},"placekey":"@7fk-j2f-2ff","address":{"country_code":"MA","formatted_address":"40000 Marrakesh, Morocco","locality":"Marrakesh","postcode":"40000","region":"Marrakesh-Safi"}},"labels":["expo","science","technology"],"duration":30600,"start_local":"2024-05-29T10:00:00","end":"2024-05-29T17:30:00Z","end_local":"2024-05-29T18:30:00","updated":"2024-06-12T12:47:53Z"},{"title":"Keynote / The FrontLine Unit","description":"Sourced from predicthq.com - It's where the best minds in the industry come together to share their wisdom, spark inspiration, and drive real change.","category":"conferences","start":"2024-05-29T09:00:00Z","geo":{"geometry":{"coordinates":[-7.999300799999999,31.6209902],"type":"Point"},"placekey":"@7fk-j2q-q9f","address":{"country_code":"MA","formatted_address":"Boulevard Al Yarmouk, 40000 Marrakesh, Morocco","locality":"Marrakesh","postcode":"40000","region":"Marrakesh-Safi"}},"labels":["business","conference"],"duration":7200,"start_local":"2024-05-29T10:00:00","end":"2024-05-29T11:00:00Z","end_local":"2024-05-29T12:00:00","updated":"2024-06-05T04:14:44Z"},{"title":"SIFEM French-speaking international congress of pedagogy in health sciences","description":"Sourced from predicthq.com","category":"conferences","start":"2024-05-29T08:00:00Z","geo":{"geometry":{"coordinates":[-8.012942,31.6421716],"type":"Point"},"placekey":"@7fk-j47-6ff","address":{"country_code":"MA","formatted_address":"Marrakech, Marrakech-Tensift-Al Haouz, Morocco","locality":"Marrakech","region":"Marrakech-Tensift-Al Haouz"}},"labels":["conference"],"duration":205200,"start_local":"2024-05-29T09:00:00","end":"2024-05-31T17:00:00Z","end_local":"2024-05-31T18:00:00","updated":"2024-05-28T02:23:48Z"},{"title":"Amima Spring Day","description":"Sourced from predicthq.com","category":"conferences","start":"2024-05-29T08:00:00Z","geo":{"geometry":{"coordinates":[-8.012942,31.642172],"type":"Point"},"placekey":"@7fk-j47-6ff","address":{"country_code":"MA","formatted_address":"Semlalia, 40000 Marrakech, Morocco","locality":"Marrakech","postcode":"40000","region":"Marrakech-Safi"}},"labels":["conference"],"duration":32400,"start_local":"2024-05-29T09:00:00","end":"2024-05-29T17:00:00Z","end_local":"2024-05-29T18:00:00","updated":"2024-07-02T06:58:45Z"},{"title":"Constantinople and Ablaye Cissoko","description":"Sourced from predicthq.com","category":"concerts","start":"2024-05-28T20:00:00Z","geo":{"geometry":{"coordinates":[-5.0078451,34.0181246],"type":"Point"},"placekey":"@7b8-m7f-zpv","address":{"country_code":"MA","formatted_address":"2X9R+6VR Jardin Jnane SBIL, Fes 30050, Morocco","postcode":"30050","locality":"Fes","region":"Fez-Meknès"}},"labels":["concert","music"],"duration":0,"start_local":"2024-05-28T21:00:00","end":"2024-05-28T20:00:00Z","end_local":"2024-05-28T21:00:00","updated":"2024-06-11T20:01:15Z"},{"title":"Botola Pro - Ittihad Tanger vs Raja Casablanca","description":"Sourced from predicthq.com","category":"sports","start":"2024-05-28T18:00:00Z","geo":{"geometry":{"coordinates":[-5.8580303,35.740974],"type":"Point"},"placekey":"@7dj-4hf-d7q","address":{"country_code":"MA","formatted_address":"Tangier, Tangier-Tetouan, Morocco","locality":"Tangier","region":"Tangier-Tetouan"}},"labels":["soccer","sport"],"duration":0,"start_local":"2024-05-28T19:00:00","end":"2024-05-28T18:00:00Z","end_local":"2024-05-28T19:00:00","updated":"2024-06-12T07:41:32Z"},{"title":"Botola Pro - Youssoufia Berrechid vs FUS Rabat","description":"Sourced from predicthq.com","category":"sports","start":"2024-05-28T18:00:00Z","geo":{"geometry":{"coordinates":[-7.594165205955505,33.28102339756449],"type":"Point"},"placekey":"@7fy-6q3-qs5","address":{"country_code":"MA","formatted_address":"7CJ4+CJ7, Berrechid, Morocco","locality":"Berrechid","region":"Casablanca-Settat"}},"labels":["soccer","sport"],"duration":0,"start_local":"2024-05-28T19:00:00","end":"2024-05-28T18:00:00Z","end_local":"2024-05-28T19:00:00","updated":"2024-06-12T06:52:13Z"},{"title":"Botola Pro - Mouloudia Oujda vs Renaissance Zemamra","description":"Sourced from predicthq.com","category":"sports","start":"2024-05-28T18:00:00Z","geo":{"geometry":{"coordinates":[-1.9345057010650635,34.659607546768775],"type":"Point"},"placekey":"@79r-w2n-xwk","address":{"country_code":"MA","formatted_address":"M358+R4X, Oujda, Morocco","locality":"Oujda","region":"Oriental"}},"labels":["soccer","sport"],"duration":0,"start_local":"2024-05-28T19:00:00","end":"2024-05-28T18:00:00Z","end_local":"2024-05-28T19:00:00","updated":"2024-06-11T21:38:23Z"},{"title":"Botola Pro - RSB Berkane vs Chabab Mohammédia","description":"Sourced from predicthq.com","category":"sports","start":"2024-05-28T18:00:00Z","geo":{"geometry":{"coordinates":[-2.3261726,34.9275921],"type":"Point"},"placekey":"@7b3-3xj-33q","address":{"country_code":"MA","formatted_address":"WMGF+VGX, Bd de la victoire, Berkane, Morocco","locality":"Berkane","region":"Oriental"}},"labels":["soccer","sport"],"duration":0,"start_local":"2024-05-28T19:00:00","end":"2024-05-28T18:00:00Z","end_local":"2024-05-28T19:00:00","updated":"2024-06-12T10:51:27Z"},{"title":"Botola Pro - FAR Rabat vs JS Soualem","description":"Sourced from predicthq.com","category":"sports","start":"2024-05-28T18:00:00Z","geo":{"geometry":{"coordinates":[-6.5713322,34.2525789],"type":"Point"},"placekey":"@7fx-pft-qmk","address":{"country_code":"MA","formatted_address":"Kenitra, Gharb-Chrarda-Beni Hssen, Morocco","locality":"Kenitra","region":"Gharb-Chrarda-Beni Hssen"}},"labels":["soccer","sport"],"duration":0,"start_local":"2024-05-28T19:00:00","end":"2024-05-28T18:00:00Z","end_local":"2024-05-28T19:00:00","updated":"2024-06-11T22:05:52Z"},{"title":"Botola Pro - Wydad Casablanca vs Olympic Safi","description":"Sourced from predicthq.com","category":"sports","start":"2024-05-28T18:00:00Z","geo":{"geometry":{"coordinates":[-7.399072051048279,33.695556970582416],"type":"Point"},"placekey":"@7fy-cmw-nqz","address":{"country_code":"MA","formatted_address":"MJW2+V64, N9, Mohammedia, Morocco","locality":"Mohammedia","region":"Casablanca-Settat"}},"labels":["closed-doors","soccer","sport"],"duration":0,"start_local":"2024-05-28T19:00:00","end":"2024-05-28T18:00:00Z","end_local":"2024-05-28T19:00:00","updated":"2024-06-12T08:57:29Z"},{"title":"Botola Pro - UTS Rabat vs Moghreb Tétouan","description":"Sourced from predicthq.com","category":"sports","start":"2024-05-27T19:00:00Z","geo":{"geometry":{"coordinates":[-6.824183464,33.97577397],"type":"Point"},"placekey":"@7fy-n6d-xyv","address":{"country_code":"MA","formatted_address":"P4014, Rabat, Morocco","locality":"Rabat","region":"Rabat-Salé-Kénitra"}},"labels":["soccer","sport"],"duration":0,"start_local":"2024-05-27T20:00:00","end":"2024-05-27T19:00:00Z","end_local":"2024-05-27T20:00:00","updated":"2024-06-11T21:52:05Z"},{"title":"Botola Pro - Maghreb Fès vs Hassania Agadir","description":"Sourced from predicthq.com","category":"sports","start":"2024-05-27T17:00:00Z","geo":{"geometry":{"coordinates":[-4.999358654022217,34.04792140378408],"type":"Point"},"placekey":"@7b8-m94-yjv","address":{"country_code":"MA","formatted_address":"ملعب كرة القدم الحسن التاني, 22X2+56H, Fes 30050, Morocco","postcode":"30050","locality":"Fes","region":"Fez-Meknès"}},"labels":["soccer","sport"],"duration":0,"start_local":"2024-05-27T18:00:00","end":"2024-05-27T17:00:00Z","end_local":"2024-05-27T18:00:00","updated":"2024-06-11T21:33:56Z"},{"title":"Creation YATRA – SAFAR","description":"Sourced from predicthq.com - Fez Festival of World Sacred Music 2024 | 27th Edition","category":"concerts","start":"2024-05-26T20:00:00Z","geo":{"geometry":{"coordinates":[-4.991742599999999,34.0593305],"type":"Point"},"placekey":"@7b8-m8z-8jv","address":{"country_code":"MA","formatted_address":"R501, Fès, Morocco","locality":"Fès","region":"Fès-Meknès"}},"labels":["concert","music"],"duration":7200,"start_local":"2024-05-26T21:00:00","end":"2024-05-26T22:00:00Z","end_local":"2024-05-26T23:00:00","updated":"2024-06-12T03:23:47Z"},{"title":"Botola 2 - USM Oujda vs Khouribga","description":"Sourced from predicthq.com","category":"sports","start":"2024-05-26T16:00:00Z","geo":{"geometry":{"coordinates":[-1.9345057010650635,34.659607546768775],"type":"Point"},"placekey":"@79r-w2n-xwk","address":{"country_code":"MA","formatted_address":"M358+R4X, Oujda, Morocco","locality":"Oujda","region":"Oriental"}},"labels":["soccer","sport"],"duration":0,"start_local":"2024-05-26T17:00:00","end":"2024-05-26T16:00:00Z","end_local":"2024-05-26T17:00:00","updated":"2024-06-12T03:21:57Z"},{"title":"Botola 2 - Difaâ El Jadida vs AS Salé","description":"Sourced from predicthq.com","category":"sports","start":"2024-05-26T16:00:00Z","geo":{"geometry":{"coordinates":[-8.4933848,33.2414934],"type":"Point"},"placekey":"@7fm-3dm-dd9","address":{"country_code":"MA","formatted_address":"El Jadida, Doukkala-Abda, Morocco","locality":"El Jadida","region":"Doukkala-Abda"}},"labels":["soccer","sport"],"duration":0,"start_local":"2024-05-26T17:00:00","end":"2024-05-26T16:00:00Z","end_local":"2024-05-26T17:00:00","updated":"2024-06-12T13:51:40Z"},{"title":"Botola 2 - Chabab Ben Guerir vs Wydad Fès","description":"Sourced from predicthq.com","category":"sports","start":"2024-05-26T16:00:00Z","geo":{"geometry":{"coordinates":[-7.954272317860391,32.240328632610215],"type":"Point"},"placekey":"@7fj-rzz-28v","address":{"country_code":"MA","formatted_address":"722Q+3MG, Ben Guerir, Morocco","locality":"Ben Guerir","region":"Marrakesh-Safi"}},"labels":["soccer","sport"],"duration":0,"start_local":"2024-05-26T17:00:00","end":"2024-05-26T16:00:00Z","end_local":"2024-05-26T17:00:00","updated":"2024-06-11T22:49:34Z"},{"title":"Botola 2 - Ittifaq Marrakech vs Raja Beni Mellal","description":"Sourced from predicthq.com","category":"sports","start":"2024-05-26T16:00:00Z","geo":{"geometry":{"coordinates":[-7.9797219,31.7074542],"type":"Point"},"placekey":"@7fj-wnf-hdv","address":{"country_code":"MA","formatted_address":"N9, Ouahat Sidi Brahim, Morocco","locality":"Ouahat Sidi Brahim","region":"Marrakech-Tensift-Al Haouz"}},"labels":["soccer","sport"],"duration":0,"start_local":"2024-05-26T17:00:00","end":"2024-05-26T16:00:00Z","end_local":"2024-05-26T17:00:00","updated":"2024-06-12T12:22:08Z"},{"title":"Botola 2 - Rapide Oued Zem vs Kawkab Marrakech","description":"Sourced from predicthq.com","category":"sports","start":"2024-05-26T16:00:00Z","geo":{"geometry":{"coordinates":[-6.5653274,32.8607722],"type":"Point"},"placekey":"@7fn-zq3-6x5","address":{"country_code":"MA","formatted_address":"Oued Zem, Région de Chaouia-Ouardigha, Morocco","locality":"Oued Zem","region":"Région de Chaouia-Ouardigha"}},"labels":["soccer","sport"],"duration":0,"start_local":"2024-05-26T17:00:00","end":"2024-05-26T16:00:00Z","end_local":"2024-05-26T17:00:00","updated":"2024-06-12T02:56:39Z"},{"title":"Botola 2 - CODM Meknès vs Olympique Dcheïra","description":"Sourced from predicthq.com","category":"sports","start":"2024-05-26T16:00:00Z","geo":{"geometry":{"coordinates":[-5.5395555496,33.8911155909],"type":"Point"},"placekey":"@7b8-sfz-28v","address":{"country_code":"MA","formatted_address":"Boulevard Moulay Youssef\n50 000 مكناس\nالمغرب","postcode":"50 000","locality":"مكناس","region":"Région de Meknès-Tafilalet"}},"labels":["soccer","sport"],"duration":0,"start_local":"2024-05-26T17:00:00","end":"2024-05-26T16:00:00Z","end_local":"2024-05-26T17:00:00","updated":"2024-06-12T18:55:44Z"},{"title":"Botola 2 - Chabab Atlas Khénifra vs Racing de Casablanca","description":"Sourced from predicthq.com","category":"sports","start":"2024-05-26T16:00:00Z","geo":{"geometry":{"coordinates":[-5.672118,32.9283917],"type":"Point"},"placekey":"@7fp-53j-4d9","address":{"country_code":"MA","formatted_address":"Khenifra, Meknes-Tafilalet, Morocco","locality":"Khenifra","region":"Meknes-Tafilalet"}},"labels":["soccer","sport"],"duration":0,"start_local":"2024-05-26T17:00:00","end":"2024-05-26T16:00:00Z","end_local":"2024-05-26T17:00:00","updated":"2024-06-12T00:27:55Z"},{"title":"Botola 2 - Stade Marocain vs El Massira","description":"Sourced from predicthq.com","category":"sports","start":"2024-05-26T16:00:00Z","geo":{"geometry":{"coordinates":[-6.840684413909912,34.00720176829028],"type":"Point"},"placekey":"@7fx-r6g-789","address":{"country_code":"MA","formatted_address":"2545+RPJ, Rabat, Morocco","locality":"Rabat","region":"Rabat-Salé-Kénitra"}},"labels":["soccer","sport"],"duration":0,"start_local":"2024-05-26T17:00:00","end":"2024-05-26T16:00:00Z","end_local":"2024-05-26T17:00:00","updated":"2024-06-12T00:06:58Z"},{"title":"International Symposium on Soil Organic Matter","description":"Sourced from predicthq.com","category":"conferences","start":"2024-05-26T08:00:00Z","geo":{"geometry":{"coordinates":[-7.941593,32.214021],"type":"Point"},"placekey":"@7fj-ry7-5fz","address":{"country_code":"MA","formatted_address":"Ben Guerir, Marrakesh-Safi, Morocco","locality":"Ben Guerir","region":"Marrakesh-Safi"}},"labels":["conference"],"duration":464400,"start_local":"2024-05-26T09:00:00","end":"2024-05-31T17:00:00Z","end_local":"2024-05-31T18:00:00","updated":"2024-05-28T10:31:23Z"},{"title":"SAMI YUSUF IN CONCERT","description":"Sourced from predicthq.com - Fez Festival of World Sacred Music 2024 | 27th Edition","category":"concerts","start":"2024-05-25T20:00:00Z","geo":{"geometry":{"coordinates":[-4.991742599999999,34.0593305],"type":"Point"},"placekey":"@7b8-m8z-8jv","address":{"country_code":"MA","formatted_address":"R501, Fès, Morocco","locality":"Fès","region":"Fès-Meknès"}},"labels":["concert","music"],"duration":7200,"start_local":"2024-05-25T21:00:00","end":"2024-05-25T22:00:00Z","end_local":"2024-05-25T23:00:00","updated":"2024-06-12T02:18:53Z"},{"title":"Agri-Food Tech Incubator Demo Day - 2nd Cohort","description":"Sourced from predicthq.com - Join our demo day to discover more about the startups of the second cohort of Agri-Food Tech incubator!","category":"conferences","start":"2024-05-25T13:00:00Z","geo":{"geometry":{"coordinates":[-7.9293247,32.2121119],"type":"Point"},"placekey":"@7fj-ry5-zvf","address":{"country_code":"MA","formatted_address":"Ben Guerir, Marrakech-Safi, Morocco","locality":"Ben Guerir","region":"Marrakech-Safi"}},"labels":["conference","science","technology"],"duration":14400,"start_local":"2024-05-25T14:00:00","end":"2024-05-25T17:00:00Z","end_local":"2024-05-25T18:00:00","updated":"2024-06-05T15:21:43Z"},{"title":"Creation – « Zyriab or the Fifth String »","description":"Sourced from predicthq.com - Fez Festival of World Sacred Music 2024 | 27th Edition","category":"concerts","start":"2024-05-24T20:00:00Z","geo":{"geometry":{"coordinates":[-4.991742599999999,34.0593305],"type":"Point"},"placekey":"@7b8-m8z-8jv","address":{"country_code":"MA","formatted_address":"R501, Fès, Morocco","locality":"Fès","region":"Fès-Meknès"}},"labels":["concert","music","religion"],"duration":7200,"start_local":"2024-05-24T21:00:00","end":"2024-05-24T22:00:00Z","end_local":"2024-05-24T23:00:00","updated":"2024-06-12T13:05:29Z"},{"title":"Botola Pro - Raja Casablanca vs RSB Berkane","description":"Sourced from predicthq.com","category":"sports","start":"2024-05-24T18:00:00Z","geo":{"geometry":{"coordinates":[-7.594165205955505,33.28102339756449],"type":"Point"},"placekey":"@7fy-6q3-qs5","address":{"country_code":"MA","formatted_address":"7CJ4+CJ7, Berrechid, Morocco","locality":"Berrechid","region":"Casablanca-Settat"}},"labels":["soccer","sport"],"duration":0,"start_local":"2024-05-24T19:00:00","end":"2024-05-24T18:00:00Z","end_local":"2024-05-24T19:00:00","updated":"2024-06-12T03:14:05Z"},{"title":"International Business Research Symposium","description":"Sourced from predicthq.com","category":"conferences","start":"2024-05-24T08:00:00Z","geo":{"geometry":{"coordinates":[-5.106891,33.539508],"type":"Point"},"placekey":"@7b8-q2c-tvz","address":{"country_code":"MA","formatted_address":"53000 Ifran, Morocco","locality":"Ifran","postcode":"53000","region":"Fez-Meknès"}},"labels":["conference"],"duration":118800,"start_local":"2024-05-24T09:00:00","end":"2024-05-25T17:00:00Z","end_local":"2024-05-25T18:00:00","updated":"2024-06-04T22:47:17Z"},{"title":"The Fourth Workshop on the Applications of Stochastic Models in Risks' Management","description":"Sourced from predicthq.com","category":"expos","start":"2024-05-24T08:00:00Z","geo":{"geometry":{"coordinates":[-6.8627,33.989939],"type":"Point"},"placekey":"@7fx-r6k-qfz","address":{"country_code":"MA","formatted_address":"Avenue Mohamed Ben Abdellah Erregragui, Rabat, Morocco","locality":"Rabat","region":"Rabat-Salé-Kénitra"}},"labels":["expo"],"duration":118800,"start_local":"2024-05-24T09:00:00","end":"2024-05-25T17:00:00Z","end_local":"2024-05-25T18:00:00","updated":"2024-07-02T11:36:48Z"},{"title":"Festival de Fès - Musique sacrées du monde","description":"Sourced from predicthq.com","category":"festivals","start":"2024-05-23T23:00:00Z","geo":{"geometry":{"coordinates":[-5.0078451,34.0181246],"type":"Point"},"placekey":"@7b8-m7f-zpv","address":{"country_code":"MA","formatted_address":"2X9R+6VR Jardin Jnane SBIL, Fes 30050, Morocco","postcode":"30050","locality":"Fes","region":"Fez-Meknès"}},"labels":["festival","music"],"duration":777599,"start_local":"2024-05-24T00:00:00","end":"2024-06-01T22:59:59Z","end_local":"2024-06-01T23:59:59","updated":"2024-06-05T10:29:46Z"},{"title":"l'entrepreneuriat et la jeunesse  marocaine","description":"Sourced from predicthq.com - Comment Encourager l'Esprit d'Entrepreneuriat chez la Jeunesse Marocaine ?","category":"conferences","start":"2024-05-23T13:30:00Z","geo":{"geometry":{"coordinates":[-9.5303284,30.4040064],"type":"Point"},"placekey":"@7fk-6gq-73q","address":{"country_code":"MA","formatted_address":"Avenue Abdellah Guenoun, 80000 Agadir, Morocco","locality":"Agadir","postcode":"80000","region":"Souss Massa"}},"labels":["business","conference"],"duration":16200,"start_local":"2024-05-23T14:30:00","end":"2024-05-23T18:00:00Z","end_local":"2024-05-23T19:00:00","updated":"2024-06-05T06:10:49Z"},{"title":"E-Learning and Smart Engineering Systems Conference","description":"Sourced from predicthq.com","category":"conferences","start":"2024-05-23T08:00:00Z","geo":{"geometry":{"coordinates":[-5.364568,35.560596],"type":"Point"},"placekey":"@7dj-796-bx5","address":{"country_code":"MA","formatted_address":"Av. Khenifra, Tétouan 93000, Morocco","postcode":"93000","locality":"Tétouan","region":"Tanger-Tétouan-Al Hoceïma"}},"labels":["conference"],"duration":205200,"start_local":"2024-05-23T09:00:00","end":"2024-05-25T17:00:00Z","end_local":"2024-05-25T18:00:00","updated":"2024-07-02T11:55:57Z"},{"title":"Morocco Medical Conferences & Exhibition","description":"Sourced from predicthq.com","category":"expos","start":"2024-05-22T23:00:00Z","geo":{"geometry":{"coordinates":[-8.382128,33.267255],"type":"Point"},"placekey":"@7fy-f9x-4vz","address":{"country_code":"MA","formatted_address":"Ville d&#039;El Jadida\nRoute National 1 vers Azemmour. Region Doukala Aabda، N1\nMorocco","locality":"El Jadida"}},"labels":["expo"],"duration":345599,"start_local":"2024-05-23T00:00:00","end":"2024-05-26T22:59:59Z","end_local":"2024-05-26T23:59:59","updated":"2024-05-31T22:44:06Z"},{"title":"Checkmate & Connect: Chess and Networking for Entrepreneurs","description":"Sourced from predicthq.com - Join us for an exciting evening of strategic moves and meaningful connections at 'Checkmate & Connect: Chess and Networking for Entrepreneur","category":"conferences","start":"2024-05-22T17:00:00Z","geo":{"geometry":{"coordinates":[-7.610845599999998,33.5834709],"type":"Point"},"placekey":"@7fy-dbc-tjv","address":{"country_code":"MA","formatted_address":"Boulevard de la Résistance, 20250 Casablanca, Morocco","locality":"Casablanca","postcode":"20250","region":"Casablanca-Settat"}},"labels":["business","conference"],"duration":10800,"start_local":"2024-05-22T18:00:00","end":"2024-05-22T20:00:00Z","end_local":"2024-05-22T21:00:00","updated":"2024-06-05T14:31:29Z"},{"title":"International Multi-Network Hybrid Conference on Mining","description":"Sourced from predicthq.com","category":"conferences","start":"2024-05-21T08:00:00Z","geo":{"geometry":{"coordinates":[-8.006361,31.622653],"type":"Point"},"placekey":"@7fk-j2q-k75","address":{"country_code":"MA","formatted_address":"JXCV+X8G, Marrakesh 40000, Morocco","postcode":"40000","locality":"Marrakesh","region":"Marrakesh-Safi"}},"labels":["conference"],"duration":205200,"start_local":"2024-05-21T09:00:00","end":"2024-05-23T17:00:00Z","end_local":"2024-05-23T18:00:00","updated":"2024-05-27T17:40:11Z"},{"title":"Industrial Systems and Processes SPIn","description":"Sourced from predicthq.com","category":"conferences","start":"2024-05-21T08:00:00Z","geo":{"geometry":{"coordinates":[-6.913764,32.897176],"type":"Point"},"placekey":"@7fn-ynh-68v","address":{"country_code":"MA","formatted_address":"Boulevard Beni Amir, 25000 Khouribga, Morocco","locality":"Khouribga","postcode":"25000","region":"Béni Mellal-Khénifra"}},"labels":["conference"],"duration":205200,"start_local":"2024-05-21T09:00:00","end":"2024-05-23T17:00:00Z","end_local":"2024-05-23T18:00:00","updated":"2024-05-27T07:18:56Z"},{"title":"Subsistence Marketplaces Bottom-Up Immersion Conference","description":"Sourced from predicthq.com","category":"conferences","start":"2024-05-21T08:00:00Z","geo":{"geometry":{"coordinates":[-7.640382,33.535137],"type":"Point"},"placekey":"@7fy-7ck-wp9","address":{"country_code":"MA","formatted_address":"Dar-el-Beida, Casablanca-Settat, Morocco","locality":"Dar-el-Beida","region":"Casablanca-Settat"}},"labels":["conference"],"duration":291600,"start_local":"2024-05-21T09:00:00","end":"2024-05-24T17:00:00Z","end_local":"2024-05-24T18:00:00","updated":"2024-06-03T18:44:27Z"},{"title":"International Harbour Master Congress","description":"Sourced from predicthq.com","category":"conferences","start":"2024-05-21T08:00:00Z","geo":{"geometry":{"coordinates":[-5.500699,35.884501],"type":"Point"},"placekey":"@7dj-49z-brk","address":{"country_code":"MA","formatted_address":"Eddalya, Tanger-Tétouan-Al Hoceïma, Morocco","locality":"Eddalya","region":"Tanger-Tétouan-Al Hoceïma"}},"labels":["conference"],"duration":291600,"start_local":"2024-05-21T09:00:00","end":"2024-05-24T17:00:00Z","end_local":"2024-05-24T18:00:00","updated":"2024-06-04T02:14:21Z"},{"title":"14th International Harbour Masters Congress 2024.","description":"Sourced from predicthq.com - Get ready for the Marine Adventure, where international harbour masters meet to discuss burning topics driving change in todays ports.","category":"conferences","start":"2024-05-21T08:00:00Z","geo":{"geometry":{"coordinates":[-5.496135358937231,35.88099695946291],"type":"Point"},"placekey":"@7dj-49y-j9z","address":{"country_code":"MA","formatted_address":"Eddalya, Tanger-Tétouan-Al Hoceïma, Morocco","locality":"Eddalya","region":"Tanger-Tétouan-Al Hoceïma"}},"labels":["conference","outdoor"],"duration":284400,"start_local":"2024-05-21T09:00:00","end":"2024-05-24T15:00:00Z","end_local":"2024-05-24T16:00:00","updated":"2024-06-05T03:39:56Z"},{"title":"Botola 2 - Wydad Fès vs Difaâ El Jadida","description":"Sourced from predicthq.com","category":"sports","start":"2024-05-20T16:00:00Z","geo":{"geometry":{"coordinates":[-4.999358654022217,34.04792140378408],"type":"Point"},"placekey":"@7b8-m94-yjv","address":{"country_code":"MA","formatted_address":"ملعب كرة القدم الحسن التاني, 22X2+56H, Fes 30050, Morocco","postcode":"30050","locality":"Fes","region":"Fez-Meknès"}},"labels":["soccer","sport"],"duration":0,"start_local":"2024-05-20T17:00:00","end":"2024-05-20T16:00:00Z","end_local":"2024-05-20T17:00:00","updated":"2024-06-12T11:13:36Z"},{"title":"Botola 2 - Kawkab Marrakech vs CODM Meknès","description":"Sourced from predicthq.com","category":"sports","start":"2024-05-20T16:00:00Z","geo":{"geometry":{"coordinates":[-7.9797219,31.7074542],"type":"Point"},"placekey":"@7fj-wnf-hdv","address":{"country_code":"MA","formatted_address":"N9, Ouahat Sidi Brahim, Morocco","locality":"Ouahat Sidi Brahim","region":"Marrakech-Tensift-Al Haouz"}},"labels":["soccer","sport"],"duration":0,"start_local":"2024-05-20T17:00:00","end":"2024-05-20T16:00:00Z","end_local":"2024-05-20T17:00:00","updated":"2024-06-12T09:21:06Z"},{"title":"Botola 2 - Khouribga vs Rapide Oued Zem","description":"Sourced from predicthq.com","category":"sports","start":"2024-05-20T16:00:00Z","geo":{"geometry":{"coordinates":[-6.907339990139008,32.87818607285678],"type":"Point"},"placekey":"@7fn-ynb-cqz","address":{"country_code":"MA","formatted_address":"V3HV+83F, Khouribga, Morocco","locality":"Khouribga","region":"Béni Mellal-Khenifra"}},"labels":["soccer","sport"],"duration":0,"start_local":"2024-05-20T17:00:00","end":"2024-05-20T16:00:00Z","end_local":"2024-05-20T17:00:00","updated":"2024-06-12T03:07:37Z"},{"title":"Botola 2 - Racing de Casablanca vs Stade Marocain","description":"Sourced from predicthq.com","category":"sports","start":"2024-05-20T16:00:00Z","geo":{"geometry":{"coordinates":[-7.6517593,33.5575451],"type":"Point"},"placekey":"@7fy-byk-bzf","address":{"country_code":"MA","formatted_address":"Boulevard Al Abtal, Casablanca, Morocco","locality":"Casablanca","region":"Grand Casablanca"}},"labels":["soccer","sport"],"duration":0,"start_local":"2024-05-20T17:00:00","end":"2024-05-20T16:00:00Z","end_local":"2024-05-20T17:00:00","updated":"2024-06-11T21:16:06Z"},{"title":"Botola 2 - AS Salé vs Chabab Ben Guerir","description":"Sourced from predicthq.com","category":"sports","start":"2024-05-20T16:00:00Z","geo":{"geometry":{"coordinates":[-6.7972464,34.0333997],"type":"Point"},"placekey":"@7fy-mwx-94v","address":{"country_code":"MA","formatted_address":"Salé, Rabat-Sale-Zemmour-Zaer, Morocco","locality":"Salé","region":"Rabat-Sale-Zemmour-Zaer"}},"labels":["soccer","sport"],"duration":0,"start_local":"2024-05-20T17:00:00","end":"2024-05-20T16:00:00Z","end_local":"2024-05-20T17:00:00","updated":"2024-06-12T00:06:17Z"},{"title":"Botola 2 - Olympique Dcheïra vs Ittifaq Marrakech","description":"Sourced from predicthq.com","category":"sports","start":"2024-05-20T16:00:00Z","geo":{"geometry":{"coordinates":[-9.5544189,30.355837582],"type":"Point"},"placekey":"@7fk-6f6-54v","address":{"country_code":"MA","formatted_address":"9C4W+86V, Inezgane 80000, Morocco","postcode":"80000","locality":"Inezgane","region":"Souss Massa"}},"labels":["soccer","sport"],"duration":0,"start_local":"2024-05-20T17:00:00","end":"2024-05-20T16:00:00Z","end_local":"2024-05-20T17:00:00","updated":"2024-06-12T04:07:19Z"},{"title":"Botola 2 - Raja Beni Mellal vs USM Oujda","description":"Sourced from predicthq.com","category":"sports","start":"2024-05-20T16:00:00Z","geo":{"geometry":{"coordinates":[-6.356132626533508,32.331265394587184],"type":"Point"},"placekey":"@7fn-vy2-d7q","address":{"country_code":"MA","formatted_address":"Beni-Mellal, Morocco","locality":"Beni-Mellal","region":"Béni Mellal-Khenifra"}},"labels":["soccer","sport"],"duration":0,"start_local":"2024-05-20T17:00:00","end":"2024-05-20T16:00:00Z","end_local":"2024-05-20T17:00:00","updated":"2024-06-12T10:56:42Z"},{"title":"International Conference on Mechanics, Materials, and Energy","description":"Sourced from predicthq.com","category":"conferences","start":"2024-05-20T08:00:00Z","geo":{"geometry":{"coordinates":[-6.725293,33.985242],"type":"Point"},"placekey":"@7fy-n6q-ckf","address":{"country_code":"MA","formatted_address":"Rabat-Salé-Kénitra, Morocco","region":"Rabat-Salé-Kénitra"}},"labels":["conference"],"duration":205200,"start_local":"2024-05-20T09:00:00","end":"2024-05-22T17:00:00Z","end_local":"2024-05-22T18:00:00","updated":"2024-05-27T06:41:46Z"},{"title":"AI & Innovation Summit at Artificial Intelligence Center of Morocco","description":"Sourced from predicthq.com - Experience an inspiring day of talks, panels, workshops and more geared to highlight the future of Innovation and Empowered Leadership.","category":"conferences","start":"2024-05-20T08:00:00Z","geo":{"geometry":{"coordinates":[-6.8498129,33.9715904],"type":"Point"},"placekey":"@7fy-n7f-9vf","address":{"country_code":"MA","formatted_address":"Rabat, Rabat-Salé-Kénitra, Morocco","locality":"Rabat","region":"Rabat-Salé-Kénitra"}},"labels":["business","conference"],"duration":25200,"start_local":"2024-05-20T09:00:00","end":"2024-05-20T15:00:00Z","end_local":"2024-05-20T16:00:00","updated":"2024-06-05T00:25:39Z"},{"title":"Solutions de marketing et demandes de prêts pour les coopératives et les petites entreprises","description":"Sourced from predicthq.com - Viens rencontrer des experts en marketing et financement pour aider les coopératives et petites entreprises à trouver des solutions pour se","category":"conferences","start":"2024-05-19T14:00:00Z","geo":{"geometry":{"coordinates":[-7.9949944,31.61194189999999],"type":"Point"},"placekey":"@7fk-j2p-yn5","address":{"country_code":"MA","formatted_address":"40000 Marrakesh, Morocco","locality":"Marrakesh","postcode":"40000","region":"Marrakesh-Safi"}},"labels":["business","conference"],"duration":12600,"start_local":"2024-05-19T15:00:00","end":"2024-05-19T17:30:00Z","end_local":"2024-05-19T18:30:00","updated":"2024-06-05T09:36:13Z"},{"title":"Nuit Philosophique","description":"Sourced from predicthq.com - « Penser autrement !? »","category":"conferences","start":"2024-05-18T19:00:00Z","geo":{"geometry":{"coordinates":[-7.969025800000001,31.68531549999999],"type":"Point"},"placekey":"@7fj-w77-8d9","address":{"country_code":"MA","formatted_address":"40000 Marrakesh, Morocco","locality":"Marrakesh","postcode":"40000","region":"Marrakesh-Safi"}},"labels":["community","conference"],"duration":12600,"start_local":"2024-05-18T20:00:00","end":"2024-05-18T22:30:00Z","end_local":"2024-05-18T23:30:00","updated":"2024-06-05T07:30:30Z"},{"title":"Alimento, Exploring Food Systems based on Reciprocity and Circularity","description":"Sourced from predicthq.com - ALIMENTO investigates the act of nourishing and brings forward the topic of anthropophagy to explore food systems","category":"conferences","start":"2024-05-18T16:30:00Z","geo":{"geometry":{"coordinates":[-7.989767300000001,31.63395580000001],"type":"Point"},"placekey":"@7fk-j2m-2ff","address":{"country_code":"MA","formatted_address":"Derb EI Ferrane, 40000 Marrakesh, Morocco","locality":"Marrakesh","postcode":"40000","region":"Marrakesh-Safi"}},"labels":["conference","food"],"duration":5400,"start_local":"2024-05-18T17:30:00","end":"2024-05-18T18:00:00Z","end_local":"2024-05-18T19:00:00","updated":"2024-06-05T00:24:57Z"},{"title":"CONFÉRENCE SANTÉ AGADIR","description":"Sourced from predicthq.com - Évènement présentant la cause des maladies de notre siècle, la résistance à l'insuline et les solutions naturelles pour en sortir.","category":"conferences","start":"2024-05-18T14:00:01Z","geo":{"geometry":{"coordinates":[-9.5846366,30.4135009],"type":"Point"},"placekey":"@7fk-6gv-jsq","address":{"country_code":"MA","formatted_address":"80000 Agadir, Morocco","locality":"Agadir","postcode":"80000","region":"Souss Massa"}},"labels":["conference","health"],"duration":14400,"start_local":"2024-05-18T15:00:01","end":"2024-05-18T18:00:01Z","end_local":"2024-05-18T19:00:01","updated":"2024-06-05T16:11:25Z"},{"title":"Business Talks","description":"Sourced from predicthq.com - Get ready to be motivated, educated, and inspired at Business Talks!","category":"conferences","start":"2024-05-18T14:00:00Z","geo":{"geometry":{"coordinates":[-7.6118972,33.5736526],"type":"Point"},"placekey":"@7fy-dbd-4gk","address":{"country_code":"MA","formatted_address":"Avenue 2 Mars, 20250 Dar-el-Beida, Morocco","locality":"Dar-el-Beida","postcode":"20250","region":"Casablanca-Settat"}},"labels":["business","conference"],"duration":10800,"start_local":"2024-05-18T15:00:00","end":"2024-05-18T17:00:00Z","end_local":"2024-05-18T18:00:00","updated":"2024-06-05T08:30:01Z"},{"title":"Edible Bodies, Edible Landscapes","description":"Sourced from predicthq.com - Exploring the idea of foraging as a tool for social and ecological movement building, a participatory performance lecture on food and taste","category":"festivals","start":"2024-05-18T08:30:00Z","geo":{"geometry":{"coordinates":[-8.0718123,31.6510366],"type":"Point"},"placekey":"@7fk-j26-qj9","address":{"country_code":"MA","formatted_address":"Route de Targa, Marrakech, Morocco","locality":"Marrakech","region":"Marrakech-Safi"}},"labels":["festival","food"],"duration":7200,"start_local":"2024-05-18T09:30:00","end":"2024-05-18T10:30:00Z","end_local":"2024-05-18T11:30:00","updated":"2024-06-05T07:13:31Z"},{"title":"Elevating Cannabis: A Paradigm Shift in Global Perspectives","description":"Sourced from predicthq.com - Delve into cannabis's potential role in preserving humanity and fostering harmonious coexistence with the planet","category":"conferences","start":"2024-05-18T01:00:00Z","geo":{"geometry":{"coordinates":[-7.989767300000001,31.63395580000001],"type":"Point"},"placekey":"@7fk-j2m-2ff","address":{"country_code":"MA","formatted_address":"Derb EI Ferrane, 40000 Marrakesh, Morocco","locality":"Marrakesh","postcode":"40000","region":"Marrakesh-Safi"}},"labels":["conference","health"],"duration":10800,"start_local":"2024-05-18T02:00:00","end":"2024-05-18T04:00:00Z","end_local":"2024-05-18T05:00:00","updated":"2024-06-05T11:26:55Z"},{"title":"MAXI MERAKI","description":"Sourced from predicthq.com","category":"concerts","start":"2024-05-17T22:00:00Z","geo":{"geometry":{"coordinates":[-7.6864737,33.5863143],"type":"Point"},"placekey":"@7fy-bym-sbk","address":{"country_code":"MA","formatted_address":"10 Bd de l'Océan Atlantique, Casablanca 20000, Morocco","postcode":"20000","locality":"Casablanca","region":"Casablanca-Settat"}},"labels":["concert","music"],"duration":0,"start_local":"2024-05-17T23:00:00","end":"2024-05-17T22:00:00Z","end_local":"2024-05-17T23:00:00","updated":"2024-06-12T04:47:25Z"},{"title":"Harvest Festival x 18th ISE Congress Celebration","description":"Sourced from predicthq.com - Sma W Lma project performed by Saad El Baraka, followed by Guedra, Guedra dj set. Maqam.tv shorts installation running through the event","category":"conferences","start":"2024-05-17T21:00:00Z","geo":{"geometry":{"coordinates":[-7.990693299999999,31.6258719],"type":"Point"},"placekey":"@7fk-j2m-f75","address":{"country_code":"MA","formatted_address":"40000 Marrakech, Morocco","locality":"Marrakech","postcode":"40000","region":"Marrakech-Safi"}},"labels":["community","conference"],"duration":10800,"start_local":"2024-05-17T22:00:00","end":"2024-05-18T00:00:00Z","end_local":"2024-05-18T01:00:00","updated":"2024-06-05T02:00:02Z"},{"title":"Decolonising Education World Cafe with Rowan Salim","description":"Sourced from predicthq.com - A collaborative learning space held in the format of a World Cafe where we’ll explore the histories, current realities and dream spaces","category":"conferences","start":"2024-05-17T17:00:00Z","geo":{"geometry":{"coordinates":[-7.9911375,31.6267742],"type":"Point"},"placekey":"@7fk-j2m-fj9","address":{"country_code":"MA","formatted_address":"Derb Fhal Zefriti, 40000 Marrakech, Morocco","locality":"Marrakech","postcode":"40000","region":"Marrakesh-Safi"}},"labels":["conference","education","family"],"duration":7200,"start_local":"2024-05-17T18:00:00","end":"2024-05-17T19:00:00Z","end_local":"2024-05-17T20:00:00","updated":"2024-06-12T09:14:15Z"},{"title":"Itzer Trail","description":"Sourced from predicthq.com","category":"sports","start":"2024-05-16T23:00:00Z","geo":{"geometry":{"coordinates":[-5.0533632,32.8771669],"type":"Point"},"placekey":"@7fp-679-g8v","address":{"country_code":"MA","formatted_address":"Itzer, Drâa-Tafilalet, Morocco","locality":"Itzer","region":"Drâa-Tafilalet"}},"labels":["outdoor-sports","running","sport"],"duration":86399,"start_local":"2024-05-17T00:00:00","end":"2024-05-17T22:59:59Z","end_local":"2024-05-17T23:59:59","updated":"2024-06-05T03:41:39Z"},{"title":"The Second International Conference on Civil Engineering and Materials","description":"Sourced from predicthq.com","category":"conferences","start":"2024-05-16T08:00:00Z","geo":{"geometry":{"coordinates":[-3.862048,35.17271],"type":"Point"},"placekey":"@7b8-hpj-4sq","address":{"country_code":"MA","formatted_address":"Centre Ait Youssef Ou Ali, Tanger-Tétouan-Al Hoceïma, Morocco","locality":"Centre Ait Youssef Ou Ali","region":"Tanger-Tétouan-Al Hoceïma"}},"labels":["conference"],"duration":118800,"start_local":"2024-05-16T09:00:00","end":"2024-05-17T17:00:00Z","end_local":"2024-05-17T18:00:00","updated":"2024-06-05T11:54:19Z"},{"title":"Checkmate & Connect: Chess and Networking for Entrepreneurs","description":"Sourced from predicthq.com - Join us for an exciting evening of strategic moves and meaningful connections at 'Checkmate & Connect: Chess and Networking for Entrepreneur","category":"conferences","start":"2024-05-15T17:00:00Z","geo":{"geometry":{"coordinates":[-7.610845599999998,33.5834709],"type":"Point"},"placekey":"@7fy-dbc-tjv","address":{"country_code":"MA","formatted_address":"Boulevard de la Résistance, 20250 Casablanca, Morocco","locality":"Casablanca","postcode":"20250","region":"Casablanca-Settat"}},"labels":["business","conference"],"duration":10800,"start_local":"2024-05-15T18:00:00","end":"2024-05-15T20:00:00Z","end_local":"2024-05-15T21:00:00","updated":"2024-06-04T22:39:39Z"},{"title":"Du salariat à l’entrepreuneuriat : Une reconversion audacieuse et déterminante","description":"Sourced from predicthq.com - Devenez votre propre patron en passant du salariat à l'entrepreneuriat et prenez votre avenir en main. RDV  le 15 Mai à 16H30 à l'ESITH","category":"conferences","start":"2024-05-15T15:30:00Z","geo":{"geometry":{"coordinates":[-7.663871800000001,33.53920770000001],"type":"Point"},"placekey":"@7fy-7ch-ysq","address":{"country_code":"MA","formatted_address":"Casablanca, Casablanca-Settat, Morocco","locality":"Casablanca","region":"Casablanca-Settat"}},"labels":["business","conference"],"duration":9000,"start_local":"2024-05-15T16:30:00","end":"2024-05-15T18:00:00Z","end_local":"2024-05-15T19:00:00","updated":"2024-06-05T02:24:16Z"},{"title":"International Conference on Research and Innovation","description":"Sourced from predicthq.com","category":"conferences","start":"2024-05-15T08:00:00Z","geo":{"geometry":{"coordinates":[-7.63205,33.593748],"type":"Point"},"placekey":"@7fy-dbm-75z","address":{"country_code":"MA","formatted_address":"20000 Casablanca, Morocco","locality":"Casablanca","postcode":"20000","region":"Casablanca-Settat"}},"labels":["conference"],"duration":118800,"start_local":"2024-05-15T09:00:00","end":"2024-05-16T17:00:00Z","end_local":"2024-05-16T18:00:00","updated":"2024-05-27T06:50:07Z"},{"title":"Moroccan Meeting on Solid State Chemistry","description":"Sourced from predicthq.com","category":"expos","start":"2024-05-15T08:00:00Z","geo":{"geometry":{"coordinates":[-8.488084,33.227509],"type":"Point"},"placekey":"@7fm-3fd-f4v","address":{"country_code":"MA","formatted_address":"El Jadida, Casablanca-Settat, Morocco","locality":"El Jadida","region":"Casablanca-Settat"}},"labels":["expo"],"duration":205200,"start_local":"2024-05-15T09:00:00","end":"2024-05-17T17:00:00Z","end_local":"2024-05-17T18:00:00","updated":"2024-05-28T07:39:34Z"},{"title":"Euro-Mediterranean Conference for Environmental Integration","description":"Sourced from predicthq.com","category":"conferences","start":"2024-05-15T08:00:00Z","geo":{"geometry":{"coordinates":[-7.39907,32.052385],"type":"Point"},"placekey":"@7fj-t9f-68v","address":{"country_code":"MA","formatted_address":"El Kelaa des Sraghna, Marrakesh-Safi, Morocco","locality":"El Kelaa des Sraghna","region":"Marrakesh-Safi"}},"labels":["conference"],"duration":291600,"start_local":"2024-05-15T09:00:00","end":"2024-05-18T17:00:00Z","end_local":"2024-05-18T18:00:00","updated":"2024-05-28T19:30:28Z"},{"title":"The EuroMed Conference","description":"Sourced from predicthq.com","category":"conferences","start":"2024-05-15T08:00:00Z","geo":{"geometry":{"coordinates":[-7.933194,31.661333],"type":"Point"},"placekey":"@7fj-w6y-r6k","address":{"country_code":"MA","formatted_address":"M368+GP Marrakesh, Morocco","locality":"Marrakesh","region":"Marrakesh-Safi"}},"labels":["conference"],"duration":291600,"start_local":"2024-05-15T09:00:00","end":"2024-05-18T17:00:00Z","end_local":"2024-05-18T18:00:00","updated":"2024-06-05T06:40:48Z"},{"title":"Euro Mediterranean Conference for Environmental Integration","description":"Sourced from predicthq.com","category":"conferences","start":"2024-05-14T23:00:00Z","geo":{"geometry":{"coordinates":[-8.000775,31.663903],"type":"Point"},"placekey":"@7fk-j44-7qz","address":{"country_code":"MA","formatted_address":"Rue Cadi Ayyad, 40000 Boujdour, Morocco","locality":"Boujdour","postcode":"40000","region":"Marrakech-Safi"}},"labels":["conference"],"duration":345599,"start_local":"2024-05-15T00:00:00","end":"2024-05-18T22:59:59Z","end_local":"2024-05-18T23:59:59","updated":"2024-05-31T23:04:28Z"},{"title":"CAF Confederation Cup - Final - RSB Berkane vs Zamalek","description":"Sourced from predicthq.com","category":"sports","start":"2024-05-12T19:00:00Z","geo":{"geometry":{"coordinates":[-2.3261726,34.9275921],"type":"Point"},"placekey":"@7b3-3xj-33q","address":{"country_code":"MA","formatted_address":"WMGF+VGX, Bd de la victoire, Berkane, Morocco","locality":"Berkane","region":"Oriental"}},"labels":["soccer","sport"],"duration":7205,"start_local":"2024-05-12T20:00:00","end":"2024-05-12T21:00:05Z","end_local":"2024-05-12T22:00:05","updated":"2024-06-05T03:24:14Z"},{"title":"EwaMaru and Pause","description":"Sourced from predicthq.com","category":"concerts","start":"2024-05-12T17:00:00Z","geo":{"geometry":{"coordinates":[-9.5981072,30.4277547],"type":"Point"},"placekey":"@7fk-6g6-3dv","address":{"country_code":"MA","formatted_address":"C9CM+W89, Agadir 80000, Morocco","postcode":"80000","locality":"Agadir","region":"Souss Massa"}},"labels":["concert","music"],"duration":0,"start_local":"2024-05-12T18:00:00","end":"2024-05-12T17:00:00Z","end_local":"2024-05-12T18:00:00","updated":"2024-06-12T09:43:50Z"},{"title":"Botola 2 - Ittifaq Marrakech vs AS Salé","description":"Sourced from predicthq.com","category":"sports","start":"2024-05-12T16:00:00Z","geo":{"geometry":{"coordinates":[-7.9797219,31.7074542],"type":"Point"},"placekey":"@7fj-wnf-hdv","address":{"country_code":"MA","formatted_address":"N9, Ouahat Sidi Brahim, Morocco","locality":"Ouahat Sidi Brahim","region":"Marrakech-Tensift-Al Haouz"}},"labels":["soccer","sport"],"duration":0,"start_local":"2024-05-12T17:00:00","end":"2024-05-12T16:00:00Z","end_local":"2024-05-12T17:00:00","updated":"2024-06-12T07:42:41Z"},{"title":"Botola 2 - Racing de Casablanca vs El Massira","description":"Sourced from predicthq.com","category":"sports","start":"2024-05-12T16:00:00Z","geo":{"geometry":{"coordinates":[-7.6517593,33.5575451],"type":"Point"},"placekey":"@7fy-byk-bzf","address":{"country_code":"MA","formatted_address":"Boulevard Al Abtal, Casablanca, Morocco","locality":"Casablanca","region":"Grand Casablanca"}},"labels":["soccer","sport"],"duration":0,"start_local":"2024-05-12T17:00:00","end":"2024-05-12T16:00:00Z","end_local":"2024-05-12T17:00:00","updated":"2024-06-12T02:13:40Z"},{"title":"Botola 2 - Rapide Oued Zem vs Raja Beni Mellal","description":"Sourced from predicthq.com","category":"sports","start":"2024-05-12T16:00:00Z","geo":{"geometry":{"coordinates":[-6.5653274,32.8607722],"type":"Point"},"placekey":"@7fn-zq3-6x5","address":{"country_code":"MA","formatted_address":"Oued Zem, Région de Chaouia-Ouardigha, Morocco","locality":"Oued Zem","region":"Région de Chaouia-Ouardigha"}},"labels":["soccer","sport"],"duration":0,"start_local":"2024-05-12T17:00:00","end":"2024-05-12T16:00:00Z","end_local":"2024-05-12T17:00:00","updated":"2024-06-12T18:14:59Z"},{"title":"Breathwork Retreat","description":"Sourced from predicthq.com","category":"community","start":"2024-05-12T15:00:00Z","geo":{"geometry":{"coordinates":[-9.70899,30.54534],"type":"Point"},"placekey":"@7fk-4wd-ysq","address":{"country_code":"MA","formatted_address":"Taghazout, Souss-Massa, Morocco","locality":"Taghazout","region":"Souss-Massa"}},"labels":["community","health"],"duration":511200,"start_local":"2024-05-12T16:00:00","end":"2024-05-18T13:00:00Z","end_local":"2024-05-18T14:00:00","updated":"2024-06-05T02:50:29Z"},{"title":"International Conference on Medical & Health Science","description":"Sourced from predicthq.com","category":"conferences","start":"2024-05-12T08:00:00Z","geo":{"geometry":{"coordinates":[-8.001138,31.622353],"type":"Point"},"placekey":"@7fk-j2q-t5f","address":{"country_code":"MA","formatted_address":"Rue du Temple, 40020 Marrakesh, Morocco","locality":"Marrakesh","postcode":"40020","region":"Marrakesh-Safi"}},"labels":["conference"],"duration":118800,"start_local":"2024-05-12T09:00:00","end":"2024-05-13T17:00:00Z","end_local":"2024-05-13T18:00:00","updated":"2024-06-04T23:00:37Z"},{"title":"Botola 2 - Stade Marocain vs Olympique Dcheïra","description":"Sourced from predicthq.com","category":"sports","start":"2024-05-11T16:00:00Z","geo":{"geometry":{"coordinates":[-6.840684413909912,34.00720176829028],"type":"Point"},"placekey":"@7fx-r6g-789","address":{"country_code":"MA","formatted_address":"2545+RPJ, Rabat, Morocco","locality":"Rabat","region":"Rabat-Salé-Kénitra"}},"labels":["soccer","sport"],"duration":0,"start_local":"2024-05-11T17:00:00","end":"2024-05-11T16:00:00Z","end_local":"2024-05-11T17:00:00","updated":"2024-06-11T22:25:35Z"},{"title":"Botola 2 - USM Oujda vs Chabab Ben Guerir","description":"Sourced from predicthq.com","category":"sports","start":"2024-05-11T16:00:00Z","geo":{"geometry":{"coordinates":[-1.9345057010650635,34.659607546768775],"type":"Point"},"placekey":"@79r-w2n-xwk","address":{"country_code":"MA","formatted_address":"M358+R4X, Oujda, Morocco","locality":"Oujda","region":"Oriental"}},"labels":["soccer","sport"],"duration":0,"start_local":"2024-05-11T17:00:00","end":"2024-05-11T16:00:00Z","end_local":"2024-05-11T17:00:00","updated":"2024-06-12T03:23:31Z"},{"title":"Botola 2 - Chabab Atlas Khénifra vs Kawkab Marrakech","description":"Sourced from predicthq.com","category":"sports","start":"2024-05-11T16:00:00Z","geo":{"geometry":{"coordinates":[-5.672118,32.9283917],"type":"Point"},"placekey":"@7fp-53j-4d9","address":{"country_code":"MA","formatted_address":"Khenifra, Meknes-Tafilalet, Morocco","locality":"Khenifra","region":"Meknes-Tafilalet"}},"labels":["soccer","sport"],"duration":0,"start_local":"2024-05-11T17:00:00","end":"2024-05-11T16:00:00Z","end_local":"2024-05-11T17:00:00","updated":"2024-06-12T11:43:14Z"},{"title":"Botola 2 - CODM Meknès vs Wydad Fès","description":"Sourced from predicthq.com","category":"sports","start":"2024-05-11T16:00:00Z","geo":{"geometry":{"coordinates":[-5.5395555496,33.8911155909],"type":"Point"},"placekey":"@7b8-sfz-28v","address":{"country_code":"MA","formatted_address":"Boulevard Moulay Youssef\n50 000 مكناس\nالمغرب","postcode":"50 000","locality":"مكناس","region":"Région de Meknès-Tafilalet"}},"labels":["soccer","sport"],"duration":0,"start_local":"2024-05-11T17:00:00","end":"2024-05-11T16:00:00Z","end_local":"2024-05-11T17:00:00","updated":"2024-06-11T22:35:23Z"},{"title":"Botola 2 - Difaâ El Jadida vs Khouribga","description":"Sourced from predicthq.com","category":"sports","start":"2024-05-11T16:00:00Z","geo":{"geometry":{"coordinates":[-8.4933848,33.2414934],"type":"Point"},"placekey":"@7fm-3dm-dd9","address":{"country_code":"MA","formatted_address":"El Jadida, Doukkala-Abda, Morocco","locality":"El Jadida","region":"Doukkala-Abda"}},"labels":["soccer","sport"],"duration":0,"start_local":"2024-05-11T17:00:00","end":"2024-05-11T16:00:00Z","end_local":"2024-05-11T17:00:00","updated":"2024-06-12T04:57:34Z"},{"title":"International Day on Artificial Intelligence Applied Mathematics","description":"Sourced from predicthq.com","category":"expos","start":"2024-05-11T08:00:00Z","geo":{"geometry":{"coordinates":[-3.863748,35.174155],"type":"Point"},"placekey":"@7b8-hpj-52k","address":{"country_code":"MA","formatted_address":"Centre Ait Youssef Ou Ali, Tangier-Tétouan-Al Hoceima, Morocco","locality":"Centre Ait Youssef Ou Ali","region":"Tangier-Tétouan-Al Hoceima"}},"labels":["expo"],"duration":32400,"start_local":"2024-05-11T09:00:00","end":"2024-05-11T17:00:00Z","end_local":"2024-05-11T18:00:00","updated":"2024-05-28T00:45:20Z"},{"title":"Tamuda Bay Eco Triathlon","description":"Sourced from predicthq.com","category":"sports","start":"2024-05-11T06:00:00Z","geo":{"geometry":{"coordinates":[-5.32837,35.68359],"type":"Point"},"placekey":"@7dj-5dg-tn5","address":{"country_code":"MA","formatted_address":"Avenue Annasr, 93000 M'diq, Morocco","locality":"M'diq","postcode":"93000","region":"Tanger-Tétouan-Al Hoceïma"}},"labels":["bicycle","outdoor-sports","running","sport","triathlon"],"duration":0,"start_local":"2024-05-11T07:00:00","end":"2024-05-11T06:00:00Z","end_local":"2024-05-11T07:00:00","updated":"2024-06-05T17:40:56Z"},{"title":"Cosmetista Expo North & West Africa","description":"Sourced from predicthq.com","category":"expos","start":"2024-05-10T23:00:00Z","geo":{"geometry":{"coordinates":[-7.62918,33.604377],"type":"Point"},"placekey":"@7fy-dd5-zmk","address":{"country_code":"MA","formatted_address":"J93C+Q8Q, Rue Doukalla, Casablanca 20030, Morocco","postcode":"20030","locality":"Casablanca","region":"Casablanca-Settat"}},"labels":["expo"],"duration":345599,"start_local":"2024-05-11T00:00:00","end":"2024-05-14T22:59:59Z","end_local":"2024-05-14T23:59:59","updated":"2024-06-02T03:32:56Z"},{"title":"Driss El Maloumi","description":"Sourced from predicthq.com","category":"concerts","start":"2024-05-10T19:00:00Z","geo":{"geometry":{"coordinates":[-6.83326,34.017051],"type":"Point"},"placekey":"@7fy-n6h-ygk","address":{"country_code":"MA","formatted_address":"1 Av. Abou Inane, Rabat 10000, Morocco","postcode":"10000","locality":"Rabat","region":"Rabat-Salé-Kénitra"}},"labels":["concert","music"],"duration":0,"start_local":"2024-05-10T20:00:00","end":"2024-05-10T19:00:00Z","end_local":"2024-05-10T20:00:00","updated":"2024-06-11T22:30:44Z"},{"title":"Richy Ahmed, Mason Collective, Sparrow & Barbossa, and 6 others","description":"Sourced from predicthq.com","category":"concerts","start":"2024-05-10T17:00:00Z","geo":{"geometry":{"coordinates":[-7.98926,31.63176],"type":"Point"},"placekey":"@7fk-j2m-28v","address":{"country_code":"MA","formatted_address":"Ouahat Sidi Brahim، Chez ali، Marrakech 40000, Maroc, Marrakech, Morocco","locality":"Marrakech"}},"labels":["concert","music"],"duration":0,"start_local":"2024-05-10T18:00:00","end":"2024-05-10T17:00:00Z","end_local":"2024-05-10T18:00:00","updated":"2024-06-12T09:18:23Z"},{"title":"Al Hoceima - MolenGeek (9th of May visit)","description":"Sourced from predicthq.com - Ibrahim Oussari, founder of MolenGeek and originally from Al Hoceima, will bring the European tech success of MolenGeek to Al Hoceima !","category":"conferences","start":"2024-05-09T14:00:00Z","geo":{"geometry":{"coordinates":[-3.932666,35.2447094],"type":"Point"},"placekey":"@7b8-hnd-qj9","address":{"country_code":"MA","formatted_address":"Rue La Paix, Al Hoceïma, Morocco","locality":"Al Hoceïma","region":"Tangier-Tétouan-Al Hoceima"}},"labels":["business","conference"],"duration":7200,"start_local":"2024-05-09T15:00:00","end":"2024-05-09T16:00:00Z","end_local":"2024-05-09T17:00:00","updated":"2024-06-05T07:06:53Z"},{"title":"International Conference on Digital Economy","description":"Sourced from predicthq.com","category":"conferences","start":"2024-05-09T08:00:00Z","geo":{"geometry":{"coordinates":[-6.843914,33.999601],"type":"Point"},"placekey":"@7fx-r6g-gtv","address":{"country_code":"MA","formatted_address":"Av. des Nations Unies, Rabat 10000, Morocco","postcode":"10000","locality":"Rabat","region":"Rabat-Salé-Kénitra"}},"labels":["conference"],"duration":205200,"start_local":"2024-05-09T09:00:00","end":"2024-05-11T17:00:00Z","end_local":"2024-05-11T18:00:00","updated":"2024-06-05T11:51:17Z"},{"title":"Gender, Power, Discourse","description":"Sourced from predicthq.com","category":"expos","start":"2024-05-09T08:00:00Z","geo":{"geometry":{"coordinates":[-7.657199,33.539672],"type":"Point"},"placekey":"@7fy-7cj-9s5","address":{"country_code":"MA","formatted_address":"Casablanca, Casablanca-Settat, Morocco","locality":"Casablanca","region":"Casablanca-Settat"}},"labels":["expo"],"duration":118800,"start_local":"2024-05-09T09:00:00","end":"2024-05-10T17:00:00Z","end_local":"2024-05-10T18:00:00","updated":"2024-05-31T22:47:37Z"},{"title":"Solar Week Morocco Conference & Awards","description":"Sourced from predicthq.com","category":"conferences","start":"2024-05-09T08:00:00Z","geo":{"geometry":{"coordinates":[-7.631562,33.586568],"type":"Point"},"placekey":"@7fy-dbm-4y9","address":{"country_code":"MA","formatted_address":"Twin Center, Bd Mohamed Zerktouni, Casablanca 21000, Morocco","postcode":"21000","locality":"Casablanca","region":"Casablanca-Settat"}},"labels":["conference"],"duration":32400,"start_local":"2024-05-09T09:00:00","end":"2024-05-09T17:00:00Z","end_local":"2024-05-09T18:00:00","updated":"2024-05-31T22:58:24Z"},{"title":"Edition of the International Conference on Sustainable Business Practices in a VUCA World","description":"Sourced from predicthq.com","category":"conferences","start":"2024-05-09T08:00:00Z","geo":{"geometry":{"coordinates":[-6.725293,33.985242],"type":"Point"},"placekey":"@7fy-n6q-ckf","address":{"country_code":"MA","formatted_address":"Rabat-Salé-Kénitra, Morocco","region":"Rabat-Salé-Kénitra"}},"labels":["conference"],"duration":205200,"start_local":"2024-05-09T09:00:00","end":"2024-05-11T17:00:00Z","end_local":"2024-05-11T18:00:00","updated":"2024-06-01T02:48:38Z"},{"title":"Checkmate & Connect: Chess and Networking for Entrepreneurs","description":"Sourced from predicthq.com - Join us for an exciting evening of strategic moves and meaningful connections at 'Checkmate & Connect: Chess and Networking for Entrepreneur","category":"conferences","start":"2024-05-08T17:00:00Z","geo":{"geometry":{"coordinates":[-7.610845599999998,33.5834709],"type":"Point"},"placekey":"@7fy-dbc-tjv","address":{"country_code":"MA","formatted_address":"Boulevard de la Résistance, 20250 Casablanca, Morocco","locality":"Casablanca","postcode":"20250","region":"Casablanca-Settat"}},"labels":["business","conference"],"duration":10800,"start_local":"2024-05-08T18:00:00","end":"2024-05-08T20:00:00Z","end_local":"2024-05-08T21:00:00","updated":"2024-06-05T02:00:56Z"},{"title":"International Conference on Intelligent Systems and Computer Vision","description":"Sourced from predicthq.com","category":"conferences","start":"2024-05-08T08:00:00Z","geo":{"geometry":{"coordinates":[-4.973367,34.06493],"type":"Point"},"placekey":"@7b8-rsv-k75","address":{"country_code":"MA","formatted_address":"Fes, Fez-Meknès, Morocco","locality":"Fes","region":"Fez-Meknès"}},"labels":["conference"],"duration":205200,"start_local":"2024-05-08T09:00:00","end":"2024-05-10T17:00:00Z","end_local":"2024-05-10T18:00:00","updated":"2024-05-31T22:52:36Z"},{"title":"International Conference on Smart Technology and Innovation","description":"Sourced from predicthq.com","category":"conferences","start":"2024-05-08T08:00:00Z","geo":{"geometry":{"coordinates":[-4.458361,31.939259],"type":"Point"},"placekey":"@7fm-zhm-zmk","address":{"country_code":"MA","formatted_address":"P21, Errachidia, Morocco","locality":"Errachidia","region":"Drâa-Tafilalet"}},"labels":["conference"],"duration":205200,"start_local":"2024-05-08T09:00:00","end":"2024-05-10T17:00:00Z","end_local":"2024-05-10T18:00:00","updated":"2024-05-31T23:07:12Z"},{"title":"MAROCOTEL","description":"Sourced from predicthq.com - Salon International de'l Équipement Professionnel por l'Hotelerie, la Restauration, les Metiers de Bouche, le Bien-etre et le Loisirs","category":"expos","start":"2024-05-07T23:00:00Z","geo":{"geometry":{"coordinates":[-8.3821284,33.2672545],"type":"Point"},"placekey":"@7fy-f9x-4vz","address":{"country_code":"MA","formatted_address":"N1, Casablanca-Settat, Morocco","region":"Casablanca-Settat"}},"labels":["business","expo"],"duration":431999,"start_local":"2024-05-08T00:00:00","end":"2024-05-12T22:59:59Z","end_local":"2024-05-12T23:59:59","updated":"2024-06-29T23:02:03Z"},{"title":"The International Conference on Connected Objects and Artificial Intelligence","description":"Sourced from predicthq.com","category":"conferences","start":"2024-05-07T23:00:00Z","geo":{"geometry":{"coordinates":[-7.65515,33.541333],"type":"Point"},"placekey":"@7fy-7cj-85f","address":{"country_code":"MA","formatted_address":"Dar-el-Beida, Casablanca-Settat, Morocco","locality":"Dar-el-Beida","region":"Casablanca-Settat"}},"labels":["conference"],"duration":259199,"start_local":"2024-05-08T00:00:00","end":"2024-05-10T22:59:59Z","end_local":"2024-05-10T23:59:59","updated":"2024-06-03T18:28:11Z"},{"title":"Botola Pro - RSB Berkane vs Moghreb Tétouan","description":"Sourced from predicthq.com","category":"sports","start":"2024-05-07T19:00:00Z","geo":{"geometry":{"coordinates":[-2.3261726,34.9275921],"type":"Point"},"placekey":"@7b3-3xj-33q","address":{"country_code":"MA","formatted_address":"WMGF+VGX, Bd de la victoire, Berkane, Morocco","locality":"Berkane","region":"Oriental"}},"labels":["soccer","sport"],"duration":0,"start_local":"2024-05-07T20:00:00","end":"2024-05-07T19:00:00Z","end_local":"2024-05-07T20:00:00","updated":"2024-06-12T17:09:13Z"},{"title":"Morocco Stitch & Tex Expo","description":"Sourced from predicthq.com","category":"expos","start":"2024-05-07T08:00:00Z","geo":{"geometry":{"coordinates":[-7.62918,33.604377],"type":"Point"},"placekey":"@7fy-dd5-zmk","address":{"country_code":"MA","formatted_address":"J93C+Q8Q, Rue Doukalla, Casablanca 20030, Morocco","postcode":"20030","locality":"Casablanca","region":"Casablanca-Settat"}},"labels":["expo"],"duration":205200,"start_local":"2024-05-07T09:00:00","end":"2024-05-09T17:00:00Z","end_local":"2024-05-09T18:00:00","updated":"2024-06-05T05:06:28Z"},{"title":"LOGISMED","description":"Sourced from predicthq.com","category":"conferences","start":"2024-05-07T08:00:00Z","geo":{"geometry":{"coordinates":[-7.618803,33.596068],"type":"Point"},"placekey":"@7fy-dbm-2c5","address":{"country_code":"MA","formatted_address":"Pl. des Nations Unies, Casablanca 20000, Morocco","postcode":"20000","locality":"Casablanca","region":"Casablanca-Settat"}},"labels":["conference"],"duration":205200,"start_local":"2024-05-07T09:00:00","end":"2024-05-09T17:00:00Z","end_local":"2024-05-09T18:00:00","updated":"2024-06-04T22:34:35Z"},{"title":"Botola 2 - Raja Beni Mellal vs CODM Meknès","description":"Sourced from predicthq.com","category":"sports","start":"2024-05-05T16:00:00Z","geo":{"geometry":{"coordinates":[-6.356132626533508,32.331265394587184],"type":"Point"},"placekey":"@7fn-vy2-d7q","address":{"country_code":"MA","formatted_address":"Beni-Mellal, Morocco","locality":"Beni-Mellal","region":"Béni Mellal-Khenifra"}},"labels":["soccer","sport"],"duration":0,"start_local":"2024-05-05T17:00:00","end":"2024-05-05T16:00:00Z","end_local":"2024-05-05T17:00:00","updated":"2024-06-12T06:33:31Z"},{"title":"Botola 2 - Kawkab Marrakech vs Stade Marocain","description":"Sourced from predicthq.com","category":"sports","start":"2024-05-05T16:00:00Z","geo":{"geometry":{"coordinates":[-7.9797219,31.7074542],"type":"Point"},"placekey":"@7fj-wnf-hdv","address":{"country_code":"MA","formatted_address":"N9, Ouahat Sidi Brahim, Morocco","locality":"Ouahat Sidi Brahim","region":"Marrakech-Tensift-Al Haouz"}},"labels":["soccer","sport"],"duration":0,"start_local":"2024-05-05T17:00:00","end":"2024-05-05T16:00:00Z","end_local":"2024-05-05T17:00:00","updated":"2024-06-11T22:05:59Z"},{"title":"Botola 2 - AS Salé vs USM Oujda","description":"Sourced from predicthq.com","category":"sports","start":"2024-05-05T16:00:00Z","geo":{"geometry":{"coordinates":[-6.7972464,34.0333997],"type":"Point"},"placekey":"@7fy-mwx-94v","address":{"country_code":"MA","formatted_address":"Salé, Rabat-Sale-Zemmour-Zaer, Morocco","locality":"Salé","region":"Rabat-Sale-Zemmour-Zaer"}},"labels":["soccer","sport"],"duration":0,"start_local":"2024-05-05T17:00:00","end":"2024-05-05T16:00:00Z","end_local":"2024-05-05T17:00:00","updated":"2024-06-12T08:20:45Z"},{"title":"Botola 2 - Chabab Ben Guerir vs Difaâ El Jadida","description":"Sourced from predicthq.com","category":"sports","start":"2024-05-05T16:00:00Z","geo":{"geometry":{"coordinates":[-7.954272317860391,32.240328632610215],"type":"Point"},"placekey":"@7fj-rzz-28v","address":{"country_code":"MA","formatted_address":"722Q+3MG, Ben Guerir, Morocco","locality":"Ben Guerir","region":"Marrakesh-Safi"}},"labels":["soccer","sport"],"duration":0,"start_local":"2024-05-05T17:00:00","end":"2024-05-05T16:00:00Z","end_local":"2024-05-05T17:00:00","updated":"2024-06-12T10:35:21Z"},{"title":"boughaba","description":"Sourced from predicthq.com - Boughaba: Un événement festif où l'on se retrouve pour célébrer la vie, la musique et la bonne ambiance!","category":"festivals","start":"2024-05-05T09:00:00Z","geo":{"geometry":{"coordinates":[-5.5407299,33.8730164],"type":"Point"},"placekey":"@7b8-sg2-z75","address":{"country_code":"MA","formatted_address":"Meknes, Fez-Meknès, Morocco","locality":"Meknes","region":"Fez-Meknès"}},"labels":["community","festival"],"duration":7200,"start_local":"2024-05-05T10:00:00","end":"2024-05-05T11:00:00Z","end_local":"2024-05-05T12:00:00","updated":"2024-06-05T00:40:49Z"},{"title":"Trail Amizmiz","description":"Sourced from predicthq.com","category":"sports","start":"2024-05-04T23:00:00Z","geo":{"geometry":{"coordinates":[-7.9810845,31.6294723],"type":"Point"},"placekey":"@7fk-j2d-mff","address":{"country_code":"MA","formatted_address":"40000 Marrakesh, Morocco","locality":"Marrakesh","postcode":"40000","region":"Marrakesh-Safi"}},"labels":["outdoor-sports","running","sport"],"duration":172799,"start_local":"2024-05-05T00:00:00","end":"2024-05-06T22:59:59Z","end_local":"2024-05-06T23:59:59","updated":"2024-06-05T16:34:58Z"},{"title":"Fdvm","description":"Sourced from predicthq.com","category":"community","start":"2024-05-04T18:00:00Z","geo":{"geometry":{"coordinates":[-8.0049978,31.6212842],"type":"Point"},"placekey":"@7fk-j2q-jy9","address":{"country_code":"MA","formatted_address":"Rue Ibrahim El Mazini Es Saadi Marrakech Resort، Rue Hafid Ibrahim, Marrakech 40000, Morocco","postcode":"40000","locality":"Marrakech","region":"Marrakesh-Safi"}},"labels":["concert","music"],"duration":0,"start_local":"2024-05-04T19:00:00","end":"2024-05-04T18:00:00Z","end_local":"2024-05-04T19:00:00","updated":"2024-06-05T06:33:02Z"},{"title":"Botola 2 - Khouribga vs Chabab Atlas Khénifra","description":"Sourced from predicthq.com","category":"sports","start":"2024-05-04T16:00:00Z","geo":{"geometry":{"coordinates":[-6.907339990139008,32.87818607285678],"type":"Point"},"placekey":"@7fn-ynb-cqz","address":{"country_code":"MA","formatted_address":"V3HV+83F, Khouribga, Morocco","locality":"Khouribga","region":"Béni Mellal-Khenifra"}},"labels":["soccer","sport"],"duration":0,"start_local":"2024-05-04T17:00:00","end":"2024-05-04T16:00:00Z","end_local":"2024-05-04T17:00:00","updated":"2024-06-12T18:48:30Z"},{"title":"Botola 2 - Wydad Fès vs Ittifaq Marrakech","description":"Sourced from predicthq.com","category":"sports","start":"2024-05-04T16:00:00Z","geo":{"geometry":{"coordinates":[-4.999358654022217,34.04792140378408],"type":"Point"},"placekey":"@7b8-m94-yjv","address":{"country_code":"MA","formatted_address":"ملعب كرة القدم الحسن التاني, 22X2+56H, Fes 30050, Morocco","postcode":"30050","locality":"Fes","region":"Fez-Meknès"}},"labels":["soccer","sport"],"duration":0,"start_local":"2024-05-04T17:00:00","end":"2024-05-04T16:00:00Z","end_local":"2024-05-04T17:00:00","updated":"2024-06-12T02:14:51Z"},{"title":"Botola 2 - Olympique Dcheïra vs Racing de Casablanca","description":"Sourced from predicthq.com","category":"sports","start":"2024-05-04T16:00:00Z","geo":{"geometry":{"coordinates":[-9.5544189,30.355837582],"type":"Point"},"placekey":"@7fk-6f6-54v","address":{"country_code":"MA","formatted_address":"9C4W+86V, Inezgane 80000, Morocco","postcode":"80000","locality":"Inezgane","region":"Souss Massa"}},"labels":["soccer","sport"],"duration":0,"start_local":"2024-05-04T17:00:00","end":"2024-05-04T16:00:00Z","end_local":"2024-05-04T17:00:00","updated":"2024-06-12T10:25:31Z"},{"title":"كل شيء عن تداريبنا: صانع محتوى رقمي","description":"Sourced from predicthq.com - اكتشف تداريبنا المكثفة التي تغطي جميع جوانب إنشاء المحتوى الرقمي,  من الأساسيات إلى المهارات الأكثر تقدمًا.","category":"conferences","start":"2024-05-03T14:30:00Z","geo":{"geometry":{"coordinates":[-7.5338517,33.6037882],"type":"Point"},"placekey":"@7fy-d9n-t35","address":{"country_code":"MA","formatted_address":"Allée des Mimosas, 20250 Casablanca, Morocco","locality":"Casablanca","postcode":"20250","region":"Casablanca-Settat"}},"labels":["conference"],"duration":7200,"start_local":"2024-05-03T15:30:00","end":"2024-05-03T16:30:00Z","end_local":"2024-05-03T17:30:00","updated":"2024-06-05T08:49:19Z"},{"title":"كل شيء عن تداريبنا:  مبرمج ويب","description":"Sourced from predicthq.com - اكتشف تداريبنا المكثفة التي تغطي جميع جوانب البرمجة و تصميم المواقع  والتطبيقات ، من الأساسيات إلى المهارات الأكثر تقدمًا.","category":"conferences","start":"2024-05-03T09:30:00Z","geo":{"geometry":{"coordinates":[-7.5338517,33.6037882],"type":"Point"},"placekey":"@7fy-d9n-t35","address":{"country_code":"MA","formatted_address":"Allée des Mimosas, 20250 Casablanca, Morocco","locality":"Casablanca","postcode":"20250","region":"Casablanca-Settat"}},"labels":["conference"],"duration":0,"start_local":"2024-05-03T10:30:00","end":"2024-05-03T09:30:00Z","end_local":"2024-05-03T10:30:00","updated":"2024-06-05T07:33:04Z"},{"title":"Moroccan Congress of Clinical Neurophysiology & MENA Neuromuscular & EDX Congress","description":"Sourced from predicthq.com","category":"conferences","start":"2024-05-03T08:00:00Z","geo":{"geometry":{"coordinates":[-7.993829,31.683319],"type":"Point"},"placekey":"@7fk-j46-7bk","address":{"country_code":"MA","formatted_address":"Marrakesh, Marrakesh-Safi, Morocco","locality":"Marrakesh","region":"Marrakesh-Safi"}},"labels":["conference"],"duration":205200,"start_local":"2024-05-03T09:00:00","end":"2024-05-05T17:00:00Z","end_local":"2024-05-05T18:00:00","updated":"2024-06-05T13:41:15Z"},{"title":"Spring North Africa Fairs","description":"Sourced from predicthq.com","category":"expos","start":"2024-05-02T08:00:00Z","geo":{"geometry":{"coordinates":[-7.612172,33.596387],"type":"Point"},"placekey":"@7fy-dbk-yjv","address":{"country_code":"MA","formatted_address":"Avenue des FAR, 20000 Casablanca, Morocco","locality":"Casablanca","postcode":"20000","region":"Casablanca-Settat"}},"labels":["expo"],"duration":32400,"start_local":"2024-05-02T09:00:00","end":"2024-05-02T17:00:00Z","end_local":"2024-05-02T18:00:00","updated":"2024-05-31T23:05:47Z"},{"title":"Checkmate & Connect: Chess and Networking for Entrepreneurs","description":"Sourced from predicthq.com - Join us for an exciting evening of strategic moves and meaningful connections at 'Checkmate & Connect: Chess and Networking for Entrepreneur","category":"conferences","start":"2024-05-01T17:00:00Z","geo":{"geometry":{"coordinates":[-7.610845599999998,33.5834709],"type":"Point"},"placekey":"@7fy-dbc-tjv","address":{"country_code":"MA","formatted_address":"Boulevard de la Résistance, 20250 Casablanca, Morocco","locality":"Casablanca","postcode":"20250","region":"Casablanca-Settat"}},"labels":["business","conference"],"duration":10800,"start_local":"2024-05-01T18:00:00","end":"2024-05-01T20:00:00Z","end_local":"2024-05-01T21:00:00","updated":"2024-06-05T06:28:29Z"},{"title":"RØØTED RHYTHMS RETREAT","description":"Sourced from predicthq.com","category":"community","start":"2024-05-01T11:00:00Z","geo":{"geometry":{"coordinates":[-9.59254,30.42804],"type":"Point"},"placekey":"@7fk-6g6-bc5","address":{"country_code":"MA","formatted_address":"Boulevard Mohammed Cheikh Saadi, 80000 Agadir, Morocco","locality":"Agadir","postcode":"80000","region":"Souss-Massa"}},"labels":["community","health"],"duration":349200,"start_local":"2024-05-01T12:00:00","end":"2024-05-05T12:00:00Z","end_local":"2024-05-05T13:00:00","updated":"2024-06-05T01:47:16Z"},{"title":"Spring North Africa Fairs","description":"Sourced from predicthq.com","category":"expos","start":"2024-05-01T08:00:00Z","geo":{"geometry":{"coordinates":[-6.828962,34.032572],"type":"Point"},"placekey":"@7fx-r5n-v4v","address":{"country_code":"MA","formatted_address":"Salé, Rabat-Salé-Kénitra, Morocco","locality":"Salé","region":"Rabat-Salé-Kénitra"}},"labels":["expo"],"duration":32400,"start_local":"2024-05-01T09:00:00","end":"2024-05-01T17:00:00Z","end_local":"2024-05-01T18:00:00","updated":"2024-06-01T11:22:24Z"},{"title":"WebCongress Africa","description":"Sourced from predicthq.com","category":"conferences","start":"2024-04-30T23:00:00Z","geo":{"geometry":{"coordinates":[-8.010897,31.629196],"type":"Point"},"placekey":"@7fk-hzz-kvf","address":{"country_code":"MA","formatted_address":"Jnane El Harti, 40000 Marrakech, Morocco","locality":"Marrakech","postcode":"40000","region":"Marrakech-Safi"}},"labels":["conference"],"duration":1814399,"start_local":"2024-05-01T00:00:00","end":"2024-05-21T22:59:59Z","end_local":"2024-05-21T23:59:59","updated":"2024-05-28T05:38:00Z"},{"title":"Spring North Africa Fairs","description":"Sourced from predicthq.com","category":"expos","start":"2024-04-29T08:00:00Z","geo":{"geometry":{"coordinates":[-8.006361,31.622653],"type":"Point"},"placekey":"@7fk-j2q-k75","address":{"country_code":"MA","formatted_address":"JXCV+X8G, Marrakesh 40000, Morocco","postcode":"40000","locality":"Marrakesh","region":"Marrakesh-Safi"}},"labels":["expo"],"duration":32400,"start_local":"2024-04-29T09:00:00","end":"2024-04-29T17:00:00Z","end_local":"2024-04-29T18:00:00","updated":"2024-06-05T00:38:16Z"},{"title":"Botola Pro - Moghreb Tétouan vs Youssoufia Berrechid","description":"Sourced from predicthq.com","category":"sports","start":"2024-04-28T20:00:00Z","geo":{"geometry":{"coordinates":[-5.3486545,35.5726399],"type":"Point"},"placekey":"@7dj-79s-xdv","address":{"country_code":"MA","formatted_address":"Avenue Avril, Tétouan, Morocco","locality":"Tétouan","region":"Tanger-Tétouan"}},"labels":["soccer","sport"],"duration":0,"start_local":"2024-04-28T21:00:00","end":"2024-04-28T20:00:00Z","end_local":"2024-04-28T21:00:00","updated":"2024-06-12T05:29:11Z"},{"title":"Botola Pro - Maghreb Fès vs Wydad Casablanca","description":"Sourced from predicthq.com","category":"sports","start":"2024-04-28T18:00:00Z","geo":{"geometry":{"coordinates":[-4.999358654022217,34.04792140378408],"type":"Point"},"placekey":"@7b8-m94-yjv","address":{"country_code":"MA","formatted_address":"ملعب كرة القدم الحسن التاني, 22X2+56H, Fes 30050, Morocco","postcode":"30050","locality":"Fes","region":"Fez-Meknès"}},"labels":["soccer","sport"],"duration":0,"start_local":"2024-04-28T19:00:00","end":"2024-04-28T18:00:00Z","end_local":"2024-04-28T19:00:00","updated":"2024-06-12T07:26:15Z"},{"title":"Botola 2 - Chabab Atlas Khénifra vs AS Salé","description":"Sourced from predicthq.com","category":"sports","start":"2024-04-28T16:00:00Z","geo":{"geometry":{"coordinates":[-5.672118,32.9283917],"type":"Point"},"placekey":"@7fp-53j-4d9","address":{"country_code":"MA","formatted_address":"Khenifra, Meknes-Tafilalet, Morocco","locality":"Khenifra","region":"Meknes-Tafilalet"}},"labels":["soccer","sport"],"duration":0,"start_local":"2024-04-28T17:00:00","end":"2024-04-28T16:00:00Z","end_local":"2024-04-28T17:00:00","updated":"2024-06-11T21:56:26Z"},{"title":"Botola 2 - Ittifaq Marrakech vs Chabab Ben Guerir","description":"Sourced from predicthq.com","category":"sports","start":"2024-04-28T16:00:00Z","geo":{"geometry":{"coordinates":[-7.9797219,31.7074542],"type":"Point"},"placekey":"@7fj-wnf-hdv","address":{"country_code":"MA","formatted_address":"N9, Ouahat Sidi Brahim, Morocco","locality":"Ouahat Sidi Brahim","region":"Marrakech-Tensift-Al Haouz"}},"labels":["soccer","sport"],"duration":0,"start_local":"2024-04-28T17:00:00","end":"2024-04-28T16:00:00Z","end_local":"2024-04-28T17:00:00","updated":"2024-06-12T15:17:52Z"},{"title":"Botola Pro - FUS Rabat vs Renaissance Zemamra","description":"Sourced from predicthq.com","category":"sports","start":"2024-04-28T16:00:00Z","geo":{"geometry":{"coordinates":[-6.824183464,33.97577397],"type":"Point"},"placekey":"@7fy-n6d-xyv","address":{"country_code":"MA","formatted_address":"P4014, Rabat, Morocco","locality":"Rabat","region":"Rabat-Salé-Kénitra"}},"labels":["soccer","sport"],"duration":0,"start_local":"2024-04-28T17:00:00","end":"2024-04-28T16:00:00Z","end_local":"2024-04-28T17:00:00","updated":"2024-06-12T02:34:06Z"},{"title":"Botola 2 - Rapide Oued Zem vs Wydad Fès","description":"Sourced from predicthq.com","category":"sports","start":"2024-04-28T16:00:00Z","geo":{"geometry":{"coordinates":[-6.5653274,32.8607722],"type":"Point"},"placekey":"@7fn-zq3-6x5","address":{"country_code":"MA","formatted_address":"Oued Zem, Région de Chaouia-Ouardigha, Morocco","locality":"Oued Zem","region":"Région de Chaouia-Ouardigha"}},"labels":["soccer","sport"],"duration":0,"start_local":"2024-04-28T17:00:00","end":"2024-04-28T16:00:00Z","end_local":"2024-04-28T17:00:00","updated":"2024-06-12T06:35:09Z"},{"title":"سباق النصر النسوي","description":"Sourced from predicthq.com - تحت الرعاية السامية لصاحب الجلالة الملك محمد السادس نصره الله ، تنظم جمعية المرأة إنجازات و قيم ، الدورة 14 لسباق النصر النسوي.","category":"community","start":"2024-04-28T09:00:00Z","geo":{"geometry":{"coordinates":[-6.845909199999999,34.0107388],"type":"Point"},"placekey":"@7fx-r6g-2hq","address":{"country_code":"MA","formatted_address":"Avenue de la Victoire, Rabat, Morocco","locality":"Rabat","region":"Rabat-Salé-Kénitra"}},"labels":["community","sport"],"duration":7200,"start_local":"2024-04-28T10:00:00","end":"2024-04-28T11:00:00Z","end_local":"2024-04-28T12:00:00","updated":"2024-06-05T10:21:48Z"},{"title":"ICOH Congress","description":"Sourced from predicthq.com","category":"conferences","start":"2024-04-28T08:00:00Z","geo":{"geometry":{"coordinates":[-8.013464,31.624632],"type":"Point"},"placekey":"@7fk-j2q-n5z","address":{"country_code":"MA","formatted_address":"Avenue Mohammed VI\nMarrakech 40000\nMorocco","locality":"Marrakesh"}},"labels":["conference"],"duration":464400,"start_local":"2024-04-28T09:00:00","end":"2024-05-03T17:00:00Z","end_local":"2024-05-03T18:00:00","updated":"2024-06-05T05:02:34Z"},{"title":"Titan Desert","description":"Sourced from predicthq.com","category":"sports","start":"2024-04-27T23:00:00Z","geo":{"geometry":{"coordinates":[-5.9885456,31.3689243],"type":"Point"},"placekey":"@7fm-sm8-ct9","address":{"country_code":"MA","formatted_address":"Boumalne Dades, Drâa-Tafilalet, Morocco","locality":"Boumalne Dades","region":"Drâa-Tafilalet"}},"labels":["outdoor-sports","running","sport"],"duration":86399,"start_local":"2024-04-28T00:00:00","end":"2024-04-28T22:59:59Z","end_local":"2024-04-28T23:59:59","updated":"2024-06-05T09:28:18Z"},{"title":"Botola Pro - Olympic Safi vs Ittihad Tanger","description":"Sourced from predicthq.com","category":"sports","start":"2024-04-27T20:00:00Z","geo":{"geometry":{"coordinates":[-9.22957,32.3002],"type":"Point"},"placekey":"@7fj-pt9-d7q","address":{"country_code":"MA","formatted_address":"8Q2C+485, Av. Moulay Youssef, Safi, Morocco","locality":"Safi","region":"Marrakech-Safi"}},"labels":["soccer","sport"],"duration":0,"start_local":"2024-04-27T21:00:00","end":"2024-04-27T20:00:00Z","end_local":"2024-04-27T21:00:00","updated":"2024-06-12T07:02:30Z"},{"title":"Botola Pro - Hassania Agadir vs FAR Rabat","description":"Sourced from predicthq.com","category":"sports","start":"2024-04-27T18:00:00Z","geo":{"geometry":{"coordinates":[-9.5402782,30.4274651],"type":"Point"},"placekey":"@7fk-6gn-35z","address":{"country_code":"MA","formatted_address":"80000 Agadir, Morocco","postcode":"80000","locality":"Agadir","region":"Souss-Massa-Draa"}},"labels":["soccer","sport"],"duration":0,"start_local":"2024-04-27T19:00:00","end":"2024-04-27T18:00:00Z","end_local":"2024-04-27T19:00:00","updated":"2024-06-11T21:27:59Z"},{"title":"Botola 2 - Stade Marocain vs Raja Beni Mellal","description":"Sourced from predicthq.com","category":"sports","start":"2024-04-27T16:00:00Z","geo":{"geometry":{"coordinates":[-6.840684413909912,34.00720176829028],"type":"Point"},"placekey":"@7fx-r6g-789","address":{"country_code":"MA","formatted_address":"2545+RPJ, Rabat, Morocco","locality":"Rabat","region":"Rabat-Salé-Kénitra"}},"labels":["soccer","sport"],"duration":0,"start_local":"2024-04-27T17:00:00","end":"2024-04-27T16:00:00Z","end_local":"2024-04-27T17:00:00","updated":"2024-06-12T07:55:37Z"},{"title":"Botola Pro - Chabab Mohammédia vs UTS Rabat","description":"Sourced from predicthq.com","category":"sports","start":"2024-04-27T16:00:00Z","geo":{"geometry":{"coordinates":[-7.399072051048279,33.695556970582416],"type":"Point"},"placekey":"@7fy-cmw-nqz","address":{"country_code":"MA","formatted_address":"MJW2+V64, N9, Mohammedia, Morocco","locality":"Mohammedia","region":"Casablanca-Settat"}},"labels":["soccer","sport"],"duration":0,"start_local":"2024-04-27T17:00:00","end":"2024-04-27T16:00:00Z","end_local":"2024-04-27T17:00:00","updated":"2024-06-12T14:30:33Z"},{"title":"Botola 2 - Difaâ El Jadida vs USM Oujda","description":"Sourced from predicthq.com","category":"sports","start":"2024-04-27T16:00:00Z","geo":{"geometry":{"coordinates":[-8.4933848,33.2414934],"type":"Point"},"placekey":"@7fm-3dm-dd9","address":{"country_code":"MA","formatted_address":"El Jadida, Doukkala-Abda, Morocco","locality":"El Jadida","region":"Doukkala-Abda"}},"labels":["soccer","sport"],"duration":0,"start_local":"2024-04-27T17:00:00","end":"2024-04-27T16:00:00Z","end_local":"2024-04-27T17:00:00","updated":"2024-06-12T01:52:13Z"},{"title":"Botola 2 - Racing de Casablanca vs Kawkab Marrakech","description":"Sourced from predicthq.com","category":"sports","start":"2024-04-27T16:00:00Z","geo":{"geometry":{"coordinates":[-7.6517593,33.5575451],"type":"Point"},"placekey":"@7fy-byk-bzf","address":{"country_code":"MA","formatted_address":"Boulevard Al Abtal, Casablanca, Morocco","locality":"Casablanca","region":"Grand Casablanca"}},"labels":["soccer","sport"],"duration":0,"start_local":"2024-04-27T17:00:00","end":"2024-04-27T16:00:00Z","end_local":"2024-04-27T17:00:00","updated":"2024-06-12T10:03:08Z"},{"title":"Botola 2 - CODM Meknès vs Khouribga","description":"Sourced from predicthq.com","category":"sports","start":"2024-04-27T16:00:00Z","geo":{"geometry":{"coordinates":[-5.5395555496,33.8911155909],"type":"Point"},"placekey":"@7b8-sfz-28v","address":{"country_code":"MA","formatted_address":"Boulevard Moulay Youssef\n50 000 مكناس\nالمغرب","postcode":"50 000","locality":"مكناس","region":"Région de Meknès-Tafilalet"}},"labels":["soccer","sport"],"duration":0,"start_local":"2024-04-27T17:00:00","end":"2024-04-27T16:00:00Z","end_local":"2024-04-27T17:00:00","updated":"2024-06-12T01:01:31Z"},{"title":"Tagounite Beni Sbih","description":"Sourced from predicthq.com","category":"sports","start":"2024-04-27T08:30:00Z","geo":{"geometry":{"coordinates":[-5.5801073,29.9803548],"type":"Point"},"placekey":"@7cc-cmy-3yv","address":{"country_code":"MA","formatted_address":"تاكونيت, جهة درعة تافيلالت, Morocco","locality":"تاكونيت","region":"جهة درعة تافيلالت"}},"labels":["outdoor-sports","running","sport"],"duration":0,"start_local":"2024-04-27T09:30:00","end":"2024-04-27T08:30:00Z","end_local":"2024-04-27T09:30:00","updated":"2024-06-05T02:09:17Z"},{"title":"TBS 2024","description":"Sourced from predicthq.com - Amateurs de sport (ou pas!), de défis, aventuriers, découvrez l'événement TBS : une aventure humaine, sportive et festive dans le désert ! .","category":"community","start":"2024-04-27T07:00:00Z","geo":{"geometry":{"coordinates":[-5.580107300000001,29.98035479999999],"type":"Point"},"placekey":"@7cc-cmy-3yv","address":{"country_code":"MA","formatted_address":"تاكونيت, جهة درعة تافيلالت, Morocco","locality":"تاكونيت","region":"جهة درعة تافيلالت"}},"labels":["community","sport"],"duration":0,"start_local":"2024-04-27T08:00:00","end":"2024-04-27T07:00:00Z","end_local":"2024-04-27T08:00:00","updated":"2024-06-04T22:14:40Z"},{"title":"Botola Pro - JS Soualem vs Mouloudia Oujda","description":"Sourced from predicthq.com","category":"sports","start":"2024-04-26T18:00:00Z","geo":{"geometry":{"coordinates":[-7.399072051048279,33.695556970582416],"type":"Point"},"placekey":"@7fy-cmw-nqz","address":{"country_code":"MA","formatted_address":"MJW2+V64, N9, Mohammedia, Morocco","locality":"Mohammedia","region":"Casablanca-Settat"}},"labels":["soccer","sport"],"duration":0,"start_local":"2024-04-26T19:00:00","end":"2024-04-26T18:00:00Z","end_local":"2024-04-26T19:00:00","updated":"2024-06-12T03:05:18Z"},{"title":"كل شيء عن تداريبنا: صانع محتوى رقمي","description":"Sourced from predicthq.com - اكتشف تداريبنا المكثفة التي تغطي جميع جوانب إنشاء المحتوى الرقمي,  من الأساسيات إلى المهارات الأكثر تقدمًا.","category":"conferences","start":"2024-04-26T09:30:00Z","geo":{"geometry":{"coordinates":[-7.5338517,33.6037882],"type":"Point"},"placekey":"@7fy-d9n-t35","address":{"country_code":"MA","formatted_address":"Allée des Mimosas, 20250 Casablanca, Morocco","locality":"Casablanca","postcode":"20250","region":"Casablanca-Settat"}},"labels":["conference"],"duration":7200,"start_local":"2024-04-26T10:30:00","end":"2024-04-26T11:30:00Z","end_local":"2024-04-26T12:30:00","updated":"2024-06-05T18:52:35Z"},{"title":"International Conference on Applied Research in Economics, Management and Finance of Organizations","description":"Sourced from predicthq.com","category":"conferences","start":"2024-04-26T08:00:00Z","geo":{"geometry":{"coordinates":[-6.314688,32.371617],"type":"Point"},"placekey":"@7fn-w26-dqf","address":{"country_code":"MA","formatted_address":"Beni-Mellal, Béni Mellal-Khenifra, Morocco","locality":"Beni-Mellal","region":"Béni Mellal-Khenifra"}},"labels":["conference"],"duration":118800,"start_local":"2024-04-26T09:00:00","end":"2024-04-27T17:00:00Z","end_local":"2024-04-27T18:00:00","updated":"2024-05-28T00:28:52Z"},{"title":"International Conference on Research in Applied Mathematics and Computer Science","description":"Sourced from predicthq.com","category":"conferences","start":"2024-04-25T08:00:00Z","geo":{"geometry":{"coordinates":[-7.990085,31.622534],"type":"Point"},"placekey":"@7fk-j2f-2ff","address":{"country_code":"MA","formatted_address":"Rue Oqba Ben Nafaa, 40000 Marrakech, Morocco","locality":"Marrakech","postcode":"40000","region":"Marrakech-Safi"}},"labels":["conference"],"duration":205200,"start_local":"2024-04-25T09:00:00","end":"2024-04-27T17:00:00Z","end_local":"2024-04-27T18:00:00","updated":"2024-05-28T19:23:39Z"},{"title":"International Conference on Thermal Sciences","description":"Sourced from predicthq.com","category":"conferences","start":"2024-04-25T08:00:00Z","geo":{"geometry":{"coordinates":[-6.583021,34.24831],"type":"Point"},"placekey":"@7fx-pfs-d7q","address":{"country_code":"MA","formatted_address":"Avenida de L'Université, 14000 Kénitra, Morocco","locality":"Kénitra","postcode":"14000","region":"Rabat-Salé-Kénitra"}},"labels":["conference"],"duration":118800,"start_local":"2024-04-25T09:00:00","end":"2024-04-26T17:00:00Z","end_local":"2024-04-26T18:00:00","updated":"2024-06-05T20:37:38Z"},{"title":"International Conference on Entrepreneurial Ecosystem","description":"Sourced from predicthq.com","category":"conferences","start":"2024-04-24T23:00:00Z","geo":{"geometry":{"coordinates":[-7.638198,33.527071],"type":"Point"},"placekey":"@7fy-7cb-yn5","address":{"country_code":"MA","formatted_address":"Casablanca, Casablanca-Settat, Morocco","locality":"Casablanca","region":"Casablanca-Settat"}},"labels":["conference"],"duration":259199,"start_local":"2024-04-25T00:00:00","end":"2024-04-27T22:59:59Z","end_local":"2024-04-27T23:59:59","updated":"2024-06-01T00:19:19Z"},{"title":"Checkmate & Connect: Chess and Networking for Entrepreneurs","description":"Sourced from predicthq.com - Join us for an exciting evening of strategic moves and meaningful connections at 'Checkmate & Connect: Chess and Networking for Entrepreneur","category":"conferences","start":"2024-04-24T17:00:00Z","geo":{"geometry":{"coordinates":[-7.610845599999998,33.5834709],"type":"Point"},"placekey":"@7fy-dbc-tjv","address":{"country_code":"MA","formatted_address":"Boulevard de la Résistance, 20250 Casablanca, Morocco","locality":"Casablanca","postcode":"20250","region":"Casablanca-Settat"}},"labels":["business","conference"],"duration":10800,"start_local":"2024-04-24T18:00:00","end":"2024-04-24T20:00:00Z","end_local":"2024-04-24T21:00:00","updated":"2024-06-05T04:08:48Z"},{"title":"Spain-Morocco, coping with the agriculture challenges","description":"Sourced from predicthq.com - Join at  SIAM 2024 fair in Meknes, Morocco. On April 23rd, from 15:00 to 17:00, two insightful sessions organized by ICEX await you!","category":"conferences","start":"2024-04-23T14:00:00Z","geo":{"geometry":{"coordinates":[-5.558459,33.882634],"type":"Point"},"placekey":"@7b8-sg8-x89","address":{"country_code":"MA","formatted_address":"Meknes, Fez-Meknès, Morocco","locality":"Meknes","region":"Fez-Meknès"}},"labels":["conference","science","technology"],"duration":7200,"start_local":"2024-04-23T15:00:00","end":"2024-04-23T16:00:00Z","end_local":"2024-04-23T17:00:00","updated":"2024-06-05T07:27:42Z"},{"title":"Morocco Textile Expo (formerly Morocco Fashion & Tex)","description":"Sourced from predicthq.com - Morocco International Fashion, Textile & Machinery Exhibition","category":"expos","start":"2024-04-22T23:00:00Z","geo":{"geometry":{"coordinates":[-7.6291446,33.6044593],"type":"Point"},"placekey":"@7fy-dd5-zmk","address":{"country_code":"MA","formatted_address":"Rue Doukalla, 20030 Casablanca, Morocco","locality":"Casablanca","postcode":"20030","region":"Casablanca-Settat"}},"labels":["expo","fashion","jewelry","sales"],"duration":259199,"start_local":"2024-04-23T00:00:00","end":"2024-04-25T22:59:59Z","end_local":"2024-04-25T23:59:59","updated":"2024-06-10T00:13:20Z"},{"title":"International Congress on Thermal Sciences","description":"Sourced from predicthq.com","category":"conferences","start":"2024-04-22T08:00:00Z","geo":{"geometry":{"coordinates":[-6.940779,30.94435],"type":"Point"},"placekey":"@7fp-hkj-dqf","address":{"country_code":"MA","formatted_address":"Avenue Moulay Ettahar Ben Abdulkarim, 45000 Ouarzazate, Morocco","locality":"Ouarzazate","postcode":"45000","region":"Drâa-Tafilalet"}},"labels":["conference"],"duration":118800,"start_local":"2024-04-22T09:00:00","end":"2024-04-23T17:00:00Z","end_local":"2024-04-23T18:00:00","updated":"2024-06-03T20:08:54Z"},{"title":"International Conference on Metrology","description":"Sourced from predicthq.com","category":"conferences","start":"2024-04-22T08:00:00Z","geo":{"geometry":{"coordinates":[-7.990085,31.622534],"type":"Point"},"placekey":"@7fk-j2f-2ff","address":{"country_code":"MA","formatted_address":"Rue Oqba Ben Nafaa, 40000 Marrakech, Morocco","locality":"Marrakech","postcode":"40000","region":"Marrakech-Safi"}},"labels":["conference"],"duration":205200,"start_local":"2024-04-22T09:00:00","end":"2024-04-24T17:00:00Z","end_local":"2024-04-24T18:00:00","updated":"2024-05-28T03:09:15Z"},{"title":"Salon International on Measurement and Instrumentation","description":"Sourced from predicthq.com","category":"expos","start":"2024-04-22T08:00:00Z","geo":{"geometry":{"coordinates":[-7.986213,31.631642],"type":"Point"},"placekey":"@7fk-j2d-p7q","address":{"country_code":"MA","formatted_address":"Place de La Kissariat Ben Youssef, 40030 Marrakesh, Morocco","locality":"Marrakesh","postcode":"40030","region":"Marrakesh-Safi"}},"labels":["expo"],"duration":205200,"start_local":"2024-04-22T09:00:00","end":"2024-04-24T17:00:00Z","end_local":"2024-04-24T18:00:00","updated":"2024-05-28T00:11:39Z"},{"title":"The International Conference on Connected Innovation and Technology X.0 ICCITX.0 and The Smart Healthcare Internationnal Conference SHeIC","description":"Sourced from predicthq.com","category":"conferences","start":"2024-04-22T08:00:00Z","geo":{"geometry":{"coordinates":[-6.877322,33.968861],"type":"Point"},"placekey":"@7fx-r6j-33q","address":{"country_code":"MA","formatted_address":"Avenue des Forces Armées Royales, 10100 Rabat, Morocco","locality":"Rabat","postcode":"10100","region":"Rabat-Salé-Kénitra"}},"labels":["conference"],"duration":205200,"start_local":"2024-04-22T09:00:00","end":"2024-04-24T17:00:00Z","end_local":"2024-04-24T18:00:00","updated":"2024-05-28T00:11:39Z"},{"title":"SIAM","description":"Sourced from predicthq.com - SIAM is the International Agricultural Exhibition in Morocco.","category":"expos","start":"2024-04-21T23:00:00Z","geo":{"geometry":{"coordinates":[-5.558459,33.882634],"type":"Point"},"placekey":"@7b8-sg8-x89","address":{"country_code":"MA","formatted_address":"Meknes, Fez-Meknès, Morocco","locality":"Meknes","region":"Fez-Meknès"}},"labels":["agriculture","expo"],"duration":604799,"start_local":"2024-04-22T00:00:00","end":"2024-04-28T22:59:59Z","end_local":"2024-04-28T23:59:59","updated":"2024-06-05T15:26:25Z"},{"title":"Maghrebian Colloquium of Applied Geophysics","description":"Sourced from predicthq.com","category":"conferences","start":"2024-04-21T23:00:00Z","geo":{"geometry":{"coordinates":[-6.585308,34.246087],"type":"Point"},"placekey":"@7fx-pfs-8qf","address":{"country_code":"MA","formatted_address":"Kenitra, Rabat-Salé-Kénitra, Morocco","locality":"Kenitra","region":"Rabat-Salé-Kénitra"}},"labels":["conference"],"duration":345599,"start_local":"2024-04-22T00:00:00","end":"2024-04-25T22:59:59Z","end_local":"2024-04-25T23:59:59","updated":"2024-05-28T00:28:14Z"},{"title":"Botola Pro - Renaissance Zemamra vs Raja Casablanca","description":"Sourced from predicthq.com","category":"sports","start":"2024-04-21T20:00:00Z","geo":{"geometry":{"coordinates":[-8.707222645,32.627849102],"type":"Point"},"placekey":"@7fk-z33-vs5","address":{"country_code":"MA","formatted_address":"J7HV+379, Av. Prince Sidi Mohamed, Zemamra, Morocco","locality":"Zemamra","region":"Casablanca-Settat"}},"labels":["soccer","sport"],"duration":0,"start_local":"2024-04-21T21:00:00","end":"2024-04-21T20:00:00Z","end_local":"2024-04-21T21:00:00","updated":"2024-06-12T18:08:50Z"},{"title":"Botola Pro - FAR Rabat vs Maghreb Fès","description":"Sourced from predicthq.com","category":"sports","start":"2024-04-21T18:00:00Z","geo":{"geometry":{"coordinates":[-6.5713322,34.2525789],"type":"Point"},"placekey":"@7fx-pft-qmk","address":{"country_code":"MA","formatted_address":"Kenitra, Gharb-Chrarda-Beni Hssen, Morocco","locality":"Kenitra","region":"Gharb-Chrarda-Beni Hssen"}},"labels":["soccer","sport"],"duration":0,"start_local":"2024-04-21T19:00:00","end":"2024-04-21T18:00:00Z","end_local":"2024-04-21T19:00:00","updated":"2024-06-12T03:42:45Z"},{"title":"Botola 2 - USM Oujda vs CODM Meknès","description":"Sourced from predicthq.com","category":"sports","start":"2024-04-21T18:00:00Z","geo":{"geometry":{"coordinates":[-1.9345057010650635,34.659607546768775],"type":"Point"},"placekey":"@79r-w2n-xwk","address":{"country_code":"MA","formatted_address":"M358+R4X, Oujda, Morocco","locality":"Oujda","region":"Oriental"}},"labels":["soccer","sport"],"duration":0,"start_local":"2024-04-21T19:00:00","end":"2024-04-21T18:00:00Z","end_local":"2024-04-21T19:00:00","updated":"2024-06-12T07:34:38Z"},{"title":"Botola 2 - Difaâ El Jadida vs Ittifaq Marrakech","description":"Sourced from predicthq.com","category":"sports","start":"2024-04-21T18:00:00Z","geo":{"geometry":{"coordinates":[-8.4933848,33.2414934],"type":"Point"},"placekey":"@7fm-3dm-dd9","address":{"country_code":"MA","formatted_address":"El Jadida, Doukkala-Abda, Morocco","locality":"El Jadida","region":"Doukkala-Abda"}},"labels":["soccer","sport"],"duration":0,"start_local":"2024-04-21T19:00:00","end":"2024-04-21T18:00:00Z","end_local":"2024-04-21T19:00:00","updated":"2024-06-12T16:43:51Z"},{"title":"Botola 2 - Raja Beni Mellal vs Olympique Dcheïra","description":"Sourced from predicthq.com","category":"sports","start":"2024-04-21T18:00:00Z","geo":{"geometry":{"coordinates":[-6.356132626533508,32.331265394587184],"type":"Point"},"placekey":"@7fn-vy2-d7q","address":{"country_code":"MA","formatted_address":"Beni-Mellal, Morocco","locality":"Beni-Mellal","region":"Béni Mellal-Khenifra"}},"labels":["soccer","sport"],"duration":0,"start_local":"2024-04-21T19:00:00","end":"2024-04-21T18:00:00Z","end_local":"2024-04-21T19:00:00","updated":"2024-06-12T04:53:56Z"},{"title":"Botola 2 - Kawkab Marrakech vs El Massira","description":"Sourced from predicthq.com","category":"sports","start":"2024-04-21T18:00:00Z","geo":{"geometry":{"coordinates":[-7.9797219,31.7074542],"type":"Point"},"placekey":"@7fj-wnf-hdv","address":{"country_code":"MA","formatted_address":"N9, Ouahat Sidi Brahim, Morocco","locality":"Ouahat Sidi Brahim","region":"Marrakech-Tensift-Al Haouz"}},"labels":["soccer","sport"],"duration":0,"start_local":"2024-04-21T19:00:00","end":"2024-04-21T18:00:00Z","end_local":"2024-04-21T19:00:00","updated":"2024-06-12T08:50:07Z"},{"title":"Botola Pro - UTS Rabat vs JS Soualem","description":"Sourced from predicthq.com","category":"sports","start":"2024-04-21T16:00:00Z","geo":{"geometry":{"coordinates":[-6.824183464,33.97577397],"type":"Point"},"placekey":"@7fy-n6d-xyv","address":{"country_code":"MA","formatted_address":"P4014, Rabat, Morocco","locality":"Rabat","region":"Rabat-Salé-Kénitra"}},"labels":["soccer","sport"],"duration":0,"start_local":"2024-04-21T17:00:00","end":"2024-04-21T16:00:00Z","end_local":"2024-04-21T17:00:00","updated":"2024-06-11T21:04:01Z"},{"title":"AfAS conference","description":"Sourced from predicthq.com","category":"conferences","start":"2024-04-21T08:00:00Z","geo":{"geometry":{"coordinates":[-8.003878,31.665207],"type":"Point"},"placekey":"@7fk-j44-7yv","address":{"country_code":"MA","formatted_address":"Amerchich\nMarrakesh\nMorocco","locality":"Marrakesh"}},"labels":["conference"],"duration":118800,"start_local":"2024-04-21T09:00:00","end":"2024-04-22T17:00:00Z","end_local":"2024-04-22T18:00:00","updated":"2024-06-01T19:40:46Z"},{"title":"Marathon International de Rabat","description":"Sourced from predicthq.com","category":"sports","start":"2024-04-20T23:00:00Z","geo":{"geometry":{"coordinates":[-6.8498129,33.9715904],"type":"Point"},"placekey":"@7fy-n7f-9vf","address":{"country_code":"MA","formatted_address":"Rabat, Rabat-Salé-Kénitra, Morocco","locality":"Rabat","region":"Rabat-Salé-Kénitra"}},"labels":["marathon","outdoor-sports","running","sport"],"duration":86399,"start_local":"2024-04-21T00:00:00","end":"2024-04-21T22:59:59Z","end_local":"2024-04-21T23:59:59","updated":"2024-06-05T05:11:18Z"},{"title":"Botola Pro - Wydad Casablanca vs Hassania Agadir","description":"Sourced from predicthq.com","category":"sports","start":"2024-04-20T20:00:00Z","geo":{"geometry":{"coordinates":[-7.399072051048279,33.695556970582416],"type":"Point"},"placekey":"@7fy-cmw-nqz","address":{"country_code":"MA","formatted_address":"MJW2+V64, N9, Mohammedia, Morocco","locality":"Mohammedia","region":"Casablanca-Settat"}},"labels":["soccer","sport"],"duration":0,"start_local":"2024-04-20T21:00:00","end":"2024-04-20T20:00:00Z","end_local":"2024-04-20T21:00:00","updated":"2024-06-12T04:07:28Z"},{"title":"Botola Pro - Mouloudia Oujda vs Chabab Mohammédia","description":"Sourced from predicthq.com","category":"sports","start":"2024-04-20T18:00:00Z","geo":{"geometry":{"coordinates":[-1.9345057010650635,34.659607546768775],"type":"Point"},"placekey":"@79r-w2n-xwk","address":{"country_code":"MA","formatted_address":"M358+R4X, Oujda, Morocco","locality":"Oujda","region":"Oriental"}},"labels":["soccer","sport"],"duration":0,"start_local":"2024-04-20T19:00:00","end":"2024-04-20T18:00:00Z","end_local":"2024-04-20T19:00:00","updated":"2024-06-12T13:54:36Z"},{"title":"Botola 2 - Khouribga vs Stade Marocain","description":"Sourced from predicthq.com","category":"sports","start":"2024-04-20T18:00:00Z","geo":{"geometry":{"coordinates":[-6.907339990139008,32.87818607285678],"type":"Point"},"placekey":"@7fn-ynb-cqz","address":{"country_code":"MA","formatted_address":"V3HV+83F, Khouribga, Morocco","locality":"Khouribga","region":"Béni Mellal-Khenifra"}},"labels":["soccer","sport"],"duration":0,"start_local":"2024-04-20T19:00:00","end":"2024-04-20T18:00:00Z","end_local":"2024-04-20T19:00:00","updated":"2024-06-11T21:14:37Z"},{"title":"Botola 2 - Wydad Fès vs Racing de Casablanca","description":"Sourced from predicthq.com","category":"sports","start":"2024-04-20T16:00:00Z","geo":{"geometry":{"coordinates":[-4.999358654022217,34.04792140378408],"type":"Point"},"placekey":"@7b8-m94-yjv","address":{"country_code":"MA","formatted_address":"ملعب كرة القدم الحسن التاني, 22X2+56H, Fes 30050, Morocco","postcode":"30050","locality":"Fes","region":"Fez-Meknès"}},"labels":["soccer","sport"],"duration":0,"start_local":"2024-04-20T17:00:00","end":"2024-04-20T16:00:00Z","end_local":"2024-04-20T17:00:00","updated":"2024-06-12T14:36:28Z"},{"title":"Botola 2 - AS Salé vs Rapide Oued Zem","description":"Sourced from predicthq.com","category":"sports","start":"2024-04-20T16:00:00Z","geo":{"geometry":{"coordinates":[-6.7972464,34.0333997],"type":"Point"},"placekey":"@7fy-mwx-94v","address":{"country_code":"MA","formatted_address":"Salé, Rabat-Sale-Zemmour-Zaer, Morocco","locality":"Salé","region":"Rabat-Sale-Zemmour-Zaer"}},"labels":["soccer","sport"],"duration":0,"start_local":"2024-04-20T17:00:00","end":"2024-04-20T16:00:00Z","end_local":"2024-04-20T17:00:00","updated":"2024-06-12T07:22:01Z"},{"title":"Botola Pro - Ittihad Tanger vs FUS Rabat","description":"Sourced from predicthq.com","category":"sports","start":"2024-04-20T16:00:00Z","geo":{"geometry":{"coordinates":[-5.3486545,35.5726399],"type":"Point"},"placekey":"@7dj-79s-xdv","address":{"country_code":"MA","formatted_address":"Avenue Avril, Tétouan, Morocco","locality":"Tétouan","region":"Tanger-Tétouan"}},"labels":["soccer","sport"],"duration":0,"start_local":"2024-04-20T17:00:00","end":"2024-04-20T16:00:00Z","end_local":"2024-04-20T17:00:00","updated":"2024-06-12T17:21:34Z"},{"title":"Botola 2 - Chabab Ben Guerir vs Chabab Atlas Khénifra","description":"Sourced from predicthq.com","category":"sports","start":"2024-04-20T16:00:00Z","geo":{"geometry":{"coordinates":[-7.954272317860391,32.240328632610215],"type":"Point"},"placekey":"@7fj-rzz-28v","address":{"country_code":"MA","formatted_address":"722Q+3MG, Ben Guerir, Morocco","locality":"Ben Guerir","region":"Marrakesh-Safi"}},"labels":["soccer","sport"],"duration":0,"start_local":"2024-04-20T17:00:00","end":"2024-04-20T16:00:00Z","end_local":"2024-04-20T17:00:00","updated":"2024-06-12T10:02:59Z"},{"title":"Origins Festival","description":"Sourced from predicthq.com","category":"festivals","start":"2024-04-19T23:00:00Z","geo":{"geometry":{"coordinates":[-7.9508383,31.5351817],"type":"Point"},"placekey":"@7fk-hm5-45f","address":{"country_code":"MA","formatted_address":"Km 10 Route de l'Ourika Cercle Loudaya, Lot N° 1, Commune Tassoultante, Marrakech 40000, Morocco","postcode":"40000","locality":"Marrakech","region":"Marrakech-Safi"}},"labels":["festival","music"],"duration":86399,"start_local":"2024-04-20T00:00:00","end":"2024-04-20T22:59:59Z","end_local":"2024-04-20T23:59:59","updated":"2024-06-04T22:32:44Z"},{"title":"Botola Pro - Youssoufia Berrechid vs Olympic Safi","description":"Sourced from predicthq.com","category":"sports","start":"2024-04-19T19:00:00Z","geo":{"geometry":{"coordinates":[-7.594165205955505,33.28102339756449],"type":"Point"},"placekey":"@7fy-6q3-qs5","address":{"country_code":"MA","formatted_address":"7CJ4+CJ7, Berrechid, Morocco","locality":"Berrechid","region":"Casablanca-Settat"}},"labels":["soccer","sport"],"duration":0,"start_local":"2024-04-19T20:00:00","end":"2024-04-19T19:00:00Z","end_local":"2024-04-19T20:00:00","updated":"2024-06-11T22:13:06Z"},{"title":"Timelapse Fest 2024","description":"Sourced from predicthq.com","category":"festivals","start":"2024-04-19T17:00:00Z","geo":{"geometry":{"coordinates":[-7.20168,33.80064],"type":"Point"},"placekey":"@7fx-r9q-nqz","address":{"country_code":"MA","formatted_address":"Km 44 Bouznika, Morocco","locality":"Bouznika","postcode":"Km 44","region":"Casablanca-Settat"}},"labels":["festival"],"duration":216000,"start_local":"2024-04-19T18:00:00","end":"2024-04-22T05:00:00Z","end_local":"2024-04-22T06:00:00","updated":"2024-06-05T07:52:16Z"},{"title":"CUE-24 International Conference","description":"Sourced from predicthq.com","category":"conferences","start":"2024-04-19T08:00:00Z","geo":{"geometry":{"coordinates":[-5.845187,35.757187],"type":"Point"},"placekey":"@7dj-4gp-pjv","address":{"country_code":"MA","formatted_address":"Tangier, Tangier-Tétouan-Al Hoceima, Morocco","locality":"Tangier","region":"Tangier-Tétouan-Al Hoceima"}},"labels":["conference"],"duration":118800,"start_local":"2024-04-19T09:00:00","end":"2024-04-20T17:00:00Z","end_local":"2024-04-20T18:00:00","updated":"2024-06-05T06:08:18Z"},{"title":"Odoo Roadshow - Tanger","description":"Sourced from predicthq.com - Découvrez la nouvelle version de Odoo avec nos experts & partenaires à Tanger!","category":"conferences","start":"2024-04-18T17:00:00Z","geo":{"geometry":{"coordinates":[-5.965837199999999,35.6674645],"type":"Point"},"placekey":"@7dj-9wj-9zz","address":{"country_code":"MA","formatted_address":"Dayedaate, Tanger-Tétouan-Al Hoceïma, Morocco","locality":"Dayedaate","region":"Tanger-Tétouan-Al Hoceïma"}},"labels":["business","conference"],"duration":10800,"start_local":"2024-04-18T18:00:00","end":"2024-04-18T20:00:00Z","end_local":"2024-04-18T21:00:00","updated":"2024-06-18T17:47:53Z"},{"title":"International Conference on Networking, Intelligent Systems & Security","description":"Sourced from predicthq.com","category":"conferences","start":"2024-04-18T08:00:00Z","geo":{"geometry":{"coordinates":[-5.579995,33.857371],"type":"Point"},"placekey":"@7b8-sgz-xt9","address":{"country_code":"MA","formatted_address":"Meknes, Fez-Meknès, Morocco","locality":"Meknes","region":"Fez-Meknès"}},"labels":["conference"],"duration":118800,"start_local":"2024-04-18T09:00:00","end":"2024-04-19T17:00:00Z","end_local":"2024-04-19T18:00:00","updated":"2024-06-01T07:48:52Z"},{"title":"International Conference on Embedded Systems and Artificial Intelligence","description":"Sourced from predicthq.com","category":"conferences","start":"2024-04-18T08:00:00Z","geo":{"geometry":{"coordinates":[-4.979883,34.033833],"type":"Point"},"placekey":"@7b8-rsx-rx5","address":{"country_code":"MA","formatted_address":"جامعة ضهر المهراز المعهد الوطني الجلد، Fes 30050, Morocco","postcode":"30050","locality":"Fes","region":"Fez-Meknès"}},"labels":["conference"],"duration":118800,"start_local":"2024-04-18T09:00:00","end":"2024-04-19T17:00:00Z","end_local":"2024-04-19T18:00:00","updated":"2024-06-12T11:53:01Z"},{"title":"International Conference on Smart Applications and Data Analysis for Smart Cyber-Physical Systems","description":"Sourced from predicthq.com","category":"conferences","start":"2024-04-18T08:00:00Z","geo":{"geometry":{"coordinates":[-5.797889,35.776829],"type":"Point"},"placekey":"@7dj-4gm-ndv","address":{"country_code":"MA","formatted_address":"Boulevard Mohamed VI, 90000 Tanger, Morocco","locality":"Tanger","postcode":"90000","region":"Tanger-Tétouan-Al Hoceïma"}},"labels":["conference"],"duration":205200,"start_local":"2024-04-18T09:00:00","end":"2024-04-20T17:00:00Z","end_local":"2024-04-20T18:00:00","updated":"2024-06-03T19:49:21Z"},{"title":"Cementitious Materials International Technical&Trade Congress EMEA&Americas","description":"Sourced from predicthq.com","category":"expos","start":"2024-04-18T07:00:00Z","geo":{"geometry":{"coordinates":[-7.63577,33.59131],"type":"Point"},"placekey":"@7fy-dbm-7nq","address":{"country_code":"MA","formatted_address":"Boulevard d'Anfa, 20000 Casablanca, Morocco","locality":"Casablanca","postcode":"20000","region":"Casablanca-Settat"}},"labels":["expo"],"duration":108000,"start_local":"2024-04-18T08:00:00","end":"2024-04-19T13:00:00Z","end_local":"2024-04-19T14:00:00","updated":"2024-06-05T07:04:04Z"},{"title":"Cementitious Materials International Technical and Trade Congress","description":"Sourced from predicthq.com - Join us at the Cementitious Materials International Technical and Trade Congress (EMEA and Americas).","category":"conferences","start":"2024-04-18T07:00:00Z","geo":{"geometry":{"coordinates":[-7.589843399999999,33.5731104],"type":"Point"},"placekey":"@7fy-dbc-6x5","address":{"country_code":"MA","formatted_address":"20250 Casablanca, Morocco","locality":"Casablanca","postcode":"20250","region":"Casablanca-Settat"}},"labels":["business","conference"],"duration":115200,"start_local":"2024-04-18T08:00:00","end":"2024-04-19T15:00:00Z","end_local":"2024-04-19T16:00:00","updated":"2024-06-05T04:22:15Z"},{"title":"Checkmate & Connect: Chess and Networking for Entrepreneurs","description":"Sourced from predicthq.com - Join us for an exciting evening of strategic moves and meaningful connections at 'Checkmate & Connect: Chess and Networking for Entrepreneur","category":"conferences","start":"2024-04-17T17:00:00Z","geo":{"geometry":{"coordinates":[-7.610845599999998,33.5834709],"type":"Point"},"placekey":"@7fy-dbc-tjv","address":{"country_code":"MA","formatted_address":"Boulevard de la Résistance, 20250 Casablanca, Morocco","locality":"Casablanca","postcode":"20250","region":"Casablanca-Settat"}},"labels":["business","conference"],"duration":10800,"start_local":"2024-04-17T18:00:00","end":"2024-04-17T20:00:00Z","end_local":"2024-04-17T21:00:00","updated":"2024-06-05T03:10:41Z"},{"title":"Conference on Connected Objects and Systems","description":"Sourced from predicthq.com","category":"conferences","start":"2024-04-17T08:00:00Z","geo":{"geometry":{"coordinates":[-4.979883,34.033833],"type":"Point"},"placekey":"@7b8-rsx-rx5","address":{"country_code":"MA","formatted_address":"جامعة ضهر المهراز المعهد الوطني الجلد، Fes 30050, Morocco","postcode":"30050","locality":"Fes","region":"Fez-Meknès"}},"labels":["conference"],"duration":118800,"start_local":"2024-04-17T09:00:00","end":"2024-04-18T17:00:00Z","end_local":"2024-04-18T18:00:00","updated":"2024-05-31T23:18:13Z"},{"title":"International Conference on Mobility, Artificial Intelligence and Health","description":"Sourced from predicthq.com","category":"conferences","start":"2024-04-17T08:00:00Z","geo":{"geometry":{"coordinates":[-9.52983,30.405882],"type":"Point"},"placekey":"@7fk-6gq-6x5","address":{"country_code":"MA","formatted_address":"80000 Agadir, Morocco","locality":"Agadir","postcode":"80000","region":"Souss-Massa"}},"labels":["conference"],"duration":205200,"start_local":"2024-04-17T09:00:00","end":"2024-04-19T17:00:00Z","end_local":"2024-04-19T18:00:00","updated":"2024-05-28T16:41:28Z"},{"title":"International Conference On Big Data and Internet of Things","description":"Sourced from predicthq.com","category":"conferences","start":"2024-04-17T08:00:00Z","geo":{"geometry":{"coordinates":[-4.979883,34.033833],"type":"Point"},"placekey":"@7b8-rsx-rx5","address":{"country_code":"MA","formatted_address":"جامعة ضهر المهراز المعهد الوطني الجلد، Fes 30050, Morocco","postcode":"30050","locality":"Fes","region":"Fez-Meknès"}},"labels":["conference"],"duration":205200,"start_local":"2024-04-17T09:00:00","end":"2024-04-19T17:00:00Z","end_local":"2024-04-19T18:00:00","updated":"2024-05-31T22:52:28Z"},{"title":"Morocco Tizi N’Trail","description":"Sourced from predicthq.com","category":"sports","start":"2024-04-16T23:00:00Z","geo":{"geometry":{"coordinates":[-9.7595041,31.5084926],"type":"Point"},"placekey":"@7fj-ktf-3dv","address":{"country_code":"MA","formatted_address":"Essaouira, Marrakesh-Safi, Morocco","locality":"Essaouira","region":"Marrakesh-Safi"}},"labels":["outdoor-sports","running","sport"],"duration":86399,"start_local":"2024-04-17T00:00:00","end":"2024-04-17T22:59:59Z","end_local":"2024-04-17T23:59:59","updated":"2024-06-05T01:13:35Z"},{"title":"Odoo Roadshow - Casablanca","description":"Sourced from predicthq.com - Découvrez la nouvelle version de Odoo avec nos experts & partenaires à Casablanca !","category":"conferences","start":"2024-04-16T17:00:00Z","geo":{"geometry":{"coordinates":[-7.6359074,33.5493669],"type":"Point"},"placekey":"@7fy-7ck-kpv","address":{"country_code":"MA","formatted_address":"Route de l'Oasis, Casablanca, Morocco","locality":"Casablanca","region":"Casablanca-Settat"}},"labels":["business","conference"],"duration":10800,"start_local":"2024-04-16T18:00:00","end":"2024-04-16T20:00:00Z","end_local":"2024-04-16T21:00:00","updated":"2024-06-05T15:22:30Z"},{"title":"World Congress of WADP","description":"Sourced from predicthq.com","category":"conferences","start":"2024-04-16T08:00:00Z","geo":{"geometry":{"coordinates":[-8.012942,31.6421716],"type":"Point"},"placekey":"@7fk-j47-6ff","address":{"country_code":"MA","formatted_address":"Marrakech, Marrakech-Tensift-Al Haouz, Morocco","locality":"Marrakech","region":"Marrakech-Tensift-Al Haouz"}},"labels":["conference"],"duration":378000,"start_local":"2024-04-16T09:00:00","end":"2024-04-20T17:00:00Z","end_local":"2024-04-20T18:00:00","updated":"2024-05-28T05:08:36Z"},{"title":"Eco Trail Morocco","description":"Sourced from predicthq.com","category":"sports","start":"2024-04-16T06:00:00Z","geo":{"geometry":{"coordinates":[-6.893539,30.91987],"type":"Point"},"placekey":"@7fp-hq9-vxq","address":{"country_code":"MA","formatted_address":"45000 Ouarzazate, Morocco","locality":"Ouarzazate","postcode":"45000","region":"Drâa-Tafilalet"}},"labels":["outdoor-sports","running","sport"],"duration":0,"start_local":"2024-04-16T07:00:00","end":"2024-04-16T06:00:00Z","end_local":"2024-04-16T07:00:00","updated":"2024-06-05T09:47:40Z"},{"title":"Botola Pro - JS Soualem vs Renaissance Zemamra","description":"Sourced from predicthq.com","category":"sports","start":"2024-04-15T17:00:00Z","geo":{"geometry":{"coordinates":[-7.399072051048279,33.695556970582416],"type":"Point"},"placekey":"@7fy-cmw-nqz","address":{"country_code":"MA","formatted_address":"MJW2+V64, N9, Mohammedia, Morocco","locality":"Mohammedia","region":"Casablanca-Settat"}},"labels":["soccer","sport"],"duration":0,"start_local":"2024-04-15T18:00:00","end":"2024-04-15T17:00:00Z","end_local":"2024-04-15T18:00:00","updated":"2024-06-12T04:35:21Z"},{"title":"African Astronomical Society Conference","description":"Sourced from predicthq.com","category":"conferences","start":"2024-04-15T08:00:00Z","geo":{"geometry":{"coordinates":[-8.000775,31.663903],"type":"Point"},"placekey":"@7fk-j44-7qz","address":{"country_code":"MA","formatted_address":"Rue Cadi Ayyad, 40000 Boujdour, Morocco","locality":"Boujdour","postcode":"40000","region":"Marrakech-Safi"}},"labels":["conference"],"duration":464400,"start_local":"2024-04-15T09:00:00","end":"2024-04-20T17:00:00Z","end_local":"2024-04-20T18:00:00","updated":"2024-05-31T23:19:49Z"},{"title":"Botola Pro - Chabab Mohammédia vs Raja Casablanca","description":"Sourced from predicthq.com","category":"sports","start":"2024-04-14T20:00:00Z","geo":{"geometry":{"coordinates":[-7.399072051048279,33.695556970582416],"type":"Point"},"placekey":"@7fy-cmw-nqz","address":{"country_code":"MA","formatted_address":"MJW2+V64, N9, Mohammedia, Morocco","locality":"Mohammedia","region":"Casablanca-Settat"}},"labels":["soccer","sport"],"duration":0,"start_local":"2024-04-14T21:00:00","end":"2024-04-14T20:00:00Z","end_local":"2024-04-14T21:00:00","updated":"2024-06-11T22:32:38Z"},{"title":"fete de fin annee","description":"Sourced from predicthq.com - Celebrez la fin de l'annee avec nous lors de notre fete le 14 avril a 18h!","category":"festivals","start":"2024-04-14T18:00:00Z","geo":{"geometry":{"coordinates":[-2.3240111,34.9223282],"type":"Point"},"placekey":"@7b3-3xh-zmk","address":{"country_code":"MA","formatted_address":"Berkane, Oriental, Morocco","locality":"Berkane","region":"Oriental"}},"labels":["festival"],"duration":10800,"start_local":"2024-04-14T19:00:00","end":"2024-04-14T21:00:00Z","end_local":"2024-04-14T22:00:00","updated":"2024-06-05T03:00:44Z"},{"title":"Botola Pro - Moghreb Tétouan vs Ittihad Tanger","description":"Sourced from predicthq.com","category":"sports","start":"2024-04-14T18:00:00Z","geo":{"geometry":{"coordinates":[-5.3486545,35.5726399],"type":"Point"},"placekey":"@7dj-79s-xdv","address":{"country_code":"MA","formatted_address":"Avenue Avril, Tétouan, Morocco","locality":"Tétouan","region":"Tanger-Tétouan"}},"labels":["soccer","sport"],"duration":0,"start_local":"2024-04-14T19:00:00","end":"2024-04-14T18:00:00Z","end_local":"2024-04-14T19:00:00","updated":"2024-06-12T08:56:51Z"},{"title":"Botola Pro - Olympic Safi vs RSB Berkane","description":"Sourced from predicthq.com","category":"sports","start":"2024-04-14T16:00:00Z","geo":{"geometry":{"coordinates":[-9.22957,32.3002],"type":"Point"},"placekey":"@7fj-pt9-d7q","address":{"country_code":"MA","formatted_address":"8Q2C+485, Av. Moulay Youssef, Safi, Morocco","locality":"Safi","region":"Marrakech-Safi"}},"labels":["soccer","sport"],"duration":0,"start_local":"2024-04-14T17:00:00","end":"2024-04-14T16:00:00Z","end_local":"2024-04-14T17:00:00","updated":"2024-06-12T12:07:58Z"},{"title":"Botola 2 - Racing de Casablanca vs Khouribga","description":"Sourced from predicthq.com","category":"sports","start":"2024-04-14T15:00:00Z","geo":{"geometry":{"coordinates":[-7.6517593,33.5575451],"type":"Point"},"placekey":"@7fy-byk-bzf","address":{"country_code":"MA","formatted_address":"Boulevard Al Abtal, Casablanca, Morocco","locality":"Casablanca","region":"Grand Casablanca"}},"labels":["soccer","sport"],"duration":0,"start_local":"2024-04-14T16:00:00","end":"2024-04-14T15:00:00Z","end_local":"2024-04-14T16:00:00","updated":"2024-06-12T06:41:19Z"},{"title":"Botola 2 - Rapide Oued Zem vs Chabab Ben Guerir","description":"Sourced from predicthq.com","category":"sports","start":"2024-04-14T15:00:00Z","geo":{"geometry":{"coordinates":[-6.5653274,32.8607722],"type":"Point"},"placekey":"@7fn-zq3-6x5","address":{"country_code":"MA","formatted_address":"Oued Zem, Région de Chaouia-Ouardigha, Morocco","locality":"Oued Zem","region":"Région de Chaouia-Ouardigha"}},"labels":["soccer","sport"],"duration":0,"start_local":"2024-04-14T16:00:00","end":"2024-04-14T15:00:00Z","end_local":"2024-04-14T16:00:00","updated":"2024-06-12T10:16:29Z"},{"title":"Botola 2 - Stade Marocain vs Wydad Fès","description":"Sourced from predicthq.com","category":"sports","start":"2024-04-14T15:00:00Z","geo":{"geometry":{"coordinates":[-6.840684413909912,34.00720176829028],"type":"Point"},"placekey":"@7fx-r6g-789","address":{"country_code":"MA","formatted_address":"2545+RPJ, Rabat, Morocco","locality":"Rabat","region":"Rabat-Salé-Kénitra"}},"labels":["soccer","sport"],"duration":0,"start_local":"2024-04-14T16:00:00","end":"2024-04-14T15:00:00Z","end_local":"2024-04-14T16:00:00","updated":"2024-06-12T13:42:57Z"},{"title":"Botola Pro - Hassania Agadir vs Mouloudia Oujda","description":"Sourced from predicthq.com","category":"sports","start":"2024-04-13T20:00:00Z","geo":{"geometry":{"coordinates":[-9.5402782,30.4274651],"type":"Point"},"placekey":"@7fk-6gn-35z","address":{"country_code":"MA","formatted_address":"80000 Agadir, Morocco","postcode":"80000","locality":"Agadir","region":"Souss-Massa-Draa"}},"labels":["soccer","sport"],"duration":0,"start_local":"2024-04-13T20:00:00","end":"2024-04-13T20:00:00Z","end_local":"2024-04-13T20:00:00","updated":"2024-06-12T17:38:37Z"},{"title":"Botola Pro - FUS Rabat vs UTS Rabat","description":"Sourced from predicthq.com","category":"sports","start":"2024-04-13T18:00:00Z","geo":{"geometry":{"coordinates":[-6.824183464,33.97577397],"type":"Point"},"placekey":"@7fy-n6d-xyv","address":{"country_code":"MA","formatted_address":"P4014, Rabat, Morocco","locality":"Rabat","region":"Rabat-Salé-Kénitra"}},"labels":["soccer","sport"],"duration":0,"start_local":"2024-04-13T18:00:00","end":"2024-04-13T18:00:00Z","end_local":"2024-04-13T18:00:00","updated":"2024-06-12T02:53:06Z"},{"title":"Botola Pro - Wydad Casablanca vs FAR Rabat","description":"Sourced from predicthq.com","category":"sports","start":"2024-04-13T18:00:00Z","geo":{"geometry":{"coordinates":[-7.399072051048279,33.695556970582416],"type":"Point"},"placekey":"@7fy-cmw-nqz","address":{"country_code":"MA","formatted_address":"MJW2+V64, N9, Mohammedia, Morocco","locality":"Mohammedia","region":"Casablanca-Settat"}},"labels":["soccer","sport"],"duration":0,"start_local":"2024-04-13T18:00:00","end":"2024-04-13T18:00:00Z","end_local":"2024-04-13T18:00:00","updated":"2024-06-12T05:31:21Z"},{"title":"Botola 2 - Chabab Atlas Khénifra vs Difaâ El Jadida","description":"Sourced from predicthq.com","category":"sports","start":"2024-04-13T16:00:00Z","geo":{"geometry":{"coordinates":[-5.672118,32.9283917],"type":"Point"},"placekey":"@7fp-53j-4d9","address":{"country_code":"MA","formatted_address":"Khenifra, Meknes-Tafilalet, Morocco","locality":"Khenifra","region":"Meknes-Tafilalet"}},"labels":["soccer","sport"],"duration":0,"start_local":"2024-04-13T16:00:00","end":"2024-04-13T16:00:00Z","end_local":"2024-04-13T16:00:00","updated":"2024-06-11T23:14:17Z"},{"title":"Botola 2 - Ittifaq Marrakech vs USM Oujda","description":"Sourced from predicthq.com","category":"sports","start":"2024-04-13T16:00:00Z","geo":{"geometry":{"coordinates":[-7.9797219,31.7074542],"type":"Point"},"placekey":"@7fj-wnf-hdv","address":{"country_code":"MA","formatted_address":"N9, Ouahat Sidi Brahim, Morocco","locality":"Ouahat Sidi Brahim","region":"Marrakech-Tensift-Al Haouz"}},"labels":["soccer","sport"],"duration":0,"start_local":"2024-04-13T16:00:00","end":"2024-04-13T16:00:00Z","end_local":"2024-04-13T16:00:00","updated":"2024-06-11T23:32:16Z"},{"title":"Botola 2 - CODM Meknès vs AS Salé","description":"Sourced from predicthq.com","category":"sports","start":"2024-04-13T16:00:00Z","geo":{"geometry":{"coordinates":[-5.5395555496,33.8911155909],"type":"Point"},"placekey":"@7b8-sfz-28v","address":{"country_code":"MA","formatted_address":"Boulevard Moulay Youssef\n50 000 مكناس\nالمغرب","postcode":"50 000","locality":"مكناس","region":"Région de Meknès-Tafilalet"}},"labels":["soccer","sport"],"duration":0,"start_local":"2024-04-13T16:00:00","end":"2024-04-13T16:00:00Z","end_local":"2024-04-13T16:00:00","updated":"2024-06-12T11:08:59Z"},{"title":"Botola 2 - Olympique Dcheïra vs Kawkab Marrakech","description":"Sourced from predicthq.com","category":"sports","start":"2024-04-13T16:00:00Z","geo":{"geometry":{"coordinates":[-9.5544189,30.355837582],"type":"Point"},"placekey":"@7fk-6f6-54v","address":{"country_code":"MA","formatted_address":"9C4W+86V, Inezgane 80000, Morocco","postcode":"80000","locality":"Inezgane","region":"Souss Massa"}},"labels":["soccer","sport"],"duration":0,"start_local":"2024-04-13T16:00:00","end":"2024-04-13T16:00:00Z","end_local":"2024-04-13T16:00:00","updated":"2024-06-12T17:00:56Z"},{"title":"Botola Pro - Maghreb Fès vs Youssoufia Berrechid","description":"Sourced from predicthq.com","category":"sports","start":"2024-04-13T16:00:00Z","geo":{"geometry":{"coordinates":[-4.999358654022217,34.04792140378408],"type":"Point"},"placekey":"@7b8-m94-yjv","address":{"country_code":"MA","formatted_address":"ملعب كرة القدم الحسن التاني, 22X2+56H, Fes 30050, Morocco","postcode":"30050","locality":"Fes","region":"Fez-Meknès"}},"labels":["soccer","sport"],"duration":0,"start_local":"2024-04-13T16:00:00","end":"2024-04-13T16:00:00Z","end_local":"2024-04-13T16:00:00","updated":"2024-06-12T19:20:28Z"},{"title":"Ashtanga Yoga and Surfing Retreat in Morocco","description":"Sourced from predicthq.com","category":"community","start":"2024-04-13T16:00:00Z","geo":{"geometry":{"coordinates":[-9.68241,30.51312],"type":"Point"},"placekey":"@7fk-4w9-skf","address":{"country_code":"MA","formatted_address":"Tamraght, Souss-Massa, Morocco","locality":"Tamraght","region":"Souss-Massa"}},"labels":["community","health"],"duration":594000,"start_local":"2024-04-13T16:00:00","end":"2024-04-20T13:00:00Z","end_local":"2024-04-20T14:00:00","updated":"2024-06-05T00:33:35Z"},{"title":"DEUTSCH FORUM","description":"Sourced from predicthq.com - Rejoignez Deutsch Forum (DF) le 13 avril à Rabat pour connecter avec unis & écoles en Allemagne. Inscrivez-vous pour cet évènement exclusif!","category":"conferences","start":"2024-04-13T14:00:00Z","geo":{"geometry":{"coordinates":[-6.85932,33.9491313],"type":"Point"},"placekey":"@7fy-n75-vcq","address":{"country_code":"MA","formatted_address":"Avenue Annakhil, 10100 Rabat, Morocco","locality":"Rabat","postcode":"10100","region":"Rabat-Salé-Kénitra"}},"labels":["community","conference"],"duration":18000,"start_local":"2024-04-13T14:00:00","end":"2024-04-13T19:00:00Z","end_local":"2024-04-13T19:00:00","updated":"2024-06-05T14:11:23Z"},{"title":"Marathon des Sables","description":"Sourced from predicthq.com","category":"sports","start":"2024-04-12T00:00:00Z","geo":{"geometry":{"coordinates":[-6.916667,30.916667],"type":"Point"},"placekey":"@7fp-hk9-m6k","address":{"country_code":"MA","formatted_address":"45000 Ouarzazate, Morocco","locality":"Ouarzazate","postcode":"45000","region":"Drâa-Tafilalet"}},"labels":["marathon","outdoor-sports","running","sport"],"duration":86399,"start_local":"2024-04-12T00:00:00","end":"2024-04-12T23:59:59Z","end_local":"2024-04-12T23:59:59","updated":"2024-06-05T00:24:59Z"},{"title":"Checkmate & Connect: Chess and Networking for Entrepreneurs","description":"Sourced from predicthq.com - Join us for an exciting evening of strategic moves and meaningful connections at 'Checkmate & Connect: Chess and Networking for Entrepreneur","category":"conferences","start":"2024-04-10T18:00:00Z","geo":{"geometry":{"coordinates":[-7.610845599999998,33.5834709],"type":"Point"},"placekey":"@7fy-dbc-tjv","address":{"country_code":"MA","formatted_address":"Boulevard de la Résistance, 20250 Casablanca, Morocco","locality":"Casablanca","postcode":"20250","region":"Casablanca-Settat"}},"labels":["business","conference"],"duration":10800,"start_local":"2024-04-10T18:00:00","end":"2024-04-10T21:00:00Z","end_local":"2024-04-10T21:00:00","updated":"2024-06-05T00:45:22Z"},{"title":"CAF Confederation Cup - Quarter-finals - RSB Berkane vs Abu Salim","description":"Sourced from predicthq.com","category":"sports","start":"2024-04-07T21:00:00Z","geo":{"geometry":{"coordinates":[-2.3261726,34.9275921],"type":"Point"},"placekey":"@7b3-3xj-33q","address":{"country_code":"MA","formatted_address":"WMGF+VGX, Bd de la victoire, Berkane, Morocco","locality":"Berkane","region":"Oriental"}},"labels":["soccer","sport"],"duration":11485,"start_local":"2024-04-07T21:00:00","end":"2024-04-08T00:11:25Z","end_local":"2024-04-08T00:11:25","updated":"2024-06-05T04:57:23Z"},{"title":"Wil Key","description":"Sourced from predicthq.com","category":"community","start":"2024-04-07T13:00:00Z","geo":{"geometry":{"coordinates":[-7.9848361,31.5895345],"type":"Point"},"placekey":"@7fk-j2h-hyv","address":{"country_code":"MA","formatted_address":"Route de l'Ourika, Marrakech, Morocco","locality":"Marrakech"}},"labels":["concert","music"],"duration":0,"start_local":"2024-04-07T13:00:00","end":"2024-04-07T13:00:00Z","end_local":"2024-04-07T13:00:00","updated":"2024-06-05T07:50:47Z"},{"title":"La Finca del Tango 6th Edition: Morocco x Eva Tsigkanou & Gustavo Colmenarejo","description":"Sourced from predicthq.com","category":"community","start":"2024-04-07T12:00:00Z","geo":{"geometry":{"coordinates":[-9.68193,30.51293],"type":"Point"},"placekey":"@7fk-4w9-skf","address":{"country_code":"MA","formatted_address":"Rue Guglielmo Marconi, Tamraght, Morocco","locality":"Tamraght","region":"Souss Massa"}},"labels":["community","entertainment"],"duration":421200,"start_local":"2024-04-07T12:00:00","end":"2024-04-12T09:00:00Z","end_local":"2024-04-12T09:00:00","updated":"2024-06-05T11:38:12Z"},{"title":"Morocco Adventure - 8 Days Ashtanga Yoga Retreat","description":"Sourced from predicthq.com","category":"community","start":"2024-04-06T16:00:00Z","geo":{"geometry":{"coordinates":[-9.56873,30.38909],"type":"Point"},"placekey":"@7fk-6gn-swk","address":{"country_code":"MA","formatted_address":"Rue Aourir, 80000 Agadir, Morocco","locality":"Agadir","postcode":"80000","region":"Souss Massa"}},"labels":["community","health"],"duration":586800,"start_local":"2024-04-06T16:00:00","end":"2024-04-13T11:00:00Z","end_local":"2024-04-13T11:00:00","updated":"2024-06-04T22:55:12Z"}]