[{"title":"LUXE PACK","description":"Sourced from predicthq.com - Luxury Goods Packaging Exhibition","category":"expos","start":"2024-09-29T22:00:00Z","geo":{"geometry":{"coordinates":[7.431415,43.744008],"type":"Point"},"placekey":"@7fb-8s5-zj9","address":{"country_code":"MC","formatted_address":"Avenue Princesse Grâce, 98000 Monaco, Monaco","locality":"Monaco","postcode":"98000"}},"labels":["expo","packaging","product","technology"],"duration":259199,"start_local":"2024-09-30T00:00:00","end":"2024-10-02T21:59:59Z","end_local":"2024-10-02T23:59:59","updated":"2024-07-04T00:30:21Z"},{"title":"Super Yacht Europe","description":"Sourced from predicthq.com","category":"conferences","start":"2024-09-27T07:00:00Z","geo":{"geometry":{"coordinates":[7.427964,43.737353],"type":"Point"},"placekey":"@7fb-8ry-kmk","address":{"country_code":"MC","formatted_address":"Quai Louis II, 98000 Monaco","postcode":"98000","locality":"Monaco"}},"labels":["conference"],"duration":32400,"start_local":"2024-09-27T09:00:00","end":"2024-09-27T16:00:00Z","end_local":"2024-09-27T18:00:00","updated":"2024-06-04T11:55:34Z"},{"title":"12ème Salon MONACO BUSINESS 2024","description":"Sourced from predicthq.com - 12ème SALON MONACO BUSINESS: le Salon dédié aux entreprises","category":"expos","start":"2024-09-19T06:00:00Z","geo":{"geometry":{"coordinates":[7.4357762,43.7483593],"type":"Point"},"placekey":"@7fb-8s5-pn5","address":{"country_code":"MC","formatted_address":"Avenue Princesse Grace, 98000 Monaco, Monaco","locality":"Monaco","postcode":"98000"}},"labels":["business","expo"],"duration":39600,"start_local":"2024-09-19T08:00:00","end":"2024-09-19T17:00:00Z","end_local":"2024-09-19T19:00:00","updated":"2024-05-23T03:33:36Z"},{"title":"SLB Digital Forum","description":"Sourced from predicthq.com","category":"conferences","start":"2024-09-16T07:00:00Z","geo":{"geometry":{"coordinates":[7.4313216,43.7438352],"type":"Point"},"placekey":"@7fb-8s5-zj9","address":{"country_code":"MC","formatted_address":"10 Av. Princesse Grâce, 98000 Monaco","postcode":"98000","locality":"Monaco"}},"labels":["conference"],"duration":291600,"start_local":"2024-09-16T09:00:00","end":"2024-09-19T16:00:00Z","end_local":"2024-09-19T18:00:00","updated":"2024-05-24T12:02:38Z"},{"title":"Monaco - Haute Couture Plastic Surgery","description":"Sourced from predicthq.com - In the luxury class of Aesthetic Surgery, you will experience techniques that don’t find a place in standard plastic surgery treatments","category":"conferences","start":"2024-08-23T14:00:00Z","geo":{"geometry":{"coordinates":[7.4208159,43.7374115],"type":"Point"},"placekey":"@7fb-8rw-x3q","address":{"country_code":"MC","formatted_address":"36, Route de la Piscine, 98000 Brasserie De Monaco, Monaco","postcode":"98000","locality":"Brasserie De Monaco"}},"labels":["conference","fashion"],"duration":9000,"start_local":"2024-08-23T16:00:00","end":"2024-08-23T16:30:00Z","end_local":"2024-08-23T18:30:00","updated":"2024-05-24T05:27:28Z"},{"title":"International Contemporary Art Fair Monaco","description":"Sourced from predicthq.com","category":"expos","start":"2024-08-22T22:00:00Z","geo":{"geometry":{"coordinates":[7.4187018,43.726148],"type":"Point"},"placekey":"@7fb-8rw-6p9","address":{"country_code":"MC","formatted_address":"5 Av. des Ligures, 98000 Monaco","postcode":"98000","locality":"Monaco"}},"labels":["expo"],"duration":259199,"start_local":"2024-08-23T00:00:00","end":"2024-08-25T21:59:59Z","end_local":"2024-08-25T23:59:59","updated":"2024-05-31T23:05:01Z"},{"title":"Lenny Kravitz - Monte-Carlo Summer Festival","description":"Sourced from predicthq.com","category":"festivals","start":"2024-08-15T19:30:00Z","geo":{"geometry":{"coordinates":[7.4377665,43.7473754],"type":"Point"},"placekey":"@7fb-8s5-pd9","address":{"country_code":"MC","formatted_address":"26 Av. Princesse Grace, 98000 Monaco","postcode":"98000","locality":"Monaco"}},"labels":["festival","music"],"duration":0,"start_local":"2024-08-15T21:30:00","end":"2024-08-15T19:30:00Z","end_local":"2024-08-15T21:30:00","updated":"2024-06-29T03:31:18Z"},{"title":"Jorja Smith - Monte-Carlo Summer Festival","description":"Sourced from predicthq.com","category":"festivals","start":"2024-08-14T18:30:00Z","geo":{"geometry":{"coordinates":[7.4280828,43.7389744],"type":"Point"},"placekey":"@7fb-8ry-q2k","address":{"country_code":"MC","formatted_address":"98000 Monaco-Ville, Monaco","postcode":"98000","locality":"Monaco-Ville"}},"labels":["festival","music"],"duration":0,"start_local":"2024-08-14T20:30:00","end":"2024-08-14T18:30:00Z","end_local":"2024-08-14T20:30:00","updated":"2024-05-27T11:28:43Z"},{"title":"Il Volo","description":"Sourced from predicthq.com","category":"concerts","start":"2024-08-03T18:30:00Z","geo":{"geometry":{"coordinates":[7.4377665,43.7473754],"type":"Point"},"placekey":"@7fb-8s5-pd9","address":{"country_code":"MC","formatted_address":"26 Av. Princesse Grace, 98000 Monaco","postcode":"98000","locality":"Monaco"}},"labels":["concert","music"],"duration":0,"start_local":"2024-08-03T20:30:00","end":"2024-08-03T18:30:00Z","end_local":"2024-08-03T20:30:00","updated":"2024-06-28T11:07:20Z"},{"title":"Myriam Fares - Monte-Carlo Summer Festival","description":"Sourced from predicthq.com","category":"festivals","start":"2024-08-02T18:30:00Z","geo":{"geometry":{"coordinates":[7.4377665,43.7473754],"type":"Point"},"placekey":"@7fb-8s5-pd9","address":{"country_code":"MC","formatted_address":"26 Av. Princesse Grace, 98000 Monaco","postcode":"98000","locality":"Monaco"}},"labels":["festival","music"],"duration":0,"start_local":"2024-08-02T20:30:00","end":"2024-08-02T18:30:00Z","end_local":"2024-08-02T20:30:00","updated":"2024-06-11T09:15:48Z"},{"title":"Trevor Noah","description":"Sourced from predicthq.com","category":"concerts","start":"2024-07-29T18:30:00Z","geo":{"geometry":{"coordinates":[7.4377665,43.7473754],"type":"Point"},"placekey":"@7fb-8s5-pd9","address":{"country_code":"MC","formatted_address":"26 Av. Princesse Grace, 98000 Monaco","postcode":"98000","locality":"Monaco"}},"labels":["concert","music"],"duration":0,"start_local":"2024-07-29T20:30:00","end":"2024-07-29T18:30:00Z","end_local":"2024-07-29T20:30:00","updated":"2024-06-11T04:23:20Z"},{"title":"Duran Duran - Monte-Carlo Summer Festival","description":"Sourced from predicthq.com","category":"festivals","start":"2024-07-25T18:30:00Z","geo":{"geometry":{"coordinates":[7.4377665,43.7473754],"type":"Point"},"placekey":"@7fb-8s5-pd9","address":{"country_code":"MC","formatted_address":"26 Av. Princesse Grace, 98000 Monaco","postcode":"98000","locality":"Monaco"}},"labels":["festival","music"],"duration":0,"start_local":"2024-07-25T20:30:00","end":"2024-07-25T18:30:00Z","end_local":"2024-07-25T20:30:00","updated":"2024-06-11T02:39:38Z"},{"title":"Monte Carlo Gems","description":"Sourced from predicthq.com - Discover luxurious jewelry at Monte Carlo Gems. Join an elite community of connoisseurs at Monaco's premier international high jewelry show.","category":"expos","start":"2024-07-19T12:00:00Z","geo":{"geometry":{"coordinates":[7.4300556,43.7397551],"type":"Point"},"placekey":"@7fb-8ry-pvz","address":{"country_code":"MC","formatted_address":"12 Av. des Spélugues, 98000 Monaco","postcode":"98000","locality":"Monaco"}},"labels":["business","expo"],"duration":21600,"start_local":"2024-07-19T14:00:00","end":"2024-07-19T18:00:00Z","end_local":"2024-07-19T20:00:00","updated":"2024-06-11T00:01:34Z"},{"title":"Diana Krall - Monte-Carlo Summer Festival","description":"Sourced from predicthq.com","category":"festivals","start":"2024-07-16T18:30:00Z","geo":{"geometry":{"coordinates":[7.4280828,43.7389744],"type":"Point"},"placekey":"@7fb-8ry-q2k","address":{"country_code":"MC","formatted_address":"98000 Monaco-Ville, Monaco","postcode":"98000","locality":"Monaco-Ville"}},"labels":["festival","music"],"duration":0,"start_local":"2024-07-16T20:30:00","end":"2024-07-16T18:30:00Z","end_local":"2024-07-16T20:30:00","updated":"2024-05-27T13:29:17Z"},{"title":"Sam Smith - Monte-Carlo Summer Festival","description":"Sourced from predicthq.com","category":"festivals","start":"2024-07-09T18:30:00Z","geo":{"geometry":{"coordinates":[7.4377665,43.7473754],"type":"Point"},"placekey":"@7fb-8s5-pd9","address":{"country_code":"MC","formatted_address":"26 Av. Princesse Grace, 98000 Monaco","postcode":"98000","locality":"Monaco"}},"labels":["festival","music"],"duration":0,"start_local":"2024-07-09T20:30:00","end":"2024-07-09T18:30:00Z","end_local":"2024-07-09T20:30:00","updated":"2024-06-11T01:34:44Z"},{"title":"Zucchero","description":"Sourced from predicthq.com","category":"concerts","start":"2024-07-09T18:00:00Z","geo":{"geometry":{"coordinates":[7.4313216,43.7438352],"type":"Point"},"placekey":"@7fb-8s5-zj9","address":{"country_code":"MC","formatted_address":"10 Av. Princesse Grâce, 98000 Monaco","postcode":"98000","locality":"Monaco"}},"labels":["concert","music"],"duration":0,"start_local":"2024-07-09T20:00:00","end":"2024-07-09T18:00:00Z","end_local":"2024-07-09T20:00:00","updated":"2024-06-28T03:19:56Z"},{"title":"Nougatch","description":"Sourced from predicthq.com","category":"concerts","start":"2024-07-07T19:30:00Z","geo":{"geometry":{"coordinates":[7.4236159,43.7400108],"type":"Point"},"placekey":"@7fb-8s6-249","address":{"country_code":"MC","formatted_address":"11 Av. Saint-Michel, 98000 Monaco","postcode":"98000","locality":"Monaco"}},"labels":["concert","music"],"duration":0,"start_local":"2024-07-07T21:30:00","end":"2024-07-07T19:30:00Z","end_local":"2024-07-07T21:30:00","updated":"2024-06-10T23:33:03Z"},{"title":"Stars 80","description":"Sourced from predicthq.com","category":"concerts","start":"2024-07-06T18:30:00Z","geo":{"geometry":{"coordinates":[7.4377665,43.7473754],"type":"Point"},"placekey":"@7fb-8s5-pd9","address":{"country_code":"MC","formatted_address":"26 Av. Princesse Grace, 98000 Monaco","postcode":"98000","locality":"Monaco"}},"labels":["concert","music"],"duration":0,"start_local":"2024-07-06T20:30:00","end":"2024-07-06T18:30:00Z","end_local":"2024-07-06T20:30:00","updated":"2024-06-11T03:48:02Z"},{"title":"Art Monte Carlo","description":"Sourced from predicthq.com","category":"expos","start":"2024-07-06T07:00:00Z","geo":{"geometry":{"coordinates":[7.4313216,43.7438352],"type":"Point"},"placekey":"@7fb-8s5-zj9","address":{"country_code":"MC","formatted_address":"10 Av. Princesse Grâce, 98000 Monaco","postcode":"98000","locality":"Monaco"}},"labels":["expo"],"duration":118800,"start_local":"2024-07-06T09:00:00","end":"2024-07-07T16:00:00Z","end_local":"2024-07-07T18:00:00","updated":"2024-05-24T10:13:18Z"},{"title":"Zucchero","description":"Sourced from predicthq.com","category":"concerts","start":"2024-07-05T18:00:00Z","geo":{"geometry":{"coordinates":[7.4313216,43.7438352],"type":"Point"},"placekey":"@7fb-8s5-zj9","address":{"country_code":"MC","formatted_address":"10 Av. Princesse Grâce, 98000 Monaco","postcode":"98000","locality":"Monaco"}},"labels":["concert","music"],"duration":0,"start_local":"2024-07-05T20:00:00","end":"2024-07-05T18:00:00Z","end_local":"2024-07-05T20:00:00","updated":"2024-06-26T16:40:51Z"},{"title":"Discussion entre Guillaume Aubry artiste et architecte, et Benjamin Laugier","description":"Sourced from predicthq.com - À l’occasion de l’ouverture de « Régulus », nouvelle sculpture architecturale dans les jardins de la Villa Paloma","category":"conferences","start":"2024-07-04T16:30:00Z","geo":{"geometry":{"coordinates":[7.413809000000001,43.73278920000001],"type":"Point"},"placekey":"@7fb-8rv-z4v","address":{"country_code":"MC","formatted_address":"Boulevard du Jardin Exotique, 98000 Monaco, Monaco","locality":"Monaco","postcode":"98000"}},"labels":["conference","performing-arts"],"duration":5400,"start_local":"2024-07-04T18:30:00","end":"2024-07-04T18:00:00Z","end_local":"2024-07-04T20:00:00","updated":"2024-06-20T03:02:03Z"},{"title":"Une nouvelle collection de livres à Monaco","description":"Sourced from predicthq.com - Le Pavillon Bosio présente sa nouvelle collection de livres entièrement consacrée à la question de la scénographie.","category":"conferences","start":"2024-07-04T13:00:00Z","geo":{"geometry":{"coordinates":[7.4265519,43.7394729],"type":"Point"},"placekey":"@7fb-8ry-p9z","address":{"country_code":"MC","formatted_address":"Place du Casino, 98000 Monaco, Monaco","locality":"Monaco","postcode":"98000"}},"labels":["conference","performing-arts"],"duration":3600,"start_local":"2024-07-04T15:00:00","end":"2024-07-04T14:00:00Z","end_local":"2024-07-04T16:00:00","updated":"2024-06-27T06:19:02Z"},{"title":"The Future of the Art Market","description":"Sourced from predicthq.com - Presented by Simon de Pury the debate will bring together two personalities from across the Atlantic, Jerry Gogosian and Kenny Schachter.","category":"conferences","start":"2024-07-04T09:00:00Z","geo":{"geometry":{"coordinates":[7.4265519,43.7394729],"type":"Point"},"placekey":"@7fb-8ry-p9z","address":{"country_code":"MC","formatted_address":"Place du Casino, 98000 Monaco, Monaco","locality":"Monaco","postcode":"98000"}},"labels":["conference","performing-arts"],"duration":3600,"start_local":"2024-07-04T11:00:00","end":"2024-07-04T10:00:00Z","end_local":"2024-07-04T12:00:00","updated":"2024-06-27T02:15:33Z"},{"title":"Monaco Energy Boat Challenge","description":"Sourced from predicthq.com","category":"conferences","start":"2024-07-01T07:00:00Z","geo":{"geometry":{"coordinates":[7.427964,43.737353],"type":"Point"},"placekey":"@7fb-8ry-kmk","address":{"country_code":"MC","formatted_address":"Quai Louis II, 98000 Monaco","postcode":"98000","locality":"Monaco"}},"labels":["conference"],"duration":464400,"start_local":"2024-07-01T09:00:00","end":"2024-07-06T16:00:00Z","end_local":"2024-07-06T18:00:00","updated":"2024-06-04T06:52:51Z"},{"title":"Khatia Buniatishvili","description":"Sourced from predicthq.com","category":"concerts","start":"2024-06-27T18:00:00Z","geo":{"geometry":{"coordinates":[7.4313216,43.7438352],"type":"Point"},"placekey":"@7fb-8s5-zj9","address":{"country_code":"MC","formatted_address":"10 Av. Princesse Grâce, 98000 Monaco","postcode":"98000","locality":"Monaco"}},"labels":["concert","music"],"duration":0,"start_local":"2024-06-27T20:00:00","end":"2024-06-27T18:00:00Z","end_local":"2024-06-27T20:00:00","updated":"2024-07-01T19:27:17Z"},{"title":"Sohn Monaco Investment Conference","description":"Sourced from predicthq.com","category":"conferences","start":"2024-06-26T07:00:00Z","geo":{"geometry":{"coordinates":[7.427964,43.737353],"type":"Point"},"placekey":"@7fb-8ry-kmk","address":{"country_code":"MC","formatted_address":"Quai Louis II, 98000 Monaco","postcode":"98000","locality":"Monaco"}},"labels":["conference"],"duration":32400,"start_local":"2024-06-26T09:00:00","end":"2024-06-26T16:00:00Z","end_local":"2024-06-26T18:00:00","updated":"2024-06-02T06:24:06Z"},{"title":"IM Power","description":"Sourced from predicthq.com","category":"conferences","start":"2024-06-24T07:00:00Z","geo":{"geometry":{"coordinates":[7.4313216,43.7438352],"type":"Point"},"placekey":"@7fb-8s5-zj9","address":{"country_code":"MC","formatted_address":"10 Av. Princesse Grâce, 98000 Monaco","postcode":"98000","locality":"Monaco"}},"labels":["conference"],"duration":205200,"start_local":"2024-06-24T09:00:00","end":"2024-06-26T16:00:00Z","end_local":"2024-06-26T18:00:00","updated":"2024-05-24T10:38:23Z"},{"title":"IMPower","description":"Sourced from predicthq.com","category":"conferences","start":"2024-06-24T07:00:00Z","geo":{"geometry":{"coordinates":[7.4313216,43.7438352],"type":"Point"},"placekey":"@7fb-8s5-zj9","address":{"country_code":"MC","formatted_address":"10 Av. Princesse Grâce, 98000 Monaco","postcode":"98000","locality":"Monaco"}},"labels":["conference"],"duration":205200,"start_local":"2024-06-24T09:00:00","end":"2024-06-26T16:00:00Z","end_local":"2024-06-26T18:00:00","updated":"2024-05-24T11:20:36Z"},{"title":"South Africa vs Chile","description":"Sourced from predicthq.com","category":"sports","start":"2024-06-22T15:55:00Z","geo":{"geometry":{"coordinates":[7.4154959,43.7275883],"type":"Point"},"placekey":"@7fb-8rw-9fz","address":{"country_code":"MC","formatted_address":"7 Av. des Castelans, 98000 Monaco","postcode":"98000","locality":"Monaco"}},"labels":["rugby","sport"],"duration":1356,"start_local":"2024-06-22T17:55:00","end":"2024-06-22T16:17:36Z","end_local":"2024-06-22T18:17:36","updated":"2024-06-22T16:58:11Z"},{"title":"Great Britain vs Canada","description":"Sourced from predicthq.com","category":"sports","start":"2024-06-22T15:30:00Z","geo":{"geometry":{"coordinates":[7.4154959,43.7275883],"type":"Point"},"placekey":"@7fb-8rw-9fz","address":{"country_code":"MC","formatted_address":"7 Av. des Castelans, 98000 Monaco","postcode":"98000","locality":"Monaco"}},"labels":["rugby","sport"],"duration":1626,"start_local":"2024-06-22T17:30:00","end":"2024-06-22T15:57:06Z","end_local":"2024-06-22T17:57:06","updated":"2024-06-22T16:31:45Z"},{"title":"Argentina vs Kenya","description":"Sourced from predicthq.com","category":"sports","start":"2024-06-22T15:05:00Z","geo":{"geometry":{"coordinates":[7.4154959,43.7275883],"type":"Point"},"placekey":"@7fb-8rw-9fz","address":{"country_code":"MC","formatted_address":"7 Av. des Castelans, 98000 Monaco","postcode":"98000","locality":"Monaco"}},"labels":["rugby","sport"],"duration":1640,"start_local":"2024-06-22T17:05:00","end":"2024-06-22T15:32:20Z","end_local":"2024-06-22T17:32:20","updated":"2024-06-22T16:32:01Z"},{"title":"China vs Poland","description":"Sourced from predicthq.com","category":"sports","start":"2024-06-22T12:35:00Z","geo":{"geometry":{"coordinates":[7.4154959,43.7275883],"type":"Point"},"placekey":"@7fb-8rw-9fz","address":{"country_code":"MC","formatted_address":"7 Av. des Castelans, 98000 Monaco","postcode":"98000","locality":"Monaco"}},"labels":["rugby","sport"],"duration":1145,"start_local":"2024-06-22T14:35:00","end":"2024-06-22T12:54:05Z","end_local":"2024-06-22T14:54:05","updated":"2024-06-22T14:50:22Z"},{"title":"Uganda vs Paraguay","description":"Sourced from predicthq.com","category":"sports","start":"2024-06-22T09:10:00Z","geo":{"geometry":{"coordinates":[7.4154959,43.7275883],"type":"Point"},"placekey":"@7fb-8rw-9fz","address":{"country_code":"MC","formatted_address":"7 Av. des Castelans, 98000 Monaco","postcode":"98000","locality":"Monaco"}},"labels":["rugby","sport"],"duration":1203,"start_local":"2024-06-22T11:10:00","end":"2024-06-22T09:30:03Z","end_local":"2024-06-22T11:30:03","updated":"2024-06-22T14:11:48Z"},{"title":"Great Britain vs China","description":"Sourced from predicthq.com","category":"sports","start":"2024-06-21T13:52:00Z","geo":{"geometry":{"coordinates":[7.4154959,43.7275883],"type":"Point"},"placekey":"@7fb-8rw-9fz","address":{"country_code":"MC","formatted_address":"7 Av. des Castelans, 98000 Monaco","postcode":"98000","locality":"Monaco"}},"labels":["rugby","sport"],"duration":0,"start_local":"2024-06-21T15:52:00","end":"2024-06-21T13:52:00Z","end_local":"2024-06-21T15:52:00","updated":"2024-06-22T13:52:28Z"},{"title":"Spain vs Brazil","description":"Sourced from predicthq.com","category":"sports","start":"2024-06-21T13:04:00Z","geo":{"geometry":{"coordinates":[7.4154959,43.7275883],"type":"Point"},"placekey":"@7fb-8rw-9fz","address":{"country_code":"MC","formatted_address":"7 Av. des Castelans, 98000 Monaco","postcode":"98000","locality":"Monaco"}},"labels":["rugby","sport"],"duration":0,"start_local":"2024-06-21T15:04:00","end":"2024-06-21T13:04:00Z","end_local":"2024-06-21T15:04:00","updated":"2024-06-22T13:04:17Z"},{"title":"Uganda vs Jamaica","description":"Sourced from predicthq.com","category":"sports","start":"2024-06-21T12:12:00Z","geo":{"geometry":{"coordinates":[7.4154959,43.7275883],"type":"Point"},"placekey":"@7fb-8rw-9fz","address":{"country_code":"MC","formatted_address":"7 Av. des Castelans, 98000 Monaco","postcode":"98000","locality":"Monaco"}},"labels":["rugby","sport"],"duration":0,"start_local":"2024-06-21T14:12:00","end":"2024-06-21T12:12:00Z","end_local":"2024-06-21T14:12:00","updated":"2024-06-22T12:12:26Z"},{"title":"Poland vs Czechia","description":"Sourced from predicthq.com","category":"sports","start":"2024-06-21T11:00:00Z","geo":{"geometry":{"coordinates":[7.4154959,43.7275883],"type":"Point"},"placekey":"@7fb-8rw-9fz","address":{"country_code":"MC","formatted_address":"7 Av. des Castelans, 98000 Monaco","postcode":"98000","locality":"Monaco"}},"labels":["rugby","sport"],"duration":0,"start_local":"2024-06-21T13:00:00","end":"2024-06-21T11:00:00Z","end_local":"2024-06-21T13:00:00","updated":"2024-06-23T11:03:18Z"},{"title":"Artist Revue Reni von Bifamo","description":"Sourced from predicthq.com","category":"concerts","start":"2024-06-19T14:00:00Z","geo":{"geometry":{"coordinates":[7.42696,43.738308],"type":"Point"},"placekey":"@7fb-8ry-nwk","address":{"country_code":"MC","formatted_address":"Monte-Carlo, Monaco","locality":"Monte-Carlo"}},"labels":["concert","music"],"duration":0,"start_local":"2024-06-19T16:00:00","end":"2024-06-19T14:00:00Z","end_local":"2024-06-19T16:00:00","updated":"2024-06-16T00:41:39Z"},{"title":"Air","description":"Sourced from predicthq.com","category":"concerts","start":"2024-06-15T18:30:00Z","geo":{"geometry":{"coordinates":[7.4280828,43.7389744],"type":"Point"},"placekey":"@7fb-8ry-q2k","address":{"country_code":"MC","formatted_address":"98000 Monaco-Ville, Monaco","postcode":"98000","locality":"Monaco-Ville"}},"labels":["concert","music"],"duration":0,"start_local":"2024-06-15T20:30:00","end":"2024-06-15T18:30:00Z","end_local":"2024-06-15T20:30:00","updated":"2024-06-29T18:31:47Z"},{"title":"Paris Basketball vs AS Monaco","description":"Sourced from predicthq.com","category":"sports","start":"2024-06-06T16:30:00Z","geo":{"geometry":{"coordinates":[7.4156951,43.7266418],"type":"Point"},"placekey":"@7fb-8rw-nh5","address":{"country_code":"MC","formatted_address":"7 Av. des Castelans, 98000 Monaco","postcode":"98000","locality":"Monaco"}},"labels":["basketball","sport"],"duration":6940,"start_local":"2024-06-06T18:30:00","end":"2024-06-06T18:25:40Z","end_local":"2024-06-06T20:25:40","updated":"2024-06-06T22:04:26Z"},{"title":"Top Marques Monaco","description":"Sourced from predicthq.com","category":"expos","start":"2024-06-04T22:00:00Z","geo":{"geometry":{"coordinates":[7.4313216,43.7438352],"type":"Point"},"placekey":"@7fb-8s5-zj9","address":{"country_code":"MC","formatted_address":"10 Av. Princesse Grâce, 98000 Monaco","postcode":"98000","locality":"Monaco"}},"labels":["expo"],"duration":431999,"start_local":"2024-06-05T00:00:00","end":"2024-06-09T21:59:59Z","end_local":"2024-06-09T23:59:59","updated":"2024-05-24T10:10:31Z"},{"title":"Paris Basketball vs AS Monaco","description":"Sourced from predicthq.com","category":"sports","start":"2024-06-04T16:30:00Z","geo":{"geometry":{"coordinates":[7.4156951,43.7266418],"type":"Point"},"placekey":"@7fb-8rw-nh5","address":{"country_code":"MC","formatted_address":"7 Av. des Castelans, 98000 Monaco","postcode":"98000","locality":"Monaco"}},"labels":["basketball","sport"],"duration":6575,"start_local":"2024-06-04T18:30:00","end":"2024-06-04T18:19:35Z","end_local":"2024-06-04T20:19:35","updated":"2024-06-05T13:41:47Z"},{"title":"KO KO MO","description":"Sourced from predicthq.com","category":"concerts","start":"2024-06-01T18:30:00Z","geo":{"geometry":{"coordinates":[7.4174266661,43.7308228821],"type":"Point"},"placekey":"@7fb-8rw-85f","address":{"country_code":"MC","formatted_address":"25-29, avenue Albert II (Les Terrasses de Fontvieille)\n98000 Monte-Carlo\nMonaco","postcode":"98000","locality":"Monte-Carlo","region":"Monaco"}},"labels":["concert","music"],"duration":0,"start_local":"2024-06-01T20:30:00","end":"2024-06-01T18:30:00Z","end_local":"2024-06-01T20:30:00","updated":"2024-06-15T18:42:04Z"},{"title":"Formula 1 2024 - Monaco Grand Prix 2024 - Race","description":"Sourced from predicthq.com","category":"sports","start":"2024-05-26T13:00:00Z","geo":{"geometry":{"coordinates":[7.421305599999999,43.7348933],"type":"Point"},"placekey":"@7fb-8rw-y9z","address":{"country_code":"MC","formatted_address":"11 Bd Albert 1er, 98000 Monaco","postcode":"98000","locality":"Monaco"}},"labels":["auto-racing","f1","sport"],"duration":8940,"start_local":"2024-05-26T15:00:00","end":"2024-05-26T15:29:00Z","end_local":"2024-05-26T17:29:00","updated":"2024-06-04T23:06:49Z"},{"title":"F1 Grand Pix At Super Yacht","description":"Sourced from predicthq.com - LIMITED","category":"community","start":"2024-05-26T11:00:00Z","geo":{"geometry":{"coordinates":[7.430321299999999,43.7410222],"type":"Point"},"placekey":"@7fb-8s6-2tv","address":{"country_code":"MC","formatted_address":"Boulevard Louis II, 98000 Monaco, Monaco","locality":"Monaco","postcode":"98000"}},"labels":["community","sport"],"duration":14400,"start_local":"2024-05-26T13:00:00","end":"2024-05-26T15:00:00Z","end_local":"2024-05-26T17:00:00","updated":"2024-06-04T23:13:36Z"},{"title":"Monaco Grand Prix Sunday Race Day 26th May","description":"Sourced from predicthq.com - Get ready for an epic Sunday at the Monaco Grand Prix on 26th May - it's gonna be a fast and furious race day!","category":"community","start":"2024-05-26T08:00:00Z","geo":{"geometry":{"coordinates":[7.4177534,43.73420710000001],"type":"Point"},"placekey":"@7fb-8rw-xnq","address":{"country_code":"MC","formatted_address":"Allée Lazare Sauvaigo, 98000 Monaco, Monaco","locality":"Monaco","postcode":"98000"}},"labels":["community","sport"],"duration":46800,"start_local":"2024-05-26T10:00:00","end":"2024-05-26T21:00:00Z","end_local":"2024-05-26T23:00:00","updated":"2024-05-23T01:47:36Z"},{"title":"JL Bourg Basket vs AS Monaco","description":"Sourced from predicthq.com","category":"sports","start":"2024-05-25T17:00:00Z","geo":{"geometry":{"coordinates":[7.4156951,43.7266418],"type":"Point"},"placekey":"@7fb-8rw-nh5","address":{"country_code":"MC","formatted_address":"7 Av. des Castelans, 98000 Monaco","postcode":"98000","locality":"Monaco"}},"labels":["basketball","sport"],"duration":6789,"start_local":"2024-05-25T19:00:00","end":"2024-05-25T18:53:09Z","end_local":"2024-05-25T20:53:09","updated":"2024-06-05T06:47:54Z"},{"title":"F1 Grand Pix At Super Yacht","description":"Sourced from predicthq.com - LIMITED","category":"community","start":"2024-05-25T11:00:00Z","geo":{"geometry":{"coordinates":[7.430321299999999,43.7410222],"type":"Point"},"placekey":"@7fb-8s6-2tv","address":{"country_code":"MC","formatted_address":"Boulevard Louis II, 98000 Monaco, Monaco","locality":"Monaco","postcode":"98000"}},"labels":["community","sport"],"duration":14400,"start_local":"2024-05-25T13:00:00","end":"2024-05-25T15:00:00Z","end_local":"2024-05-25T17:00:00","updated":"2024-06-05T05:09:10Z"},{"title":"Formula 1 2024 - Monaco Grand Prix 2024 - Practice 3","description":"Sourced from predicthq.com","category":"sports","start":"2024-05-25T10:30:00Z","geo":{"geometry":{"coordinates":[7.421305599999999,43.7348933],"type":"Point"},"placekey":"@7fb-8rw-y9z","address":{"country_code":"MC","formatted_address":"11 Bd Albert 1er, 98000 Monaco","postcode":"98000","locality":"Monaco"}},"labels":["auto-racing","f1","sport"],"duration":3600,"start_local":"2024-05-25T12:30:00","end":"2024-05-25T11:30:00Z","end_local":"2024-05-25T13:30:00","updated":"2024-06-05T00:40:43Z"},{"title":"Monaco GP 2024: Ultimate Luxury Trackside Experience!","description":"Sourced from predicthq.com - Ultimate Formula 1 weekend at Monaco Grand Prix in luxury private apartment above track, with gourmet food, champagne, and music. Book now!","category":"community","start":"2024-05-25T07:00:00Z","geo":{"geometry":{"coordinates":[7.4213285,43.7347165],"type":"Point"},"placekey":"@7fb-8rw-y9z","address":{"country_code":"MC","formatted_address":"Boulevard Albert 1er, 98000 Monaco, Monaco","locality":"Monaco","postcode":"98000"}},"labels":["community","sport"],"duration":118800,"start_local":"2024-05-25T09:00:00","end":"2024-05-26T16:00:00Z","end_local":"2024-05-26T18:00:00","updated":"2024-06-12T01:26:00Z"},{"title":"Monaco Grand Prix","description":"Sourced from predicthq.com - Widely regarded as the most highly-anticipated event on the F1 calendar, the Monaco Grand Prix is the one race of the year that every driver dreams of winning. Like the Indy 500 or Le Mans, it stands alone, almost distinct from the sport from which it was born. A combination of precision driving, technical excellence and sheer bravery is required to win in Monte Carlo, facets which highlight the differences between the great and the good in Formula One.","category":"sports","start":"2024-05-23T22:00:00Z","geo":{"geometry":{"coordinates":[7.421305599999999,43.7348933],"type":"Point"},"placekey":"@7fb-8rw-y9z","address":{"country_code":"MC","formatted_address":"11 Bd Albert 1er, 98000 Monaco","postcode":"98000","locality":"Monaco"}},"labels":["auto-racing","f1","sport"],"duration":259199,"start_local":"2024-05-24T00:00:00","end":"2024-05-26T21:59:59Z","end_local":"2024-05-26T23:59:59","updated":"2024-06-11T23:54:18Z"},{"title":"JL Bourg Basket vs AS Monaco","description":"Sourced from predicthq.com","category":"sports","start":"2024-05-23T17:00:00Z","geo":{"geometry":{"coordinates":[7.4156951,43.7266418],"type":"Point"},"placekey":"@7fb-8rw-nh5","address":{"country_code":"MC","formatted_address":"7 Av. des Castelans, 98000 Monaco","postcode":"98000","locality":"Monaco"}},"labels":["basketball","sport"],"duration":6585,"start_local":"2024-05-23T19:00:00","end":"2024-05-23T18:49:45Z","end_local":"2024-05-23T20:49:45","updated":"2024-06-05T07:44:08Z"},{"title":"F1 Monaco GP 2024 - 43m Yacht Hospitality","description":"Sourced from predicthq.com - 43m Yacht Hospitality","category":"community","start":"2024-05-23T06:00:00Z","geo":{"geometry":{"coordinates":[7.4215031,43.7368516],"type":"Point"},"placekey":"@7fb-8rw-x5z","address":{"country_code":"MC","formatted_address":"Rue Sainte-Dévote, 98000 Monaco, Monaco","locality":"Monaco","postcode":"98000"}},"labels":["community","sport"],"duration":275400,"start_local":"2024-05-23T08:00:00","end":"2024-05-26T10:30:00Z","end_local":"2024-05-26T12:30:00","updated":"2024-06-04T23:11:51Z"},{"title":"Louane","description":"Sourced from predicthq.com","category":"concerts","start":"2024-05-22T18:30:00Z","geo":{"geometry":{"coordinates":[7.4313216,43.7438352],"type":"Point"},"placekey":"@7fb-8s5-zj9","address":{"country_code":"MC","formatted_address":"10 Av. Princesse Grâce, 98000 Monaco","postcode":"98000","locality":"Monaco"}},"labels":["concert","music"],"duration":0,"start_local":"2024-05-22T20:30:00","end":"2024-05-22T18:30:00Z","end_local":"2024-05-22T20:30:00","updated":"2024-06-12T07:42:40Z"},{"title":"Season 9 Tiffany’s Red Carpet Week Cannes Fashion Show In Monaco","description":"Sourced from predicthq.com - Welcome To Season 9 Of Tiffany’s Red Carpet Week Cannes  Fashion Show In Monaco At The Legendary Hotel Hermitage Belle Époque Ballroom","category":"concerts","start":"2024-05-21T14:00:00Z","geo":{"geometry":{"coordinates":[7.425940400000001,43.7384437],"type":"Point"},"placekey":"@7fb-8ry-nwk","address":{"country_code":"MC","formatted_address":"98000 Monaco, Monaco","locality":"Monaco","postcode":"98000"}},"labels":["concert","fashion","music"],"duration":21600,"start_local":"2024-05-21T16:00:00","end":"2024-05-21T20:00:00Z","end_local":"2024-05-21T22:00:00","updated":"2024-06-04T14:01:59Z"},{"title":"Ligue 1 - Monaco vs Nantes","description":"Sourced from predicthq.com","category":"sports","start":"2024-05-19T19:00:00Z","geo":{"geometry":{"coordinates":[7.4154959,43.7275883],"type":"Point"},"placekey":"@7fb-8rw-9fz","address":{"country_code":"MC","formatted_address":"7 Av. des Castelans, 98000 Monaco","postcode":"98000","locality":"Monaco"}},"labels":["soccer","sport"],"duration":6755,"start_local":"2024-05-19T21:00:00","end":"2024-05-19T20:52:35Z","end_local":"2024-05-19T22:52:35","updated":"2024-06-05T14:46:58Z"},{"title":"Le Portel vs AS Monaco","description":"Sourced from predicthq.com","category":"sports","start":"2024-05-16T17:30:00Z","geo":{"geometry":{"coordinates":[7.4156951,43.7266418],"type":"Point"},"placekey":"@7fb-8rw-nh5","address":{"country_code":"MC","formatted_address":"7 Av. des Castelans, 98000 Monaco","postcode":"98000","locality":"Monaco"}},"labels":["basketball","sport"],"duration":6180,"start_local":"2024-05-16T19:30:00","end":"2024-05-16T19:13:00Z","end_local":"2024-05-16T21:13:00","updated":"2024-06-05T20:04:32Z"},{"title":"Echi e Parole tra Muri Dipinti","description":"Sourced from predicthq.com - Le note del flauto di Elena Cecconi fanno da guida e da faro ai testi tratti dalle ultime pubblicazioni delle autrici.","category":"concerts","start":"2024-05-15T18:00:00Z","geo":{"geometry":{"coordinates":[7.4159351,43.7364703],"type":"Point"},"placekey":"@7fb-8rw-wff","address":{"country_code":"MC","formatted_address":"45A Bd du Jardin Exotique, 98000 Monaco","postcode":"98000","locality":"Monaco"}},"labels":["community","concert","music"],"duration":0,"start_local":"2024-05-15T20:00:00","end":"2024-05-15T18:00:00Z","end_local":"2024-05-15T20:00:00","updated":"2024-06-12T16:55:13Z"},{"title":"Ready for IT","description":"Sourced from predicthq.com","category":"conferences","start":"2024-05-14T07:00:00Z","geo":{"geometry":{"coordinates":[7.4313216,43.7438352],"type":"Point"},"placekey":"@7fb-8s5-zj9","address":{"country_code":"MC","formatted_address":"10 Av. Princesse Grâce, 98000 Monaco","postcode":"98000","locality":"Monaco"}},"labels":["conference"],"duration":205200,"start_local":"2024-05-14T09:00:00","end":"2024-05-16T16:00:00Z","end_local":"2024-05-16T18:00:00","updated":"2024-05-24T10:49:30Z"},{"title":"Fenerbahce Istanbul vs AS Monaco","description":"Sourced from predicthq.com","category":"sports","start":"2024-05-08T17:00:00Z","geo":{"geometry":{"coordinates":[7.4156951,43.7266418],"type":"Point"},"placekey":"@7fb-8rw-nh5","address":{"country_code":"MC","formatted_address":"7 Av. des Castelans, 98000 Monaco","postcode":"98000","locality":"Monaco"}},"labels":["basketball","sport"],"duration":8729,"start_local":"2024-05-08T19:00:00","end":"2024-05-08T19:25:29Z","end_local":"2024-05-08T21:25:29","updated":"2024-06-04T19:25:47Z"},{"title":"Conférence \" TARA Pacific\" une mission au coeur du Corail","description":"Sourced from predicthq.com - Venez découvrir la mission de Tara Pacific au cœur des récifs coralliens lors de cet événement captivant !","category":"conferences","start":"2024-05-07T17:00:00Z","geo":{"geometry":{"coordinates":[7.417688,43.7330626],"type":"Point"},"placekey":"@7fb-8rw-89z","address":{"country_code":"MC","formatted_address":"Allée Lazare Sauvaigo, 98000 Monaco, Monaco","locality":"Monaco","postcode":"98000"}},"labels":["conference","outdoor"],"duration":5400,"start_local":"2024-05-07T19:00:00","end":"2024-05-07T18:30:00Z","end_local":"2024-05-07T20:30:00","updated":"2024-06-05T16:13:46Z"},{"title":"Ethical Hacking - Cyberattaques et Cyberdéfense","description":"Sourced from predicthq.com - Matinée autour de la cyber-protection, offensive et défensive avec vue mer !","category":"conferences","start":"2024-05-07T07:00:00Z","geo":{"geometry":{"coordinates":[7.426643599999999,43.7400718],"type":"Point"},"placekey":"@7fb-8s6-2x5","address":{"country_code":"MC","formatted_address":"98000 Monaco, Monaco","locality":"Monaco","postcode":"98000"}},"labels":["conference","science","technology"],"duration":18000,"start_local":"2024-05-07T09:00:00","end":"2024-05-07T12:00:00Z","end_local":"2024-05-07T14:00:00","updated":"2024-06-05T11:02:40Z"},{"title":"Cholet Basket vs AS Monaco","description":"Sourced from predicthq.com","category":"sports","start":"2024-05-05T14:30:00Z","geo":{"geometry":{"coordinates":[7.4156951,43.7266418],"type":"Point"},"placekey":"@7fb-8rw-nh5","address":{"country_code":"MC","formatted_address":"7 Av. des Castelans, 98000 Monaco","postcode":"98000","locality":"Monaco"}},"labels":["basketball","sport"],"duration":6536,"start_local":"2024-05-05T16:30:00","end":"2024-05-05T16:18:56Z","end_local":"2024-05-05T18:18:56","updated":"2024-06-05T02:50:21Z"},{"title":"Ligue 1 - Monaco vs Clermont","description":"Sourced from predicthq.com","category":"sports","start":"2024-05-04T15:00:00Z","geo":{"geometry":{"coordinates":[7.4154959,43.7275883],"type":"Point"},"placekey":"@7fb-8rw-9fz","address":{"country_code":"MC","formatted_address":"7 Av. des Castelans, 98000 Monaco","postcode":"98000","locality":"Monaco"}},"labels":["soccer","sport"],"duration":6946,"start_local":"2024-05-04T17:00:00","end":"2024-05-04T16:55:46Z","end_local":"2024-05-04T18:55:46","updated":"2024-06-05T04:05:50Z"},{"title":"LNB PRO A Espoirs U21 - Monaco U21 vs Cholet U21","description":"Sourced from predicthq.com","category":"sports","start":"2024-05-04T11:30:00Z","geo":{"geometry":{"coordinates":[7.4156951,43.7266418],"type":"Point"},"placekey":"@7fb-8rw-nh5","address":{"country_code":"MC","formatted_address":"7 Av. des Castelans, 98000 Monaco","postcode":"98000","locality":"Monaco"}},"labels":["basketball","sport"],"duration":0,"start_local":"2024-05-04T13:30:00","end":"2024-05-04T11:30:00Z","end_local":"2024-05-04T13:30:00","updated":"2024-06-12T03:37:59Z"},{"title":"LIV Female Leads French Riviera","description":"Sourced from predicthq.com - Calling all Women Leaders: Join Us on the French Riviera for a Global Leadership Gathering!","category":"conferences","start":"2024-05-03T16:30:00Z","geo":{"geometry":{"coordinates":[7.424859399999999,43.7326391],"type":"Point"},"placekey":"@7fb-8ry-n3q","address":{"country_code":"MC","formatted_address":"Quai Antoine 1er, 98000 Monaco, Monaco","locality":"Monaco","postcode":"98000"}},"labels":["conference","outdoor"],"duration":10800,"start_local":"2024-05-03T18:30:00","end":"2024-05-03T19:30:00Z","end_local":"2024-05-03T21:30:00","updated":"2024-06-05T13:41:13Z"},{"title":"LNB PRO A Espoirs U21 - Monaco U21 vs Limoges U21","description":"Sourced from predicthq.com","category":"sports","start":"2024-04-30T15:00:00Z","geo":{"geometry":{"coordinates":[7.4156951,43.7266418],"type":"Point"},"placekey":"@7fb-8rw-nh5","address":{"country_code":"MC","formatted_address":"7 Av. des Castelans, 98000 Monaco","postcode":"98000","locality":"Monaco"}},"labels":["basketball","sport"],"duration":0,"start_local":"2024-04-30T17:00:00","end":"2024-04-30T15:00:00Z","end_local":"2024-04-30T17:00:00","updated":"2024-06-11T20:51:17Z"},{"title":"FIA Formula E Championship - Monaco E-Prix","description":"Sourced from predicthq.com - Formula E, officially the ABB FIA Formula E World Championship, is an open-wheel single-seater motorsport championship for electric cars. The racing series is the highest class of competition for electrically powered single-seater racing cars.","category":"sports","start":"2024-04-26T22:00:00Z","geo":{"geometry":{"coordinates":[7.421395,43.734505],"type":"Point"},"placekey":"@7fb-8rw-y9z","address":{"country_code":"MC","formatted_address":"Boulevard Albert 1er, 98000 Monaco, Monaco","locality":"Monaco","postcode":"98000"}},"labels":["auto-racing","sport"],"duration":86399,"start_local":"2024-04-27T00:00:00","end":"2024-04-27T21:59:59Z","end_local":"2024-04-27T23:59:59","updated":"2024-06-05T09:15:54Z"},{"title":"Chaps","description":"Sourced from predicthq.com","category":"concerts","start":"2024-04-26T21:30:00Z","geo":{"geometry":{"coordinates":[7.43798,43.74719],"type":"Point"},"placekey":"@7fb-8s5-pd9","address":{"country_code":"MC","formatted_address":"26 Av. Princesse Grace, 98000 Monaco","postcode":"98000","locality":"Monaco"}},"labels":["concert","music"],"duration":0,"start_local":"2024-04-26T23:30:00","end":"2024-04-26T21:30:00Z","end_local":"2024-04-26T23:30:00","updated":"2024-06-12T14:16:42Z"},{"title":"Fenerbahce Istanbul vs AS Monaco","description":"Sourced from predicthq.com","category":"sports","start":"2024-04-26T17:00:00Z","geo":{"geometry":{"coordinates":[7.4156951,43.7266418],"type":"Point"},"placekey":"@7fb-8rw-nh5","address":{"country_code":"MC","formatted_address":"7 Av. des Castelans, 98000 Monaco","postcode":"98000","locality":"Monaco"}},"labels":["basketball","sport"],"duration":8119,"start_local":"2024-04-26T19:00:00","end":"2024-04-26T19:15:19Z","end_local":"2024-04-26T21:15:19","updated":"2024-06-03T18:59:51Z"},{"title":"Ligue 1 - Monaco vs Lille","description":"Sourced from predicthq.com","category":"sports","start":"2024-04-24T19:00:00Z","geo":{"geometry":{"coordinates":[7.4154959,43.7275883],"type":"Point"},"placekey":"@7fb-8rw-9fz","address":{"country_code":"MC","formatted_address":"7 Av. des Castelans, 98000 Monaco","postcode":"98000","locality":"Monaco"}},"labels":["soccer","sport"],"duration":6919,"start_local":"2024-04-24T21:00:00","end":"2024-04-24T20:55:19Z","end_local":"2024-04-24T22:55:19","updated":"2024-06-05T19:08:42Z"},{"title":"Fenerbahce Istanbul vs AS Monaco","description":"Sourced from predicthq.com","category":"sports","start":"2024-04-24T17:00:00Z","geo":{"geometry":{"coordinates":[7.4156951,43.7266418],"type":"Point"},"placekey":"@7fb-8rw-nh5","address":{"country_code":"MC","formatted_address":"7 Av. des Castelans, 98000 Monaco","postcode":"98000","locality":"Monaco"}},"labels":["basketball","sport"],"duration":8630,"start_local":"2024-04-24T19:00:00","end":"2024-04-24T19:23:50Z","end_local":"2024-04-24T21:23:50","updated":"2024-05-31T23:29:59Z"},{"title":"Opening reception 'Fausto Melotti. Jewelry'","description":"Sourced from predicthq.com - We take great pleasure in inviting you to a presentation of sculptures, jewelry and works on paper by the Italian artist Fausto Melotti","category":"expos","start":"2024-04-23T16:00:00Z","geo":{"geometry":{"coordinates":[7.425881200000001,43.7397391],"type":"Point"},"placekey":"@7fb-8ry-p7q","address":{"country_code":"MC","formatted_address":"Place du Casino, 98000 Monaco, Monaco","locality":"Monaco","postcode":"98000"}},"labels":["expo","performing-arts"],"duration":0,"start_local":"2024-04-23T18:00:00","end":"2024-04-23T16:00:00Z","end_local":"2024-04-23T18:00:00","updated":"2024-06-05T10:26:37Z"},{"title":"Le Portel vs AS Monaco","description":"Sourced from predicthq.com","category":"sports","start":"2024-04-21T12:30:00Z","geo":{"geometry":{"coordinates":[7.4156951,43.7266418],"type":"Point"},"placekey":"@7fb-8rw-nh5","address":{"country_code":"MC","formatted_address":"7 Av. des Castelans, 98000 Monaco","postcode":"98000","locality":"Monaco"}},"labels":["basketball","sport"],"duration":5941,"start_local":"2024-04-21T14:30:00","end":"2024-04-21T14:09:01Z","end_local":"2024-04-21T16:09:01","updated":"2024-06-05T10:26:41Z"},{"title":"LNB PRO A Espoirs U21 - Monaco U21 vs Le Portel U21","description":"Sourced from predicthq.com","category":"sports","start":"2024-04-20T11:00:00Z","geo":{"geometry":{"coordinates":[7.4156951,43.7266418],"type":"Point"},"placekey":"@7fb-8rw-nh5","address":{"country_code":"MC","formatted_address":"7 Av. des Castelans, 98000 Monaco","postcode":"98000","locality":"Monaco"}},"labels":["basketball","sport"],"duration":0,"start_local":"2024-04-20T13:00:00","end":"2024-04-20T11:00:00Z","end_local":"2024-04-20T13:00:00","updated":"2024-06-12T07:42:31Z"},{"title":"Anoushka Shankar","description":"Sourced from predicthq.com","category":"concerts","start":"2024-04-19T18:30:00Z","geo":{"geometry":{"coordinates":[7.4280828,43.7389744],"type":"Point"},"placekey":"@7fb-8ry-q2k","address":{"country_code":"MC","formatted_address":"98000 Monaco-Ville, Monaco","postcode":"98000","locality":"Monaco-Ville"}},"labels":["concert","music"],"duration":0,"start_local":"2024-04-19T20:30:00","end":"2024-04-19T18:30:00Z","end_local":"2024-04-19T20:30:00","updated":"2024-06-12T05:51:02Z"},{"title":"Bayern Munich vs AS Monaco","description":"Sourced from predicthq.com","category":"sports","start":"2024-04-11T17:00:00Z","geo":{"geometry":{"coordinates":[7.4156951,43.7266418],"type":"Point"},"placekey":"@7fb-8rw-nh5","address":{"country_code":"MC","formatted_address":"7 Av. des Castelans, 98000 Monaco","postcode":"98000","locality":"Monaco"}},"labels":["basketball","sport"],"duration":6897,"start_local":"2024-04-11T19:00:00","end":"2024-04-11T18:54:57Z","end_local":"2024-04-11T20:54:57","updated":"2024-06-05T04:32:41Z"},{"title":"Limoges CSP vs AS Monaco","description":"Sourced from predicthq.com","category":"sports","start":"2024-04-09T18:00:00Z","geo":{"geometry":{"coordinates":[7.4156951,43.7266418],"type":"Point"},"placekey":"@7fb-8rw-nh5","address":{"country_code":"MC","formatted_address":"7 Av. des Castelans, 98000 Monaco","postcode":"98000","locality":"Monaco"}},"labels":["basketball","sport"],"duration":5768,"start_local":"2024-04-09T20:00:00","end":"2024-04-09T19:36:08Z","end_local":"2024-04-09T21:36:08","updated":"2024-06-05T04:46:06Z"},{"title":"Ligue 1 - Monaco vs Rennes","description":"Sourced from predicthq.com","category":"sports","start":"2024-04-07T15:05:00Z","geo":{"geometry":{"coordinates":[7.4154959,43.7275883],"type":"Point"},"placekey":"@7fb-8rw-9fz","address":{"country_code":"MC","formatted_address":"7 Av. des Castelans, 98000 Monaco","postcode":"98000","locality":"Monaco"}},"labels":["soccer","sport"],"duration":7002,"start_local":"2024-04-07T17:05:00","end":"2024-04-07T17:01:42Z","end_local":"2024-04-07T19:01:42","updated":"2024-06-05T15:54:30Z"},{"title":"Sluc Nancy Basket vs AS Monaco","description":"Sourced from predicthq.com","category":"sports","start":"2024-04-07T12:30:00Z","geo":{"geometry":{"coordinates":[7.4156951,43.7266418],"type":"Point"},"placekey":"@7fb-8rw-nh5","address":{"country_code":"MC","formatted_address":"7 Av. des Castelans, 98000 Monaco","postcode":"98000","locality":"Monaco"}},"labels":["basketball","sport"],"duration":6184,"start_local":"2024-04-07T14:30:00","end":"2024-04-07T14:13:04Z","end_local":"2024-04-07T16:13:04","updated":"2024-06-05T03:41:38Z"}]