[{"title":"Chisinau International Marathon","description":"Sourced from predicthq.com","category":"sports","start":"2024-09-29T06:00:00Z","geo":{"geometry":{"coordinates":[28.8638103,47.0104529],"type":"Point"},"placekey":"@4yb-fsr-q4v","address":{"country_code":"MD","formatted_address":"Aleea Gării, Chișinău, Moldova, Republic of","locality":"Chișinău","region":"Chișinău"}},"labels":["marathon","outdoor-sports","running","sport"],"duration":0,"start_local":"2024-09-29T09:00:00","end":"2024-09-29T06:00:00Z","end_local":"2024-09-29T09:00:00","updated":"2024-06-19T22:39:41Z"},{"title":"Friendlies - Friendlies 2 - Moldova vs San Marino","description":"Sourced from predicthq.com","category":"sports","start":"2024-09-10T16:00:00Z","geo":{"geometry":{"coordinates":[28.8672653626,46.9795033023],"type":"Point"},"placekey":"@4y6-6hz-rkz","address":{"country_code":"MD","formatted_address":"Bd. Dacia, 45 (Str. Butucului)\n2062 Chișinău\nRepublica Moldova","postcode":"2062","locality":"Chișinău","region":"Municipiul Chișinău"}},"labels":["soccer","sport"],"duration":0,"start_local":"2024-09-10T19:00:00","end":"2024-09-10T16:00:00Z","end_local":"2024-09-10T19:00:00","updated":"2024-06-11T00:38:00Z"},{"title":"UEFA Nations League - League D - Moldova vs Malta","description":"Sourced from predicthq.com","category":"sports","start":"2024-09-07T16:00:00Z","geo":{"geometry":{"coordinates":[28.8672653626,46.9795033023],"type":"Point"},"placekey":"@4y6-6hz-rkz","address":{"country_code":"MD","formatted_address":"Bd. Dacia, 45 (Str. Butucului)\n2062 Chișinău\nRepublica Moldova","postcode":"2062","locality":"Chișinău","region":"Municipiul Chișinău"}},"labels":["soccer","sport"],"duration":0,"start_local":"2024-09-07T19:00:00","end":"2024-09-07T16:00:00Z","end_local":"2024-09-07T19:00:00","updated":"2024-06-11T06:50:14Z"},{"title":"UEFA Conference League - 1st Qualifying Round - Milsami vs Torpedo BelAZ","description":"Sourced from predicthq.com","category":"sports","start":"2024-07-18T16:00:00Z","geo":{"geometry":{"coordinates":[28.8192279,47.3742586],"type":"Point"},"placekey":"@4y6-3m3-s5z","address":{"country_code":"MD","formatted_address":"13 Strada Scrisului Latin, MD-3505 Orhei, Moldova, Republic of","postcode":"MD-3505","locality":"Orhei","region":"Raionul Orhei"}},"labels":["soccer","sport"],"duration":0,"start_local":"2024-07-18T19:00:00","end":"2024-07-18T16:00:00Z","end_local":"2024-07-18T19:00:00","updated":"2024-06-24T18:59:36Z"},{"title":"UEFA Champions League - 1st Qualifying Round - Petrocub vs Ordabasy","description":"Sourced from predicthq.com","category":"sports","start":"2024-07-17T17:00:00Z","geo":{"geometry":{"coordinates":[28.8672653626,46.9795033023],"type":"Point"},"placekey":"@4y6-6hz-rkz","address":{"country_code":"MD","formatted_address":"Bd. Dacia, 45 (Str. Butucului)\n2062 Chișinău\nRepublica Moldova","postcode":"2062","locality":"Chișinău","region":"Municipiul Chișinău"}},"labels":["soccer","sport"],"duration":0,"start_local":"2024-07-17T20:00:00","end":"2024-07-17T17:00:00Z","end_local":"2024-07-17T20:00:00","updated":"2024-06-24T19:04:33Z"},{"title":"UEFA Europa League - 1st Qualifying Round - Sheriff vs Zira","description":"Sourced from predicthq.com","category":"sports","start":"2024-07-11T17:00:00Z","geo":{"geometry":{"coordinates":[29.557895064353943,46.83834678543481],"type":"Point"},"placekey":"@4yf-g7s-v75","address":{"country_code":"MD","formatted_address":"Strada Karl Liebknecht 1/2, Tiraspol, Moldova","locality":"Tiraspol","region":"Unitățile administrativ-teritoriale din stînga Nistrului"}},"labels":["soccer","sport"],"duration":0,"start_local":"2024-07-11T20:00:00","end":"2024-07-11T17:00:00Z","end_local":"2024-07-11T20:00:00","updated":"2024-06-24T20:05:23Z"},{"title":"EIT Community Moldova Ecosystem Day","description":"Sourced from predicthq.com - Join the EIT Community at the Moldova Ecosystem Day in Chisinau!","category":"conferences","start":"2024-06-13T06:00:00Z","geo":{"geometry":{"coordinates":[28.8716761,47.0620937],"type":"Point"},"placekey":"@4y6-6ks-xbk","address":{"country_code":"MD","formatted_address":"Strada Studenților, Chișinău, Moldova, Republic of","locality":"Chișinău","region":"Chișinău"}},"labels":["business","conference"],"duration":24300,"start_local":"2024-06-13T09:00:00","end":"2024-06-13T12:45:00Z","end_local":"2024-06-13T15:45:00","updated":"2024-05-23T01:49:17Z"},{"title":"Friendlies - Friendlies 1 - Moldova vs Ukraine","description":"Sourced from predicthq.com","category":"sports","start":"2024-06-11T16:00:00Z","geo":{"geometry":{"coordinates":[28.8672653626,46.9795033023],"type":"Point"},"placekey":"@4y6-6hz-rkz","address":{"country_code":"MD","formatted_address":"Bd. Dacia, 45 (Str. Butucului)\n2062 Chișinău\nRepublica Moldova","postcode":"2062","locality":"Chișinău","region":"Municipiul Chișinău"}},"labels":["soccer","sport"],"duration":535508,"start_local":"2024-06-11T19:00:00","end":"2024-06-17T20:45:08Z","end_local":"2024-06-17T23:45:08","updated":"2024-06-18T02:34:02Z"},{"title":"Friendlies - Friendlies 2 - Moldova vs Cyprus","description":"Sourced from predicthq.com","category":"sports","start":"2024-06-08T16:00:00Z","geo":{"geometry":{"coordinates":[28.8672653626,46.9795033023],"type":"Point"},"placekey":"@4y6-6hz-rkz","address":{"country_code":"MD","formatted_address":"Bd. Dacia, 45 (Str. Butucului)\n2062 Chișinău\nRepublica Moldova","postcode":"2062","locality":"Chișinău","region":"Municipiul Chișinău"}},"labels":["soccer","sport"],"duration":6769,"start_local":"2024-06-08T19:00:00","end":"2024-06-08T17:52:49Z","end_local":"2024-06-08T20:52:49","updated":"2024-06-08T17:57:40Z"},{"title":"Zdob și Zdub and Cuibul","description":"Sourced from predicthq.com","category":"concerts","start":"2024-06-02T16:00:00Z","geo":{"geometry":{"coordinates":[28.82255,47.02704],"type":"Point"},"placekey":"@4yb-fsq-yy9","address":{"country_code":"MD","formatted_address":"Strada 31 August 1989 137, Chișinău 2004, Moldova","postcode":"2004","locality":"Chișinău","region":"Chișinău"}},"labels":["concert","music"],"duration":0,"start_local":"2024-06-02T19:00:00","end":"2024-06-02T16:00:00Z","end_local":"2024-06-02T19:00:00","updated":"2024-06-27T19:42:42Z"},{"title":"BLACK OLIVES","description":"Sourced from predicthq.com","category":"concerts","start":"2024-05-25T16:00:00Z","geo":{"geometry":{"coordinates":[28.8389091,47.0294838],"type":"Point"},"placekey":"@4yb-fsy-zvf","address":{"country_code":"MD","formatted_address":"11 Bulevardul Grigore Vieru, 2005 Chișinău, Moldova, Republic of","postcode":"2005","locality":"Chișinău"}},"labels":["concert","music"],"duration":0,"start_local":"2024-05-25T19:00:00","end":"2024-05-25T16:00:00Z","end_local":"2024-05-25T19:00:00","updated":"2024-06-11T16:02:18Z"},{"title":"Mystic - Chapter 1","description":"Sourced from predicthq.com","category":"festivals","start":"2024-05-16T21:00:00Z","geo":{"geometry":{"coordinates":[28.87695,47.0686],"type":"Point"},"placekey":"@4y6-6ks-d35","address":{"country_code":"MD","formatted_address":"Strada Calea Orheiului 130, Chișinău, Moldova","locality":"Chișinău","region":"Chișinău"}},"labels":["festival","music"],"duration":172799,"start_local":"2024-05-17T00:00:00","end":"2024-05-18T20:59:59Z","end_local":"2024-05-18T23:59:59","updated":"2024-06-05T13:40:58Z"},{"title":"Dynamic Talks Chisinau | Building Resilient Architecture on AWS","description":"Sourced from predicthq.com - Looking to enhance your knowledge of building resilient architecture on AWS?","category":"conferences","start":"2024-05-16T15:30:00Z","geo":{"geometry":{"coordinates":[28.8261749,47.0298712],"type":"Point"},"placekey":"@4yb-fsy-vxq","address":{"country_code":"MD","formatted_address":"Strada Serghei Lazo, 2004 Chișinău, Moldova, Republic of","locality":"Chișinău","postcode":"2004","region":"Chișinău"}},"labels":["conference","science","technology"],"duration":7200,"start_local":"2024-05-16T18:30:00","end":"2024-05-16T17:30:00Z","end_local":"2024-05-16T20:30:00","updated":"2024-06-05T06:10:02Z"},{"title":"Rugby Union Internationals - Friendlies 3 - Moldova vs Bulgaria","description":"Sourced from predicthq.com","category":"sports","start":"2024-05-04T13:00:00Z","geo":{"geometry":{"coordinates":[28.8191556930542,47.02676377479607],"type":"Point"},"placekey":"@4yb-fsq-qvf","address":{"country_code":"MD","formatted_address":"Strada Alexei Şciusev 106A, MD-2004, Chișinău, Moldova","postcode":"2004","locality":"Chișinău","region":"Chișinău"}},"labels":["rugby","sport"],"duration":0,"start_local":"2024-05-04T16:00:00","end":"2024-05-04T13:00:00Z","end_local":"2024-05-04T16:00:00","updated":"2024-06-12T16:44:20Z"},{"title":"Lara Fabian","description":"Sourced from predicthq.com","category":"concerts","start":"2024-04-19T16:00:00Z","geo":{"geometry":{"coordinates":[28.83107,47.02217],"type":"Point"},"placekey":"@4yb-fss-qmk","address":{"country_code":"MD","formatted_address":"Strada Pușkin 21, Chișinău, Moldova","locality":"Chișinău","region":"Chișinău"}},"labels":["concert","music"],"duration":0,"start_local":"2024-04-19T19:00:00","end":"2024-04-19T16:00:00Z","end_local":"2024-04-19T19:00:00","updated":"2024-07-05T10:26:09Z"}]