[{"title":"Balkan River Summit","description":"Sourced from predicthq.com - Hey there! The Balkan River Summit is all about bringing together river lovers from the Balkan region to discuss conservation and protection","category":"conferences","start":"2024-09-29T12:00:00Z","geo":{"geometry":{"coordinates":[19.2593642,42.4304196],"type":"Point"},"placekey":"@4zx-4k9-9vf","address":{"country_code":"ME","formatted_address":"Bracana Bracanovića, Podgorica, Montenegro","locality":"Podgorica","region":"Glavni grad Podgorica"}},"labels":["conference","outdoor"],"duration":363600,"start_local":"2024-09-29T14:00:00","end":"2024-10-03T17:00:00Z","end_local":"2024-10-03T19:00:00","updated":"2024-05-30T01:04:55Z"},{"title":"Blacklake Xtri","description":"Sourced from predicthq.com","category":"sports","start":"2024-09-14T02:30:00Z","geo":{"geometry":{"coordinates":[19.1226018,43.1555152],"type":"Point"},"placekey":"@4zw-rdx-7nq","address":{"country_code":"ME","formatted_address":"Žabljak, Žabljak Municipality, Montenegro","locality":"Žabljak","region":"Žabljak Municipality"}},"labels":["outdoor-sports","running","sport"],"duration":0,"start_local":"2024-09-14T04:30:00","end":"2024-09-14T02:30:00Z","end_local":"2024-09-14T04:30:00","updated":"2024-06-27T09:24:27Z"},{"title":"Ada Devine Awakening","description":"Sourced from predicthq.com","category":"festivals","start":"2024-09-12T22:00:00Z","geo":{"geometry":{"coordinates":[19.29022,41.89436],"type":"Point"},"placekey":"@4zx-6w6-7wk","address":{"country_code":"ME","formatted_address":"V87R+WVQ, Velika Plaža BB, Ulcinj, Montenegro","locality":"Ulcinj"}},"labels":["festival","music"],"duration":518399,"start_local":"2024-09-13T00:00:00","end":"2024-09-18T21:59:59Z","end_local":"2024-09-18T23:59:59","updated":"2024-06-04T01:23:19Z"},{"title":"UEFA Nations League - League B - Montenegro vs Wales","description":"Sourced from predicthq.com","category":"sports","start":"2024-09-09T18:45:00Z","geo":{"geometry":{"coordinates":[19.2644811,42.444723],"type":"Point"},"placekey":"@4zx-4k9-m8v","address":{"country_code":"ME","formatted_address":"C7V7+VQX, Podgorica, Montenegro","locality":"Podgorica","region":"Podgorica Municipality"}},"labels":["soccer","sport"],"duration":0,"start_local":"2024-09-09T20:45:00","end":"2024-09-09T18:45:00Z","end_local":"2024-09-09T20:45:00","updated":"2024-06-11T00:19:03Z"},{"title":"ARKADYAN","description":"Sourced from predicthq.com","category":"concerts","start":"2024-08-24T17:00:00Z","geo":{"geometry":{"coordinates":[18.6801116,42.4043824],"type":"Point"},"placekey":"@4zx-9xt-yd9","address":{"country_code":"ME","formatted_address":"Bogisici BB, Radovići, Montenegro","locality":"Radovići","region":"Tivat Municipality"}},"labels":["concert","music"],"duration":0,"start_local":"2024-08-24T19:00:00","end":"2024-08-24T17:00:00Z","end_local":"2024-08-24T19:00:00","updated":"2024-07-04T00:14:34Z"},{"title":"Rex the Dog","description":"Sourced from predicthq.com","category":"concerts","start":"2024-08-24T17:00:00Z","geo":{"geometry":{"coordinates":[19.21476,41.93109],"type":"Point"},"placekey":"@4zx-7g2-28v","address":{"country_code":"ME","formatted_address":"84220 Borje, Ulcinj 85360, Montenegro","postcode":"85360","locality":"Ulcinj","region":"Opština Ulcinj"}},"labels":["concert","music"],"duration":0,"start_local":"2024-08-24T19:00:00","end":"2024-08-24T17:00:00Z","end_local":"2024-08-24T19:00:00","updated":"2024-07-02T03:11:19Z"},{"title":"European Championship Qualifiers - Group Stage - Montenegro vs Czechia","description":"Sourced from predicthq.com","category":"sports","start":"2024-08-24T16:00:00Z","geo":{"geometry":{"coordinates":[19.51991254364879,42.82195871792082],"type":"Point"},"placekey":"@4zw-mmd-zj9","address":{"country_code":"ME","formatted_address":"RGCC+Q5F, Kolasin, Montenegro","locality":"Kolasin","region":"Kolašin Municipality"}},"labels":["sport","volleyball"],"duration":0,"start_local":"2024-08-24T18:00:00","end":"2024-08-24T16:00:00Z","end_local":"2024-08-24T18:00:00","updated":"2024-06-04T02:19:44Z"},{"title":"Odoo Roadshow Podgorica","description":"Sourced from predicthq.com - Discover Odoo with our experts and partners in Podgorica!","category":"conferences","start":"2024-08-22T16:00:00Z","geo":{"geometry":{"coordinates":[19.2433352,42.4407813],"type":"Point"},"placekey":"@4zx-4km-sqz","address":{"country_code":"ME","formatted_address":"Podgorica, Podgorica Municipality, Montenegro","locality":"Podgorica","region":"Podgorica Municipality"}},"labels":["business","conference"],"duration":10800,"start_local":"2024-08-22T18:00:00","end":"2024-08-22T19:00:00Z","end_local":"2024-08-22T21:00:00","updated":"2024-06-06T00:37:01Z"},{"title":"Yulia Niko","description":"Sourced from predicthq.com","category":"concerts","start":"2024-08-16T17:00:00Z","geo":{"geometry":{"coordinates":[19.21476,41.93109],"type":"Point"},"placekey":"@4zx-7g2-28v","address":{"country_code":"ME","formatted_address":"84220 Borje, Ulcinj 85360, Montenegro","postcode":"85360","locality":"Ulcinj","region":"Opština Ulcinj"}},"labels":["concert","music"],"duration":0,"start_local":"2024-08-16T19:00:00","end":"2024-08-16T17:00:00Z","end_local":"2024-08-16T19:00:00","updated":"2024-06-21T10:17:45Z"},{"title":"Bjelasica Trail","description":"Sourced from predicthq.com","category":"sports","start":"2024-08-03T03:00:00Z","geo":{"geometry":{"coordinates":[19.5240814,42.8204751],"type":"Point"},"placekey":"@4zw-mmd-v9f","address":{"country_code":"ME","formatted_address":"Kolasin, Kolašin Municipality, Montenegro","locality":"Kolasin","region":"Kolašin Municipality"}},"labels":["outdoor-sports","running","sport"],"duration":0,"start_local":"2024-08-03T05:00:00","end":"2024-08-03T03:00:00Z","end_local":"2024-08-03T05:00:00","updated":"2024-06-04T11:07:56Z"},{"title":"UEFA Conference League - 1st Qualifying Round - Budućnost vs Malisheva","description":"Sourced from predicthq.com","category":"sports","start":"2024-07-18T19:00:00Z","geo":{"geometry":{"coordinates":[19.2644811,42.444723],"type":"Point"},"placekey":"@4zx-4k9-m8v","address":{"country_code":"ME","formatted_address":"C7V7+VQX, Podgorica, Montenegro","locality":"Podgorica","region":"Podgorica Municipality"}},"labels":["soccer","sport"],"duration":0,"start_local":"2024-07-18T21:00:00","end":"2024-07-18T19:00:00Z","end_local":"2024-07-18T21:00:00","updated":"2024-06-24T17:43:28Z"},{"title":"UEFA Champions League - 1st Qualifying Round - Dečić vs The New Saints","description":"Sourced from predicthq.com","category":"sports","start":"2024-07-16T19:00:00Z","geo":{"geometry":{"coordinates":[19.2644811,42.444723],"type":"Point"},"placekey":"@4zx-4k9-m8v","address":{"country_code":"ME","formatted_address":"C7V7+VQX, Podgorica, Montenegro","locality":"Podgorica","region":"Podgorica Municipality"}},"labels":["soccer","sport"],"duration":0,"start_local":"2024-07-16T21:00:00","end":"2024-07-16T19:00:00Z","end_local":"2024-07-16T21:00:00","updated":"2024-06-24T18:36:49Z"},{"title":"UEFA Conference League - 1st Qualifying Round - Mornar vs Dinamo Tbilisi","description":"Sourced from predicthq.com","category":"sports","start":"2024-07-11T18:45:00Z","geo":{"geometry":{"coordinates":[19.217308771008316,42.411780914253775],"type":"Point"},"placekey":"@4zx-4hf-92k","address":{"country_code":"ME","formatted_address":"C668+JHR, Podgorica, Montenegro","locality":"Podgorica","region":"Podgorica Municipality"}},"labels":["soccer","sport"],"duration":0,"start_local":"2024-07-11T20:45:00","end":"2024-07-11T18:45:00Z","end_local":"2024-07-11T20:45:00","updated":"2024-06-24T18:52:06Z"},{"title":"KC Lights","description":"Sourced from predicthq.com","category":"concerts","start":"2024-06-29T13:00:00Z","geo":{"geometry":{"coordinates":[18.6801116,42.4043824],"type":"Point"},"placekey":"@4zx-9xt-yd9","address":{"country_code":"ME","formatted_address":"Bogisici BB, Radovići, Montenegro","locality":"Radovići","region":"Tivat Municipality"}},"labels":["concert","music"],"duration":0,"start_local":"2024-06-29T15:00:00","end":"2024-06-29T13:00:00Z","end_local":"2024-06-29T15:00:00","updated":"2024-06-11T07:11:36Z"},{"title":"OneLife 2024 @ Budva","description":"Sourced from predicthq.com - Ćaoo, Budva!","category":"festivals","start":"2024-06-25T16:00:00Z","geo":{"geometry":{"coordinates":[18.858562,42.28099100000001],"type":"Point"},"placekey":"@4zx-4mr-s3q","address":{"country_code":"ME","formatted_address":"85310 Budva, Montenegro","locality":"Budva","postcode":"85310","region":"Budva Municipality"}},"labels":["festival","outdoor"],"duration":19800,"start_local":"2024-06-25T18:00:00","end":"2024-06-25T21:30:00Z","end_local":"2024-06-25T23:30:00","updated":"2024-05-30T02:20:00Z"},{"title":"Srdjan Ivanovic, Manu Codjia, Ludivine Issambourg, and Matis Regnault","description":"Sourced from predicthq.com","category":"concerts","start":"2024-06-21T17:00:00Z","geo":{"geometry":{"coordinates":[19.2589925,42.4420336],"type":"Point"},"placekey":"@4zx-4kb-3t9","address":{"country_code":"ME","formatted_address":"Njegošev Park, Podgorica, Montenegro","locality":"Podgorica","region":"Podgorica Municipality"}},"labels":["concert","music"],"duration":0,"start_local":"2024-06-21T19:00:00","end":"2024-06-21T17:00:00Z","end_local":"2024-06-21T19:00:00","updated":"2024-07-05T17:03:21Z"},{"title":"Rey&Kjavik","description":"Sourced from predicthq.com","category":"concerts","start":"2024-06-14T18:00:00Z","geo":{"geometry":{"coordinates":[18.6521538,42.3772403],"type":"Point"},"placekey":"@4zx-9rb-ndv","address":{"country_code":"ME","formatted_address":"Luštica, Radovići 85323, Montenegro","postcode":"85323","locality":"Radovići","region":"Opština Tivat"}},"labels":["concert","music"],"duration":0,"start_local":"2024-06-14T20:00:00","end":"2024-06-14T18:00:00Z","end_local":"2024-06-14T20:00:00","updated":"2024-06-28T18:05:29Z"},{"title":"Монеточка","description":"Sourced from predicthq.com","category":"community","start":"2024-06-12T18:00:00Z","geo":{"geometry":{"coordinates":[19.27146,42.4428921],"type":"Point"},"placekey":"@4zx-4k9-x89","address":{"country_code":"ME","formatted_address":"2 Rista Stijovića, Podgorica, Montenegro","locality":"Podgorica","region":"Podgorica Municipality"}},"labels":["concert","music"],"duration":0,"start_local":"2024-06-12T20:00:00","end":"2024-06-12T18:00:00Z","end_local":"2024-06-12T20:00:00","updated":"2024-06-04T01:19:04Z"},{"title":"Friendlies - Friendlies 2 - Montenegro vs Georgia","description":"Sourced from predicthq.com","category":"sports","start":"2024-06-09T18:45:00Z","geo":{"geometry":{"coordinates":[19.2644811,42.444723],"type":"Point"},"placekey":"@4zx-4k9-m8v","address":{"country_code":"ME","formatted_address":"C7V7+VQX, Podgorica, Montenegro","locality":"Podgorica","region":"Podgorica Municipality"}},"labels":["soccer","sport"],"duration":6732,"start_local":"2024-06-09T20:45:00","end":"2024-06-09T20:37:12Z","end_local":"2024-06-09T22:37:12","updated":"2024-06-09T23:51:56Z"},{"title":"Prva A Liga - Final - Studenski Centar vs Budućnost","description":"Sourced from predicthq.com","category":"sports","start":"2024-05-28T18:00:00Z","geo":{"geometry":{"coordinates":[19.2537888,42.438201],"type":"Point"},"placekey":"@4zx-4kb-26k","address":{"country_code":"ME","formatted_address":"bb Ivana Milutinovića, Podgorica 81000, Montenegro","postcode":"81000","locality":"Podgorica","region":"Glavni grad Podgorica"}},"labels":["basketball","sport"],"duration":0,"start_local":"2024-05-28T20:00:00","end":"2024-05-28T18:00:00Z","end_local":"2024-05-28T20:00:00","updated":"2024-06-12T03:54:33Z"},{"title":"Prva A Liga - Final - Budućnost vs Studenski Centar","description":"Sourced from predicthq.com","category":"sports","start":"2024-05-26T16:00:00Z","geo":{"geometry":{"coordinates":[19.2537888,42.438201],"type":"Point"},"placekey":"@4zx-4kb-26k","address":{"country_code":"ME","formatted_address":"bb Ivana Milutinovića, Podgorica 81000, Montenegro","postcode":"81000","locality":"Podgorica","region":"Glavni grad Podgorica"}},"labels":["basketball","sport"],"duration":0,"start_local":"2024-05-26T18:00:00","end":"2024-05-26T16:00:00Z","end_local":"2024-05-26T18:00:00","updated":"2024-06-11T21:45:38Z"},{"title":"Marc Stan","description":"Sourced from predicthq.com","category":"concerts","start":"2024-05-26T16:00:00Z","geo":{"geometry":{"coordinates":[19.26134,42.44223],"type":"Point"},"placekey":"@4zx-4k9-nkf","address":{"country_code":"ME","formatted_address":"12 Bokeška, Podgorica, Montenegro","locality":"Podgorica","region":"Glavni grad Podgorica"}},"labels":["concert","music"],"duration":0,"start_local":"2024-05-26T18:00:00","end":"2024-05-26T16:00:00Z","end_local":"2024-05-26T18:00:00","updated":"2024-06-12T11:40:42Z"},{"title":"The Official Launch of the EIT Community RIS Hub Montenegro","description":"Sourced from predicthq.com - Join us for the opening event of the EIT Community RIS Hub in Montenegro and find out about European Institute of Innovation and Technology!","category":"conferences","start":"2024-05-24T06:30:00Z","geo":{"geometry":{"coordinates":[19.2433352,42.4407813],"type":"Point"},"placekey":"@4zx-4km-sqz","address":{"country_code":"ME","formatted_address":"Podgorica, Podgorica Municipality, Montenegro","locality":"Podgorica","region":"Podgorica Municipality"}},"labels":["conference","science","technology"],"duration":25200,"start_local":"2024-05-24T08:30:00","end":"2024-05-24T13:30:00Z","end_local":"2024-05-24T15:30:00","updated":"2024-06-05T15:27:58Z"},{"title":"Boris Grebenshikov","description":"Sourced from predicthq.com","category":"concerts","start":"2024-05-23T18:00:00Z","geo":{"geometry":{"coordinates":[18.8500789,42.2854191],"type":"Point"},"placekey":"@4zx-4ms-j9z","address":{"country_code":"ME","formatted_address":"7VP2+528, Slovenska Obala, Budva, Montenegro","locality":"Budva","region":"Opština Budva"}},"labels":["concert","music"],"duration":0,"start_local":"2024-05-23T20:00:00","end":"2024-05-23T18:00:00Z","end_local":"2024-05-23T20:00:00","updated":"2024-06-12T17:28:05Z"},{"title":"Prva A Liga - Final - Studenski Centar vs Budućnost","description":"Sourced from predicthq.com","category":"sports","start":"2024-05-23T16:00:00Z","geo":{"geometry":{"coordinates":[19.2537888,42.438201],"type":"Point"},"placekey":"@4zx-4kb-26k","address":{"country_code":"ME","formatted_address":"bb Ivana Milutinovića, Podgorica 81000, Montenegro","postcode":"81000","locality":"Podgorica","region":"Glavni grad Podgorica"}},"labels":["basketball","sport"],"duration":0,"start_local":"2024-05-23T18:00:00","end":"2024-05-23T16:00:00Z","end_local":"2024-05-23T18:00:00","updated":"2024-06-12T00:17:51Z"},{"title":"Prva A Liga - Final - Budućnost vs Studenski Centar","description":"Sourced from predicthq.com","category":"sports","start":"2024-05-20T16:00:00Z","geo":{"geometry":{"coordinates":[19.2537888,42.438201],"type":"Point"},"placekey":"@4zx-4kb-26k","address":{"country_code":"ME","formatted_address":"bb Ivana Milutinovića, Podgorica 81000, Montenegro","postcode":"81000","locality":"Podgorica","region":"Glavni grad Podgorica"}},"labels":["basketball","sport"],"duration":0,"start_local":"2024-05-20T18:00:00","end":"2024-05-20T16:00:00Z","end_local":"2024-05-20T18:00:00","updated":"2024-06-12T01:48:51Z"},{"title":"Louna","description":"Sourced from predicthq.com","category":"concerts","start":"2024-05-19T18:00:00Z","geo":{"geometry":{"coordinates":[18.83804,42.28251],"type":"Point"},"placekey":"@4zx-4q6-s3q","address":{"country_code":"ME","formatted_address":"Slovenska Obala, Budva, Montenegro","locality":"Budva","region":"Opština Budva"}},"labels":["concert","music"],"duration":0,"start_local":"2024-05-19T20:00:00","end":"2024-05-19T18:00:00Z","end_local":"2024-05-19T20:00:00","updated":"2024-06-12T00:03:59Z"},{"title":"CEV European Silver League (W) - Group Stage - Montenegro vs Georgia","description":"Sourced from predicthq.com","category":"sports","start":"2024-05-19T16:00:00Z","geo":{"geometry":{"coordinates":[19.2015969,42.4176731],"type":"Point"},"placekey":"@4zx-4hc-fcq","address":{"country_code":"ME","formatted_address":"Donja Gorica bb, Podgorica 81000, Montenegro","postcode":"81000","locality":"Podgorica","region":"Glavni grad Podgorica"}},"labels":["sport","volleyball"],"duration":0,"start_local":"2024-05-19T18:00:00","end":"2024-05-19T16:00:00Z","end_local":"2024-05-19T18:00:00","updated":"2024-06-05T12:30:57Z"},{"title":"Ocean Lava Montenegro","description":"Sourced from predicthq.com","category":"sports","start":"2024-05-18T22:00:00Z","geo":{"geometry":{"coordinates":[18.771234,42.424662],"type":"Point"},"placekey":"@4zx-9vj-x89","address":{"country_code":"ME","formatted_address":"Kotor, Kotor Municipality, Montenegro","locality":"Kotor","region":"Kotor Municipality"}},"labels":["outdoor-sports","running","sport"],"duration":86399,"start_local":"2024-05-19T00:00:00","end":"2024-05-19T21:59:59Z","end_local":"2024-05-19T23:59:59","updated":"2024-06-05T14:40:56Z"},{"title":"Marc Stan","description":"Sourced from predicthq.com","category":"concerts","start":"2024-05-18T19:00:00Z","geo":{"geometry":{"coordinates":[19.26134,42.44223],"type":"Point"},"placekey":"@4zx-4k9-nkf","address":{"country_code":"ME","formatted_address":"12 Bokeška, Podgorica, Montenegro","locality":"Podgorica","region":"Glavni grad Podgorica"}},"labels":["concert","music"],"duration":0,"start_local":"2024-05-18T21:00:00","end":"2024-05-18T19:00:00Z","end_local":"2024-05-18T21:00:00","updated":"2024-06-11T21:25:11Z"},{"title":"CEV European Silver League (W) - Group Stage - Georgia vs Faroe Islands","description":"Sourced from predicthq.com","category":"sports","start":"2024-05-18T16:00:00Z","geo":{"geometry":{"coordinates":[19.2015969,42.4176731],"type":"Point"},"placekey":"@4zx-4hc-fcq","address":{"country_code":"ME","formatted_address":"Donja Gorica bb, Podgorica 81000, Montenegro","postcode":"81000","locality":"Podgorica","region":"Glavni grad Podgorica"}},"labels":["sport","volleyball"],"duration":0,"start_local":"2024-05-18T18:00:00","end":"2024-05-18T16:00:00Z","end_local":"2024-05-18T18:00:00","updated":"2024-06-05T09:56:51Z"},{"title":"CEV European Silver League (W) - Group Stage - Faroe Islands vs Montenegro","description":"Sourced from predicthq.com","category":"sports","start":"2024-05-17T16:00:00Z","geo":{"geometry":{"coordinates":[19.2015969,42.4176731],"type":"Point"},"placekey":"@4zx-4hc-fcq","address":{"country_code":"ME","formatted_address":"Donja Gorica bb, Podgorica 81000, Montenegro","postcode":"81000","locality":"Podgorica","region":"Glavni grad Podgorica"}},"labels":["sport","volleyball"],"duration":0,"start_local":"2024-05-17T18:00:00","end":"2024-05-17T16:00:00Z","end_local":"2024-05-17T18:00:00","updated":"2024-06-04T22:04:30Z"},{"title":"Prva A Liga - Semi-finals - Sutjeska vs Budućnost","description":"Sourced from predicthq.com","category":"sports","start":"2024-05-16T16:00:00Z","geo":{"geometry":{"coordinates":[18.9498004,42.7806633],"type":"Point"},"placekey":"@4zx-89b-zxq","address":{"country_code":"ME","formatted_address":"QXJ2+G8V, Njegoševa, Nikšić, Montenegro","locality":"Nikšić","region":"Opština Nikšić"}},"labels":["basketball","sport"],"duration":0,"start_local":"2024-05-16T18:00:00","end":"2024-05-16T16:00:00Z","end_local":"2024-05-16T18:00:00","updated":"2024-06-11T21:57:28Z"},{"title":"Flexibility of freelancing and stability of employment","description":"Sourced from predicthq.com - Are you a freelancer in Montenegro looking to optimize your career? TFiR Talks we'll dive into the world  of freelance finance.","category":"conferences","start":"2024-05-15T16:00:00Z","geo":{"geometry":{"coordinates":[19.2329142,42.43687060000001],"type":"Point"},"placekey":"@4zx-4kk-t35","address":{"country_code":"ME","formatted_address":"Cetinjski Put, 81000 Podgorica, Montenegro","locality":"Podgorica","postcode":"81000","region":"Glavni grad Podgorica"}},"labels":["business","conference"],"duration":5400,"start_local":"2024-05-15T18:00:00","end":"2024-05-15T17:30:00Z","end_local":"2024-05-15T19:30:00","updated":"2024-06-05T16:52:49Z"},{"title":"Prva A Liga - Semi-finals - Teodo vs Studenski Centar","description":"Sourced from predicthq.com","category":"sports","start":"2024-05-15T15:30:00Z","geo":{"geometry":{"coordinates":[18.7089216,42.4220999],"type":"Point"},"placekey":"@4zx-9xw-nt9","address":{"country_code":"ME","formatted_address":"CPC5+RH8, Tivat, Montenegro","locality":"Tivat","region":"Tivat Municipality"}},"labels":["basketball","sport"],"duration":0,"start_local":"2024-05-15T17:30:00","end":"2024-05-15T15:30:00Z","end_local":"2024-05-15T17:30:00","updated":"2024-06-12T08:50:33Z"},{"title":"Prva A Liga - Semi-finals - Budućnost vs Sutjeska","description":"Sourced from predicthq.com","category":"sports","start":"2024-05-14T17:00:00Z","geo":{"geometry":{"coordinates":[19.2537888,42.438201],"type":"Point"},"placekey":"@4zx-4kb-26k","address":{"country_code":"ME","formatted_address":"bb Ivana Milutinovića, Podgorica 81000, Montenegro","postcode":"81000","locality":"Podgorica","region":"Glavni grad Podgorica"}},"labels":["basketball","sport"],"duration":0,"start_local":"2024-05-14T19:00:00","end":"2024-05-14T17:00:00Z","end_local":"2024-05-14T19:00:00","updated":"2024-06-12T09:27:05Z"},{"title":"Prva A Liga - Semi-finals - Studenski Centar vs Teodo","description":"Sourced from predicthq.com","category":"sports","start":"2024-05-13T16:00:00Z","geo":{"geometry":{"coordinates":[19.198169,42.410171],"type":"Point"},"placekey":"@4zx-4h5-z4v","address":{"country_code":"ME","formatted_address":"Kritskog odreda, Donji Kokoti, Podgorica, Montenegro","locality":"Podgorica"}},"labels":["basketball","sport"],"duration":0,"start_local":"2024-05-13T18:00:00","end":"2024-05-13T16:00:00Z","end_local":"2024-05-13T18:00:00","updated":"2024-06-12T06:15:51Z"},{"title":"Prva A Liga - Pre Play-offs - Podgorica vs Sutjeska","description":"Sourced from predicthq.com","category":"sports","start":"2024-05-12T17:00:00Z","geo":{"geometry":{"coordinates":[19.254945,42.437427],"type":"Point"},"placekey":"@4zx-4kb-2x5","address":{"country_code":"ME","formatted_address":"C7P3+XXC, Ulica Svetlane Kane Radević, Podgorica, Montenegro","locality":"Podgorica","region":"Glavni grad Podgorica"}},"labels":["basketball","sport"],"duration":0,"start_local":"2024-05-12T19:00:00","end":"2024-05-12T17:00:00Z","end_local":"2024-05-12T19:00:00","updated":"2024-06-12T06:57:23Z"},{"title":"Prva A Liga - Pre Play-offs - Mornar Bar vs Teodo","description":"Sourced from predicthq.com","category":"sports","start":"2024-05-10T16:00:00Z","geo":{"geometry":{"coordinates":[19.094369,42.103257],"type":"Point"},"placekey":"@4zx-45c-zmk","address":{"country_code":"ME","formatted_address":"Ul, 85 Bulevar Revolucije, Bar 85000, Montenegro","postcode":"85000","locality":"Bar","region":"Bar Municipality"}},"labels":["basketball","sport"],"duration":0,"start_local":"2024-05-10T18:00:00","end":"2024-05-10T16:00:00Z","end_local":"2024-05-10T18:00:00","updated":"2024-06-12T08:32:22Z"},{"title":"Prva A Liga - Pre Play-offs - Sutjeska vs Podgorica","description":"Sourced from predicthq.com","category":"sports","start":"2024-05-09T18:30:00Z","geo":{"geometry":{"coordinates":[18.9498004,42.7806633],"type":"Point"},"placekey":"@4zx-89b-zxq","address":{"country_code":"ME","formatted_address":"QXJ2+G8V, Njegoševa, Nikšić, Montenegro","locality":"Nikšić","region":"Opština Nikšić"}},"labels":["basketball","sport"],"duration":0,"start_local":"2024-05-09T20:30:00","end":"2024-05-09T18:30:00Z","end_local":"2024-05-09T20:30:00","updated":"2024-06-11T22:02:34Z"},{"title":"Play-offs 1/2 - Final - Ibar vs Mediteran","description":"Sourced from predicthq.com","category":"sports","start":"2024-05-09T14:00:00Z","geo":{"geometry":{"coordinates":[20.1743,42.8372],"type":"Point"},"placekey":"@4zw-nbw-qj9","address":{"country_code":"ME","formatted_address":"R5PG+P65, Rozaje, Montenegro","locality":"Rozaje","region":"Rožaje Municipality"}},"labels":["basketball","sport"],"duration":0,"start_local":"2024-05-09T16:00:00","end":"2024-05-09T14:00:00Z","end_local":"2024-05-09T16:00:00","updated":"2024-06-11T23:06:12Z"},{"title":"KK Partizan Belgrade vs KK Buducnost Voli","description":"Sourced from predicthq.com","category":"sports","start":"2024-05-07T16:00:00Z","geo":{"geometry":{"coordinates":[19.2537888,42.438201],"type":"Point"},"placekey":"@4zx-4kb-26k","address":{"country_code":"ME","formatted_address":"bb Ivana Milutinovića, Podgorica 81000, Montenegro","postcode":"81000","locality":"Podgorica","region":"Glavni grad Podgorica"}},"labels":["basketball","sport"],"duration":7694,"start_local":"2024-05-07T18:00:00","end":"2024-05-07T18:08:14Z","end_local":"2024-05-07T20:08:14","updated":"2024-06-03T19:36:57Z"},{"title":"Prva A Liga - Pre Play-offs - Teodo vs Mornar Bar","description":"Sourced from predicthq.com","category":"sports","start":"2024-05-07T16:00:00Z","geo":{"geometry":{"coordinates":[18.7089216,42.4220999],"type":"Point"},"placekey":"@4zx-9xw-nt9","address":{"country_code":"ME","formatted_address":"CPC5+RH8, Tivat, Montenegro","locality":"Tivat","region":"Tivat Municipality"}},"labels":["basketball","sport"],"duration":0,"start_local":"2024-05-07T18:00:00","end":"2024-05-07T16:00:00Z","end_local":"2024-05-07T18:00:00","updated":"2024-06-12T02:47:18Z"},{"title":"Play-offs 1/2 - Final - Mediteran vs Ibar","description":"Sourced from predicthq.com","category":"sports","start":"2024-05-06T12:00:00Z","geo":{"geometry":{"coordinates":[19.094369,42.103257],"type":"Point"},"placekey":"@4zx-45c-zmk","address":{"country_code":"ME","formatted_address":"Ul, 85 Bulevar Revolucije, Bar 85000, Montenegro","postcode":"85000","locality":"Bar","region":"Bar Municipality"}},"labels":["basketball","sport"],"duration":0,"start_local":"2024-05-06T14:00:00","end":"2024-05-06T12:00:00Z","end_local":"2024-05-06T14:00:00","updated":"2024-06-12T13:57:16Z"},{"title":"Prva A Liga - Kotor vs Podgorica","description":"Sourced from predicthq.com","category":"sports","start":"2024-05-04T15:00:00Z","geo":{"geometry":{"coordinates":[18.76759346027567,42.43934197818099],"type":"Point"},"placekey":"@4zx-9x5-xwk","address":{"country_code":"ME","formatted_address":"CQQ9+P3V, III put, Kotor, Montenegro","locality":"Kotor"}},"labels":["basketball","sport"],"duration":0,"start_local":"2024-05-04T17:00:00","end":"2024-05-04T15:00:00Z","end_local":"2024-05-04T17:00:00","updated":"2024-06-12T09:23:15Z"},{"title":"Ди Курцман and The Dartz","description":"Sourced from predicthq.com","category":"concerts","start":"2024-05-02T17:00:00Z","geo":{"geometry":{"coordinates":[18.8403,42.29115],"type":"Point"},"placekey":"@4zx-4pd-3kf","address":{"country_code":"ME","formatted_address":"BB 13 Jul, Будва 85310, Montenegro","postcode":"85310","locality":"Будва","region":"Будва"}},"labels":["concert","music"],"duration":0,"start_local":"2024-05-02T19:00:00","end":"2024-05-02T17:00:00Z","end_local":"2024-05-02T19:00:00","updated":"2024-06-12T06:05:16Z"},{"title":"Ди Курцман and The Dartz","description":"Sourced from predicthq.com","category":"concerts","start":"2024-05-01T18:00:00Z","geo":{"geometry":{"coordinates":[18.53148,42.45725],"type":"Point"},"placekey":"@4zx-9sk-w49","address":{"country_code":"ME","formatted_address":"FG4J+VHX, Herceg Novi, Montenegro","locality":"Herceg Novi","region":"Herceg Novi Municipality"}},"labels":["concert","music"],"duration":0,"start_local":"2024-05-01T20:00:00","end":"2024-05-01T18:00:00Z","end_local":"2024-05-01T20:00:00","updated":"2024-06-12T04:32:44Z"},{"title":"Prva A Liga - Jedinstvo vs Ibar","description":"Sourced from predicthq.com","category":"sports","start":"2024-05-01T17:00:00Z","geo":{"geometry":{"coordinates":[19.743018754309407,43.02949954272677],"type":"Point"},"placekey":"@4zw-jkt-6kz","address":{"country_code":"ME","formatted_address":"2PHV+P8W, Nedeljka Merdovića, Bijelo Polje, Montenegro","locality":"Bijelo Polje","region":"Bijelo Polje Municipality"}},"labels":["basketball","sport"],"duration":0,"start_local":"2024-05-01T19:00:00","end":"2024-05-01T17:00:00Z","end_local":"2024-05-01T19:00:00","updated":"2024-06-12T07:17:23Z"},{"title":"Prva A Liga - Lovćen vs Dečić","description":"Sourced from predicthq.com","category":"sports","start":"2024-05-01T16:00:00Z","geo":{"geometry":{"coordinates":[18.9253016,42.3916718],"type":"Point"},"placekey":"@4zx-4gg-3bk","address":{"country_code":"ME","formatted_address":"Cetinje, Montenegro","locality":"Cetinje","region":"Cetinje Municipality"}},"labels":["basketball","sport"],"duration":0,"start_local":"2024-05-01T18:00:00","end":"2024-05-01T16:00:00Z","end_local":"2024-05-01T18:00:00","updated":"2024-06-12T09:38:38Z"},{"title":"Prva A Liga - Primorje vs Milenijum","description":"Sourced from predicthq.com","category":"sports","start":"2024-04-30T17:00:00Z","geo":{"geometry":{"coordinates":[18.5054713,42.4575209],"type":"Point"},"placekey":"@4zx-9sw-vcq","address":{"country_code":"ME","formatted_address":"II Dalmatinske Brigade, Igalo 85347, Montenegro","postcode":"85347","locality":"Igalo","region":"Opština Herceg Novi"}},"labels":["basketball","sport"],"duration":0,"start_local":"2024-04-30T19:00:00","end":"2024-04-30T17:00:00Z","end_local":"2024-04-30T19:00:00","updated":"2024-06-12T05:54:03Z"},{"title":"Prva A Liga - Sutjeska vs Danilovgrad","description":"Sourced from predicthq.com","category":"sports","start":"2024-04-30T16:00:00Z","geo":{"geometry":{"coordinates":[18.9498004,42.7806633],"type":"Point"},"placekey":"@4zx-89b-zxq","address":{"country_code":"ME","formatted_address":"QXJ2+G8V, Njegoševa, Nikšić, Montenegro","locality":"Nikšić","region":"Opština Nikšić"}},"labels":["basketball","sport"],"duration":0,"start_local":"2024-04-30T18:00:00","end":"2024-04-30T16:00:00Z","end_local":"2024-04-30T18:00:00","updated":"2024-06-12T03:01:08Z"},{"title":"Prva A Liga - Studenski Centar vs Teodo","description":"Sourced from predicthq.com","category":"sports","start":"2024-04-30T14:30:00Z","geo":{"geometry":{"coordinates":[19.198169,42.410171],"type":"Point"},"placekey":"@4zx-4h5-z4v","address":{"country_code":"ME","formatted_address":"Kritskog odreda, Donji Kokoti, Podgorica, Montenegro","locality":"Podgorica"}},"labels":["basketball","sport"],"duration":0,"start_local":"2024-04-30T16:30:00","end":"2024-04-30T14:30:00Z","end_local":"2024-04-30T16:30:00","updated":"2024-06-12T13:01:08Z"},{"title":"Prva A Liga - Milenijum vs Kotor","description":"Sourced from predicthq.com","category":"sports","start":"2024-04-29T14:30:00Z","geo":{"geometry":{"coordinates":[19.198169,42.410171],"type":"Point"},"placekey":"@4zx-4h5-z4v","address":{"country_code":"ME","formatted_address":"Kritskog odreda, Donji Kokoti, Podgorica, Montenegro","locality":"Podgorica"}},"labels":["basketball","sport"],"duration":0,"start_local":"2024-04-29T16:30:00","end":"2024-04-29T14:30:00Z","end_local":"2024-04-29T16:30:00","updated":"2024-06-11T23:21:58Z"},{"title":"Prva A Liga - Teodo vs Sutjeska","description":"Sourced from predicthq.com","category":"sports","start":"2024-04-28T15:00:00Z","geo":{"geometry":{"coordinates":[18.7089216,42.4220999],"type":"Point"},"placekey":"@4zx-9xw-nt9","address":{"country_code":"ME","formatted_address":"CPC5+RH8, Tivat, Montenegro","locality":"Tivat","region":"Tivat Municipality"}},"labels":["basketball","sport"],"duration":0,"start_local":"2024-04-28T17:00:00","end":"2024-04-28T15:00:00Z","end_local":"2024-04-28T17:00:00","updated":"2024-06-12T08:40:54Z"},{"title":"Prva A Liga - Pljevlja vs Studenski Centar","description":"Sourced from predicthq.com","category":"sports","start":"2024-04-28T11:00:00Z","geo":{"geometry":{"coordinates":[19.254945,42.437427],"type":"Point"},"placekey":"@4zx-4kb-2x5","address":{"country_code":"ME","formatted_address":"C7P3+XXC, Ulica Svetlane Kane Radević, Podgorica, Montenegro","locality":"Podgorica","region":"Glavni grad Podgorica"}},"labels":["basketball","sport"],"duration":0,"start_local":"2024-04-28T13:00:00","end":"2024-04-28T11:00:00Z","end_local":"2024-04-28T13:00:00","updated":"2024-06-12T03:30:39Z"},{"title":"Prva A Liga - Dečić vs Primorje","description":"Sourced from predicthq.com","category":"sports","start":"2024-04-27T14:45:00Z","geo":{"geometry":{"coordinates":[19.227685779362975,42.33055460593644],"type":"Point"},"placekey":"@4zx-4jm-9s5","address":{"country_code":"ME","formatted_address":"86JG+6RM, Golubovci, Montenegro","locality":"Golubovci","region":"Podgorica Municipality"}},"labels":["basketball","sport"],"duration":0,"start_local":"2024-04-27T16:45:00","end":"2024-04-27T14:45:00Z","end_local":"2024-04-27T16:45:00","updated":"2024-06-12T11:40:57Z"},{"title":"Prva A Liga - Pljevlja vs Podgorica","description":"Sourced from predicthq.com","category":"sports","start":"2024-04-27T13:00:00Z","geo":{"geometry":{"coordinates":[19.254945,42.437427],"type":"Point"},"placekey":"@4zx-4kb-2x5","address":{"country_code":"ME","formatted_address":"C7P3+XXC, Ulica Svetlane Kane Radević, Podgorica, Montenegro","locality":"Podgorica","region":"Glavni grad Podgorica"}},"labels":["basketball","sport"],"duration":0,"start_local":"2024-04-27T15:00:00","end":"2024-04-27T13:00:00Z","end_local":"2024-04-27T15:00:00","updated":"2024-06-12T06:23:58Z"},{"title":"Prva A Liga - Studenski Centar vs Sutjeska","description":"Sourced from predicthq.com","category":"sports","start":"2024-04-25T16:00:00Z","geo":{"geometry":{"coordinates":[19.198169,42.410171],"type":"Point"},"placekey":"@4zx-4h5-z4v","address":{"country_code":"ME","formatted_address":"Kritskog odreda, Donji Kokoti, Podgorica, Montenegro","locality":"Podgorica"}},"labels":["basketball","sport"],"duration":0,"start_local":"2024-04-25T18:00:00","end":"2024-04-25T16:00:00Z","end_local":"2024-04-25T18:00:00","updated":"2024-06-11T23:21:58Z"},{"title":"Prva A Liga - Kotor vs Dečić","description":"Sourced from predicthq.com","category":"sports","start":"2024-04-24T17:00:00Z","geo":{"geometry":{"coordinates":[18.76759346027567,42.43934197818099],"type":"Point"},"placekey":"@4zx-9x5-xwk","address":{"country_code":"ME","formatted_address":"CQQ9+P3V, III put, Kotor, Montenegro","locality":"Kotor"}},"labels":["basketball","sport"],"duration":0,"start_local":"2024-04-24T19:00:00","end":"2024-04-24T17:00:00Z","end_local":"2024-04-24T19:00:00","updated":"2024-06-12T10:24:24Z"},{"title":"Prva A Liga - Primorje vs Ibar","description":"Sourced from predicthq.com","category":"sports","start":"2024-04-24T17:00:00Z","geo":{"geometry":{"coordinates":[18.5054713,42.4575209],"type":"Point"},"placekey":"@4zx-9sw-vcq","address":{"country_code":"ME","formatted_address":"II Dalmatinske Brigade, Igalo 85347, Montenegro","postcode":"85347","locality":"Igalo","region":"Opština Herceg Novi"}},"labels":["basketball","sport"],"duration":0,"start_local":"2024-04-24T19:00:00","end":"2024-04-24T17:00:00Z","end_local":"2024-04-24T19:00:00","updated":"2024-06-12T04:33:01Z"},{"title":"Prva A Liga - Jedinstvo vs Teodo","description":"Sourced from predicthq.com","category":"sports","start":"2024-04-24T17:00:00Z","geo":{"geometry":{"coordinates":[19.743018754309407,43.02949954272677],"type":"Point"},"placekey":"@4zw-jkt-6kz","address":{"country_code":"ME","formatted_address":"2PHV+P8W, Nedeljka Merdovića, Bijelo Polje, Montenegro","locality":"Bijelo Polje","region":"Bijelo Polje Municipality"}},"labels":["basketball","sport"],"duration":0,"start_local":"2024-04-24T19:00:00","end":"2024-04-24T17:00:00Z","end_local":"2024-04-24T19:00:00","updated":"2024-06-12T08:32:34Z"},{"title":"Prva A Liga - Lovćen vs Danilovgrad","description":"Sourced from predicthq.com","category":"sports","start":"2024-04-24T16:00:00Z","geo":{"geometry":{"coordinates":[18.9253016,42.3916718],"type":"Point"},"placekey":"@4zx-4gg-3bk","address":{"country_code":"ME","formatted_address":"Cetinje, Montenegro","locality":"Cetinje","region":"Cetinje Municipality"}},"labels":["basketball","sport"],"duration":0,"start_local":"2024-04-24T18:00:00","end":"2024-04-24T16:00:00Z","end_local":"2024-04-24T18:00:00","updated":"2024-06-12T10:34:32Z"},{"title":"Adriatic League Division 2 - Semi-finals - Podgorica vs Vojvodina Novi Sad","description":"Sourced from predicthq.com","category":"sports","start":"2024-04-24T15:00:00Z","geo":{"geometry":{"coordinates":[19.254945,42.437427],"type":"Point"},"placekey":"@4zx-4kb-2x5","address":{"country_code":"ME","formatted_address":"C7P3+XXC, Ulica Svetlane Kane Radević, Podgorica, Montenegro","locality":"Podgorica","region":"Glavni grad Podgorica"}},"labels":["basketball","sport"],"duration":0,"start_local":"2024-04-24T17:00:00","end":"2024-04-24T15:00:00Z","end_local":"2024-04-24T17:00:00","updated":"2024-06-12T05:27:16Z"},{"title":"KK Crvena zvezda Belgrade vs KK Studentski centar Podgorica","description":"Sourced from predicthq.com","category":"sports","start":"2024-04-22T16:30:00Z","geo":{"geometry":{"coordinates":[19.2537888,42.438201],"type":"Point"},"placekey":"@4zx-4kb-26k","address":{"country_code":"ME","formatted_address":"bb Ivana Milutinovića, Podgorica 81000, Montenegro","postcode":"81000","locality":"Podgorica","region":"Glavni grad Podgorica"}},"labels":["basketball","sport"],"duration":6700,"start_local":"2024-04-22T18:30:00","end":"2024-04-22T18:21:40Z","end_local":"2024-04-22T20:21:40","updated":"2024-06-05T05:45:35Z"},{"title":"Prva A Liga - Teodo vs Lovćen","description":"Sourced from predicthq.com","category":"sports","start":"2024-04-21T18:30:00Z","geo":{"geometry":{"coordinates":[18.7089216,42.4220999],"type":"Point"},"placekey":"@4zx-9xw-nt9","address":{"country_code":"ME","formatted_address":"CPC5+RH8, Tivat, Montenegro","locality":"Tivat","region":"Tivat Municipality"}},"labels":["basketball","sport"],"duration":0,"start_local":"2024-04-21T20:30:00","end":"2024-04-21T18:30:00Z","end_local":"2024-04-21T20:30:00","updated":"2024-06-12T04:54:23Z"},{"title":"Prva A Liga - Sutjeska vs Jedinstvo","description":"Sourced from predicthq.com","category":"sports","start":"2024-04-21T16:00:00Z","geo":{"geometry":{"coordinates":[18.9498004,42.7806633],"type":"Point"},"placekey":"@4zx-89b-zxq","address":{"country_code":"ME","formatted_address":"QXJ2+G8V, Njegoševa, Nikšić, Montenegro","locality":"Nikšić","region":"Opština Nikšić"}},"labels":["basketball","sport"],"duration":0,"start_local":"2024-04-21T18:00:00","end":"2024-04-21T16:00:00Z","end_local":"2024-04-21T18:00:00","updated":"2024-06-12T11:37:16Z"},{"title":"Prva A Liga - Podgorica vs Studenski Centar","description":"Sourced from predicthq.com","category":"sports","start":"2024-04-21T11:00:00Z","geo":{"geometry":{"coordinates":[19.254945,42.437427],"type":"Point"},"placekey":"@4zx-4kb-2x5","address":{"country_code":"ME","formatted_address":"C7P3+XXC, Ulica Svetlane Kane Radević, Podgorica, Montenegro","locality":"Podgorica","region":"Glavni grad Podgorica"}},"labels":["basketball","sport"],"duration":0,"start_local":"2024-04-21T13:00:00","end":"2024-04-21T11:00:00Z","end_local":"2024-04-21T13:00:00","updated":"2024-06-12T10:32:22Z"},{"title":"Prva A Liga - Danilovgrad vs Primorje","description":"Sourced from predicthq.com","category":"sports","start":"2024-04-20T17:00:00Z","geo":{"geometry":{"coordinates":[19.103151177608797,42.5490387837397],"type":"Point"},"placekey":"@4zx-85r-zzz","address":{"country_code":"ME","formatted_address":"E762, Danilovgrad, Montenegro","locality":"Danilovgrad","region":"Danilovgrad Municipality"}},"labels":["basketball","sport"],"duration":0,"start_local":"2024-04-20T19:00:00","end":"2024-04-20T17:00:00Z","end_local":"2024-04-20T19:00:00","updated":"2024-06-12T00:19:13Z"},{"title":"Prva A Liga - Milenijum vs Pljevlja","description":"Sourced from predicthq.com","category":"sports","start":"2024-04-20T12:00:00Z","geo":{"geometry":{"coordinates":[19.237117,42.442957],"type":"Point"},"placekey":"@4zx-4km-wff","address":{"country_code":"ME","formatted_address":"L2, Studentska, Podgorica, Montenegro","locality":"Podgorica","region":"Podgorica Municipality"}},"labels":["basketball","sport"],"duration":0,"start_local":"2024-04-20T14:00:00","end":"2024-04-20T12:00:00Z","end_local":"2024-04-20T14:00:00","updated":"2024-06-11T23:30:39Z"},{"title":"Prva A Liga - Lovćen vs Sutjeska","description":"Sourced from predicthq.com","category":"sports","start":"2024-04-19T16:00:00Z","geo":{"geometry":{"coordinates":[18.9253016,42.3916718],"type":"Point"},"placekey":"@4zx-4gg-3bk","address":{"country_code":"ME","formatted_address":"Cetinje, Montenegro","locality":"Cetinje","region":"Cetinje Municipality"}},"labels":["basketball","sport"],"duration":0,"start_local":"2024-04-19T18:00:00","end":"2024-04-19T16:00:00Z","end_local":"2024-04-19T18:00:00","updated":"2024-06-12T07:41:01Z"},{"title":"Prva A Liga - Studenski Centar vs Jedinstvo","description":"Sourced from predicthq.com","category":"sports","start":"2024-04-17T16:00:00Z","geo":{"geometry":{"coordinates":[19.198169,42.410171],"type":"Point"},"placekey":"@4zx-4h5-z4v","address":{"country_code":"ME","formatted_address":"Kritskog odreda, Donji Kokoti, Podgorica, Montenegro","locality":"Podgorica"}},"labels":["basketball","sport"],"duration":0,"start_local":"2024-04-17T18:00:00","end":"2024-04-17T16:00:00Z","end_local":"2024-04-17T18:00:00","updated":"2024-06-12T11:45:33Z"},{"title":"Prva A Liga - Primorje vs Teodo","description":"Sourced from predicthq.com","category":"sports","start":"2024-04-15T17:00:00Z","geo":{"geometry":{"coordinates":[18.5054713,42.4575209],"type":"Point"},"placekey":"@4zx-9sw-vcq","address":{"country_code":"ME","formatted_address":"II Dalmatinske Brigade, Igalo 85347, Montenegro","postcode":"85347","locality":"Igalo","region":"Opština Herceg Novi"}},"labels":["basketball","sport"],"duration":0,"start_local":"2024-04-15T19:00:00","end":"2024-04-15T17:00:00Z","end_local":"2024-04-15T19:00:00","updated":"2024-06-12T01:09:14Z"},{"title":"Prva A Liga - Pljevlja vs Dečić","description":"Sourced from predicthq.com","category":"sports","start":"2024-04-14T16:00:00Z","geo":{"geometry":{"coordinates":[19.36016825090192,43.36026702616297],"type":"Point"},"placekey":"@4zw-r57-cdv","address":{"country_code":"ME","formatted_address":"9966+447, Pljevlja, Montenegro","locality":"Pljevlja","region":"Pljevlja Municipality"}},"labels":["basketball","sport"],"duration":0,"start_local":"2024-04-14T18:00:00","end":"2024-04-14T16:00:00Z","end_local":"2024-04-14T18:00:00","updated":"2024-06-12T07:37:57Z"},{"title":"Ostrog Halfmarathon","description":"Sourced from predicthq.com","category":"sports","start":"2024-04-14T07:55:00Z","geo":{"geometry":{"coordinates":[19.0295231,42.6728983],"type":"Point"},"placekey":"@4zx-7sx-qmk","address":{"country_code":"ME","formatted_address":"Ostrog, Opština Danilovgrad, Montenegro","region":"Opština Danilovgrad"}},"labels":["marathon","outdoor-sports","running","sport"],"duration":0,"start_local":"2024-04-14T09:55:00","end":"2024-04-14T07:55:00Z","end_local":"2024-04-14T09:55:00","updated":"2024-06-05T15:23:52Z"},{"title":"Prva A Liga - Kotor vs Danilovgrad","description":"Sourced from predicthq.com","category":"sports","start":"2024-04-13T17:30:00Z","geo":{"geometry":{"coordinates":[18.76759346027567,42.43934197818099],"type":"Point"},"placekey":"@4zx-9x5-xwk","address":{"country_code":"ME","formatted_address":"CQQ9+P3V, III put, Kotor, Montenegro","locality":"Kotor"}},"labels":["basketball","sport"],"duration":0,"start_local":"2024-04-13T19:30:00","end":"2024-04-13T17:30:00Z","end_local":"2024-04-13T19:30:00","updated":"2024-06-11T22:25:47Z"},{"title":"KK Zadar vs KK Buducnost Voli","description":"Sourced from predicthq.com","category":"sports","start":"2024-04-13T17:00:00Z","geo":{"geometry":{"coordinates":[19.2537888,42.438201],"type":"Point"},"placekey":"@4zx-4kb-26k","address":{"country_code":"ME","formatted_address":"bb Ivana Milutinovića, Podgorica 81000, Montenegro","postcode":"81000","locality":"Podgorica","region":"Glavni grad Podgorica"}},"labels":["basketball","sport"],"duration":6967,"start_local":"2024-04-13T19:00:00","end":"2024-04-13T18:56:07Z","end_local":"2024-04-13T20:56:07","updated":"2024-05-30T19:06:56Z"},{"title":"Prva A Liga - Podgorica vs Milenijum","description":"Sourced from predicthq.com","category":"sports","start":"2024-04-12T17:00:00Z","geo":{"geometry":{"coordinates":[19.254945,42.437427],"type":"Point"},"placekey":"@4zx-4kb-2x5","address":{"country_code":"ME","formatted_address":"C7P3+XXC, Ulica Svetlane Kane Radević, Podgorica, Montenegro","locality":"Podgorica","region":"Glavni grad Podgorica"}},"labels":["basketball","sport"],"duration":0,"start_local":"2024-04-12T19:00:00","end":"2024-04-12T17:00:00Z","end_local":"2024-04-12T19:00:00","updated":"2024-06-12T17:25:48Z"},{"title":"Adriatic League Division 2 - Quarter-finals - Sutjeska vs Vojvodina Novi Sad","description":"Sourced from predicthq.com","category":"sports","start":"2024-04-10T16:00:00Z","geo":{"geometry":{"coordinates":[18.9498004,42.7806633],"type":"Point"},"placekey":"@4zx-89b-zxq","address":{"country_code":"ME","formatted_address":"QXJ2+G8V, Njegoševa, Nikšić, Montenegro","locality":"Nikšić","region":"Opština Nikšić"}},"labels":["basketball","sport"],"duration":0,"start_local":"2024-04-10T18:00:00","end":"2024-04-10T16:00:00Z","end_local":"2024-04-10T18:00:00","updated":"2024-06-12T07:12:51Z"},{"title":"Adriatic League Division 2 - Quarter-finals - Podgorica vs Zlatibor Čajetina","description":"Sourced from predicthq.com","category":"sports","start":"2024-04-09T18:00:00Z","geo":{"geometry":{"coordinates":[19.254945,42.437427],"type":"Point"},"placekey":"@4zx-4kb-2x5","address":{"country_code":"ME","formatted_address":"C7P3+XXC, Ulica Svetlane Kane Radević, Podgorica, Montenegro","locality":"Podgorica","region":"Glavni grad Podgorica"}},"labels":["basketball","sport"],"duration":0,"start_local":"2024-04-09T20:00:00","end":"2024-04-09T18:00:00Z","end_local":"2024-04-09T20:00:00","updated":"2024-06-11T21:00:03Z"},{"title":"Prva A Liga - Studenski Centar vs Lovćen","description":"Sourced from predicthq.com","category":"sports","start":"2024-04-09T16:00:00Z","geo":{"geometry":{"coordinates":[19.198169,42.410171],"type":"Point"},"placekey":"@4zx-4h5-z4v","address":{"country_code":"ME","formatted_address":"Kritskog odreda, Donji Kokoti, Podgorica, Montenegro","locality":"Podgorica"}},"labels":["basketball","sport"],"duration":0,"start_local":"2024-04-09T18:00:00","end":"2024-04-09T16:00:00Z","end_local":"2024-04-09T18:00:00","updated":"2024-06-12T04:11:04Z"},{"title":"Prva A Liga - Milenijum vs Studenski Centar","description":"Sourced from predicthq.com","category":"sports","start":"2024-04-08T16:00:00Z","geo":{"geometry":{"coordinates":[19.198169,42.410171],"type":"Point"},"placekey":"@4zx-4h5-z4v","address":{"country_code":"ME","formatted_address":"Kritskog odreda, Donji Kokoti, Podgorica, Montenegro","locality":"Podgorica"}},"labels":["basketball","sport"],"duration":0,"start_local":"2024-04-08T18:00:00","end":"2024-04-08T16:00:00Z","end_local":"2024-04-08T18:00:00","updated":"2024-06-12T17:24:04Z"},{"title":"Prva A Liga - Jedinstvo vs Lovćen","description":"Sourced from predicthq.com","category":"sports","start":"2024-04-07T16:00:00Z","geo":{"geometry":{"coordinates":[19.743018754309407,43.02949954272677],"type":"Point"},"placekey":"@4zw-jkt-6kz","address":{"country_code":"ME","formatted_address":"2PHV+P8W, Nedeljka Merdovića, Bijelo Polje, Montenegro","locality":"Bijelo Polje","region":"Bijelo Polje Municipality"}},"labels":["basketball","sport"],"duration":0,"start_local":"2024-04-07T18:00:00","end":"2024-04-07T16:00:00Z","end_local":"2024-04-07T18:00:00","updated":"2024-06-12T11:39:48Z"}]