[{"title":"Première Division - Djoliba vs Black Stars","description":"Sourced from predicthq.com","category":"sports","start":"2024-05-27T17:00:00Z","geo":{"geometry":{"coordinates":[-8.0153525,12.6538715],"type":"Point"},"placekey":"@9vp-2rd-5mk","address":{"country_code":"ML","formatted_address":"MX3M+GVR, Bamako, Mali","locality":"Bamako","region":"Bamako Capital District"}},"labels":["soccer","sport"],"duration":0,"start_local":"2024-05-27T17:00:00","end":"2024-05-27T17:00:00Z","end_local":"2024-05-27T17:00:00","updated":"2024-06-11T21:46:19Z"},{"title":"Première Division - US Bougouba vs COB","description":"Sourced from predicthq.com","category":"sports","start":"2024-05-27T16:30:00Z","geo":{"geometry":{"coordinates":[-7.912289305,12.619568974],"type":"Point"},"placekey":"@9vp-2vh-nnq","address":{"country_code":"ML","formatted_address":"Unnamed Road, J39Q+Q4R, Bamako, Mali","locality":"Bamako","region":"Région de Koulikoro"}},"labels":["soccer","sport"],"duration":0,"start_local":"2024-05-27T16:30:00","end":"2024-05-27T16:30:00Z","end_local":"2024-05-27T16:30:00","updated":"2024-06-12T01:12:31Z"},{"title":"Première Division - Onze Créateurs vs Réal Bamako","description":"Sourced from predicthq.com","category":"sports","start":"2024-05-27T16:30:00Z","geo":{"geometry":{"coordinates":[-8.007660914,12.610383352],"type":"Point"},"placekey":"@9vp-2w7-3h5","address":{"country_code":"ML","formatted_address":"Unnamed Road, JX6R+9Q9, Bamako, Mali","locality":"Bamako","region":"District de Bamako"}},"labels":["soccer","sport"],"duration":0,"start_local":"2024-05-27T16:30:00","end":"2024-05-27T16:30:00Z","end_local":"2024-05-27T16:30:00","updated":"2024-06-12T09:38:00Z"},{"title":"Première Division - USFAS Bamako vs Bakaridjan","description":"Sourced from predicthq.com","category":"sports","start":"2024-05-27T16:30:00Z","geo":{"geometry":{"coordinates":[-8.041583446,12.615475982],"type":"Point"},"placekey":"@9vp-2pk-k9f","address":{"country_code":"ML","formatted_address":"M264+2M5, Bamako, Mali","locality":"Bamako","region":"Bamako Capital District"}},"labels":["soccer","sport"],"duration":0,"start_local":"2024-05-27T16:30:00","end":"2024-05-27T16:30:00Z","end_local":"2024-05-27T16:30:00","updated":"2024-06-12T03:06:06Z"},{"title":"Première Division - Stade Malien Bamako vs ASKO","description":"Sourced from predicthq.com","category":"sports","start":"2024-05-26T18:30:00Z","geo":{"geometry":{"coordinates":[-8.0153525,12.6538715],"type":"Point"},"placekey":"@9vp-2rd-5mk","address":{"country_code":"ML","formatted_address":"MX3M+GVR, Bamako, Mali","locality":"Bamako","region":"Bamako Capital District"}},"labels":["soccer","sport"],"duration":0,"start_local":"2024-05-26T18:30:00","end":"2024-05-26T18:30:00Z","end_local":"2024-05-26T18:30:00","updated":"2024-06-11T21:41:54Z"},{"title":"Première Division - Afrique Football Élite vs Bougouni","description":"Sourced from predicthq.com","category":"sports","start":"2024-05-26T16:30:00Z","geo":{"geometry":{"coordinates":[-8.0153525,12.6538715],"type":"Point"},"placekey":"@9vp-2rd-5mk","address":{"country_code":"ML","formatted_address":"MX3M+GVR, Bamako, Mali","locality":"Bamako","region":"Bamako Capital District"}},"labels":["soccer","sport"],"duration":0,"start_local":"2024-05-26T16:30:00","end":"2024-05-26T16:30:00Z","end_local":"2024-05-26T16:30:00","updated":"2024-06-12T10:49:53Z"},{"title":"Première Division - Koro vs Police","description":"Sourced from predicthq.com","category":"sports","start":"2024-05-26T16:30:00Z","geo":{"geometry":{"coordinates":[-8.007660914,12.610383352],"type":"Point"},"placekey":"@9vp-2w7-3h5","address":{"country_code":"ML","formatted_address":"Unnamed Road, JX6R+9Q9, Bamako, Mali","locality":"Bamako","region":"District de Bamako"}},"labels":["soccer","sport"],"duration":0,"start_local":"2024-05-26T16:30:00","end":"2024-05-26T16:30:00Z","end_local":"2024-05-26T16:30:00","updated":"2024-06-12T11:40:29Z"},{"title":"Première Division - Binga vs USC Kita","description":"Sourced from predicthq.com","category":"sports","start":"2024-05-26T16:30:00Z","geo":{"geometry":{"coordinates":[-8.041583446,12.615475982],"type":"Point"},"placekey":"@9vp-2pk-k9f","address":{"country_code":"ML","formatted_address":"M264+2M5, Bamako, Mali","locality":"Bamako","region":"Bamako Capital District"}},"labels":["soccer","sport"],"duration":0,"start_local":"2024-05-26T16:30:00","end":"2024-05-26T16:30:00Z","end_local":"2024-05-26T16:30:00","updated":"2024-06-12T10:28:31Z"},{"title":"Première Division - Afrique Football Élite vs Djoliba","description":"Sourced from predicthq.com","category":"sports","start":"2024-05-23T18:30:00Z","geo":{"geometry":{"coordinates":[-8.0153525,12.6538715],"type":"Point"},"placekey":"@9vp-2rd-5mk","address":{"country_code":"ML","formatted_address":"MX3M+GVR, Bamako, Mali","locality":"Bamako","region":"Bamako Capital District"}},"labels":["soccer","sport"],"duration":0,"start_local":"2024-05-23T18:30:00","end":"2024-05-23T18:30:00Z","end_local":"2024-05-23T18:30:00","updated":"2024-06-12T10:22:48Z"},{"title":"Première Division - Police vs Onze Créateurs","description":"Sourced from predicthq.com","category":"sports","start":"2024-05-23T16:30:00Z","geo":{"geometry":{"coordinates":[-8.007660914,12.610383352],"type":"Point"},"placekey":"@9vp-2w7-3h5","address":{"country_code":"ML","formatted_address":"Unnamed Road, JX6R+9Q9, Bamako, Mali","locality":"Bamako","region":"District de Bamako"}},"labels":["soccer","sport"],"duration":0,"start_local":"2024-05-23T16:30:00","end":"2024-05-23T16:30:00Z","end_local":"2024-05-23T16:30:00","updated":"2024-06-12T17:07:19Z"},{"title":"Première Division - Bougouni vs Black Stars","description":"Sourced from predicthq.com","category":"sports","start":"2024-05-23T16:30:00Z","geo":{"geometry":{"coordinates":[-7.496500956874789,11.403869624167607],"type":"Point"},"placekey":"@9vp-7v6-w8v","address":{"country_code":"ML","formatted_address":"CG33+GCR, Bougouni, Mali","locality":"Bougouni","region":"Sikasso Region"}},"labels":["soccer","sport"],"duration":0,"start_local":"2024-05-23T16:30:00","end":"2024-05-23T16:30:00Z","end_local":"2024-05-23T16:30:00","updated":"2024-06-12T13:31:43Z"},{"title":"Première Division - COB vs Binga","description":"Sourced from predicthq.com","category":"sports","start":"2024-05-23T16:30:00Z","geo":{"geometry":{"coordinates":[-8.041583446,12.615475982],"type":"Point"},"placekey":"@9vp-2pk-k9f","address":{"country_code":"ML","formatted_address":"M264+2M5, Bamako, Mali","locality":"Bamako","region":"Bamako Capital District"}},"labels":["soccer","sport"],"duration":0,"start_local":"2024-05-23T16:30:00","end":"2024-05-23T16:30:00Z","end_local":"2024-05-23T16:30:00","updated":"2024-06-12T11:17:35Z"},{"title":"Première Division - Bakaridjan vs Stade Malien Bamako","description":"Sourced from predicthq.com","category":"sports","start":"2024-05-23T16:30:00Z","geo":{"geometry":{"coordinates":[-7.912289305,12.619568974],"type":"Point"},"placekey":"@9vp-2vh-nnq","address":{"country_code":"ML","formatted_address":"Unnamed Road, J39Q+Q4R, Bamako, Mali","locality":"Bamako","region":"Région de Koulikoro"}},"labels":["soccer","sport"],"duration":0,"start_local":"2024-05-23T16:30:00","end":"2024-05-23T16:30:00Z","end_local":"2024-05-23T16:30:00","updated":"2024-06-12T11:07:53Z"},{"title":"Première Division - USC Kita vs US Bougouba","description":"Sourced from predicthq.com","category":"sports","start":"2024-05-23T16:30:00Z","geo":{"geometry":{"coordinates":[-9.488057492065415,13.042298354742561],"type":"Point"},"placekey":"@9w6-56x-qcq","address":{"country_code":"ML","formatted_address":"2GR6+VQW, Kita, Mali","locality":"Kita","region":"Kayes Region"}},"labels":["soccer","sport"],"duration":0,"start_local":"2024-05-23T16:30:00","end":"2024-05-23T16:30:00Z","end_local":"2024-05-23T16:30:00","updated":"2024-06-12T09:14:37Z"},{"title":"Première Division - Réal Bamako vs Koro","description":"Sourced from predicthq.com","category":"sports","start":"2024-05-23T16:30:00Z","geo":{"geometry":{"coordinates":[-8.0153525,12.6538715],"type":"Point"},"placekey":"@9vp-2rd-5mk","address":{"country_code":"ML","formatted_address":"MX3M+GVR, Bamako, Mali","locality":"Bamako","region":"Bamako Capital District"}},"labels":["soccer","sport"],"duration":0,"start_local":"2024-05-23T16:30:00","end":"2024-05-23T16:30:00Z","end_local":"2024-05-23T16:30:00","updated":"2024-06-12T10:15:32Z"},{"title":"Première Division - ASKO vs USFAS Bamako","description":"Sourced from predicthq.com","category":"sports","start":"2024-05-22T16:30:00Z","geo":{"geometry":{"coordinates":[-8.007660914,12.610383352],"type":"Point"},"placekey":"@9vp-2w7-3h5","address":{"country_code":"ML","formatted_address":"Unnamed Road, JX6R+9Q9, Bamako, Mali","locality":"Bamako","region":"District de Bamako"}},"labels":["soccer","sport"],"duration":0,"start_local":"2024-05-22T16:30:00","end":"2024-05-22T16:30:00Z","end_local":"2024-05-22T16:30:00","updated":"2024-06-12T10:48:26Z"},{"title":"Première Division - USC Kita vs Bougouni","description":"Sourced from predicthq.com","category":"sports","start":"2024-05-20T16:30:00Z","geo":{"geometry":{"coordinates":[-9.488057492065415,13.042298354742561],"type":"Point"},"placekey":"@9w6-56x-qcq","address":{"country_code":"ML","formatted_address":"2GR6+VQW, Kita, Mali","locality":"Kita","region":"Kayes Region"}},"labels":["soccer","sport"],"duration":0,"start_local":"2024-05-20T16:30:00","end":"2024-05-20T16:30:00Z","end_local":"2024-05-20T16:30:00","updated":"2024-06-12T13:08:09Z"},{"title":"Première Division - US Bougouba vs Black Stars","description":"Sourced from predicthq.com","category":"sports","start":"2024-05-20T16:30:00Z","geo":{"geometry":{"coordinates":[-8.041583446,12.615475982],"type":"Point"},"placekey":"@9vp-2pk-k9f","address":{"country_code":"ML","formatted_address":"M264+2M5, Bamako, Mali","locality":"Bamako","region":"Bamako Capital District"}},"labels":["soccer","sport"],"duration":0,"start_local":"2024-05-20T16:30:00","end":"2024-05-20T16:30:00Z","end_local":"2024-05-20T16:30:00","updated":"2024-06-12T18:22:04Z"},{"title":"Première Division - Djoliba vs COB","description":"Sourced from predicthq.com","category":"sports","start":"2024-05-20T16:30:00Z","geo":{"geometry":{"coordinates":[-8.0153525,12.6538715],"type":"Point"},"placekey":"@9vp-2rd-5mk","address":{"country_code":"ML","formatted_address":"MX3M+GVR, Bamako, Mali","locality":"Bamako","region":"Bamako Capital District"}},"labels":["soccer","sport"],"duration":0,"start_local":"2024-05-20T16:30:00","end":"2024-05-20T16:30:00Z","end_local":"2024-05-20T16:30:00","updated":"2024-06-12T06:16:00Z"},{"title":"Première Division - Koro vs Bakaridjan","description":"Sourced from predicthq.com","category":"sports","start":"2024-05-20T16:30:00Z","geo":{"geometry":{"coordinates":[-8.007660914,12.610383352],"type":"Point"},"placekey":"@9vp-2w7-3h5","address":{"country_code":"ML","formatted_address":"Unnamed Road, JX6R+9Q9, Bamako, Mali","locality":"Bamako","region":"District de Bamako"}},"labels":["soccer","sport"],"duration":0,"start_local":"2024-05-20T16:30:00","end":"2024-05-20T16:30:00Z","end_local":"2024-05-20T16:30:00","updated":"2024-06-12T07:47:10Z"},{"title":"Première Division - USFAS Bamako vs Police","description":"Sourced from predicthq.com","category":"sports","start":"2024-05-19T18:30:00Z","geo":{"geometry":{"coordinates":[-8.0153525,12.6538715],"type":"Point"},"placekey":"@9vp-2rd-5mk","address":{"country_code":"ML","formatted_address":"MX3M+GVR, Bamako, Mali","locality":"Bamako","region":"Bamako Capital District"}},"labels":["soccer","sport"],"duration":0,"start_local":"2024-05-19T18:30:00","end":"2024-05-19T18:30:00Z","end_local":"2024-05-19T18:30:00","updated":"2024-06-12T11:41:50Z"},{"title":"Première Division - Stade Malien Bamako vs Réal Bamako","description":"Sourced from predicthq.com","category":"sports","start":"2024-05-19T16:30:00Z","geo":{"geometry":{"coordinates":[-8.0153525,12.6538715],"type":"Point"},"placekey":"@9vp-2rd-5mk","address":{"country_code":"ML","formatted_address":"MX3M+GVR, Bamako, Mali","locality":"Bamako","region":"Bamako Capital District"}},"labels":["soccer","sport"],"duration":0,"start_local":"2024-05-19T16:30:00","end":"2024-05-19T16:30:00Z","end_local":"2024-05-19T16:30:00","updated":"2024-06-12T08:30:33Z"},{"title":"Première Division - Binga vs Afrique Football Élite","description":"Sourced from predicthq.com","category":"sports","start":"2024-05-18T18:30:00Z","geo":{"geometry":{"coordinates":[-8.0153525,12.6538715],"type":"Point"},"placekey":"@9vp-2rd-5mk","address":{"country_code":"ML","formatted_address":"MX3M+GVR, Bamako, Mali","locality":"Bamako","region":"Bamako Capital District"}},"labels":["soccer","sport"],"duration":0,"start_local":"2024-05-18T18:30:00","end":"2024-05-18T18:30:00Z","end_local":"2024-05-18T18:30:00","updated":"2024-06-12T01:45:31Z"},{"title":"Première Division - Onze Créateurs vs ASKO","description":"Sourced from predicthq.com","category":"sports","start":"2024-05-18T16:30:00Z","geo":{"geometry":{"coordinates":[-8.0153525,12.6538715],"type":"Point"},"placekey":"@9vp-2rd-5mk","address":{"country_code":"ML","formatted_address":"MX3M+GVR, Bamako, Mali","locality":"Bamako","region":"Bamako Capital District"}},"labels":["soccer","sport"],"duration":0,"start_local":"2024-05-18T16:30:00","end":"2024-05-18T16:30:00Z","end_local":"2024-05-18T16:30:00","updated":"2024-06-12T11:40:01Z"},{"title":"Première Division - Police vs Stade Malien Bamako","description":"Sourced from predicthq.com","category":"sports","start":"2024-05-16T18:30:00Z","geo":{"geometry":{"coordinates":[-8.0153525,12.6538715],"type":"Point"},"placekey":"@9vp-2rd-5mk","address":{"country_code":"ML","formatted_address":"MX3M+GVR, Bamako, Mali","locality":"Bamako","region":"Bamako Capital District"}},"labels":["soccer","sport"],"duration":0,"start_local":"2024-05-16T18:30:00","end":"2024-05-16T18:30:00Z","end_local":"2024-05-16T18:30:00","updated":"2024-06-12T06:20:49Z"},{"title":"Première Division - COB vs Bougouni","description":"Sourced from predicthq.com","category":"sports","start":"2024-05-16T16:30:00Z","geo":{"geometry":{"coordinates":[-8.041583446,12.615475982],"type":"Point"},"placekey":"@9vp-2pk-k9f","address":{"country_code":"ML","formatted_address":"M264+2M5, Bamako, Mali","locality":"Bamako","region":"Bamako Capital District"}},"labels":["soccer","sport"],"duration":0,"start_local":"2024-05-16T16:30:00","end":"2024-05-16T16:30:00Z","end_local":"2024-05-16T16:30:00","updated":"2024-06-11T23:45:07Z"},{"title":"Première Division - Réal Bamako vs USFAS Bamako","description":"Sourced from predicthq.com","category":"sports","start":"2024-05-16T16:30:00Z","geo":{"geometry":{"coordinates":[-8.0153525,12.6538715],"type":"Point"},"placekey":"@9vp-2rd-5mk","address":{"country_code":"ML","formatted_address":"MX3M+GVR, Bamako, Mali","locality":"Bamako","region":"Bamako Capital District"}},"labels":["soccer","sport"],"duration":0,"start_local":"2024-05-16T16:30:00","end":"2024-05-16T16:30:00Z","end_local":"2024-05-16T16:30:00","updated":"2024-06-12T07:37:04Z"},{"title":"Première Division - Koro vs ASKO","description":"Sourced from predicthq.com","category":"sports","start":"2024-05-15T18:30:00Z","geo":{"geometry":{"coordinates":[-8.0153525,12.6538715],"type":"Point"},"placekey":"@9vp-2rd-5mk","address":{"country_code":"ML","formatted_address":"MX3M+GVR, Bamako, Mali","locality":"Bamako","region":"Bamako Capital District"}},"labels":["soccer","sport"],"duration":0,"start_local":"2024-05-15T18:30:00","end":"2024-05-15T18:30:00Z","end_local":"2024-05-15T18:30:00","updated":"2024-06-12T06:19:54Z"},{"title":"Première Division - Afrique Football Élite vs US Bougouba","description":"Sourced from predicthq.com","category":"sports","start":"2024-05-15T16:30:00Z","geo":{"geometry":{"coordinates":[-7.919040075,12.60569764],"type":"Point"},"placekey":"@9vp-2v7-xwk","address":{"country_code":"ML","formatted_address":"J34J+79 Bamako, Mali","locality":"Bamako","region":"Bamako Capital District"}},"labels":["soccer","sport"],"duration":0,"start_local":"2024-05-15T16:30:00","end":"2024-05-15T16:30:00Z","end_local":"2024-05-15T16:30:00","updated":"2024-06-12T08:09:24Z"},{"title":"Première Division - Djoliba vs USC Kita","description":"Sourced from predicthq.com","category":"sports","start":"2024-05-15T16:30:00Z","geo":{"geometry":{"coordinates":[-8.0153525,12.6538715],"type":"Point"},"placekey":"@9vp-2rd-5mk","address":{"country_code":"ML","formatted_address":"MX3M+GVR, Bamako, Mali","locality":"Bamako","region":"Bamako Capital District"}},"labels":["soccer","sport"],"duration":0,"start_local":"2024-05-15T16:30:00","end":"2024-05-15T16:30:00Z","end_local":"2024-05-15T16:30:00","updated":"2024-06-12T11:15:30Z"},{"title":"Première Division - Black Stars vs Binga","description":"Sourced from predicthq.com","category":"sports","start":"2024-05-15T16:30:00Z","geo":{"geometry":{"coordinates":[-8.041583446,12.615475982],"type":"Point"},"placekey":"@9vp-2pk-k9f","address":{"country_code":"ML","formatted_address":"M264+2M5, Bamako, Mali","locality":"Bamako","region":"Bamako Capital District"}},"labels":["soccer","sport"],"duration":0,"start_local":"2024-05-15T16:30:00","end":"2024-05-15T16:30:00Z","end_local":"2024-05-15T16:30:00","updated":"2024-06-11T21:47:18Z"},{"title":"Première Division - Bakaridjan vs Onze Créateurs","description":"Sourced from predicthq.com","category":"sports","start":"2024-05-14T16:30:00Z","geo":{"geometry":{"coordinates":[-8.007660914,12.610383352],"type":"Point"},"placekey":"@9vp-2w7-3h5","address":{"country_code":"ML","formatted_address":"Unnamed Road, JX6R+9Q9, Bamako, Mali","locality":"Bamako","region":"District de Bamako"}},"labels":["soccer","sport"],"duration":0,"start_local":"2024-05-14T16:30:00","end":"2024-05-14T16:30:00Z","end_local":"2024-05-14T16:30:00","updated":"2024-06-12T03:26:30Z"},{"title":"Première Division - Black Stars vs Stade Malien Bamako","description":"Sourced from predicthq.com","category":"sports","start":"2024-05-12T18:30:00Z","geo":{"geometry":{"coordinates":[-8.0153525,12.6538715],"type":"Point"},"placekey":"@9vp-2rd-5mk","address":{"country_code":"ML","formatted_address":"MX3M+GVR, Bamako, Mali","locality":"Bamako","region":"Bamako Capital District"}},"labels":["soccer","sport"],"duration":0,"start_local":"2024-05-12T18:30:00","end":"2024-05-12T18:30:00Z","end_local":"2024-05-12T18:30:00","updated":"2024-06-12T08:25:32Z"},{"title":"Première Division - US Bougouba vs Réal Bamako","description":"Sourced from predicthq.com","category":"sports","start":"2024-05-12T16:30:00Z","geo":{"geometry":{"coordinates":[-8.0153525,12.6538715],"type":"Point"},"placekey":"@9vp-2rd-5mk","address":{"country_code":"ML","formatted_address":"MX3M+GVR, Bamako, Mali","locality":"Bamako","region":"Bamako Capital District"}},"labels":["soccer","sport"],"duration":0,"start_local":"2024-05-12T16:30:00","end":"2024-05-12T16:30:00Z","end_local":"2024-05-12T16:30:00","updated":"2024-06-12T13:56:17Z"},{"title":"Première Division - Binga vs Police","description":"Sourced from predicthq.com","category":"sports","start":"2024-05-11T18:30:00Z","geo":{"geometry":{"coordinates":[-8.0153525,12.6538715],"type":"Point"},"placekey":"@9vp-2rd-5mk","address":{"country_code":"ML","formatted_address":"MX3M+GVR, Bamako, Mali","locality":"Bamako","region":"Bamako Capital District"}},"labels":["soccer","sport"],"duration":0,"start_local":"2024-05-11T18:30:00","end":"2024-05-11T18:30:00Z","end_local":"2024-05-11T18:30:00","updated":"2024-06-11T22:30:43Z"},{"title":"Première Division - ASKO vs Djoliba","description":"Sourced from predicthq.com","category":"sports","start":"2024-05-11T16:30:00Z","geo":{"geometry":{"coordinates":[-8.0153525,12.6538715],"type":"Point"},"placekey":"@9vp-2rd-5mk","address":{"country_code":"ML","formatted_address":"MX3M+GVR, Bamako, Mali","locality":"Bamako","region":"Bamako Capital District"}},"labels":["soccer","sport"],"duration":0,"start_local":"2024-05-11T16:30:00","end":"2024-05-11T16:30:00Z","end_local":"2024-05-11T16:30:00","updated":"2024-06-12T08:45:05Z"},{"title":"Première Division - USC Kita vs Koro","description":"Sourced from predicthq.com","category":"sports","start":"2024-05-11T16:30:00Z","geo":{"geometry":{"coordinates":[-9.488057492065415,13.042298354742561],"type":"Point"},"placekey":"@9w6-56x-qcq","address":{"country_code":"ML","formatted_address":"2GR6+VQW, Kita, Mali","locality":"Kita","region":"Kayes Region"}},"labels":["soccer","sport"],"duration":0,"start_local":"2024-05-11T16:30:00","end":"2024-05-11T16:30:00Z","end_local":"2024-05-11T16:30:00","updated":"2024-06-12T06:19:09Z"},{"title":"Première Division - Bougouni vs Bakaridjan","description":"Sourced from predicthq.com","category":"sports","start":"2024-05-11T16:30:00Z","geo":{"geometry":{"coordinates":[-7.496500956874789,11.403869624167607],"type":"Point"},"placekey":"@9vp-7v6-w8v","address":{"country_code":"ML","formatted_address":"CG33+GCR, Bougouni, Mali","locality":"Bougouni","region":"Sikasso Region"}},"labels":["soccer","sport"],"duration":0,"start_local":"2024-05-11T16:30:00","end":"2024-05-11T16:30:00Z","end_local":"2024-05-11T16:30:00","updated":"2024-06-12T05:30:30Z"},{"title":"Première Division - USFAS Bamako vs Afrique Football Élite","description":"Sourced from predicthq.com","category":"sports","start":"2024-05-10T18:30:00Z","geo":{"geometry":{"coordinates":[-8.0153525,12.6538715],"type":"Point"},"placekey":"@9vp-2rd-5mk","address":{"country_code":"ML","formatted_address":"MX3M+GVR, Bamako, Mali","locality":"Bamako","region":"Bamako Capital District"}},"labels":["soccer","sport"],"duration":0,"start_local":"2024-05-10T18:30:00","end":"2024-05-10T18:30:00Z","end_local":"2024-05-10T18:30:00","updated":"2024-06-12T15:58:32Z"},{"title":"Première Division - Onze Créateurs vs COB","description":"Sourced from predicthq.com","category":"sports","start":"2024-05-10T16:30:00Z","geo":{"geometry":{"coordinates":[-8.0153525,12.6538715],"type":"Point"},"placekey":"@9vp-2rd-5mk","address":{"country_code":"ML","formatted_address":"MX3M+GVR, Bamako, Mali","locality":"Bamako","region":"Bamako Capital District"}},"labels":["soccer","sport"],"duration":0,"start_local":"2024-05-10T16:30:00","end":"2024-05-10T16:30:00Z","end_local":"2024-05-10T16:30:00","updated":"2024-06-12T05:44:35Z"},{"title":"Première Division - Stade Malien Bamako vs US Bougouba","description":"Sourced from predicthq.com","category":"sports","start":"2024-05-09T16:30:00Z","geo":{"geometry":{"coordinates":[-8.0153525,12.6538715],"type":"Point"},"placekey":"@9vp-2rd-5mk","address":{"country_code":"ML","formatted_address":"MX3M+GVR, Bamako, Mali","locality":"Bamako","region":"Bamako Capital District"}},"labels":["soccer","sport"],"duration":0,"start_local":"2024-05-09T16:30:00","end":"2024-05-09T16:30:00Z","end_local":"2024-05-09T16:30:00","updated":"2024-06-12T06:05:54Z"},{"title":"Première Division - Koro vs COB","description":"Sourced from predicthq.com","category":"sports","start":"2024-05-06T18:30:00Z","geo":{"geometry":{"coordinates":[-8.0153525,12.6538715],"type":"Point"},"placekey":"@9vp-2rd-5mk","address":{"country_code":"ML","formatted_address":"MX3M+GVR, Bamako, Mali","locality":"Bamako","region":"Bamako Capital District"}},"labels":["soccer","sport"],"duration":0,"start_local":"2024-05-06T18:30:00","end":"2024-05-06T18:30:00Z","end_local":"2024-05-06T18:30:00","updated":"2024-06-12T20:05:06Z"},{"title":"Première Division - Afrique Football Élite vs Stade Malien Bamako","description":"Sourced from predicthq.com","category":"sports","start":"2024-05-06T16:30:00Z","geo":{"geometry":{"coordinates":[-8.0153525,12.6538715],"type":"Point"},"placekey":"@9vp-2rd-5mk","address":{"country_code":"ML","formatted_address":"MX3M+GVR, Bamako, Mali","locality":"Bamako","region":"Bamako Capital District"}},"labels":["soccer","sport"],"duration":0,"start_local":"2024-05-06T16:30:00","end":"2024-05-06T16:30:00Z","end_local":"2024-05-06T16:30:00","updated":"2024-06-12T10:28:09Z"},{"title":"Première Division - Binga vs Réal Bamako","description":"Sourced from predicthq.com","category":"sports","start":"2024-05-05T18:30:00Z","geo":{"geometry":{"coordinates":[-8.0153525,12.6538715],"type":"Point"},"placekey":"@9vp-2rd-5mk","address":{"country_code":"ML","formatted_address":"MX3M+GVR, Bamako, Mali","locality":"Bamako","region":"Bamako Capital District"}},"labels":["soccer","sport"],"duration":0,"start_local":"2024-05-05T18:30:00","end":"2024-05-05T18:30:00Z","end_local":"2024-05-05T18:30:00","updated":"2024-06-12T19:45:33Z"},{"title":"Première Division - Bakaridjan vs Djoliba","description":"Sourced from predicthq.com","category":"sports","start":"2024-05-05T16:30:00Z","geo":{"geometry":{"coordinates":[-8.0153525,12.6538715],"type":"Point"},"placekey":"@9vp-2rd-5mk","address":{"country_code":"ML","formatted_address":"MX3M+GVR, Bamako, Mali","locality":"Bamako","region":"Bamako Capital District"}},"labels":["soccer","sport"],"duration":0,"start_local":"2024-05-05T16:30:00","end":"2024-05-05T16:30:00Z","end_local":"2024-05-05T16:30:00","updated":"2024-06-12T14:16:42Z"},{"title":"Première Division - Black Stars vs USFAS Bamako","description":"Sourced from predicthq.com","category":"sports","start":"2024-05-05T16:30:00Z","geo":{"geometry":{"coordinates":[-8.041583446,12.615475982],"type":"Point"},"placekey":"@9vp-2pk-k9f","address":{"country_code":"ML","formatted_address":"M264+2M5, Bamako, Mali","locality":"Bamako","region":"Bamako Capital District"}},"labels":["soccer","sport"],"duration":0,"start_local":"2024-05-05T16:30:00","end":"2024-05-05T16:30:00Z","end_local":"2024-05-05T16:30:00","updated":"2024-06-12T05:07:22Z"},{"title":"Première Division - Police vs US Bougouba","description":"Sourced from predicthq.com","category":"sports","start":"2024-05-04T18:30:00Z","geo":{"geometry":{"coordinates":[-8.0153525,12.6538715],"type":"Point"},"placekey":"@9vp-2rd-5mk","address":{"country_code":"ML","formatted_address":"MX3M+GVR, Bamako, Mali","locality":"Bamako","region":"Bamako Capital District"}},"labels":["soccer","sport"],"duration":0,"start_local":"2024-05-04T18:30:00","end":"2024-05-04T18:30:00Z","end_local":"2024-05-04T18:30:00","updated":"2024-06-12T11:10:29Z"},{"title":"Première Division - Bougouni vs ASKO","description":"Sourced from predicthq.com","category":"sports","start":"2024-05-04T16:30:00Z","geo":{"geometry":{"coordinates":[-7.496500956874789,11.403869624167607],"type":"Point"},"placekey":"@9vp-7v6-w8v","address":{"country_code":"ML","formatted_address":"CG33+GCR, Bougouni, Mali","locality":"Bougouni","region":"Sikasso Region"}},"labels":["soccer","sport"],"duration":0,"start_local":"2024-05-04T16:30:00","end":"2024-05-04T16:30:00Z","end_local":"2024-05-04T16:30:00","updated":"2024-06-12T15:40:41Z"},{"title":"Première Division - Onze Créateurs vs USC Kita","description":"Sourced from predicthq.com","category":"sports","start":"2024-05-04T16:30:00Z","geo":{"geometry":{"coordinates":[-8.0153525,12.6538715],"type":"Point"},"placekey":"@9vp-2rd-5mk","address":{"country_code":"ML","formatted_address":"MX3M+GVR, Bamako, Mali","locality":"Bamako","region":"Bamako Capital District"}},"labels":["soccer","sport"],"duration":0,"start_local":"2024-05-04T16:30:00","end":"2024-05-04T16:30:00Z","end_local":"2024-05-04T16:30:00","updated":"2024-06-11T21:08:17Z"},{"title":"Première Division - Koro vs Afrique Football Élite","description":"Sourced from predicthq.com","category":"sports","start":"2024-05-03T18:30:00Z","geo":{"geometry":{"coordinates":[-8.0153525,12.6538715],"type":"Point"},"placekey":"@9vp-2rd-5mk","address":{"country_code":"ML","formatted_address":"MX3M+GVR, Bamako, Mali","locality":"Bamako","region":"Bamako Capital District"}},"labels":["soccer","sport"],"duration":0,"start_local":"2024-05-03T18:30:00","end":"2024-05-03T18:30:00Z","end_local":"2024-05-03T18:30:00","updated":"2024-06-12T10:34:57Z"},{"title":"Première Division - Stade Malien Bamako vs COB","description":"Sourced from predicthq.com","category":"sports","start":"2024-05-03T16:30:00Z","geo":{"geometry":{"coordinates":[-8.0153525,12.6538715],"type":"Point"},"placekey":"@9vp-2rd-5mk","address":{"country_code":"ML","formatted_address":"MX3M+GVR, Bamako, Mali","locality":"Bamako","region":"Bamako Capital District"}},"labels":["soccer","sport"],"duration":0,"start_local":"2024-05-03T16:30:00","end":"2024-05-03T16:30:00Z","end_local":"2024-05-03T16:30:00","updated":"2024-06-12T02:46:37Z"},{"title":"Première Division - Binga vs Bakaridjan","description":"Sourced from predicthq.com","category":"sports","start":"2024-05-02T18:30:00Z","geo":{"geometry":{"coordinates":[-8.0153525,12.6538715],"type":"Point"},"placekey":"@9vp-2rd-5mk","address":{"country_code":"ML","formatted_address":"MX3M+GVR, Bamako, Mali","locality":"Bamako","region":"Bamako Capital District"}},"labels":["soccer","sport"],"duration":0,"start_local":"2024-05-02T18:30:00","end":"2024-05-02T18:30:00Z","end_local":"2024-05-02T18:30:00","updated":"2024-06-12T04:39:17Z"},{"title":"Première Division - Djoliba vs Réal Bamako","description":"Sourced from predicthq.com","category":"sports","start":"2024-05-02T16:30:00Z","geo":{"geometry":{"coordinates":[-8.0153525,12.6538715],"type":"Point"},"placekey":"@9vp-2rd-5mk","address":{"country_code":"ML","formatted_address":"MX3M+GVR, Bamako, Mali","locality":"Bamako","region":"Bamako Capital District"}},"labels":["soccer","sport"],"duration":0,"start_local":"2024-05-02T16:30:00","end":"2024-05-02T16:30:00Z","end_local":"2024-05-02T16:30:00","updated":"2024-06-12T03:03:54Z"},{"title":"Première Division - USC Kita vs USFAS Bamako","description":"Sourced from predicthq.com","category":"sports","start":"2024-04-26T18:30:00Z","geo":{"geometry":{"coordinates":[-8.0153525,12.6538715],"type":"Point"},"placekey":"@9vp-2rd-5mk","address":{"country_code":"ML","formatted_address":"MX3M+GVR, Bamako, Mali","locality":"Bamako","region":"Bamako Capital District"}},"labels":["soccer","sport"],"duration":0,"start_local":"2024-04-26T18:30:00","end":"2024-04-26T18:30:00Z","end_local":"2024-04-26T18:30:00","updated":"2024-06-11T23:22:46Z"},{"title":"Première Division - Police vs Bougouni","description":"Sourced from predicthq.com","category":"sports","start":"2024-04-26T16:30:00Z","geo":{"geometry":{"coordinates":[-8.0153525,12.6538715],"type":"Point"},"placekey":"@9vp-2rd-5mk","address":{"country_code":"ML","formatted_address":"MX3M+GVR, Bamako, Mali","locality":"Bamako","region":"Bamako Capital District"}},"labels":["soccer","sport"],"duration":0,"start_local":"2024-04-26T16:30:00","end":"2024-04-26T16:30:00Z","end_local":"2024-04-26T16:30:00","updated":"2024-06-12T14:42:36Z"},{"title":"Première Division - Onze Créateurs vs Black Stars","description":"Sourced from predicthq.com","category":"sports","start":"2024-04-25T18:30:00Z","geo":{"geometry":{"coordinates":[-8.0153525,12.6538715],"type":"Point"},"placekey":"@9vp-2rd-5mk","address":{"country_code":"ML","formatted_address":"MX3M+GVR, Bamako, Mali","locality":"Bamako","region":"Bamako Capital District"}},"labels":["soccer","sport"],"duration":0,"start_local":"2024-04-25T18:30:00","end":"2024-04-25T18:30:00Z","end_local":"2024-04-25T18:30:00","updated":"2024-06-12T04:44:30Z"},{"title":"Première Division - US Bougouba vs ASKO","description":"Sourced from predicthq.com","category":"sports","start":"2024-04-25T16:30:00Z","geo":{"geometry":{"coordinates":[-8.0153525,12.6538715],"type":"Point"},"placekey":"@9vp-2rd-5mk","address":{"country_code":"ML","formatted_address":"MX3M+GVR, Bamako, Mali","locality":"Bamako","region":"Bamako Capital District"}},"labels":["soccer","sport"],"duration":0,"start_local":"2024-04-25T16:30:00","end":"2024-04-25T16:30:00Z","end_local":"2024-04-25T16:30:00","updated":"2024-06-12T10:44:37Z"},{"title":"Première Division - Afrique Football Élite vs Onze Créateurs","description":"Sourced from predicthq.com","category":"sports","start":"2024-04-22T18:30:00Z","geo":{"geometry":{"coordinates":[-8.0153525,12.6538715],"type":"Point"},"placekey":"@9vp-2rd-5mk","address":{"country_code":"ML","formatted_address":"MX3M+GVR, Bamako, Mali","locality":"Bamako","region":"Bamako Capital District"}},"labels":["soccer","sport"],"duration":0,"start_local":"2024-04-22T18:30:00","end":"2024-04-22T18:30:00Z","end_local":"2024-04-22T18:30:00","updated":"2024-06-12T02:56:58Z"},{"title":"Première Division - Stade Malien Bamako vs USC Kita","description":"Sourced from predicthq.com","category":"sports","start":"2024-04-22T16:30:00Z","geo":{"geometry":{"coordinates":[-8.0153525,12.6538715],"type":"Point"},"placekey":"@9vp-2rd-5mk","address":{"country_code":"ML","formatted_address":"MX3M+GVR, Bamako, Mali","locality":"Bamako","region":"Bamako Capital District"}},"labels":["soccer","sport"],"duration":0,"start_local":"2024-04-22T16:30:00","end":"2024-04-22T16:30:00Z","end_local":"2024-04-22T16:30:00","updated":"2024-06-11T23:59:22Z"},{"title":"Première Division - ASKO vs Binga","description":"Sourced from predicthq.com","category":"sports","start":"2024-04-21T18:30:00Z","geo":{"geometry":{"coordinates":[-8.0153525,12.6538715],"type":"Point"},"placekey":"@9vp-2rd-5mk","address":{"country_code":"ML","formatted_address":"MX3M+GVR, Bamako, Mali","locality":"Bamako","region":"Bamako Capital District"}},"labels":["soccer","sport"],"duration":0,"start_local":"2024-04-21T18:30:00","end":"2024-04-21T18:30:00Z","end_local":"2024-04-21T18:30:00","updated":"2024-06-12T18:13:54Z"},{"title":"Première Division - Police vs Djoliba","description":"Sourced from predicthq.com","category":"sports","start":"2024-04-21T16:30:00Z","geo":{"geometry":{"coordinates":[-8.0153525,12.6538715],"type":"Point"},"placekey":"@9vp-2rd-5mk","address":{"country_code":"ML","formatted_address":"MX3M+GVR, Bamako, Mali","locality":"Bamako","region":"Bamako Capital District"}},"labels":["soccer","sport"],"duration":0,"start_local":"2024-04-21T16:30:00","end":"2024-04-21T16:30:00Z","end_local":"2024-04-21T16:30:00","updated":"2024-06-12T18:07:29Z"},{"title":"Première Division - COB vs USFAS Bamako","description":"Sourced from predicthq.com","category":"sports","start":"2024-04-20T18:30:00Z","geo":{"geometry":{"coordinates":[-8.0153525,12.6538715],"type":"Point"},"placekey":"@9vp-2rd-5mk","address":{"country_code":"ML","formatted_address":"MX3M+GVR, Bamako, Mali","locality":"Bamako","region":"Bamako Capital District"}},"labels":["soccer","sport"],"duration":0,"start_local":"2024-04-20T18:30:00","end":"2024-04-20T18:30:00Z","end_local":"2024-04-20T18:30:00","updated":"2024-06-12T16:20:43Z"},{"title":"Première Division - Bakaridjan vs US Bougouba","description":"Sourced from predicthq.com","category":"sports","start":"2024-04-20T16:30:00Z","geo":{"geometry":{"coordinates":[-8.0153525,12.6538715],"type":"Point"},"placekey":"@9vp-2rd-5mk","address":{"country_code":"ML","formatted_address":"MX3M+GVR, Bamako, Mali","locality":"Bamako","region":"Bamako Capital District"}},"labels":["soccer","sport"],"duration":0,"start_local":"2024-04-20T16:30:00","end":"2024-04-20T16:30:00Z","end_local":"2024-04-20T16:30:00","updated":"2024-06-12T00:23:10Z"},{"title":"Première Division - Bougouni vs Réal Bamako","description":"Sourced from predicthq.com","category":"sports","start":"2024-04-20T16:30:00Z","geo":{"geometry":{"coordinates":[-7.496500956874789,11.403869624167607],"type":"Point"},"placekey":"@9vp-7v6-w8v","address":{"country_code":"ML","formatted_address":"CG33+GCR, Bougouni, Mali","locality":"Bougouni","region":"Sikasso Region"}},"labels":["soccer","sport"],"duration":0,"start_local":"2024-04-20T16:30:00","end":"2024-04-20T16:30:00Z","end_local":"2024-04-20T16:30:00","updated":"2024-06-11T21:46:44Z"},{"title":"Première Division - Koro vs Black Stars","description":"Sourced from predicthq.com","category":"sports","start":"2024-04-19T16:30:00Z","geo":{"geometry":{"coordinates":[-8.0153525,12.6538715],"type":"Point"},"placekey":"@9vp-2rd-5mk","address":{"country_code":"ML","formatted_address":"MX3M+GVR, Bamako, Mali","locality":"Bamako","region":"Bamako Capital District"}},"labels":["soccer","sport"],"duration":0,"start_local":"2024-04-19T16:30:00","end":"2024-04-19T16:30:00Z","end_local":"2024-04-19T16:30:00","updated":"2024-06-11T22:20:40Z"},{"title":"Première Division - USC Kita vs ASKO","description":"Sourced from predicthq.com","category":"sports","start":"2024-04-17T18:30:00Z","geo":{"geometry":{"coordinates":[-8.0153525,12.6538715],"type":"Point"},"placekey":"@9vp-2rd-5mk","address":{"country_code":"ML","formatted_address":"MX3M+GVR, Bamako, Mali","locality":"Bamako","region":"Bamako Capital District"}},"labels":["soccer","sport"],"duration":0,"start_local":"2024-04-17T18:30:00","end":"2024-04-17T18:30:00Z","end_local":"2024-04-17T18:30:00","updated":"2024-06-12T01:12:14Z"},{"title":"Première Division - Stade Malien Bamako vs Binga","description":"Sourced from predicthq.com","category":"sports","start":"2024-04-17T16:30:00Z","geo":{"geometry":{"coordinates":[-8.0153525,12.6538715],"type":"Point"},"placekey":"@9vp-2rd-5mk","address":{"country_code":"ML","formatted_address":"MX3M+GVR, Bamako, Mali","locality":"Bamako","region":"Bamako Capital District"}},"labels":["soccer","sport"],"duration":0,"start_local":"2024-04-17T16:30:00","end":"2024-04-17T16:30:00Z","end_local":"2024-04-17T16:30:00","updated":"2024-06-12T07:34:40Z"},{"title":"Première Division - Afrique Football Élite vs Réal Bamako","description":"Sourced from predicthq.com","category":"sports","start":"2024-04-14T16:15:00Z","geo":{"geometry":{"coordinates":[-8.007660914,12.610383352],"type":"Point"},"placekey":"@9vp-2w7-3h5","address":{"country_code":"ML","formatted_address":"Unnamed Road, JX6R+9Q9, Bamako, Mali","locality":"Bamako","region":"District de Bamako"}},"labels":["soccer","sport"],"duration":0,"start_local":"2024-04-14T16:15:00","end":"2024-04-14T16:15:00Z","end_local":"2024-04-14T16:15:00","updated":"2024-06-12T12:23:55Z"},{"title":"Première Division - Onze Créateurs vs Bougouni","description":"Sourced from predicthq.com","category":"sports","start":"2024-04-14T16:15:00Z","geo":{"geometry":{"coordinates":[-7.921836299999995,12.6053326],"type":"Point"},"placekey":"@9vp-2v7-yy9","address":{"country_code":"ML","formatted_address":"Bamako, Mali","locality":"Bamako","region":"Bamako Capital District"}},"labels":["soccer","sport"],"duration":0,"start_local":"2024-04-14T16:15:00","end":"2024-04-14T16:15:00Z","end_local":"2024-04-14T16:15:00","updated":"2024-06-12T14:32:42Z"},{"title":"Première Division - Djoliba vs Koro","description":"Sourced from predicthq.com","category":"sports","start":"2024-04-14T16:15:00Z","geo":{"geometry":{"coordinates":[-8.041583446,12.615475982],"type":"Point"},"placekey":"@9vp-2pk-k9f","address":{"country_code":"ML","formatted_address":"M264+2M5, Bamako, Mali","locality":"Bamako","region":"Bamako Capital District"}},"labels":["soccer","sport"],"duration":0,"start_local":"2024-04-14T16:15:00","end":"2024-04-14T16:15:00Z","end_local":"2024-04-14T16:15:00","updated":"2024-06-12T13:55:33Z"},{"title":"Première Division - Black Stars vs Police","description":"Sourced from predicthq.com","category":"sports","start":"2024-04-13T16:15:00Z","geo":{"geometry":{"coordinates":[-8.041583446,12.615475982],"type":"Point"},"placekey":"@9vp-2pk-k9f","address":{"country_code":"ML","formatted_address":"M264+2M5, Bamako, Mali","locality":"Bamako","region":"Bamako Capital District"}},"labels":["soccer","sport"],"duration":0,"start_local":"2024-04-13T16:15:00","end":"2024-04-13T16:15:00Z","end_local":"2024-04-13T16:15:00","updated":"2024-06-12T13:18:38Z"},{"title":"Première Division - US Bougouba vs USFAS Bamako","description":"Sourced from predicthq.com","category":"sports","start":"2024-04-13T16:15:00Z","geo":{"geometry":{"coordinates":[-7.921836299999995,12.6053326],"type":"Point"},"placekey":"@9vp-2v7-yy9","address":{"country_code":"ML","formatted_address":"Bamako, Mali","locality":"Bamako","region":"Bamako Capital District"}},"labels":["soccer","sport"],"duration":0,"start_local":"2024-04-13T16:15:00","end":"2024-04-13T16:15:00Z","end_local":"2024-04-13T16:15:00","updated":"2024-06-12T12:51:43Z"},{"title":"Première Division - COB vs Bakaridjan","description":"Sourced from predicthq.com","category":"sports","start":"2024-04-13T16:15:00Z","geo":{"geometry":{"coordinates":[-7.919040075,12.60569764],"type":"Point"},"placekey":"@9vp-2v7-xwk","address":{"country_code":"ML","formatted_address":"J34J+79 Bamako, Mali","locality":"Bamako","region":"Bamako Capital District"}},"labels":["soccer","sport"],"duration":0,"start_local":"2024-04-13T16:15:00","end":"2024-04-13T16:15:00Z","end_local":"2024-04-13T16:15:00","updated":"2024-06-12T05:47:11Z"}]