[{"title":"National League - Yadanarbon vs Shan United","description":"Sourced from predicthq.com","category":"sports","start":"2024-09-30T09:30:00Z","geo":{"geometry":{"coordinates":[96.1868663,16.8213298],"type":"Point"},"placekey":"@cc5-y88-n89","address":{"country_code":"MM","formatted_address":"Thuwunna, R5CP+GPG, ရန်ကုန်, Myanmar (Burma)","locality":"ရန်ကုန်","region":"ရန်ကုန်တိုင်းဒေသကြီး"}},"labels":["soccer","sport"],"duration":0,"start_local":"2024-09-30T16:00:00","end":"2024-09-30T09:30:00Z","end_local":"2024-09-30T16:00:00","updated":"2024-06-21T12:08:52Z"},{"title":"National League - Rakhine United vs Hantharwady United","description":"Sourced from predicthq.com","category":"sports","start":"2024-09-30T09:00:00Z","geo":{"geometry":{"coordinates":[96.1271862,16.8471765],"type":"Point"},"placekey":"@cc5-yd7-2zf","address":{"country_code":"MM","formatted_address":"Yangon.Insein Road, Ward 12, Hlaing Township Near Than Lan Bus Stop, Insein Rd, Yangon, Myanmar (Burma)","locality":"Yangon","region":"Yangon Region"}},"labels":["soccer","sport"],"duration":0,"start_local":"2024-09-30T15:30:00","end":"2024-09-30T09:00:00Z","end_local":"2024-09-30T15:30:00","updated":"2024-06-21T12:01:51Z"},{"title":"National League - Dagon Port vs ISPE","description":"Sourced from predicthq.com","category":"sports","start":"2024-09-29T09:30:00Z","geo":{"geometry":{"coordinates":[96.1868663,16.8213298],"type":"Point"},"placekey":"@cc5-y88-n89","address":{"country_code":"MM","formatted_address":"Thuwunna, R5CP+GPG, ရန်ကုန်, Myanmar (Burma)","locality":"ရန်ကုန်","region":"ရန်ကုန်တိုင်းဒေသကြီး"}},"labels":["soccer","sport"],"duration":0,"start_local":"2024-09-29T16:00:00","end":"2024-09-29T09:30:00Z","end_local":"2024-09-29T16:00:00","updated":"2024-06-21T13:30:53Z"},{"title":"National League - Myawady vs Dagon Star United","description":"Sourced from predicthq.com","category":"sports","start":"2024-09-28T09:30:00Z","geo":{"geometry":{"coordinates":[96.1868663,16.8213298],"type":"Point"},"placekey":"@cc5-y88-n89","address":{"country_code":"MM","formatted_address":"Thuwunna, R5CP+GPG, ရန်ကုန်, Myanmar (Burma)","locality":"ရန်ကုန်","region":"ရန်ကုန်တိုင်းဒေသကြီး"}},"labels":["soccer","sport"],"duration":0,"start_local":"2024-09-28T16:00:00","end":"2024-09-28T09:30:00Z","end_local":"2024-09-28T16:00:00","updated":"2024-06-21T15:11:30Z"},{"title":"National League - Thitsar Arman vs Yangon United","description":"Sourced from predicthq.com","category":"sports","start":"2024-09-27T09:30:00Z","geo":{"geometry":{"coordinates":[96.1868663,16.8213298],"type":"Point"},"placekey":"@cc5-y88-n89","address":{"country_code":"MM","formatted_address":"Thuwunna, R5CP+GPG, ရန်ကုန်, Myanmar (Burma)","locality":"ရန်ကုန်","region":"ရန်ကုန်တိုင်းဒေသကြီး"}},"labels":["soccer","sport"],"duration":0,"start_local":"2024-09-27T16:00:00","end":"2024-09-27T09:30:00Z","end_local":"2024-09-27T16:00:00","updated":"2024-06-21T17:33:54Z"},{"title":"National League - Mahar United vs Ayeyawady United","description":"Sourced from predicthq.com","category":"sports","start":"2024-09-27T09:00:00Z","geo":{"geometry":{"coordinates":[96.1271862,16.8471765],"type":"Point"},"placekey":"@cc5-yd7-2zf","address":{"country_code":"MM","formatted_address":"Yangon.Insein Road, Ward 12, Hlaing Township Near Than Lan Bus Stop, Insein Rd, Yangon, Myanmar (Burma)","locality":"Yangon","region":"Yangon Region"}},"labels":["soccer","sport"],"duration":0,"start_local":"2024-09-27T15:30:00","end":"2024-09-27T09:00:00Z","end_local":"2024-09-27T15:30:00","updated":"2024-06-21T12:06:20Z"},{"title":"National League - Myawady vs Hantharwady United","description":"Sourced from predicthq.com","category":"sports","start":"2024-09-23T09:00:00Z","geo":{"geometry":{"coordinates":[96.1271862,16.8471765],"type":"Point"},"placekey":"@cc5-yd7-2zf","address":{"country_code":"MM","formatted_address":"Yangon.Insein Road, Ward 12, Hlaing Township Near Than Lan Bus Stop, Insein Rd, Yangon, Myanmar (Burma)","locality":"Yangon","region":"Yangon Region"}},"labels":["soccer","sport"],"duration":0,"start_local":"2024-09-23T15:30:00","end":"2024-09-23T09:00:00Z","end_local":"2024-09-23T15:30:00","updated":"2024-06-21T16:25:27Z"},{"title":"International Conference and Exhibition on Traditional & Alternative Medicine","description":"Sourced from predicthq.com","category":"expos","start":"2024-09-23T02:30:00Z","geo":{"geometry":{"coordinates":[96.102219,22.006731],"type":"Point"},"placekey":"@7qx-cp2-jgk","address":{"country_code":"MM","formatted_address":"416 B 10th St, Mandalay 05011, Myanmar (Burma)","postcode":"05011","locality":"Mandalay","region":"Mandalay Region"}},"labels":["expo"],"duration":291600,"start_local":"2024-09-23T09:00:00","end":"2024-09-26T11:30:00Z","end_local":"2024-09-26T18:00:00","updated":"2024-06-03T19:50:34Z"},{"title":"National League - Rakhine United vs Ayeyawady United","description":"Sourced from predicthq.com","category":"sports","start":"2024-09-22T09:30:00Z","geo":{"geometry":{"coordinates":[96.1868663,16.8213298],"type":"Point"},"placekey":"@cc5-y88-n89","address":{"country_code":"MM","formatted_address":"Thuwunna, R5CP+GPG, ရန်ကုန်, Myanmar (Burma)","locality":"ရန်ကုန်","region":"ရန်ကုန်တိုင်းဒေသကြီး"}},"labels":["soccer","sport"],"duration":0,"start_local":"2024-09-22T16:00:00","end":"2024-09-22T09:30:00Z","end_local":"2024-09-22T16:00:00","updated":"2024-06-21T12:08:44Z"},{"title":"International Conference on Clinical and Experimental Dermatology","description":"Sourced from predicthq.com","category":"conferences","start":"2024-09-22T02:30:00Z","geo":{"geometry":{"coordinates":[96.102219,22.006731],"type":"Point"},"placekey":"@7qx-cp2-jgk","address":{"country_code":"MM","formatted_address":"416 B 10th St, Mandalay 05011, Myanmar (Burma)","postcode":"05011","locality":"Mandalay","region":"Mandalay Region"}},"labels":["conference"],"duration":378000,"start_local":"2024-09-22T09:00:00","end":"2024-09-26T11:30:00Z","end_local":"2024-09-26T18:00:00","updated":"2024-06-03T20:48:47Z"},{"title":"National League - Thitsar Arman vs ISPE","description":"Sourced from predicthq.com","category":"sports","start":"2024-09-21T09:30:00Z","geo":{"geometry":{"coordinates":[96.1868663,16.8213298],"type":"Point"},"placekey":"@cc5-y88-n89","address":{"country_code":"MM","formatted_address":"Thuwunna, R5CP+GPG, ရန်ကုန်, Myanmar (Burma)","locality":"ရန်ကုန်","region":"ရန်ကုန်တိုင်းဒေသကြီး"}},"labels":["soccer","sport"],"duration":0,"start_local":"2024-09-21T16:00:00","end":"2024-09-21T09:30:00Z","end_local":"2024-09-21T16:00:00","updated":"2024-06-21T13:28:21Z"},{"title":"National League - Yangon United vs Dagon Star United","description":"Sourced from predicthq.com","category":"sports","start":"2024-09-21T09:00:00Z","geo":{"geometry":{"coordinates":[96.1271862,16.8471765],"type":"Point"},"placekey":"@cc5-yd7-2zf","address":{"country_code":"MM","formatted_address":"Yangon.Insein Road, Ward 12, Hlaing Township Near Than Lan Bus Stop, Insein Rd, Yangon, Myanmar (Burma)","locality":"Yangon","region":"Yangon Region"}},"labels":["soccer","sport"],"duration":0,"start_local":"2024-09-21T15:30:00","end":"2024-09-21T09:00:00Z","end_local":"2024-09-21T15:30:00","updated":"2024-06-21T11:54:36Z"},{"title":"National League - Mahar United vs Shan United","description":"Sourced from predicthq.com","category":"sports","start":"2024-09-20T09:30:00Z","geo":{"geometry":{"coordinates":[96.1868663,16.8213298],"type":"Point"},"placekey":"@cc5-y88-n89","address":{"country_code":"MM","formatted_address":"Thuwunna, R5CP+GPG, ရန်ကုန်, Myanmar (Burma)","locality":"ရန်ကုန်","region":"ရန်ကုန်တိုင်းဒေသကြီး"}},"labels":["soccer","sport"],"duration":0,"start_local":"2024-09-20T16:00:00","end":"2024-09-20T09:30:00Z","end_local":"2024-09-20T16:00:00","updated":"2024-06-21T14:52:10Z"},{"title":"National League - Dagon Port vs Yadanarbon","description":"Sourced from predicthq.com","category":"sports","start":"2024-09-20T09:00:00Z","geo":{"geometry":{"coordinates":[96.1271862,16.8471765],"type":"Point"},"placekey":"@cc5-yd7-2zf","address":{"country_code":"MM","formatted_address":"Yangon.Insein Road, Ward 12, Hlaing Township Near Than Lan Bus Stop, Insein Rd, Yangon, Myanmar (Burma)","locality":"Yangon","region":"Yangon Region"}},"labels":["soccer","sport"],"duration":0,"start_local":"2024-09-20T15:30:00","end":"2024-09-20T09:00:00Z","end_local":"2024-09-20T15:30:00","updated":"2024-06-21T16:30:14Z"},{"title":"International Conference on Health Care Reform, Health Economics and Health Policy","description":"Sourced from predicthq.com","category":"conferences","start":"2024-09-20T02:30:00Z","geo":{"geometry":{"coordinates":[96.102219,22.006731],"type":"Point"},"placekey":"@7qx-cp2-jgk","address":{"country_code":"MM","formatted_address":"416 B 10th St, Mandalay 05011, Myanmar (Burma)","postcode":"05011","locality":"Mandalay","region":"Mandalay Region"}},"labels":["conference"],"duration":118800,"start_local":"2024-09-20T09:00:00","end":"2024-09-21T11:30:00Z","end_local":"2024-09-21T18:00:00","updated":"2024-06-03T20:24:09Z"},{"title":"International Conference on Engineering & Technology","description":"Sourced from predicthq.com","category":"conferences","start":"2024-09-18T02:30:00Z","geo":{"geometry":{"coordinates":[96.102219,22.006731],"type":"Point"},"placekey":"@7qx-cp2-jgk","address":{"country_code":"MM","formatted_address":"416 B 10th St, Mandalay 05011, Myanmar (Burma)","postcode":"05011","locality":"Mandalay","region":"Mandalay Region"}},"labels":["conference"],"duration":118800,"start_local":"2024-09-18T09:00:00","end":"2024-09-19T11:30:00Z","end_local":"2024-09-19T18:00:00","updated":"2024-06-03T20:50:20Z"},{"title":"National League - Rakhine United vs Dagon Star United","description":"Sourced from predicthq.com","category":"sports","start":"2024-09-16T09:00:00Z","geo":{"geometry":{"coordinates":[96.1271862,16.8471765],"type":"Point"},"placekey":"@cc5-yd7-2zf","address":{"country_code":"MM","formatted_address":"Yangon.Insein Road, Ward 12, Hlaing Township Near Than Lan Bus Stop, Insein Rd, Yangon, Myanmar (Burma)","locality":"Yangon","region":"Yangon Region"}},"labels":["soccer","sport"],"duration":0,"start_local":"2024-09-16T15:30:00","end":"2024-09-16T09:00:00Z","end_local":"2024-09-16T15:30:00","updated":"2024-06-21T13:48:08Z"},{"title":"National League - Dagon Port vs Yangon United","description":"Sourced from predicthq.com","category":"sports","start":"2024-09-15T09:30:00Z","geo":{"geometry":{"coordinates":[96.1868663,16.8213298],"type":"Point"},"placekey":"@cc5-y88-n89","address":{"country_code":"MM","formatted_address":"Thuwunna, R5CP+GPG, ရန်ကုန်, Myanmar (Burma)","locality":"ရန်ကုန်","region":"ရန်ကုန်တိုင်းဒေသကြီး"}},"labels":["soccer","sport"],"duration":0,"start_local":"2024-09-15T16:00:00","end":"2024-09-15T09:30:00Z","end_local":"2024-09-15T16:00:00","updated":"2024-06-21T16:56:41Z"},{"title":"National League - Thitsar Arman vs Myawady","description":"Sourced from predicthq.com","category":"sports","start":"2024-09-14T09:30:00Z","geo":{"geometry":{"coordinates":[96.1868663,16.8213298],"type":"Point"},"placekey":"@cc5-y88-n89","address":{"country_code":"MM","formatted_address":"Thuwunna, R5CP+GPG, ရန်ကုန်, Myanmar (Burma)","locality":"ရန်ကုန်","region":"ရန်ကုန်တိုင်းဒေသကြီး"}},"labels":["soccer","sport"],"duration":0,"start_local":"2024-09-14T16:00:00","end":"2024-09-14T09:30:00Z","end_local":"2024-09-14T16:00:00","updated":"2024-06-21T13:55:27Z"},{"title":"National League - Ayeyawady United vs Shan United","description":"Sourced from predicthq.com","category":"sports","start":"2024-09-14T09:00:00Z","geo":{"geometry":{"coordinates":[94.73412573337555,16.785292849544813],"type":"Point"},"placekey":"@cc6-4r8-zj9","address":{"country_code":"MM","formatted_address":"QPPM+79H, Pathein, Myanmar (Burma)","locality":"Pathein","region":"Ayeyarwady"}},"labels":["soccer","sport"],"duration":0,"start_local":"2024-09-14T15:30:00","end":"2024-09-14T09:00:00Z","end_local":"2024-09-14T15:30:00","updated":"2024-06-21T13:58:21Z"},{"title":"National League - Mahar United vs Hantharwady United","description":"Sourced from predicthq.com","category":"sports","start":"2024-09-13T09:30:00Z","geo":{"geometry":{"coordinates":[96.1868663,16.8213298],"type":"Point"},"placekey":"@cc5-y88-n89","address":{"country_code":"MM","formatted_address":"Thuwunna, R5CP+GPG, ရန်ကုန်, Myanmar (Burma)","locality":"ရန်ကုန်","region":"ရန်ကုန်တိုင်းဒေသကြီး"}},"labels":["soccer","sport"],"duration":0,"start_local":"2024-09-13T16:00:00","end":"2024-09-13T09:30:00Z","end_local":"2024-09-13T16:00:00","updated":"2024-06-21T11:54:09Z"},{"title":"National League - Yadanarbon vs ISPE","description":"Sourced from predicthq.com","category":"sports","start":"2024-09-13T09:00:00Z","geo":{"geometry":{"coordinates":[96.1271862,16.8471765],"type":"Point"},"placekey":"@cc5-yd7-2zf","address":{"country_code":"MM","formatted_address":"Yangon.Insein Road, Ward 12, Hlaing Township Near Than Lan Bus Stop, Insein Rd, Yangon, Myanmar (Burma)","locality":"Yangon","region":"Yangon Region"}},"labels":["soccer","sport"],"duration":0,"start_local":"2024-09-13T15:30:00","end":"2024-09-13T09:00:00Z","end_local":"2024-09-13T15:30:00","updated":"2024-06-21T13:26:22Z"},{"title":"International Congress on Nutrition & Health","description":"Sourced from predicthq.com","category":"conferences","start":"2024-09-10T02:30:00Z","geo":{"geometry":{"coordinates":[96.102219,22.006731],"type":"Point"},"placekey":"@7qx-cp2-jgk","address":{"country_code":"MM","formatted_address":"416 B 10th St, Mandalay 05011, Myanmar (Burma)","postcode":"05011","locality":"Mandalay","region":"Mandalay Region"}},"labels":["conference"],"duration":205200,"start_local":"2024-09-10T09:00:00","end":"2024-09-12T11:30:00Z","end_local":"2024-09-12T18:00:00","updated":"2024-06-03T14:17:36Z"},{"title":"National League - Rakhine United vs Shan United","description":"Sourced from predicthq.com","category":"sports","start":"2024-08-26T09:00:00Z","geo":{"geometry":{"coordinates":[96.1271862,16.8471765],"type":"Point"},"placekey":"@cc5-yd7-2zf","address":{"country_code":"MM","formatted_address":"Yangon.Insein Road, Ward 12, Hlaing Township Near Than Lan Bus Stop, Insein Rd, Yangon, Myanmar (Burma)","locality":"Yangon","region":"Yangon Region"}},"labels":["soccer","sport"],"duration":0,"start_local":"2024-08-26T15:30:00","end":"2024-08-26T09:00:00Z","end_local":"2024-08-26T15:30:00","updated":"2024-06-21T13:50:49Z"},{"title":"National League - Hantharwady United vs ISPE","description":"Sourced from predicthq.com","category":"sports","start":"2024-08-25T09:30:00Z","geo":{"geometry":{"coordinates":[96.1868663,16.8213298],"type":"Point"},"placekey":"@cc5-y88-n89","address":{"country_code":"MM","formatted_address":"Thuwunna, R5CP+GPG, ရန်ကုန်, Myanmar (Burma)","locality":"ရန်ကုန်","region":"ရန်ကုန်တိုင်းဒေသကြီး"}},"labels":["soccer","sport"],"duration":0,"start_local":"2024-08-25T16:00:00","end":"2024-08-25T09:30:00Z","end_local":"2024-08-25T16:00:00","updated":"2024-06-21T16:29:08Z"},{"title":"National League - Yangon United vs Ayeyawady United","description":"Sourced from predicthq.com","category":"sports","start":"2024-08-25T09:00:00Z","geo":{"geometry":{"coordinates":[96.1271862,16.8471765],"type":"Point"},"placekey":"@cc5-yd7-2zf","address":{"country_code":"MM","formatted_address":"Yangon.Insein Road, Ward 12, Hlaing Township Near Than Lan Bus Stop, Insein Rd, Yangon, Myanmar (Burma)","locality":"Yangon","region":"Yangon Region"}},"labels":["soccer","sport"],"duration":0,"start_local":"2024-08-25T15:30:00","end":"2024-08-25T09:00:00Z","end_local":"2024-08-25T15:30:00","updated":"2024-06-21T16:50:58Z"},{"title":"National League - Dagon Star United vs Yadanarbon","description":"Sourced from predicthq.com","category":"sports","start":"2024-08-24T09:30:00Z","geo":{"geometry":{"coordinates":[96.1868663,16.8213298],"type":"Point"},"placekey":"@cc5-y88-n89","address":{"country_code":"MM","formatted_address":"Thuwunna, R5CP+GPG, ရန်ကုန်, Myanmar (Burma)","locality":"ရန်ကုန်","region":"ရန်ကုန်တိုင်းဒေသကြီး"}},"labels":["soccer","sport"],"duration":0,"start_local":"2024-08-24T16:00:00","end":"2024-08-24T09:30:00Z","end_local":"2024-08-24T16:00:00","updated":"2024-06-21T16:27:21Z"},{"title":"National League - Myawady vs Mahar United","description":"Sourced from predicthq.com","category":"sports","start":"2024-08-23T09:30:00Z","geo":{"geometry":{"coordinates":[96.1868663,16.8213298],"type":"Point"},"placekey":"@cc5-y88-n89","address":{"country_code":"MM","formatted_address":"Thuwunna, R5CP+GPG, ရန်ကုန်, Myanmar (Burma)","locality":"ရန်ကုန်","region":"ရန်ကုန်တိုင်းဒေသကြီး"}},"labels":["soccer","sport"],"duration":0,"start_local":"2024-08-23T16:00:00","end":"2024-08-23T09:30:00Z","end_local":"2024-08-23T16:00:00","updated":"2024-06-21T14:23:40Z"},{"title":"National League - Thitsar Arman vs Dagon Port","description":"Sourced from predicthq.com","category":"sports","start":"2024-08-23T09:00:00Z","geo":{"geometry":{"coordinates":[96.1271862,16.8471765],"type":"Point"},"placekey":"@cc5-yd7-2zf","address":{"country_code":"MM","formatted_address":"Yangon.Insein Road, Ward 12, Hlaing Township Near Than Lan Bus Stop, Insein Rd, Yangon, Myanmar (Burma)","locality":"Yangon","region":"Yangon Region"}},"labels":["soccer","sport"],"duration":0,"start_local":"2024-08-23T15:30:00","end":"2024-08-23T09:00:00Z","end_local":"2024-08-23T15:30:00","updated":"2024-06-21T13:28:15Z"},{"title":"National League - Mahar United vs Thitsar Arman","description":"Sourced from predicthq.com","category":"sports","start":"2024-08-19T09:00:00Z","geo":{"geometry":{"coordinates":[96.1271862,16.8471765],"type":"Point"},"placekey":"@cc5-yd7-2zf","address":{"country_code":"MM","formatted_address":"Yangon.Insein Road, Ward 12, Hlaing Township Near Than Lan Bus Stop, Insein Rd, Yangon, Myanmar (Burma)","locality":"Yangon","region":"Yangon Region"}},"labels":["soccer","sport"],"duration":0,"start_local":"2024-08-19T15:30:00","end":"2024-08-19T09:00:00Z","end_local":"2024-08-19T15:30:00","updated":"2024-06-21T16:34:27Z"},{"title":"National League - Yadanarbon vs Myawady","description":"Sourced from predicthq.com","category":"sports","start":"2024-08-18T09:30:00Z","geo":{"geometry":{"coordinates":[96.1868663,16.8213298],"type":"Point"},"placekey":"@cc5-y88-n89","address":{"country_code":"MM","formatted_address":"Thuwunna, R5CP+GPG, ရန်ကုန်, Myanmar (Burma)","locality":"ရန်ကုန်","region":"ရန်ကုန်တိုင်းဒေသကြီး"}},"labels":["soccer","sport"],"duration":0,"start_local":"2024-08-18T16:00:00","end":"2024-08-18T09:30:00Z","end_local":"2024-08-18T16:00:00","updated":"2024-06-21T12:11:55Z"},{"title":"National League - Ayeyawady United vs Dagon Star United","description":"Sourced from predicthq.com","category":"sports","start":"2024-08-18T09:00:00Z","geo":{"geometry":{"coordinates":[94.73412573337555,16.785292849544813],"type":"Point"},"placekey":"@cc6-4r8-zj9","address":{"country_code":"MM","formatted_address":"QPPM+79H, Pathein, Myanmar (Burma)","locality":"Pathein","region":"Ayeyarwady"}},"labels":["soccer","sport"],"duration":0,"start_local":"2024-08-18T15:30:00","end":"2024-08-18T09:00:00Z","end_local":"2024-08-18T15:30:00","updated":"2024-06-21T13:12:16Z"},{"title":"National League - ISPE vs Yangon United","description":"Sourced from predicthq.com","category":"sports","start":"2024-08-17T09:30:00Z","geo":{"geometry":{"coordinates":[96.1868663,16.8213298],"type":"Point"},"placekey":"@cc5-y88-n89","address":{"country_code":"MM","formatted_address":"Thuwunna, R5CP+GPG, ရန်ကုန်, Myanmar (Burma)","locality":"ရန်ကုန်","region":"ရန်ကုန်တိုင်းဒေသကြီး"}},"labels":["soccer","sport"],"duration":0,"start_local":"2024-08-17T16:00:00","end":"2024-08-17T09:30:00Z","end_local":"2024-08-17T16:00:00","updated":"2024-06-21T12:03:34Z"},{"title":"National League - Dagon Port vs Rakhine United","description":"Sourced from predicthq.com","category":"sports","start":"2024-08-16T09:30:00Z","geo":{"geometry":{"coordinates":[96.1868663,16.8213298],"type":"Point"},"placekey":"@cc5-y88-n89","address":{"country_code":"MM","formatted_address":"Thuwunna, R5CP+GPG, ရန်ကုန်, Myanmar (Burma)","locality":"ရန်ကုန်","region":"ရန်ကုန်တိုင်းဒေသကြီး"}},"labels":["soccer","sport"],"duration":0,"start_local":"2024-08-16T16:00:00","end":"2024-08-16T09:30:00Z","end_local":"2024-08-16T16:00:00","updated":"2024-06-21T16:32:11Z"},{"title":"National League - Hantharwady United vs Shan United","description":"Sourced from predicthq.com","category":"sports","start":"2024-08-16T09:00:00Z","geo":{"geometry":{"coordinates":[96.1271862,16.8471765],"type":"Point"},"placekey":"@cc5-yd7-2zf","address":{"country_code":"MM","formatted_address":"Yangon.Insein Road, Ward 12, Hlaing Township Near Than Lan Bus Stop, Insein Rd, Yangon, Myanmar (Burma)","locality":"Yangon","region":"Yangon Region"}},"labels":["soccer","sport"],"duration":0,"start_local":"2024-08-16T15:30:00","end":"2024-08-16T09:00:00Z","end_local":"2024-08-16T15:30:00","updated":"2024-06-21T12:08:23Z"},{"title":"National League - Mahar United vs Dagon Star United","description":"Sourced from predicthq.com","category":"sports","start":"2024-08-12T09:00:00Z","geo":{"geometry":{"coordinates":[96.1271862,16.8471765],"type":"Point"},"placekey":"@cc5-yd7-2zf","address":{"country_code":"MM","formatted_address":"Yangon.Insein Road, Ward 12, Hlaing Township Near Than Lan Bus Stop, Insein Rd, Yangon, Myanmar (Burma)","locality":"Yangon","region":"Yangon Region"}},"labels":["soccer","sport"],"duration":0,"start_local":"2024-08-12T15:30:00","end":"2024-08-12T09:00:00Z","end_local":"2024-08-12T15:30:00","updated":"2024-06-21T14:59:38Z"},{"title":"National League - Yadanarbon vs Yangon United","description":"Sourced from predicthq.com","category":"sports","start":"2024-08-11T09:30:00Z","geo":{"geometry":{"coordinates":[96.1868663,16.8213298],"type":"Point"},"placekey":"@cc5-y88-n89","address":{"country_code":"MM","formatted_address":"Thuwunna, R5CP+GPG, ရန်ကုန်, Myanmar (Burma)","locality":"ရန်ကုန်","region":"ရန်ကုန်တိုင်းဒေသကြီး"}},"labels":["soccer","sport"],"duration":0,"start_local":"2024-08-11T16:00:00","end":"2024-08-11T09:30:00Z","end_local":"2024-08-11T16:00:00","updated":"2024-06-21T17:04:38Z"},{"title":"National League - Rakhine United vs Thitsar Arman","description":"Sourced from predicthq.com","category":"sports","start":"2024-08-10T09:30:00Z","geo":{"geometry":{"coordinates":[96.1868663,16.8213298],"type":"Point"},"placekey":"@cc5-y88-n89","address":{"country_code":"MM","formatted_address":"Thuwunna, R5CP+GPG, ရန်ကုန်, Myanmar (Burma)","locality":"ရန်ကုန်","region":"ရန်ကုန်တိုင်းဒေသကြီး"}},"labels":["soccer","sport"],"duration":0,"start_local":"2024-08-10T16:00:00","end":"2024-08-10T09:30:00Z","end_local":"2024-08-10T16:00:00","updated":"2024-06-21T13:55:27Z"},{"title":"National League - Shan United vs ISPE","description":"Sourced from predicthq.com","category":"sports","start":"2024-08-10T09:00:00Z","geo":{"geometry":{"coordinates":[97.0380239,20.7784505],"type":"Point"},"placekey":"@cc9-677-hqz","address":{"country_code":"MM","formatted_address":"Q2HQ+96C, Taunggyi, Myanmar (Burma)","locality":"Taunggyi","region":"Shan"}},"labels":["soccer","sport"],"duration":0,"start_local":"2024-08-10T15:30:00","end":"2024-08-10T09:00:00Z","end_local":"2024-08-10T15:30:00","updated":"2024-06-21T16:31:00Z"},{"title":"National League - Ayeyawady United vs Hantharwady United","description":"Sourced from predicthq.com","category":"sports","start":"2024-08-10T09:00:00Z","geo":{"geometry":{"coordinates":[94.73412573337555,16.785292849544813],"type":"Point"},"placekey":"@cc6-4r8-zj9","address":{"country_code":"MM","formatted_address":"QPPM+79H, Pathein, Myanmar (Burma)","locality":"Pathein","region":"Ayeyarwady"}},"labels":["soccer","sport"],"duration":0,"start_local":"2024-08-10T15:30:00","end":"2024-08-10T09:00:00Z","end_local":"2024-08-10T15:30:00","updated":"2024-06-21T12:08:44Z"},{"title":"National League - Dagon Port vs Myawady","description":"Sourced from predicthq.com","category":"sports","start":"2024-08-09T09:30:00Z","geo":{"geometry":{"coordinates":[96.1868663,16.8213298],"type":"Point"},"placekey":"@cc5-y88-n89","address":{"country_code":"MM","formatted_address":"Thuwunna, R5CP+GPG, ရန်ကုန်, Myanmar (Burma)","locality":"ရန်ကုန်","region":"ရန်ကုန်တိုင်းဒေသကြီး"}},"labels":["soccer","sport"],"duration":0,"start_local":"2024-08-09T16:00:00","end":"2024-08-09T09:30:00Z","end_local":"2024-08-09T16:00:00","updated":"2024-06-21T14:22:49Z"},{"title":"National League - Thitsar Arman vs Ayeyawady United","description":"Sourced from predicthq.com","category":"sports","start":"2024-08-05T09:00:00Z","geo":{"geometry":{"coordinates":[96.1271862,16.8471765],"type":"Point"},"placekey":"@cc5-yd7-2zf","address":{"country_code":"MM","formatted_address":"Yangon.Insein Road, Ward 12, Hlaing Township Near Than Lan Bus Stop, Insein Rd, Yangon, Myanmar (Burma)","locality":"Yangon","region":"Yangon Region"}},"labels":["soccer","sport"],"duration":0,"start_local":"2024-08-05T15:30:00","end":"2024-08-05T09:00:00Z","end_local":"2024-08-05T15:30:00","updated":"2024-06-21T13:11:12Z"},{"title":"National League - Mahar United vs Dagon Port","description":"Sourced from predicthq.com","category":"sports","start":"2024-08-04T09:30:00Z","geo":{"geometry":{"coordinates":[96.1868663,16.8213298],"type":"Point"},"placekey":"@cc5-y88-n89","address":{"country_code":"MM","formatted_address":"Thuwunna, R5CP+GPG, ရန်ကုန်, Myanmar (Burma)","locality":"ရန်ကုန်","region":"ရန်ကုန်တိုင်းဒေသကြီး"}},"labels":["soccer","sport"],"duration":0,"start_local":"2024-08-04T16:00:00","end":"2024-08-04T09:30:00Z","end_local":"2024-08-04T16:00:00","updated":"2024-06-21T16:27:21Z"},{"title":"National League - Shan United vs Yangon United","description":"Sourced from predicthq.com","category":"sports","start":"2024-08-04T09:00:00Z","geo":{"geometry":{"coordinates":[97.0380239,20.7784505],"type":"Point"},"placekey":"@cc9-677-hqz","address":{"country_code":"MM","formatted_address":"Q2HQ+96C, Taunggyi, Myanmar (Burma)","locality":"Taunggyi","region":"Shan"}},"labels":["soccer","sport"],"duration":0,"start_local":"2024-08-04T15:30:00","end":"2024-08-04T09:00:00Z","end_local":"2024-08-04T15:30:00","updated":"2024-06-21T12:08:23Z"},{"title":"National League - Yadanarbon vs Rakhine United","description":"Sourced from predicthq.com","category":"sports","start":"2024-08-03T09:30:00Z","geo":{"geometry":{"coordinates":[96.1868663,16.8213298],"type":"Point"},"placekey":"@cc5-y88-n89","address":{"country_code":"MM","formatted_address":"Thuwunna, R5CP+GPG, ရန်ကုန်, Myanmar (Burma)","locality":"ရန်ကုန်","region":"ရန်ကုန်တိုင်းဒေသကြီး"}},"labels":["soccer","sport"],"duration":0,"start_local":"2024-08-03T16:00:00","end":"2024-08-03T09:30:00Z","end_local":"2024-08-03T16:00:00","updated":"2024-06-21T12:15:56Z"},{"title":"National League - Hantharwady United vs Dagon Star United","description":"Sourced from predicthq.com","category":"sports","start":"2024-08-02T09:30:00Z","geo":{"geometry":{"coordinates":[96.1868663,16.8213298],"type":"Point"},"placekey":"@cc5-y88-n89","address":{"country_code":"MM","formatted_address":"Thuwunna, R5CP+GPG, ရန်ကုန်, Myanmar (Burma)","locality":"ရန်ကုန်","region":"ရန်ကုန်တိုင်းဒေသကြီး"}},"labels":["soccer","sport"],"duration":0,"start_local":"2024-08-02T16:00:00","end":"2024-08-02T09:30:00Z","end_local":"2024-08-02T16:00:00","updated":"2024-06-21T11:54:23Z"},{"title":"National League - ISPE vs Myawady","description":"Sourced from predicthq.com","category":"sports","start":"2024-08-02T09:00:00Z","geo":{"geometry":{"coordinates":[96.1271862,16.8471765],"type":"Point"},"placekey":"@cc5-yd7-2zf","address":{"country_code":"MM","formatted_address":"Yangon.Insein Road, Ward 12, Hlaing Township Near Than Lan Bus Stop, Insein Rd, Yangon, Myanmar (Burma)","locality":"Yangon","region":"Yangon Region"}},"labels":["soccer","sport"],"duration":0,"start_local":"2024-08-02T15:30:00","end":"2024-08-02T09:00:00Z","end_local":"2024-08-02T15:30:00","updated":"2024-06-21T13:22:40Z"},{"title":"National League - Myawady vs Rakhine United","description":"Sourced from predicthq.com","category":"sports","start":"2024-07-29T09:30:00Z","geo":{"geometry":{"coordinates":[96.1868663,16.8213298],"type":"Point"},"placekey":"@cc5-y88-n89","address":{"country_code":"MM","formatted_address":"Thuwunna, R5CP+GPG, ရန်ကုန်, Myanmar (Burma)","locality":"ရန်ကုန်","region":"ရန်ကုန်တိုင်းဒေသကြီး"}},"labels":["soccer","sport"],"duration":0,"start_local":"2024-07-29T16:00:00","end":"2024-07-29T09:30:00Z","end_local":"2024-07-29T16:00:00","updated":"2024-06-21T14:24:31Z"},{"title":"National League - Thitsar Arman vs Shan United","description":"Sourced from predicthq.com","category":"sports","start":"2024-07-28T09:30:00Z","geo":{"geometry":{"coordinates":[96.1868663,16.8213298],"type":"Point"},"placekey":"@cc5-y88-n89","address":{"country_code":"MM","formatted_address":"Thuwunna, R5CP+GPG, ရန်ကုန်, Myanmar (Burma)","locality":"ရန်ကုန်","region":"ရန်ကုန်တိုင်းဒေသကြီး"}},"labels":["soccer","sport"],"duration":0,"start_local":"2024-07-28T16:00:00","end":"2024-07-28T09:30:00Z","end_local":"2024-07-28T16:00:00","updated":"2024-06-21T14:52:47Z"},{"title":"National League - ISPE vs Ayeyawady United","description":"Sourced from predicthq.com","category":"sports","start":"2024-07-27T09:30:00Z","geo":{"geometry":{"coordinates":[96.1868663,16.8213298],"type":"Point"},"placekey":"@cc5-y88-n89","address":{"country_code":"MM","formatted_address":"Thuwunna, R5CP+GPG, ရန်ကုန်, Myanmar (Burma)","locality":"ရန်ကုန်","region":"ရန်ကုန်တိုင်းဒေသကြီး"}},"labels":["soccer","sport"],"duration":0,"start_local":"2024-07-27T16:00:00","end":"2024-07-27T09:30:00Z","end_local":"2024-07-27T16:00:00","updated":"2024-06-21T12:06:20Z"},{"title":"National League - Yangon United vs Mahar United","description":"Sourced from predicthq.com","category":"sports","start":"2024-07-27T09:00:00Z","geo":{"geometry":{"coordinates":[96.1271862,16.8471765],"type":"Point"},"placekey":"@cc5-yd7-2zf","address":{"country_code":"MM","formatted_address":"Yangon.Insein Road, Ward 12, Hlaing Township Near Than Lan Bus Stop, Insein Rd, Yangon, Myanmar (Burma)","locality":"Yangon","region":"Yangon Region"}},"labels":["soccer","sport"],"duration":0,"start_local":"2024-07-27T15:30:00","end":"2024-07-27T09:00:00Z","end_local":"2024-07-27T15:30:00","updated":"2024-06-21T16:50:58Z"},{"title":"National League - Hantharwady United vs Yadanarbon","description":"Sourced from predicthq.com","category":"sports","start":"2024-07-26T09:30:00Z","geo":{"geometry":{"coordinates":[96.1868663,16.8213298],"type":"Point"},"placekey":"@cc5-y88-n89","address":{"country_code":"MM","formatted_address":"Thuwunna, R5CP+GPG, ရန်ကုန်, Myanmar (Burma)","locality":"ရန်ကုန်","region":"ရန်ကုန်တိုင်းဒေသကြီး"}},"labels":["soccer","sport"],"duration":0,"start_local":"2024-07-26T16:00:00","end":"2024-07-26T09:30:00Z","end_local":"2024-07-26T16:00:00","updated":"2024-06-21T16:34:27Z"},{"title":"National League - Dagon Star United vs Dagon Port","description":"Sourced from predicthq.com","category":"sports","start":"2024-07-26T09:00:00Z","geo":{"geometry":{"coordinates":[96.1271862,16.8471765],"type":"Point"},"placekey":"@cc5-yd7-2zf","address":{"country_code":"MM","formatted_address":"Yangon.Insein Road, Ward 12, Hlaing Township Near Than Lan Bus Stop, Insein Rd, Yangon, Myanmar (Burma)","locality":"Yangon","region":"Yangon Region"}},"labels":["soccer","sport"],"duration":0,"start_local":"2024-07-26T15:30:00","end":"2024-07-26T09:00:00Z","end_local":"2024-07-26T15:30:00","updated":"2024-06-21T16:35:37Z"},{"title":"Pursuing Accelerated PhDs","description":"Sourced from predicthq.com - Join us for Pursuing Accelerated PhDs, where we'll explore fast-track options for completing your doctorate in record time!","category":"conferences","start":"2024-07-22T03:30:00Z","geo":{"geometry":{"coordinates":[96.149979,16.844839],"type":"Point"},"placekey":"@cc5-y82-3nq","address":{"country_code":"MM","formatted_address":"37 Kabar Aye Pagoda Road, Yangon, Myanmar (Burma)","locality":"Yangon","region":"Yangon Region"}},"labels":["conference"],"duration":7200,"start_local":"2024-07-22T10:00:00","end":"2024-07-22T05:30:00Z","end_local":"2024-07-22T12:00:00","updated":"2024-06-13T07:53:17Z"},{"title":"National League - Dagon Port vs Shan United","description":"Sourced from predicthq.com","category":"sports","start":"2024-07-21T09:30:00Z","geo":{"geometry":{"coordinates":[96.1868663,16.8213298],"type":"Point"},"placekey":"@cc5-y88-n89","address":{"country_code":"MM","formatted_address":"Thuwunna, R5CP+GPG, ရန်ကုန်, Myanmar (Burma)","locality":"ရန်ကုန်","region":"ရန်ကုန်တိုင်းဒေသကြီး"}},"labels":["soccer","sport"],"duration":0,"start_local":"2024-07-21T16:00:00","end":"2024-07-21T09:30:00Z","end_local":"2024-07-21T16:00:00","updated":"2024-06-21T13:51:42Z"},{"title":"National League - Yangon United vs Hantharwady United","description":"Sourced from predicthq.com","category":"sports","start":"2024-07-21T09:00:00Z","geo":{"geometry":{"coordinates":[96.1271862,16.8471765],"type":"Point"},"placekey":"@cc5-yd7-2zf","address":{"country_code":"MM","formatted_address":"Yangon.Insein Road, Ward 12, Hlaing Township Near Than Lan Bus Stop, Insein Rd, Yangon, Myanmar (Burma)","locality":"Yangon","region":"Yangon Region"}},"labels":["soccer","sport"],"duration":0,"start_local":"2024-07-21T15:30:00","end":"2024-07-21T09:00:00Z","end_local":"2024-07-21T15:30:00","updated":"2024-06-21T16:58:30Z"},{"title":"National League - Ayeyawady United vs Myawady","description":"Sourced from predicthq.com","category":"sports","start":"2024-07-21T09:00:00Z","geo":{"geometry":{"coordinates":[94.73412573337555,16.785292849544813],"type":"Point"},"placekey":"@cc6-4r8-zj9","address":{"country_code":"MM","formatted_address":"QPPM+79H, Pathein, Myanmar (Burma)","locality":"Pathein","region":"Ayeyarwady"}},"labels":["soccer","sport"],"duration":0,"start_local":"2024-07-21T15:30:00","end":"2024-07-21T09:00:00Z","end_local":"2024-07-21T15:30:00","updated":"2024-06-21T13:10:29Z"},{"title":"National League - Rakhine United vs Mahar United","description":"Sourced from predicthq.com","category":"sports","start":"2024-07-20T09:30:00Z","geo":{"geometry":{"coordinates":[96.1868663,16.8213298],"type":"Point"},"placekey":"@cc5-y88-n89","address":{"country_code":"MM","formatted_address":"Thuwunna, R5CP+GPG, ရန်ကုန်, Myanmar (Burma)","locality":"ရန်ကုန်","region":"ရန်ကုန်တိုင်းဒေသကြီး"}},"labels":["soccer","sport"],"duration":0,"start_local":"2024-07-20T16:00:00","end":"2024-07-20T09:30:00Z","end_local":"2024-07-20T16:00:00","updated":"2024-06-21T12:12:22Z"},{"title":"National League - Thitsar Arman vs Yadanarbon","description":"Sourced from predicthq.com","category":"sports","start":"2024-07-20T09:00:00Z","geo":{"geometry":{"coordinates":[96.1271862,16.8471765],"type":"Point"},"placekey":"@cc5-yd7-2zf","address":{"country_code":"MM","formatted_address":"Yangon.Insein Road, Ward 12, Hlaing Township Near Than Lan Bus Stop, Insein Rd, Yangon, Myanmar (Burma)","locality":"Yangon","region":"Yangon Region"}},"labels":["soccer","sport"],"duration":0,"start_local":"2024-07-20T15:30:00","end":"2024-07-20T09:00:00Z","end_local":"2024-07-20T15:30:00","updated":"2024-06-21T13:22:40Z"},{"title":"National League - Dagon Star United vs ISPE","description":"Sourced from predicthq.com","category":"sports","start":"2024-07-19T09:30:00Z","geo":{"geometry":{"coordinates":[96.1868663,16.8213298],"type":"Point"},"placekey":"@cc5-y88-n89","address":{"country_code":"MM","formatted_address":"Thuwunna, R5CP+GPG, ရန်ကုန်, Myanmar (Burma)","locality":"ရန်ကုန်","region":"ရန်ကုန်တိုင်းဒေသကြီး"}},"labels":["soccer","sport"],"duration":0,"start_local":"2024-07-19T16:00:00","end":"2024-07-19T09:30:00Z","end_local":"2024-07-19T16:00:00","updated":"2024-06-21T11:54:36Z"},{"title":"National League - Hantharwady United vs Thitsar Arman","description":"Sourced from predicthq.com","category":"sports","start":"2024-07-14T09:30:00Z","geo":{"geometry":{"coordinates":[96.1868663,16.8213298],"type":"Point"},"placekey":"@cc5-y88-n89","address":{"country_code":"MM","formatted_address":"Thuwunna, R5CP+GPG, ရန်ကုန်, Myanmar (Burma)","locality":"ရန်ကုန်","region":"ရန်ကုန်တိုင်းဒေသကြီး"}},"labels":["soccer","sport"],"duration":0,"start_local":"2024-07-14T16:00:00","end":"2024-07-14T09:30:00Z","end_local":"2024-07-14T16:00:00","updated":"2024-06-21T16:30:02Z"},{"title":"National League - Ayeyawady United vs Dagon Port","description":"Sourced from predicthq.com","category":"sports","start":"2024-07-14T09:00:00Z","geo":{"geometry":{"coordinates":[94.73412573337555,16.785292849544813],"type":"Point"},"placekey":"@cc6-4r8-zj9","address":{"country_code":"MM","formatted_address":"QPPM+79H, Pathein, Myanmar (Burma)","locality":"Pathein","region":"Ayeyarwady"}},"labels":["soccer","sport"],"duration":0,"start_local":"2024-07-14T15:30:00","end":"2024-07-14T09:00:00Z","end_local":"2024-07-14T15:30:00","updated":"2024-06-21T13:50:49Z"},{"title":"National League - ISPE vs Rakhine United","description":"Sourced from predicthq.com","category":"sports","start":"2024-07-13T09:30:00Z","geo":{"geometry":{"coordinates":[96.1868663,16.8213298],"type":"Point"},"placekey":"@cc5-y88-n89","address":{"country_code":"MM","formatted_address":"Thuwunna, R5CP+GPG, ရန်ကုန်, Myanmar (Burma)","locality":"ရန်ကုန်","region":"ရန်ကုန်တိုင်းဒေသကြီး"}},"labels":["soccer","sport"],"duration":0,"start_local":"2024-07-13T16:00:00","end":"2024-07-13T09:30:00Z","end_local":"2024-07-13T16:00:00","updated":"2024-06-21T14:53:03Z"},{"title":"National League - Yangon United vs Myawady","description":"Sourced from predicthq.com","category":"sports","start":"2024-07-13T09:00:00Z","geo":{"geometry":{"coordinates":[96.1271862,16.8471765],"type":"Point"},"placekey":"@cc5-yd7-2zf","address":{"country_code":"MM","formatted_address":"Yangon.Insein Road, Ward 12, Hlaing Township Near Than Lan Bus Stop, Insein Rd, Yangon, Myanmar (Burma)","locality":"Yangon","region":"Yangon Region"}},"labels":["soccer","sport"],"duration":0,"start_local":"2024-07-13T15:30:00","end":"2024-07-13T09:00:00Z","end_local":"2024-07-13T15:30:00","updated":"2024-06-21T16:58:30Z"},{"title":"Friendlies Women - Friendlies 2 - Myanmar vs India","description":"Sourced from predicthq.com","category":"sports","start":"2024-07-12T09:30:00Z","geo":{"geometry":{"coordinates":[96.1868663,16.8213298],"type":"Point"},"placekey":"@cc5-y88-n89","address":{"country_code":"MM","formatted_address":"Thuwunna, R5CP+GPG, ရန်ကုန်, Myanmar (Burma)","locality":"ရန်ကုန်","region":"ရန်ကုန်တိုင်းဒေသကြီး"}},"labels":["soccer","sport"],"duration":0,"start_local":"2024-07-12T16:00:00","end":"2024-07-12T09:30:00Z","end_local":"2024-07-12T16:00:00","updated":"2024-06-30T05:52:18Z"},{"title":"National League - Yadanarbon vs Mahar United","description":"Sourced from predicthq.com","category":"sports","start":"2024-07-12T09:00:00Z","geo":{"geometry":{"coordinates":[96.1271862,16.8471765],"type":"Point"},"placekey":"@cc5-yd7-2zf","address":{"country_code":"MM","formatted_address":"Yangon.Insein Road, Ward 12, Hlaing Township Near Than Lan Bus Stop, Insein Rd, Yangon, Myanmar (Burma)","locality":"Yangon","region":"Yangon Region"}},"labels":["soccer","sport"],"duration":0,"start_local":"2024-07-12T15:30:00","end":"2024-07-12T09:00:00Z","end_local":"2024-07-12T15:30:00","updated":"2024-06-21T11:58:49Z"},{"title":"National League - Shan United vs Dagon Star United","description":"Sourced from predicthq.com","category":"sports","start":"2024-07-11T09:00:00Z","geo":{"geometry":{"coordinates":[97.0380239,20.7784505],"type":"Point"},"placekey":"@cc9-677-hqz","address":{"country_code":"MM","formatted_address":"Q2HQ+96C, Taunggyi, Myanmar (Burma)","locality":"Taunggyi","region":"Shan"}},"labels":["soccer","sport"],"duration":0,"start_local":"2024-07-11T15:30:00","end":"2024-07-11T09:00:00Z","end_local":"2024-07-11T15:30:00","updated":"2024-06-21T16:29:24Z"},{"title":"Friendlies Women - Friendlies 2 - Myanmar vs India","description":"Sourced from predicthq.com","category":"sports","start":"2024-07-09T09:30:00Z","geo":{"geometry":{"coordinates":[96.1868663,16.8213298],"type":"Point"},"placekey":"@cc5-y88-n89","address":{"country_code":"MM","formatted_address":"Thuwunna, R5CP+GPG, ရန်ကုန်, Myanmar (Burma)","locality":"ရန်ကုန်","region":"ရန်ကုန်တိုင်းဒေသကြီး"}},"labels":["soccer","sport"],"duration":0,"start_local":"2024-07-09T16:00:00","end":"2024-07-09T09:30:00Z","end_local":"2024-07-09T16:00:00","updated":"2024-06-30T06:08:21Z"},{"title":"National League - ISPE vs Mahar United","description":"Sourced from predicthq.com","category":"sports","start":"2024-07-08T09:00:00Z","geo":{"geometry":{"coordinates":[96.1271862,16.8471765],"type":"Point"},"placekey":"@cc5-yd7-2zf","address":{"country_code":"MM","formatted_address":"Yangon.Insein Road, Ward 12, Hlaing Township Near Than Lan Bus Stop, Insein Rd, Yangon, Myanmar (Burma)","locality":"Yangon","region":"Yangon Region"}},"labels":["soccer","sport"],"duration":0,"start_local":"2024-07-08T15:30:00","end":"2024-07-08T09:00:00Z","end_local":"2024-07-08T15:30:00","updated":"2024-06-21T13:11:12Z"},{"title":"National League - Hantharwady United vs Dagon Port","description":"Sourced from predicthq.com","category":"sports","start":"2024-07-07T09:30:00Z","geo":{"geometry":{"coordinates":[96.1868663,16.8213298],"type":"Point"},"placekey":"@cc5-y88-n89","address":{"country_code":"MM","formatted_address":"Thuwunna, R5CP+GPG, ရန်ကုန်, Myanmar (Burma)","locality":"ရန်ကုန်","region":"ရန်ကုန်တိုင်းဒေသကြီး"}},"labels":["soccer","sport"],"duration":0,"start_local":"2024-07-07T16:00:00","end":"2024-07-07T09:30:00Z","end_local":"2024-07-07T16:00:00","updated":"2024-06-21T13:22:40Z"},{"title":"National League - Ayeyawady United vs Yadanarbon","description":"Sourced from predicthq.com","category":"sports","start":"2024-07-07T09:00:00Z","geo":{"geometry":{"coordinates":[94.73412573337555,16.785292849544813],"type":"Point"},"placekey":"@cc6-4r8-zj9","address":{"country_code":"MM","formatted_address":"QPPM+79H, Pathein, Myanmar (Burma)","locality":"Pathein","region":"Ayeyarwady"}},"labels":["soccer","sport"],"duration":0,"start_local":"2024-07-07T15:30:00","end":"2024-07-07T09:00:00Z","end_local":"2024-07-07T15:30:00","updated":"2024-06-21T16:46:59Z"},{"title":"National League - Shan United vs Myawady","description":"Sourced from predicthq.com","category":"sports","start":"2024-07-07T09:00:00Z","geo":{"geometry":{"coordinates":[97.0380239,20.7784505],"type":"Point"},"placekey":"@cc9-677-hqz","address":{"country_code":"MM","formatted_address":"Q2HQ+96C, Taunggyi, Myanmar (Burma)","locality":"Taunggyi","region":"Shan"}},"labels":["soccer","sport"],"duration":0,"start_local":"2024-07-07T15:30:00","end":"2024-07-07T09:00:00Z","end_local":"2024-07-07T15:30:00","updated":"2024-06-21T16:50:03Z"},{"title":"National League - Dagon Star United vs Thitsar Arman","description":"Sourced from predicthq.com","category":"sports","start":"2024-07-06T09:30:00Z","geo":{"geometry":{"coordinates":[96.1868663,16.8213298],"type":"Point"},"placekey":"@cc5-y88-n89","address":{"country_code":"MM","formatted_address":"Thuwunna, R5CP+GPG, ရန်ကုန်, Myanmar (Burma)","locality":"ရန်ကုန်","region":"ရန်ကုန်တိုင်းဒေသကြီး"}},"labels":["soccer","sport"],"duration":0,"start_local":"2024-07-06T16:00:00","end":"2024-07-06T09:30:00Z","end_local":"2024-07-06T16:00:00","updated":"2024-06-21T13:38:47Z"},{"title":"National League - Yangon United vs Rakhine United","description":"Sourced from predicthq.com","category":"sports","start":"2024-07-06T09:00:00Z","geo":{"geometry":{"coordinates":[96.1271862,16.8471765],"type":"Point"},"placekey":"@cc5-yd7-2zf","address":{"country_code":"MM","formatted_address":"Yangon.Insein Road, Ward 12, Hlaing Township Near Than Lan Bus Stop, Insein Rd, Yangon, Myanmar (Burma)","locality":"Yangon","region":"Yangon Region"}},"labels":["soccer","sport"],"duration":0,"start_local":"2024-07-06T15:30:00","end":"2024-07-06T09:00:00Z","end_local":"2024-07-06T15:30:00","updated":"2024-06-21T16:47:10Z"},{"title":"International Conference on Nano science and Nanotechnology","description":"Sourced from predicthq.com","category":"conferences","start":"2024-07-01T02:30:00Z","geo":{"geometry":{"coordinates":[96.074486,21.983022],"type":"Point"},"placekey":"@7qx-cq2-f75","address":{"country_code":"MM","formatted_address":"87th Street, Mandalay, Myanmar","locality":"Mandalay","region":"Mandalay Region"}},"labels":["conference"],"duration":118800,"start_local":"2024-07-01T09:00:00","end":"2024-07-02T11:30:00Z","end_local":"2024-07-02T18:00:00","updated":"2024-06-16T00:44:03Z"},{"title":"International Conference on Sustainable Water Management","description":"Sourced from predicthq.com","category":"conferences","start":"2024-07-01T02:30:00Z","geo":{"geometry":{"coordinates":[96.074486,21.983022],"type":"Point"},"placekey":"@7qx-cq2-f75","address":{"country_code":"MM","formatted_address":"87th Street, Mandalay, Myanmar","locality":"Mandalay","region":"Mandalay Region"}},"labels":["conference"],"duration":118800,"start_local":"2024-07-01T09:00:00","end":"2024-07-02T11:30:00Z","end_local":"2024-07-02T18:00:00","updated":"2024-06-16T00:35:22Z"},{"title":"International Conference on Cell and Tissue Science","description":"Sourced from predicthq.com","category":"conferences","start":"2024-07-01T02:30:00Z","geo":{"geometry":{"coordinates":[96.074486,21.983022],"type":"Point"},"placekey":"@7qx-cq2-f75","address":{"country_code":"MM","formatted_address":"87th Street, Mandalay, Myanmar","locality":"Mandalay","region":"Mandalay Region"}},"labels":["conference"],"duration":118800,"start_local":"2024-07-01T09:00:00","end":"2024-07-02T11:30:00Z","end_local":"2024-07-02T18:00:00","updated":"2024-06-16T00:40:23Z"},{"title":"International Hospital & Healthcare","description":"Sourced from predicthq.com","category":"expos","start":"2024-06-18T17:30:00Z","geo":{"geometry":{"coordinates":[97.036481,20.782178],"type":"Point"},"placekey":"@cc9-677-g8v","address":{"country_code":"MM","formatted_address":"Bogyoke Aung San Road, Taunggyi, Myanmar","locality":"Taunggyi","region":"Shan"}},"labels":["expo"],"duration":172799,"start_local":"2024-06-19T00:00:00","end":"2024-06-20T17:29:59Z","end_local":"2024-06-20T23:59:59","updated":"2024-05-31T23:11:07Z"},{"title":"International Hospital & Healthcare","description":"Sourced from predicthq.com","category":"expos","start":"2024-06-14T17:30:00Z","geo":{"geometry":{"coordinates":[96.170382,16.792502],"type":"Point"},"placekey":"@cc5-y9s-kfz","address":{"country_code":"MM","formatted_address":"U Aung Myat Road, Yangon, Myanmar","locality":"Yangon","region":"Yangon Region"}},"labels":["expo"],"duration":172799,"start_local":"2024-06-15T00:00:00","end":"2024-06-16T17:29:59Z","end_local":"2024-06-16T23:59:59","updated":"2024-06-30T11:59:31Z"},{"title":"AFC World Cup Qualifiers - 2nd Round - Myanmar vs Japan","description":"Sourced from predicthq.com","category":"sports","start":"2024-06-06T12:10:00Z","geo":{"geometry":{"coordinates":[96.1868663,16.8213298],"type":"Point"},"placekey":"@cc5-y88-n89","address":{"country_code":"MM","formatted_address":"Thuwunna, R5CP+GPG, ရန်ကုန်, Myanmar (Burma)","locality":"ရန်ကုန်","region":"ရန်ကုန်တိုင်းဒေသကြီး"}},"labels":["soccer","sport"],"duration":6886,"start_local":"2024-06-06T18:40:00","end":"2024-06-06T14:04:46Z","end_local":"2024-06-06T20:34:46","updated":"2024-06-06T17:18:45Z"},{"title":"International Conference on Nano science and Nanotechnology","description":"Sourced from predicthq.com","category":"conferences","start":"2024-06-01T02:30:00Z","geo":{"geometry":{"coordinates":[96.074486,21.983022],"type":"Point"},"placekey":"@7qx-cq2-f75","address":{"country_code":"MM","formatted_address":"87th Street, Mandalay, Myanmar","locality":"Mandalay","region":"Mandalay Region"}},"labels":["conference"],"duration":118800,"start_local":"2024-06-01T09:00:00","end":"2024-06-02T11:30:00Z","end_local":"2024-06-02T18:00:00","updated":"2024-05-27T04:02:30Z"},{"title":"International Conference on Cell and Tissue Science","description":"Sourced from predicthq.com","category":"conferences","start":"2024-06-01T02:30:00Z","geo":{"geometry":{"coordinates":[96.074486,21.983022],"type":"Point"},"placekey":"@7qx-cq2-f75","address":{"country_code":"MM","formatted_address":"87th Street, Mandalay, Myanmar","locality":"Mandalay","region":"Mandalay Region"}},"labels":["conference"],"duration":118800,"start_local":"2024-06-01T09:00:00","end":"2024-06-02T11:30:00Z","end_local":"2024-06-02T18:00:00","updated":"2024-05-27T03:59:01Z"},{"title":"International Conference on Sustainable Water Management","description":"Sourced from predicthq.com","category":"conferences","start":"2024-06-01T02:30:00Z","geo":{"geometry":{"coordinates":[96.074486,21.983022],"type":"Point"},"placekey":"@7qx-cq2-f75","address":{"country_code":"MM","formatted_address":"87th Street, Mandalay, Myanmar","locality":"Mandalay","region":"Mandalay Region"}},"labels":["conference"],"duration":118800,"start_local":"2024-06-01T09:00:00","end":"2024-06-02T11:30:00Z","end_local":"2024-06-02T18:00:00","updated":"2024-06-01T01:25:48Z"},{"title":"World Education Expo Myanmar","description":"Sourced from predicthq.com","category":"expos","start":"2024-05-24T17:30:00Z","geo":{"geometry":{"coordinates":[96.159629,16.770262],"type":"Point"},"placekey":"@cc5-yw2-zzz","address":{"country_code":"MM","formatted_address":"Strand Road, Yangon, Myanmar","locality":"Yangon","region":"Yangon Region"}},"labels":["expo"],"duration":172799,"start_local":"2024-05-25T00:00:00","end":"2024-05-26T17:29:59Z","end_local":"2024-05-26T23:59:59","updated":"2024-05-28T01:39:23Z"},{"title":"World Education Expo Myanmar","description":"Sourced from predicthq.com","category":"expos","start":"2024-05-20T17:30:00Z","geo":{"geometry":{"coordinates":[96.105626,21.88992],"type":"Point"},"placekey":"@7qx-cn5-z4v","address":{"country_code":"MM","formatted_address":"သိပ္ပံလမ်း, Mandalay, Myanmar","locality":"Mandalay","region":"Mandalay Region"}},"labels":["expo"],"duration":172799,"start_local":"2024-05-21T00:00:00","end":"2024-05-22T17:29:59Z","end_local":"2024-05-22T23:59:59","updated":"2024-05-27T05:53:04Z"},{"title":"Logmat Myanmar","description":"Sourced from predicthq.com","category":"expos","start":"2024-05-15T17:30:00Z","geo":{"geometry":{"coordinates":[96.151795,16.843536],"type":"Point"},"placekey":"@cc5-y82-3wk","address":{"country_code":"MM","formatted_address":"37 Kabar Aye Pagoda Rd, Yangon 11061, Myanmar (Burma)","postcode":"11061","locality":"Yangon","region":"Yangon Region"}},"labels":["expo"],"duration":259199,"start_local":"2024-05-16T00:00:00","end":"2024-05-18T17:29:59Z","end_local":"2024-05-18T23:59:59","updated":"2024-06-05T11:14:54Z"},{"title":"Compack Myanmar","description":"Sourced from predicthq.com","category":"expos","start":"2024-05-15T17:30:00Z","geo":{"geometry":{"coordinates":[96.151795,16.843536],"type":"Point"},"placekey":"@cc5-y82-3wk","address":{"country_code":"MM","formatted_address":"37 Kabar Aye Pagoda Rd, Yangon 11061, Myanmar (Burma)","postcode":"11061","locality":"Yangon","region":"Yangon Region"}},"labels":["expo"],"duration":259199,"start_local":"2024-05-16T00:00:00","end":"2024-05-18T17:29:59Z","end_local":"2024-05-18T23:59:59","updated":"2024-06-05T08:25:59Z"},{"title":"Complast Myanmar","description":"Sourced from predicthq.com - Complast Myanmar is an exceptional expo event that brings together industry leaders, innovators, and experts in the plastic, packaging, and rubber sectors, providing a platform for networking, knowledge exchange, and showcasing the latest advancements and technologies in the field. With a focus on sustainability and growth, this event offers an immersive experience, featuring a wide range of exhibits, insightful seminars, and interactive demonstrations for professionals seeking to explore cutting-edge solutions and opportunities within the industry.","category":"expos","start":"2024-05-15T17:30:00Z","geo":{"geometry":{"coordinates":[96.151795,16.843536],"type":"Point"},"placekey":"@cc5-y82-3wk","address":{"country_code":"MM","formatted_address":"37 Kabar Aye Pagoda Rd, Yangon 11061, Myanmar (Burma)","postcode":"11061","locality":"Yangon","region":"Yangon Region"}},"labels":["expo"],"duration":259199,"start_local":"2024-05-16T00:00:00","end":"2024-05-18T17:29:59Z","end_local":"2024-05-18T23:59:59","updated":"2024-06-04T22:33:29Z"},{"title":"International Conference on Nano science and Nanotechnology","description":"Sourced from predicthq.com","category":"conferences","start":"2024-05-01T02:30:00Z","geo":{"geometry":{"coordinates":[96.074486,21.983022],"type":"Point"},"placekey":"@7qx-cq2-f75","address":{"country_code":"MM","formatted_address":"87th Street, Mandalay, Myanmar","locality":"Mandalay","region":"Mandalay Region"}},"labels":["conference"],"duration":118800,"start_local":"2024-05-01T09:00:00","end":"2024-05-02T11:30:00Z","end_local":"2024-05-02T18:00:00","updated":"2024-06-05T12:22:43Z"},{"title":"International Conference on Cell and Tissue Science","description":"Sourced from predicthq.com","category":"conferences","start":"2024-05-01T02:30:00Z","geo":{"geometry":{"coordinates":[96.074486,21.983022],"type":"Point"},"placekey":"@7qx-cq2-f75","address":{"country_code":"MM","formatted_address":"87th Street, Mandalay, Myanmar","locality":"Mandalay","region":"Mandalay Region"}},"labels":["conference"],"duration":118800,"start_local":"2024-05-01T09:00:00","end":"2024-05-02T11:30:00Z","end_local":"2024-05-02T18:00:00","updated":"2024-06-05T02:36:54Z"}]