[{"title":"Mongolia Mining","description":"Sourced from predicthq.com - The Mongolia Mining expo will feature traditional mining and emerging oil industries of Mongolia with exhibitors and visitors representing the industry's major companies and the largest number of professionals. In addition, the organizing committee will hold seminars with guest speakers from the Government and its agencies, academic scholars, business professionals covering topics including the Government policy on mineral resource and adapted new laws, mining and infrastructure projects of Mongolia, the trend and forecast of the industry, and more.","category":"expos","start":"2024-10-01T16:00:00Z","geo":{"geometry":{"coordinates":[106.784622,47.854458],"type":"Point"},"placekey":"@5m7-z9k-ysq","address":{"country_code":"MN","formatted_address":"VQ3M+QQG, Ulaanbaatar 17121, Mongolia","postcode":"17121","locality":"Ulaanbaatar","region":"Ulaanbaatar"}},"labels":["education","expo","technology"],"duration":259199,"start_local":"2024-10-02T00:00:00","end":"2024-10-04T15:59:59Z","end_local":"2024-10-04T23:59:59","updated":"2024-07-03T14:15:57Z"},{"title":"ULAANBAATAR-PARTNERSHIP","description":"Sourced from predicthq.com - International Trade Fair","category":"expos","start":"2024-09-25T16:00:00Z","geo":{"geometry":{"coordinates":[106.884056,47.8937966],"type":"Point"},"placekey":"@5m7-wyh-nwk","address":{"country_code":"MN","formatted_address":"Chinggis Khan Avenue, 17043, Ulaanbaatar, Mongolia","locality":"Ulaanbaatar","postcode":"17043","region":"Ulaanbaatar"}},"labels":["expo","product"],"duration":345599,"start_local":"2024-09-26T00:00:00","end":"2024-09-29T15:59:59Z","end_local":"2024-09-29T23:59:59","updated":"2024-06-11T00:41:56Z"},{"title":"BARILGA EXPO - International Construction Exhibition","description":"Sourced from predicthq.com","category":"expos","start":"2024-09-05T16:00:00Z","geo":{"geometry":{"coordinates":[106.784622,47.854458],"type":"Point"},"placekey":"@5m7-z9k-ysq","address":{"country_code":"MN","formatted_address":"VQ3M+QQG, Ulaanbaatar 17121, Mongolia","postcode":"17121","locality":"Ulaanbaatar","region":"Ulaanbaatar"}},"labels":["expo"],"duration":259199,"start_local":"2024-09-06T00:00:00","end":"2024-09-08T15:59:59Z","end_local":"2024-09-08T23:59:59","updated":"2024-06-03T21:07:53Z"},{"title":"Mongolia International Import Fair","description":"Sourced from predicthq.com","category":"expos","start":"2024-08-23T01:00:00Z","geo":{"geometry":{"coordinates":[106.885273,47.894014],"type":"Point"},"placekey":"@5m7-wyh-nwk","address":{"country_code":"MN","formatted_address":"VVVP+J6G, Ulaanbaatar, Mongolia","locality":"Ulaanbaatar","region":"Ulaanbaatar"}},"labels":["expo"],"duration":205200,"start_local":"2024-08-23T09:00:00","end":"2024-08-25T10:00:00Z","end_local":"2024-08-25T18:00:00","updated":"2024-06-01T06:12:07Z"},{"title":"Conference of the Asian Concrete Federation","description":"Sourced from predicthq.com","category":"conferences","start":"2024-08-15T01:00:00Z","geo":{"geometry":{"coordinates":[106.9207759,47.9204981],"type":"Point"},"placekey":"@5m7-wpt-4qf","address":{"country_code":"MN","formatted_address":"Prime Minister A.Amar St 15, Ulaanbaatar 14200, Mongolia","postcode":"14200","locality":"Ulaanbaatar","region":"Ulaanbaatar"}},"labels":["conference"],"duration":291600,"start_local":"2024-08-15T09:00:00","end":"2024-08-18T10:00:00Z","end_local":"2024-08-18T18:00:00","updated":"2024-06-01T02:40:43Z"},{"title":"Mongolia Sunrise to Sunset","description":"Sourced from predicthq.com","category":"sports","start":"2024-08-13T20:30:00Z","geo":{"geometry":{"coordinates":[100.1612114,50.437979],"type":"Point"},"placekey":"@5kf-dqx-qfz","address":{"country_code":"MN","formatted_address":"Hatgal, Khovsgol, Mongolia","locality":"Hatgal","region":"Khovsgol"}},"labels":["marathon","outdoor-sports","running","sport"],"duration":0,"start_local":"2024-08-14T04:30:00","end":"2024-08-13T20:30:00Z","end_local":"2024-08-14T04:30:00","updated":"2024-07-03T04:35:33Z"},{"title":"Ride","description":"Sourced from predicthq.com","category":"concerts","start":"2024-07-31T11:00:00Z","geo":{"geometry":{"coordinates":[106.79305685468478,47.84756330164954],"type":"Point"},"placekey":"@5m7-z9m-6zf","address":{"country_code":"MN","formatted_address":"Steppe Arena, Ulaanbaatar 17101, Mongolia","postcode":"17101","locality":"Ulaanbaatar","region":"Ulaanbaatar"}},"labels":["concert","music"],"duration":0,"start_local":"2024-07-31T19:00:00","end":"2024-07-31T11:00:00Z","end_local":"2024-07-31T19:00:00","updated":"2024-06-11T02:17:27Z"},{"title":"ARA FESTIVAL","description":"Sourced from predicthq.com","category":"festivals","start":"2024-07-12T16:00:00Z","geo":{"geometry":{"coordinates":[107.1403707,47.9269946],"type":"Point"},"placekey":"@5m7-wt7-835","address":{"country_code":"MN","formatted_address":"Hotel mongolia, Gachuurt, Ulaanbaatar, Mongolia","locality":"Ulaanbaatar"}},"labels":["festival","music"],"duration":172799,"start_local":"2024-07-13T00:00:00","end":"2024-07-14T15:59:59Z","end_local":"2024-07-14T23:59:59","updated":"2024-06-04T01:53:20Z"},{"title":"AALNA Annual Conference","description":"Sourced from predicthq.com","category":"conferences","start":"2024-07-11T16:00:00Z","geo":{"geometry":{"coordinates":[106.922806,47.918826],"type":"Point"},"placekey":"@5m7-wpt-2ff","address":{"country_code":"MN","formatted_address":"14200, Ulaanbaatar, Mongolia","locality":"Ulaanbaatar","postcode":"14200","region":"Ulaanbaatar"}},"labels":["conference"],"duration":259199,"start_local":"2024-07-12T00:00:00","end":"2024-07-14T15:59:59Z","end_local":"2024-07-14T23:59:59","updated":"2024-06-01T05:40:40Z"},{"title":"Mongolia Action Asia 3 day ultra marathon","description":"Sourced from predicthq.com","category":"sports","start":"2024-07-05T23:00:00Z","geo":{"geometry":{"coordinates":[106.9155007,47.9220509],"type":"Point"},"placekey":"@5m7-xdp-r49","address":{"country_code":"MN","formatted_address":"15160, Ulaanbaatar, Mongolia","locality":"Ulaanbaatar","postcode":"15160","region":"Ulaanbaatar"}},"labels":["marathon","outdoor-sports","running","sport"],"duration":0,"start_local":"2024-07-06T07:00:00","end":"2024-07-05T23:00:00Z","end_local":"2024-07-06T07:00:00","updated":"2024-06-02T00:43:42Z"},{"title":"International Conference on Sustainable Water Management","description":"Sourced from predicthq.com","category":"conferences","start":"2024-07-01T01:00:00Z","geo":{"geometry":{"coordinates":[106.901413,47.92192],"type":"Point"},"placekey":"@5m7-xdp-h3q","address":{"country_code":"MN","formatted_address":"Sambuu St 24 5th Horoo, Ulaanbaatar 15141, Mongolia","postcode":"15141","locality":"Ulaanbaatar","region":"Ulaanbaatar"}},"labels":["conference"],"duration":118800,"start_local":"2024-07-01T09:00:00","end":"2024-07-02T10:00:00Z","end_local":"2024-07-02T18:00:00","updated":"2024-06-16T01:02:52Z"},{"title":"International Conference on Cell and Tissue Science","description":"Sourced from predicthq.com","category":"conferences","start":"2024-07-01T01:00:00Z","geo":{"geometry":{"coordinates":[106.901413,47.92192],"type":"Point"},"placekey":"@5m7-xdp-h3q","address":{"country_code":"MN","formatted_address":"Sambuu St 24 5th Horoo, Ulaanbaatar 15141, Mongolia","postcode":"15141","locality":"Ulaanbaatar","region":"Ulaanbaatar"}},"labels":["conference"],"duration":118800,"start_local":"2024-07-01T09:00:00","end":"2024-07-02T10:00:00Z","end_local":"2024-07-02T18:00:00","updated":"2024-06-16T00:40:03Z"},{"title":"International Conference on Nano science and Nanotechnology","description":"Sourced from predicthq.com","category":"conferences","start":"2024-06-30T16:00:00Z","geo":{"geometry":{"coordinates":[106.901413,47.92192],"type":"Point"},"placekey":"@5m7-xdp-h3q","address":{"country_code":"MN","formatted_address":"Sambuu St 24 5th Horoo, Ulaanbaatar 15141, Mongolia","postcode":"15141","locality":"Ulaanbaatar","region":"Ulaanbaatar"}},"labels":["conference"],"duration":172799,"start_local":"2024-07-01T00:00:00","end":"2024-07-02T15:59:59Z","end_local":"2024-07-02T23:59:59","updated":"2024-07-02T15:14:52Z"},{"title":"Election for Ulsyn Ikh Khural (Mongolian State Great Hural)","description":"Sourced from predicthq.com","category":"politics","start":"2024-06-28T00:00:00Z","geo":{"geometry":{"coordinates":[103.846656,46.862496],"type":"Point"},"address":{"country_code":"MN","formatted_address":"Mongolia"}},"labels":["election","parliament","politics"],"duration":86399,"start_local":"2024-06-28T00:00:00","end":"2024-06-28T23:59:59Z","end_local":"2024-06-28T23:59:59","updated":"2024-06-21T16:17:44Z"},{"title":"Friendlies - Friendlies 3 - Mongolia vs Cambodia","description":"Sourced from predicthq.com","category":"sports","start":"2024-06-11T09:00:00Z","geo":{"geometry":{"coordinates":[106.916111,47.9],"type":"Point"},"placekey":"@5m7-wyf-s3q","address":{"country_code":"MN","formatted_address":"WW28+27R, Ulaanbaatar 17011, Mongolia","postcode":"17011","locality":"Ulaanbaatar","region":"Ulaanbaatar"}},"labels":["soccer","sport"],"duration":0,"start_local":"2024-06-11T17:00:00","end":"2024-06-11T09:00:00Z","end_local":"2024-06-11T17:00:00","updated":"2024-06-11T03:05:21Z"},{"title":"Mongolian Miles for a Cure","description":"Sourced from predicthq.com","category":"sports","start":"2024-06-09T16:00:00Z","geo":{"geometry":{"coordinates":[114.5356247,48.0951271],"type":"Point"},"placekey":"@5hw-38d-kzz","address":{"country_code":"MN","formatted_address":"Чойбалсан, Дорнод, Mongolia","locality":"Чойбалсан","region":"Дорнод"}},"labels":["outdoor-sports","running","sport"],"duration":86399,"start_local":"2024-06-10T00:00:00","end":"2024-06-10T15:59:59Z","end_local":"2024-06-10T23:59:59","updated":"2024-06-10T01:03:39Z"},{"title":"Expo Mongolia (ehem. Future Mongolia)","description":"Sourced from predicthq.com - International Mining & Multi Sector Trade Fair","category":"expos","start":"2024-06-04T16:00:00Z","geo":{"geometry":{"coordinates":[106.884056,47.8937966],"type":"Point"},"placekey":"@5m7-wyh-nwk","address":{"country_code":"MN","formatted_address":"Chinggis Khan Avenue, 17043, Ulaanbaatar, Mongolia","locality":"Ulaanbaatar","postcode":"17043","region":"Ulaanbaatar"}},"labels":["environment","expo","science","technology"],"duration":259199,"start_local":"2024-06-05T00:00:00","end":"2024-06-07T15:59:59Z","end_local":"2024-06-07T23:59:59","updated":"2024-06-20T16:00:55Z"},{"title":"International Conference on Sustainable Water Management","description":"Sourced from predicthq.com","category":"conferences","start":"2024-06-01T01:00:00Z","geo":{"geometry":{"coordinates":[106.901413,47.92192],"type":"Point"},"placekey":"@5m7-xdp-h3q","address":{"country_code":"MN","formatted_address":"Sambuu St 24 5th Horoo, Ulaanbaatar 15141, Mongolia","postcode":"15141","locality":"Ulaanbaatar","region":"Ulaanbaatar"}},"labels":["conference"],"duration":118800,"start_local":"2024-06-01T09:00:00","end":"2024-06-02T10:00:00Z","end_local":"2024-06-02T18:00:00","updated":"2024-05-31T23:14:36Z"},{"title":"International Conference on Cell and Tissue Science","description":"Sourced from predicthq.com","category":"conferences","start":"2024-06-01T01:00:00Z","geo":{"geometry":{"coordinates":[106.901413,47.92192],"type":"Point"},"placekey":"@5m7-xdp-h3q","address":{"country_code":"MN","formatted_address":"Sambuu St 24 5th Horoo, Ulaanbaatar 15141, Mongolia","postcode":"15141","locality":"Ulaanbaatar","region":"Ulaanbaatar"}},"labels":["conference"],"duration":118800,"start_local":"2024-06-01T09:00:00","end":"2024-06-02T10:00:00Z","end_local":"2024-06-02T18:00:00","updated":"2024-06-03T19:32:55Z"},{"title":"International Conference on Nano science and Nanotechnology","description":"Sourced from predicthq.com","category":"conferences","start":"2024-06-01T01:00:00Z","geo":{"geometry":{"coordinates":[106.901413,47.92192],"type":"Point"},"placekey":"@5m7-xdp-h3q","address":{"country_code":"MN","formatted_address":"Sambuu St 24 5th Horoo, Ulaanbaatar 15141, Mongolia","postcode":"15141","locality":"Ulaanbaatar","region":"Ulaanbaatar"}},"labels":["conference"],"duration":118800,"start_local":"2024-06-01T09:00:00","end":"2024-06-02T10:00:00Z","end_local":"2024-06-02T18:00:00","updated":"2024-05-31T23:02:23Z"},{"title":"International Conference on Nano science and Nanotechnology","description":"Sourced from predicthq.com","category":"conferences","start":"2024-05-01T01:00:00Z","geo":{"geometry":{"coordinates":[106.901413,47.92192],"type":"Point"},"placekey":"@5m7-xdp-h3q","address":{"country_code":"MN","formatted_address":"Sambuu St 24 5th Horoo, Ulaanbaatar 15141, Mongolia","postcode":"15141","locality":"Ulaanbaatar","region":"Ulaanbaatar"}},"labels":["conference"],"duration":118800,"start_local":"2024-05-01T09:00:00","end":"2024-05-02T10:00:00Z","end_local":"2024-05-02T18:00:00","updated":"2024-06-05T12:23:51Z"},{"title":"International Conference on Sustainable Water Management","description":"Sourced from predicthq.com","category":"conferences","start":"2024-05-01T01:00:00Z","geo":{"geometry":{"coordinates":[106.901413,47.92192],"type":"Point"},"placekey":"@5m7-xdp-h3q","address":{"country_code":"MN","formatted_address":"Sambuu St 24 5th Horoo, Ulaanbaatar 15141, Mongolia","postcode":"15141","locality":"Ulaanbaatar","region":"Ulaanbaatar"}},"labels":["conference"],"duration":118800,"start_local":"2024-05-01T09:00:00","end":"2024-05-02T10:00:00Z","end_local":"2024-05-02T18:00:00","updated":"2024-06-05T14:29:28Z"},{"title":"International Conference on Cell and Tissue Science","description":"Sourced from predicthq.com","category":"conferences","start":"2024-05-01T01:00:00Z","geo":{"geometry":{"coordinates":[106.901413,47.92192],"type":"Point"},"placekey":"@5m7-xdp-h3q","address":{"country_code":"MN","formatted_address":"Sambuu St 24 5th Horoo, Ulaanbaatar 15141, Mongolia","postcode":"15141","locality":"Ulaanbaatar","region":"Ulaanbaatar"}},"labels":["conference"],"duration":118800,"start_local":"2024-05-01T09:00:00","end":"2024-05-02T10:00:00Z","end_local":"2024-05-02T18:00:00","updated":"2024-06-03T18:28:59Z"},{"title":"Build Mongolia","description":"Sourced from predicthq.com - 'Build Mongolia' is an immersive expo event held at Steppe Arena, showcasing the latest innovations and advancements in the fields of construction, architecture, and urban development. It offers a unique platform for industry professionals and enthusiasts to connect, collaborate, and explore cutting-edge technologies and sustainable solutions for building the future.","category":"expos","start":"2024-04-25T16:00:00Z","geo":{"geometry":{"coordinates":[106.793059,47.847555],"type":"Point"},"placekey":"@5m7-z9m-6zf","address":{"country_code":"MN","formatted_address":"Zuunmod Road, 17101, Ulaanbaatar, Mongolia","locality":"Ulaanbaatar","postcode":"17101","region":"Ulaanbaatar"}},"labels":["expo"],"duration":259199,"start_local":"2024-04-26T00:00:00","end":"2024-04-28T15:59:59Z","end_local":"2024-04-28T23:59:59","updated":"2024-06-05T10:11:52Z"},{"title":"God calls us","description":"Sourced from predicthq.com - God calls us to come together, connect, and grow in faith through worship, fellowship, and community.","category":"conferences","start":"2024-04-24T02:00:00Z","geo":{"geometry":{"coordinates":[106.861355,47.903659],"type":"Point"},"placekey":"@5m7-xff-c5z","address":{"country_code":"MN","formatted_address":"17062, Ulaanbaatar, Mongolia","locality":"Ulaanbaatar","postcode":"17062","region":"Ulaanbaatar"}},"labels":["conference","religion"],"duration":7200,"start_local":"2024-04-24T10:00:00","end":"2024-04-24T04:00:00Z","end_local":"2024-04-24T12:00:00","updated":"2024-06-04T22:14:40Z"},{"title":"ICIED : International Conference on Innovation and Entrepreneurship Development","description":"Sourced from predicthq.com","category":"conferences","start":"2024-04-18T01:00:00Z","geo":{"geometry":{"coordinates":[106.924381,47.922046],"type":"Point"},"placekey":"@5m7-wpt-5pv","address":{"country_code":"MN","formatted_address":"Бага тойруу, 14191, Ulaanbaatar, Mongolia","locality":"Ulaanbaatar","postcode":"14191","region":"Ulaanbaatar"}},"labels":["conference"],"duration":118800,"start_local":"2024-04-18T09:00:00","end":"2024-04-19T10:00:00Z","end_local":"2024-04-19T18:00:00","updated":"2024-06-05T13:23:05Z"},{"title":"Basketball Champions League Asia Qualifiers - Qualifying Play-offs - Hi-Tech vs Matrix Deers","description":"Sourced from predicthq.com","category":"sports","start":"2024-04-07T12:00:00Z","geo":{"geometry":{"coordinates":[106.89915739976705,47.90466807986009],"type":"Point"},"placekey":"@5m7-wyc-xh5","address":{"country_code":"MN","formatted_address":"Дундгол гудамж Уранган групп, Ulaanbaatar 16020, Mongolia","postcode":"16020","locality":"Ulaanbaatar","region":"Ulaanbaatar"}},"labels":["basketball","sport"],"duration":0,"start_local":"2024-04-07T20:00:00","end":"2024-04-07T12:00:00Z","end_local":"2024-04-07T20:00:00","updated":"2024-06-12T10:21:50Z"},{"title":"Basketball Champions League Asia Qualifiers - Qualifying Play-offs - Prawira Bandung vs Ulaanbaatar Xac Bronchos","description":"Sourced from predicthq.com","category":"sports","start":"2024-04-07T09:30:00Z","geo":{"geometry":{"coordinates":[106.89915739976705,47.90466807986009],"type":"Point"},"placekey":"@5m7-wyc-xh5","address":{"country_code":"MN","formatted_address":"Дундгол гудамж Уранган групп, Ulaanbaatar 16020, Mongolia","postcode":"16020","locality":"Ulaanbaatar","region":"Ulaanbaatar"}},"labels":["basketball","sport"],"duration":0,"start_local":"2024-04-07T17:30:00","end":"2024-04-07T09:30:00Z","end_local":"2024-04-07T17:30:00","updated":"2024-06-11T21:48:10Z"},{"title":"Ulaanbaatar Building","description":"Sourced from predicthq.com","category":"expos","start":"2024-03-27T16:00:00Z","geo":{"geometry":{"coordinates":[106.885273,47.894014],"type":"Point"},"placekey":"@5m7-wyh-nwk","address":{"country_code":"MN","formatted_address":"VVVP+J6G, Ulaanbaatar, Mongolia","locality":"Ulaanbaatar","region":"Ulaanbaatar"}},"labels":["expo"],"duration":950399,"start_local":"2024-03-28T00:00:00","end":"2024-04-07T15:59:59Z","end_local":"2024-04-07T23:59:59","updated":"2024-06-05T05:04:42Z"}]