[{"title":"Run Saipan Half Marathon","description":"Sourced from predicthq.com","category":"sports","start":"2024-08-30T14:00:00Z","geo":{"geometry":{"coordinates":[145.7195969,15.2160824],"type":"Point"},"placekey":"@9f2-gk8-ysq","address":{"country_code":"MP","formatted_address":"Micro Beach Road, American Memorial Park, MP 96950, United States of America","locality":"American Memorial Park","postcode":"96950","region":"Saipan"}},"labels":["marathon","outdoor-sports","running","sport"],"duration":86399,"start_local":"2024-08-31T00:00:00","end":"2024-08-31T13:59:59Z","end_local":"2024-08-31T23:59:59","updated":"2024-06-17T07:43:08Z"},{"title":"How The Top 1% Of Leaders Manage Their Time Like Clockwork Using T5 System","description":"Sourced from predicthq.com - You will learn essential skills that will increase your productivity so you have more margin in your life and business.","category":"conferences","start":"2024-07-07T10:00:00Z","geo":{"geometry":{"coordinates":[145.7467259,15.1850483],"type":"Point"},"placekey":"@9f2-gjp-rhq","address":{"country_code":"MP","formatted_address":"Papago, MP 96950, United States of America","locality":"Papago","postcode":"96950","region":"Saipan"}},"labels":["business","conference"],"duration":3600,"start_local":"2024-07-07T20:00:00","end":"2024-07-07T11:00:00Z","end_local":"2024-07-07T21:00:00","updated":"2024-06-20T09:44:33Z"},{"title":"How The Top 1% Of Leaders Manage Their Time Like Clockwork Using T5 System","description":"Sourced from predicthq.com - You will learn essential skills that will increase your productivity so you have more margin in your life and business.","category":"conferences","start":"2024-06-19T09:00:00Z","geo":{"geometry":{"coordinates":[145.7467259,15.1850483],"type":"Point"},"placekey":"@9f2-gjp-rhq","address":{"country_code":"MP","formatted_address":"Papago, MP 96950, United States of America","locality":"Papago","postcode":"96950","region":"Saipan"}},"labels":["business","conference"],"duration":3600,"start_local":"2024-06-19T19:00:00","end":"2024-06-19T10:00:00Z","end_local":"2024-06-19T20:00:00","updated":"2024-06-13T01:05:57Z"},{"title":"How The Top 1% Of Leaders Manage Their Time Like Clockwork Using T5 System","description":"Sourced from predicthq.com - You will learn essential skills that will increase your productivity so you have more margin in your life and business.","category":"conferences","start":"2024-06-11T08:00:00Z","geo":{"geometry":{"coordinates":[145.7467259,15.1850483],"type":"Point"},"placekey":"@9f2-gjp-rhq","address":{"country_code":"MP","formatted_address":"Papago, MP 96950, United States of America","locality":"Papago","postcode":"96950","region":"Saipan"}},"labels":["business","conference"],"duration":3600,"start_local":"2024-06-11T18:00:00","end":"2024-06-11T09:00:00Z","end_local":"2024-06-11T19:00:00","updated":"2024-06-06T01:22:38Z"},{"title":"How The Top 1% Of Leaders Manage Their Time Like Clockwork Using T5 System","description":"Sourced from predicthq.com - You will learn essential skills that will increase your productivity so you have more margin in your life and business.","category":"conferences","start":"2024-06-02T10:00:00Z","geo":{"geometry":{"coordinates":[145.7467259,15.1850483],"type":"Point"},"placekey":"@9f2-gjp-rhq","address":{"country_code":"MP","formatted_address":"Papago, MP 96950, United States of America","locality":"Papago","postcode":"96950","region":"Saipan"}},"labels":["business","conference"],"duration":3600,"start_local":"2024-06-02T20:00:00","end":"2024-06-02T11:00:00Z","end_local":"2024-06-02T21:00:00","updated":"2024-06-12T15:44:40Z"},{"title":"10th Annual CNMI Women's Summit","description":"Sourced from predicthq.com - Get ready for a day full of empowerment, inspiration, and connection at the 10th Annual CNMI Women's Summit!","category":"conferences","start":"2024-05-16T21:30:00Z","geo":{"geometry":{"coordinates":[145.7052761,15.1590713],"type":"Point"},"placekey":"@9f2-gjn-hh5","address":{"country_code":"MP","formatted_address":"Beach Road, Susupe, MP 96950, United States of America","locality":"Susupe","postcode":"96950","region":"Saipan"}},"labels":["community","conference"],"duration":23400,"start_local":"2024-05-17T07:30:00","end":"2024-05-17T04:00:00Z","end_local":"2024-05-17T14:00:00","updated":"2024-06-05T06:45:07Z"},{"title":"How The Top 1% Of Leaders Manage Their Time Like Clockwork Using T5 System","description":"Sourced from predicthq.com - You will learn essential skills that will increase your productivity so you have more margin in your life and business.","category":"conferences","start":"2024-05-15T09:00:00Z","geo":{"geometry":{"coordinates":[145.7467259,15.1850483],"type":"Point"},"placekey":"@9f2-gjp-rhq","address":{"country_code":"MP","formatted_address":"Papago, MP 96950, United States of America","locality":"Papago","postcode":"96950","region":"Saipan"}},"labels":["business","conference"],"duration":3600,"start_local":"2024-05-15T19:00:00","end":"2024-05-15T10:00:00Z","end_local":"2024-05-15T20:00:00","updated":"2024-06-05T02:33:11Z"},{"title":"How The Top 1% Of Leaders Manage Their Time Like Clockwork Using T5 System","description":"Sourced from predicthq.com - You will learn essential skills that will increase your productivity so you have more margin in your life and business.","category":"conferences","start":"2024-05-14T08:00:00Z","geo":{"geometry":{"coordinates":[145.7467259,15.1850483],"type":"Point"},"placekey":"@9f2-gjp-rhq","address":{"country_code":"MP","formatted_address":"Papago, MP 96950, United States of America","locality":"Papago","postcode":"96950","region":"Saipan"}},"labels":["business","conference"],"duration":3600,"start_local":"2024-05-14T18:00:00","end":"2024-05-14T09:00:00Z","end_local":"2024-05-14T19:00:00","updated":"2024-06-05T05:06:04Z"},{"title":"How The Top 1% Of Leaders Manage Their Time Like Clockwork Using T5 System","description":"Sourced from predicthq.com - You will learn essential skills that will increase your productivity so you have more margin in your life and business.","category":"conferences","start":"2024-05-05T10:00:00Z","geo":{"geometry":{"coordinates":[145.7467259,15.1850483],"type":"Point"},"placekey":"@9f2-gjp-rhq","address":{"country_code":"MP","formatted_address":"Papago, MP 96950, United States of America","locality":"Papago","postcode":"96950","region":"Saipan"}},"labels":["business","conference"],"duration":3600,"start_local":"2024-05-05T20:00:00","end":"2024-05-05T11:00:00Z","end_local":"2024-05-05T21:00:00","updated":"2024-06-05T06:22:09Z"},{"title":"How The Top 1% Of Leaders Manage Their Time Like Clockwork Using T5 System","description":"Sourced from predicthq.com - You will learn essential skills that will increase your productivity so you have more margin in your life and business.","category":"conferences","start":"2024-04-17T09:00:00Z","geo":{"geometry":{"coordinates":[145.7467259,15.1850483],"type":"Point"},"placekey":"@9f2-gjp-rhq","address":{"country_code":"MP","formatted_address":"Papago, MP 96950, United States of America","locality":"Papago","postcode":"96950","region":"Saipan"}},"labels":["business","conference"],"duration":3600,"start_local":"2024-04-17T19:00:00","end":"2024-04-17T10:00:00Z","end_local":"2024-04-17T20:00:00","updated":"2024-06-12T01:06:19Z"},{"title":"How The Top 1% Of Leaders Manage Their Time Like Clockwork Using T5 System","description":"Sourced from predicthq.com - You will learn essential skills that will increase your productivity so you have more margin in your life and business.","category":"conferences","start":"2024-04-07T10:00:00Z","geo":{"geometry":{"coordinates":[145.7467259,15.1850483],"type":"Point"},"placekey":"@9f2-gjp-rhq","address":{"country_code":"MP","formatted_address":"Papago, MP 96950, United States of America","locality":"Papago","postcode":"96950","region":"Saipan"}},"labels":["business","conference"],"duration":3600,"start_local":"2024-04-07T20:00:00","end":"2024-04-07T11:00:00Z","end_local":"2024-04-07T21:00:00","updated":"2024-06-12T15:39:32Z"}]