[{"title":"Le design social en Martinique ! Le design quoi ?","description":"Sourced from predicthq.com - Venez découvrir comment le design social peut impacter positivement la société martiniquaise lors de notre événement !","category":"conferences","start":"2024-09-23T18:00:00Z","geo":{"geometry":{"coordinates":[-61.02380669999999,14.6232597],"type":"Point"},"placekey":"@bs6-kds-q2k","address":{"country_code":"MQ","formatted_address":"Impasse Charpentier, 97232 Le Lamentin, Martinique, France","locality":"Le Lamentin","postcode":"97232","region":"Fort-de-France"}},"labels":["community","conference"],"duration":360000,"start_local":"2024-09-23T14:00:00","end":"2024-09-27T22:00:00Z","end_local":"2024-09-27T18:00:00","updated":"2024-06-13T00:42:47Z"},{"title":"Le Trail Denisiens","description":"Sourced from predicthq.com","category":"sports","start":"2024-09-15T11:00:00Z","geo":{"geometry":{"coordinates":[-61.132064,14.7381881],"type":"Point"},"placekey":"@bs6-k28-fj9","address":{"country_code":"MQ","formatted_address":"97250 Fonds-Saint-Denis, Martinique, France","locality":"Fonds-Saint-Denis","postcode":"97250","region":"Saint-Pierre"}},"labels":["outdoor-sports","running","sport"],"duration":0,"start_local":"2024-09-15T07:00:00","end":"2024-09-15T11:00:00Z","end_local":"2024-09-15T07:00:00","updated":"2024-06-04T01:41:33Z"},{"title":"La Ronde des Caps","description":"Sourced from predicthq.com","category":"sports","start":"2024-08-24T20:00:00Z","geo":{"geometry":{"coordinates":[-60.8810254,14.4350812],"type":"Point"},"placekey":"@bs6-hqx-cdv","address":{"country_code":"MQ","formatted_address":"97227 Sainte-Anne, Martinique, France","locality":"Sainte-Anne","postcode":"97227","region":"Le Marin"}},"labels":["outdoor-sports","running","sport"],"duration":0,"start_local":"2024-08-24T16:00:00","end":"2024-08-24T20:00:00Z","end_local":"2024-08-24T16:00:00","updated":"2024-06-04T00:59:14Z"},{"title":"Kalash","description":"Sourced from predicthq.com","category":"concerts","start":"2024-08-14T19:00:00Z","geo":{"geometry":{"coordinates":[-61.0462081,14.60335],"type":"Point"},"placekey":"@bs6-kdp-5j9","address":{"country_code":"MQ","formatted_address":"JX33+8GM, Stade d'Honneur de Dillon, Fort-de-France 97200, Martinique","postcode":"97200","locality":"Fort-de-France","region":"Fort-de-France"}},"labels":["concert","music"],"duration":0,"start_local":"2024-08-14T15:00:00","end":"2024-08-14T19:00:00Z","end_local":"2024-08-14T15:00:00","updated":"2024-06-28T22:24:22Z"},{"title":"Urban Colors Amazones","description":"Sourced from predicthq.com","category":"sports","start":"2024-08-09T21:30:00Z","geo":{"geometry":{"coordinates":[-61.0044679,14.6156116],"type":"Point"},"placekey":"@bs6-kft-49z","address":{"country_code":"MQ","formatted_address":"97232 Le Lamentin, Martinique, France","locality":"Le Lamentin","postcode":"97232","region":"Fort-de-France"}},"labels":["outdoor-sports","running","sport"],"duration":0,"start_local":"2024-08-09T17:30:00","end":"2024-08-09T21:30:00Z","end_local":"2024-08-09T17:30:00","updated":"2024-06-04T05:16:46Z"},{"title":"CAFE CYBER","description":"Sourced from predicthq.com - Rejoignez nous le 15 juillet 2024 de 8h à 9h pour un petit-déjeuner  organisé par la @LaSuiteCalifornie !","category":"conferences","start":"2024-07-15T12:00:00Z","geo":{"geometry":{"coordinates":[-61.00446789999999,14.6156116],"type":"Point"},"placekey":"@bs6-kft-49z","address":{"country_code":"MQ","formatted_address":"97232 Le Lamentin, Martinique, France","locality":"Le Lamentin","postcode":"97232","region":"Fort-de-France"}},"labels":["conference","food"],"duration":3600,"start_local":"2024-07-15T08:00:00","end":"2024-07-15T13:00:00Z","end_local":"2024-07-15T09:00:00","updated":"2024-07-04T10:57:00Z"},{"title":"Confi-dans'ciel : Un jour nouveau se lève, Brille !!","description":"Sourced from predicthq.com - Lève toi, sois éclairée car ta lumière arrive, et la gloire de l'Eternel se lève sur toi","category":"performing-arts","start":"2024-07-13T20:00:00Z","geo":{"geometry":{"coordinates":[-61.009483,14.605698],"type":"Point"},"placekey":"@bs6-kfs-h89","address":{"country_code":"MQ","formatted_address":"97232 Le Lamentin, Martinique, France","locality":"Le Lamentin","postcode":"97232","region":"Fort-de-France"}},"labels":["concert","music","performing-arts"],"duration":7200,"start_local":"2024-07-13T16:00:00","end":"2024-07-13T22:00:00Z","end_local":"2024-07-13T18:00:00","updated":"2024-06-27T08:48:50Z"},{"title":"Les grands chantiers de la Martinique vus par des «Bâtisseurs»","description":"Sourced from predicthq.com - Venez découvrir À L'IMS au Lamentin, l'histoire et l'avenir de la Martinique à travers des expériences incroyables !","category":"conferences","start":"2024-07-11T21:30:00Z","geo":{"geometry":{"coordinates":[-60.9867248,14.6272033],"type":"Point"},"placekey":"@bs6-kfj-p35","address":{"country_code":"MQ","formatted_address":"Route de Vert Pré, 97232 Le Lamentin, Martinique, France","locality":"Le Lamentin","postcode":"97232","region":"Fort-de-France"}},"labels":["business","conference"],"duration":14400,"start_local":"2024-07-11T17:30:00","end":"2024-07-12T01:30:00Z","end_local":"2024-07-11T21:30:00","updated":"2024-07-04T02:44:21Z"},{"title":"La d'Kalé","description":"Sourced from predicthq.com","category":"sports","start":"2024-07-07T11:00:00Z","geo":{"geometry":{"coordinates":[-61.1831171,14.7108415],"type":"Point"},"placekey":"@bs6-jt6-k4v","address":{"country_code":"MQ","formatted_address":"97221 Le Carbet, Martinique, France","locality":"Le Carbet","postcode":"97221","region":"Saint-Pierre"}},"labels":["outdoor-sports","running","sport"],"duration":0,"start_local":"2024-07-07T07:00:00","end":"2024-07-07T11:00:00Z","end_local":"2024-07-07T07:00:00","updated":"2024-06-03T23:55:28Z"},{"title":"Les Foulées de la Police","description":"Sourced from predicthq.com","category":"sports","start":"2024-07-06T20:00:00Z","geo":{"geometry":{"coordinates":[-61.069884,14.6060576],"type":"Point"},"placekey":"@bs6-kdr-f9f","address":{"country_code":"MQ","formatted_address":"Rue Victor Hugo, 97200 Fort-de-France, Martinique, France","locality":"Fort-de-France","postcode":"97200","region":"Fort-de-France"}},"labels":["outdoor-sports","running","sport"],"duration":0,"start_local":"2024-07-06T16:00:00","end":"2024-07-06T20:00:00Z","end_local":"2024-07-06T16:00:00","updated":"2024-06-04T01:02:48Z"},{"title":"Développement personnel pour les jeunes de 18 ans à 26 ans.","description":"Sourced from predicthq.com - Un événement pour aider les jeunes de 18 à 26 ans à développer leur potentiel et à trouver leur chemin dans la vie.","category":"conferences","start":"2024-07-05T23:00:00Z","geo":{"geometry":{"coordinates":[-61.08199889999999,14.6383726],"type":"Point"},"placekey":"@bs6-jpm-z9f","address":{"country_code":"MQ","formatted_address":"97200 Fort-de-France, Martinique, France","locality":"Fort-de-France","postcode":"97200","region":"Fort-de-France"}},"labels":["conference","religion"],"duration":10800,"start_local":"2024-07-05T19:00:00","end":"2024-07-06T02:00:00Z","end_local":"2024-07-05T22:00:00","updated":"2024-06-27T21:45:53Z"},{"title":"Accompagnement des acteurs économiques et touristiques dans un contexte de patrimoine mondial","description":"Sourced from predicthq.com - Venez découvrir comment soutenir les entreprises et les acteurs du tourisme dans la préservation du patrimoine mondial lors de notre événeme","category":"conferences","start":"2024-07-05T13:00:00Z","geo":{"geometry":{"coordinates":[-61.1774775,14.6983936],"type":"Point"},"placekey":"@bs6-jtc-t5f","address":{"country_code":"MQ","formatted_address":"Choisy, 97221 Le Carbet, Martinique, France","locality":"Le Carbet","postcode":"97221","region":"Saint-Pierre"}},"labels":["conference","outdoor"],"duration":10800,"start_local":"2024-07-05T09:00:00","end":"2024-07-05T16:00:00Z","end_local":"2024-07-05T12:00:00","updated":"2024-06-28T03:42:58Z"},{"title":"Former pour insérer : Soyez Intervenant à l'IFC","description":"Sourced from predicthq.com - Vous êtes formateur ou intervenant professionnel, venez échanger avec notre équipe pédagogique et découvrir nos locaux.","category":"conferences","start":"2024-07-05T12:00:00Z","geo":{"geometry":{"coordinates":[-61.0099765,14.6049071],"type":"Point"},"placekey":"@bs6-kfs-hkf","address":{"country_code":"MQ","formatted_address":"ZI La Lézarde, Lamentin, Martinique, France","locality":"Lamentin"}},"labels":["community","conference"],"duration":25200,"start_local":"2024-07-05T08:00:00","end":"2024-07-05T19:00:00Z","end_local":"2024-07-05T15:00:00","updated":"2024-06-27T01:45:20Z"},{"title":"Votre image de marque n'est pas que visuelle","description":"Sourced from predicthq.com - L'identité sonore de votre marque | Votre image de marque n'est pas que visuelle","category":"conferences","start":"2024-07-04T22:00:00Z","geo":{"geometry":{"coordinates":[-61.0707324,14.6036389],"type":"Point"},"placekey":"@bs6-jrg-3kf","address":{"country_code":"MQ","formatted_address":"Rue Ernest Deproge, 97200 Fort-de-France, Martinique, France","locality":"Fort-de-France","postcode":"97200","region":"Fort-de-France"}},"labels":["business","conference"],"duration":8400,"start_local":"2024-07-04T18:00:00","end":"2024-07-05T00:20:00Z","end_local":"2024-07-04T20:20:00","updated":"2024-07-05T07:28:28Z"},{"title":"Marché de la Dominique : opportunité d'affaires et d'investissement","description":"Sourced from predicthq.com - Vous souhaitez exporter en Dominique ? Venez découvrir les opportunités d'affaires en Dominique avec  Invest Dominica Authority !","category":"conferences","start":"2024-07-01T13:00:00Z","geo":{"geometry":{"coordinates":[-61.0950656947,14.6057951851],"type":"Point"},"placekey":"@bs6-jrj-brk","address":{"country_code":"MQ","formatted_address":"20 rue des Alizés\n97233 Schœlcher\nMartinique","postcode":"97233","locality":"Schœlcher","region":"Martinique"}},"labels":["business","conference"],"duration":27000,"start_local":"2024-07-01T09:00:00","end":"2024-07-01T20:30:00Z","end_local":"2024-07-01T16:30:00","updated":"2024-06-27T01:35:54Z"},{"title":"Les Foulées Saléennes","description":"Sourced from predicthq.com","category":"sports","start":"2024-06-30T20:30:00Z","geo":{"geometry":{"coordinates":[-60.973592,14.5241875],"type":"Point"},"placekey":"@bs6-kgs-zs5","address":{"country_code":"MQ","formatted_address":"97215 Rivière-Salée, Martinique, France","locality":"Rivière-Salée","postcode":"97215","region":"Le Marin"}},"labels":["outdoor-sports","running","sport"],"duration":0,"start_local":"2024-06-30T16:30:00","end":"2024-06-30T20:30:00Z","end_local":"2024-06-30T16:30:00","updated":"2024-05-27T05:44:44Z"},{"title":"Driv du Manikou","description":"Sourced from predicthq.com","category":"sports","start":"2024-06-29T04:00:00Z","geo":{"geometry":{"coordinates":[-61.0374149,14.6708831],"type":"Point"},"placekey":"@bs6-jyd-28v","address":{"country_code":"MQ","formatted_address":"97212 Saint-Joseph, Martinique, France","locality":"Saint-Joseph","postcode":"97212","region":"Fort-de-France"}},"labels":["outdoor-sports","running","sport"],"duration":86399,"start_local":"2024-06-29T00:00:00","end":"2024-06-30T03:59:59Z","end_local":"2024-06-29T23:59:59","updated":"2024-06-04T04:43:06Z"},{"title":"Comment pouvons-nous payer moins d’impôt ?","description":"Sourced from predicthq.com - Participez à notre événement pour découvrir des stratégies efficaces.","category":"conferences","start":"2024-06-28T22:00:00Z","geo":{"geometry":{"coordinates":[-61.00446789999999,14.6156116],"type":"Point"},"placekey":"@bs6-kft-49z","address":{"country_code":"MQ","formatted_address":"97232 Le Lamentin, Martinique, France","locality":"Le Lamentin","postcode":"97232","region":"Fort-de-France"}},"labels":["business","conference"],"duration":7200,"start_local":"2024-06-28T18:00:00","end":"2024-06-29T00:00:00Z","end_local":"2024-06-28T20:00:00","updated":"2024-06-13T13:06:32Z"},{"title":"PRESENTATION ITBE 2024 - INTERNATIONAL TRADE & BUSINESS EXPO","description":"Sourced from predicthq.com - Entrepreneurs du Digital et d'autres secteurs, porteurs de projet, ITBE met la Floride et l'International à votre portée.","category":"expos","start":"2024-06-28T14:00:00Z","geo":{"geometry":{"coordinates":[-61.03207,14.61841],"type":"Point"},"placekey":"@bs6-kds-f75","address":{"country_code":"MQ","formatted_address":"97232 Le Lamentin, Martinique, France","locality":"Le Lamentin","postcode":"97232","region":"Fort-de-France"}},"labels":["business","expo"],"duration":7200,"start_local":"2024-06-28T10:00:00","end":"2024-06-28T16:00:00Z","end_local":"2024-06-28T12:00:00","updated":"2024-06-20T07:50:11Z"},{"title":"Le droit & votre affaire : Les modes alternatifs de règlement des conflits","description":"Sourced from predicthq.com - Nous vous proposons, en partenariat avec l'Ordre des Avocats de Martinique, un nouveau rendez-vous juridique qui abordera différents thèmes.","category":"conferences","start":"2024-06-27T12:30:00Z","geo":{"geometry":{"coordinates":[-60.93716060000001,14.5609694],"type":"Point"},"placekey":"@bs6-kfg-9mk","address":{"country_code":"MQ","formatted_address":"D5, 97270 Saint-Esprit, Martinique, France","locality":"Saint-Esprit","postcode":"97270","region":"Le Marin"}},"labels":["business","conference"],"duration":14400,"start_local":"2024-06-27T08:30:00","end":"2024-06-27T16:30:00Z","end_local":"2024-06-27T12:30:00","updated":"2024-06-20T13:59:46Z"},{"title":"Former pour insérer : Soyez Intervenant à l'IFC","description":"Sourced from predicthq.com - Vous êtes formateur ou intervenant professionnel, venez échanger avec notre équipe pédagogique et découvrir nos locaux.","category":"conferences","start":"2024-06-26T12:00:00Z","geo":{"geometry":{"coordinates":[-61.0099765,14.6049071],"type":"Point"},"placekey":"@bs6-kfs-hkf","address":{"country_code":"MQ","formatted_address":"ZI La Lézarde, Lamentin, Martinique, France","locality":"Lamentin"}},"labels":["community","conference"],"duration":25200,"start_local":"2024-06-26T08:00:00","end":"2024-06-26T19:00:00Z","end_local":"2024-06-26T15:00:00","updated":"2024-06-16T07:35:34Z"},{"title":"Three Day Symposium Exploring the Works  of Aimé Césaire and Toni Morrison","description":"Sourced from predicthq.com - The Toni Morrison Society welcomes scholars and artists from the US, Europe,  the United Arab Emirates, and the Caribbean to Fort-de-France.","category":"conferences","start":"2024-06-24T14:00:00Z","geo":{"geometry":{"coordinates":[-61.0699546,14.6065229],"type":"Point"},"placekey":"@bs6-kdr-dy9","address":{"country_code":"MQ","formatted_address":"Rue de la Republique, 97200 Fort-de-France, Martinique, France","locality":"Fort-de-France","postcode":"97200","region":"Fort-de-France"}},"labels":["community","conference"],"duration":21600,"start_local":"2024-06-24T10:00:00","end":"2024-06-24T20:00:00Z","end_local":"2024-06-24T16:00:00","updated":"2024-06-23T03:53:49Z"},{"title":"CHIVE NOU, LAPO NOU","description":"Sourced from predicthq.com - Chive Nou, Lapo Nou: A la découverte de notre histoire capillaire et de nos savoirs en matière de soins","category":"conferences","start":"2024-06-22T20:00:00Z","geo":{"geometry":{"coordinates":[-61.0240245,14.53361],"type":"Point"},"placekey":"@bs6-kg4-tsq","address":{"country_code":"MQ","formatted_address":"Les Trois-Îlets, Le Marin, Martinique, France","locality":"Les Trois-Îlets","region":"Le Marin"}},"labels":["conference","health"],"duration":18000,"start_local":"2024-06-22T16:00:00","end":"2024-06-23T01:00:00Z","end_local":"2024-06-22T21:00:00","updated":"2024-06-13T00:55:55Z"},{"title":"Conférence : ANTICIPER LE TRAVAIL DE DEMAIN ET LA QVCT ENSEMBLE","description":"Sourced from predicthq.com - Inscrivez-vous à cette réunion qui vous permettra de vous sensibiliser à la Qualité de Vie au Travail !","category":"conferences","start":"2024-06-20T21:30:00Z","geo":{"geometry":{"coordinates":[-61.09449599999999,14.6221041],"type":"Point"},"placekey":"@bs6-jpx-k75","address":{"country_code":"MQ","formatted_address":"Rue Aubin Edmond, 97233 Schoelcher, Martinique, France","locality":"Schoelcher","postcode":"97233","region":"Fort-de-France"}},"labels":["business","conference"],"duration":5400,"start_local":"2024-06-20T17:30:00","end":"2024-06-20T23:00:00Z","end_local":"2024-06-20T19:00:00","updated":"2024-06-13T03:07:02Z"},{"title":"Elaboration de la stratégie sociale territoriale de CAP Nord Martinique","description":"Sourced from predicthq.com - C’est une démarche partenariale visant à  la mise en place d’un plan d’actions pour la réduction des inégalités sur le territoire Nord.","category":"conferences","start":"2024-06-20T12:00:00Z","geo":{"geometry":{"coordinates":[-61.011715,14.748736],"type":"Point"},"placekey":"@bs6-jy6-cyv","address":{"country_code":"MQ","formatted_address":"Rue de la Cite, 97230 Sainte-Marie, Martinique, France","locality":"Sainte-Marie","postcode":"97230","region":"La Trinité"}},"labels":["conference"],"duration":32400,"start_local":"2024-06-20T08:00:00","end":"2024-06-20T21:00:00Z","end_local":"2024-06-20T17:00:00","updated":"2024-05-30T01:15:14Z"},{"title":"CAFE CYBER","description":"Sourced from predicthq.com - ☕️ Rejoignez-nous pour un Café Cyber avec la Suite Californie ! ☕️","category":"conferences","start":"2024-06-17T12:00:00Z","geo":{"geometry":{"coordinates":[-61.00446789999999,14.6156116],"type":"Point"},"placekey":"@bs6-kft-49z","address":{"country_code":"MQ","formatted_address":"97232 Le Lamentin, Martinique, France","locality":"Le Lamentin","postcode":"97232","region":"Fort-de-France"}},"labels":["conference","food"],"duration":3600,"start_local":"2024-06-17T08:00:00","end":"2024-06-17T13:00:00Z","end_local":"2024-06-17T09:00:00","updated":"2024-06-13T00:39:44Z"},{"title":"Red Lanmanten","description":"Sourced from predicthq.com","category":"sports","start":"2024-06-09T10:30:00Z","geo":{"geometry":{"coordinates":[-61.0044679,14.6156116],"type":"Point"},"placekey":"@bs6-kft-49z","address":{"country_code":"MQ","formatted_address":"97232 Le Lamentin, Martinique, France","locality":"Le Lamentin","postcode":"97232","region":"Fort-de-France"}},"labels":["outdoor-sports","running","sport"],"duration":0,"start_local":"2024-06-09T06:30:00","end":"2024-06-09T10:30:00Z","end_local":"2024-06-09T06:30:00","updated":"2024-06-10T00:40:03Z"},{"title":"LE RÊVE DANS LA TRADITION AFRICAINE","description":"Sourced from predicthq.com - LE RÊVE DANS LA TRADITION AFRICAINE : Outils d'interprétation et portée spirituelle (Conférence en Martinique)","category":"conferences","start":"2024-06-07T22:00:00Z","geo":{"geometry":{"coordinates":[-60.983931,14.645447],"type":"Point"},"placekey":"@bs6-kfq-54v","address":{"country_code":"MQ","formatted_address":"Durocher, 97232 Le Lamentin, Martinique, France","locality":"Le Lamentin","postcode":"97232","region":"Fort-de-France"}},"labels":["community","conference"],"duration":0,"start_local":"2024-06-07T18:00:00","end":"2024-06-07T22:00:00Z","end_local":"2024-06-07T18:00:00","updated":"2024-05-30T01:14:34Z"},{"title":"Raid Franciscain","description":"Sourced from predicthq.com","category":"sports","start":"2024-06-02T10:30:00Z","geo":{"geometry":{"coordinates":[-60.9032551,14.6151263],"type":"Point"},"placekey":"@bs6-n99-gtv","address":{"country_code":"MQ","formatted_address":"97240 Le François, Martinique, France","locality":"Le François","postcode":"97240","region":"Le Marin"}},"labels":["outdoor-sports","running","sport"],"duration":0,"start_local":"2024-06-02T06:30:00","end":"2024-06-02T10:30:00Z","end_local":"2024-06-02T06:30:00","updated":"2024-06-04T06:30:43Z"},{"title":"INVESTIR DANS L'IMMOBILIER A LA REPUBLIQUE DOMINICAINE #3","description":"Sourced from predicthq.com - Découvrez comment investir dans l'immobilier à la République Dominicaine lors de notre événement en privé ! Inscrivez vous vite !","category":"conferences","start":"2024-06-01T17:00:00Z","geo":{"geometry":{"coordinates":[-60.9867248,14.6272033],"type":"Point"},"placekey":"@bs6-kfj-p35","address":{"country_code":"MQ","formatted_address":"97232 Le Lamentin, Martinique, France","locality":"Le Lamentin","postcode":"97232","region":"Fort-de-France"}},"labels":["conference","outdoor"],"duration":7200,"start_local":"2024-06-01T13:00:00","end":"2024-06-01T19:00:00Z","end_local":"2024-06-01T15:00:00","updated":"2024-05-30T01:20:43Z"},{"title":"La Vauclinoise","description":"Sourced from predicthq.com","category":"sports","start":"2024-06-01T04:00:00Z","geo":{"geometry":{"coordinates":[-60.83968,14.5456526],"type":"Point"},"placekey":"@bs6-j4b-nh5","address":{"country_code":"MQ","formatted_address":"97280 Le Vauclin, Martinique, France","locality":"Le Vauclin","postcode":"97280","region":"Le Marin"}},"labels":["outdoor-sports","running","sport"],"duration":86399,"start_local":"2024-06-01T00:00:00","end":"2024-06-02T03:59:59Z","end_local":"2024-06-01T23:59:59","updated":"2024-06-04T00:43:38Z"},{"title":"Grégory Privat","description":"Sourced from predicthq.com","category":"concerts","start":"2024-05-31T00:00:00Z","geo":{"geometry":{"coordinates":[-61.0726695,14.6100291],"type":"Point"},"placekey":"@bs6-kdr-kvf","address":{"country_code":"MQ","formatted_address":"JW6G+2W8, Fort-de-France 97200, Martinique","postcode":"97200","locality":"Fort-de-France","region":"Fort-de-France"}},"labels":["concert","music"],"duration":0,"start_local":"2024-05-30T20:00:00","end":"2024-05-31T00:00:00Z","end_local":"2024-05-30T20:00:00","updated":"2024-06-14T01:30:37Z"},{"title":"Salon inter-éditeurs scolaires du 2nd degré 2024_Martinique","description":"Sourced from predicthq.com - Les éditeurs scolaires  attendent les enseignants du 2nd degré mercredi 29 mai afin de leur présenter leurs nouveautés.","category":"conferences","start":"2024-05-29T14:30:00Z","geo":{"geometry":{"coordinates":[-61.0950656947,14.6057951851],"type":"Point"},"placekey":"@bs6-jrj-brk","address":{"country_code":"MQ","formatted_address":"20 rue des Alizés\n97233 Schœlcher\nMartinique","postcode":"97233","locality":"Schœlcher","region":"Martinique"}},"labels":["conference"],"duration":19800,"start_local":"2024-05-29T10:30:00","end":"2024-05-29T20:00:00Z","end_local":"2024-05-29T16:00:00","updated":"2024-06-04T23:12:35Z"},{"title":"Division d'Honneur - Aiglon vs RC Saint Joseph","description":"Sourced from predicthq.com","category":"sports","start":"2024-05-29T00:00:00Z","geo":{"geometry":{"coordinates":[-61.035892184,14.6737322607],"type":"Point"},"placekey":"@bs6-jyc-xt9","address":{"country_code":"MQ","formatted_address":"Rue de la Republique\n97212 Saint-Joseph\nMartinique","postcode":"97212","locality":"Saint-Joseph","region":"Martinique"}},"labels":["soccer","sport"],"duration":0,"start_local":"2024-05-28T20:00:00","end":"2024-05-29T00:00:00Z","end_local":"2024-05-28T20:00:00","updated":"2024-06-12T10:15:26Z"},{"title":"Trail des Tresors-La trinite","description":"Sourced from predicthq.com","category":"sports","start":"2024-05-25T20:30:00Z","geo":{"geometry":{"coordinates":[-60.9631367,14.7391661],"type":"Point"},"placekey":"@bs6-jxj-3bk","address":{"country_code":"MQ","formatted_address":"Avenue Casimir Branglidor, 97220 La Trinité, Martinique, France","locality":"La Trinité","postcode":"97220","region":"La Trinité"}},"labels":["outdoor-sports","running","sport"],"duration":0,"start_local":"2024-05-25T16:30:00","end":"2024-05-25T20:30:00Z","end_local":"2024-05-25T16:30:00","updated":"2024-06-05T05:59:39Z"},{"title":"Kous Neg Mawon","description":"Sourced from predicthq.com","category":"sports","start":"2024-05-22T10:00:00Z","geo":{"geometry":{"coordinates":[-61.069884,14.6060576],"type":"Point"},"placekey":"@bs6-kdr-f9f","address":{"country_code":"MQ","formatted_address":"Rue Victor Hugo, 97200 Fort-de-France, Martinique, France","locality":"Fort-de-France","postcode":"97200","region":"Fort-de-France"}},"labels":["outdoor-sports","running","sport"],"duration":0,"start_local":"2024-05-22T06:00:00","end":"2024-05-22T10:00:00Z","end_local":"2024-05-22T06:00:00","updated":"2024-06-05T00:35:31Z"},{"title":"The Mob","description":"Sourced from predicthq.com","category":"concerts","start":"2024-05-19T18:00:00Z","geo":{"geometry":{"coordinates":[-61.05401,14.61957],"type":"Point"},"placekey":"@bs6-kdv-nqz","address":{"country_code":"MQ","formatted_address":"14 Rue du Bel Horizon, Fort-de-France 97200, Martinique","postcode":"97200","locality":"Fort-de-France","region":"Fort-de-France"}},"labels":["concert","music"],"duration":0,"start_local":"2024-05-19T14:00:00","end":"2024-05-19T18:00:00Z","end_local":"2024-05-19T14:00:00","updated":"2024-06-11T21:42:54Z"},{"title":"Division d'Honneur - Club Colonial vs Samaritaine","description":"Sourced from predicthq.com","category":"sports","start":"2024-05-18T20:00:00Z","geo":{"geometry":{"coordinates":[-60.964689,14.5781463],"type":"Point"},"placekey":"@bs6-kf5-49z","address":{"country_code":"MQ","formatted_address":"H2HP+54V, Chem. des Violettes, Ducos 97224, Martinique","postcode":"97224","locality":"Ducos","region":"Le Marin"}},"labels":["soccer","sport"],"duration":0,"start_local":"2024-05-18T16:00:00","end":"2024-05-18T20:00:00Z","end_local":"2024-05-18T16:00:00","updated":"2024-06-12T04:32:42Z"},{"title":"Division d'Honneur - Club Péléen vs New Club","description":"Sourced from predicthq.com","category":"sports","start":"2024-05-18T20:00:00Z","geo":{"geometry":{"coordinates":[-61.135128444,14.77932874],"type":"Point"},"placekey":"@bs6-k23-mzf","address":{"country_code":"MQ","formatted_address":"8 Rue Emile Bilon, Le Morne Rouge 97260, Martinique","postcode":"97260","locality":"Le Morne Rouge","region":"Saint-Pierre"}},"labels":["soccer","sport"],"duration":0,"start_local":"2024-05-18T16:00:00","end":"2024-05-18T20:00:00Z","end_local":"2024-05-18T16:00:00","updated":"2024-06-12T01:46:13Z"},{"title":"Division d'Honneur - Stade Spiritain vs Club Franciscain","description":"Sourced from predicthq.com","category":"sports","start":"2024-05-18T20:00:00Z","geo":{"geometry":{"coordinates":[-60.938979135,14.55916125],"type":"Point"},"placekey":"@bs6-j37-ckf","address":{"country_code":"MQ","formatted_address":"H356+C33 JARDIN PARTAGée Saint-Esprit, Saint-Esprit 97270, Martinique","postcode":"97270","locality":"Saint-Esprit","region":"Le Marin"}},"labels":["soccer","sport"],"duration":0,"start_local":"2024-05-18T16:00:00","end":"2024-05-18T20:00:00Z","end_local":"2024-05-18T16:00:00","updated":"2024-06-11T23:32:07Z"},{"title":"Division d'Honneur - Riveraine vs Golden Star","description":"Sourced from predicthq.com","category":"sports","start":"2024-05-18T20:00:00Z","geo":{"geometry":{"coordinates":[-61.17587149143219,14.8694372722914],"type":"Point"},"placekey":"@bs4-xmc-47q","address":{"country_code":"MQ","formatted_address":"5 D10, Grand'Rivière 97218, Martinique","postcode":"97218","locality":"Grand'Rivière","region":"La Trinité"}},"labels":["soccer","sport"],"duration":0,"start_local":"2024-05-18T16:00:00","end":"2024-05-18T20:00:00Z","end_local":"2024-05-18T16:00:00","updated":"2024-06-12T11:41:42Z"},{"title":"Division d'Honneur - Golden Lion vs Diamantinoise","description":"Sourced from predicthq.com","category":"sports","start":"2024-05-18T20:00:00Z","geo":{"geometry":{"coordinates":[-61.035892184,14.6737322607],"type":"Point"},"placekey":"@bs6-jyc-xt9","address":{"country_code":"MQ","formatted_address":"Rue de la Republique\n97212 Saint-Joseph\nMartinique","postcode":"97212","locality":"Saint-Joseph","region":"Martinique"}},"labels":["soccer","sport"],"duration":0,"start_local":"2024-05-18T16:00:00","end":"2024-05-18T20:00:00Z","end_local":"2024-05-18T16:00:00","updated":"2024-06-12T07:51:51Z"},{"title":"Division d'Honneur - Vauclinois vs Case-Pilote","description":"Sourced from predicthq.com","category":"sports","start":"2024-05-18T20:00:00Z","geo":{"geometry":{"coordinates":[-60.851612916,14.543040045],"type":"Point"},"placekey":"@bs6-j4b-7yv","address":{"country_code":"MQ","formatted_address":"7 Lot. du Stade, Le Vauclin 97280, Martinique","postcode":"97280","locality":"Le Vauclin","region":"Le Marin"}},"labels":["soccer","sport"],"duration":0,"start_local":"2024-05-18T16:00:00","end":"2024-05-18T20:00:00Z","end_local":"2024-05-18T16:00:00","updated":"2024-06-11T23:22:22Z"},{"title":"Nor K Tri - Triathlon Du Nord Caraïbe","description":"Sourced from predicthq.com","category":"sports","start":"2024-05-18T11:30:00Z","geo":{"geometry":{"coordinates":[-61.2248374,14.8022712],"type":"Point"},"placekey":"@bs4-xnx-ghq","address":{"country_code":"MQ","formatted_address":"97250 Le Prêcheur, Martinique, France","locality":"Le Prêcheur","postcode":"97250","region":"Saint-Pierre"}},"labels":["bicycle","outdoor-sports","running","sport","triathlon"],"duration":0,"start_local":"2024-05-18T07:30:00","end":"2024-05-18T11:30:00Z","end_local":"2024-05-18T07:30:00","updated":"2024-06-04T12:07:11Z"},{"title":"10kos","description":"Sourced from predicthq.com","category":"sports","start":"2024-05-17T23:00:00Z","geo":{"geometry":{"coordinates":[-60.9761682,14.5760411],"type":"Point"},"placekey":"@bs6-kf6-fpv","address":{"country_code":"MQ","formatted_address":"97224 Ducos, Martinique, France","locality":"Ducos","postcode":"97224","region":"Le Marin"}},"labels":["outdoor-sports","running","sport"],"duration":0,"start_local":"2024-05-17T19:00:00","end":"2024-05-17T23:00:00Z","end_local":"2024-05-17T19:00:00","updated":"2024-06-05T16:32:24Z"},{"title":"Vers un réseau martiniquais de l’écoconstruction solidaire ?","description":"Sourced from predicthq.com - Découvrez la conclusion des échanges entre les acteurs du bâtiment durable en Martinique sur l'opportunité d'un réseau pro spécifique","category":"conferences","start":"2024-05-17T13:00:00Z","geo":{"geometry":{"coordinates":[-61.06501769999999,14.6033029],"type":"Point"},"placekey":"@bs6-kdr-jjv","address":{"country_code":"MQ","formatted_address":"Bassin de Radoub, 97200 Fort-de-France, Martinique, France","locality":"Fort-de-France","postcode":"97200","region":"Fort-de-France"}},"labels":["business","conference"],"duration":10800,"start_local":"2024-05-17T09:00:00","end":"2024-05-17T16:00:00Z","end_local":"2024-05-17T12:00:00","updated":"2024-06-05T16:17:24Z"},{"title":"L' Art de la Communication","description":"Sourced from predicthq.com - Conférence : L'art de la communication\nDécouvrez les dimensions de la communication interpersonnelle avec L'Arkhè Dimensionnel","category":"conferences","start":"2024-05-16T21:30:00Z","geo":{"geometry":{"coordinates":[-61.0950656947,14.6057951851],"type":"Point"},"placekey":"@bs6-jrj-brk","address":{"country_code":"MQ","formatted_address":"20 rue des Alizés\n97233 Schœlcher\nMartinique","postcode":"97233","locality":"Schœlcher","region":"Martinique"}},"labels":["conference","health"],"duration":5400,"start_local":"2024-05-16T17:30:00","end":"2024-05-16T23:00:00Z","end_local":"2024-05-16T19:00:00","updated":"2024-06-05T10:33:47Z"},{"title":"Open Mic","description":"Sourced from predicthq.com - Tu as entre 15 et 35 ans ? Viens partager ton art ! Événement parrainé par Blicassty et animé par DJ Skoll.","category":"performing-arts","start":"2024-05-15T23:00:00Z","geo":{"geometry":{"coordinates":[-61.1028028,14.6155561],"type":"Point"},"placekey":"@bs6-jrh-cyv","address":{"country_code":"MQ","formatted_address":"Rue de l'Église, 97233 Schoelcher, Martinique, France","locality":"Schoelcher","postcode":"97233","region":"Fort-de-France"}},"labels":["concert","music","performing-arts"],"duration":10800,"start_local":"2024-05-15T19:00:00","end":"2024-05-16T02:00:00Z","end_local":"2024-05-15T22:00:00","updated":"2024-06-05T11:11:49Z"},{"title":"Vers un réseau martiniquais de l’écoconstruction solidaire ?","description":"Sourced from predicthq.com - Le 15 mai, venez découvrir la démarche du réseau de professionnels de l’écoconstruction solidaire ÉCHOBAT organisé avec l'association KeBATI","category":"conferences","start":"2024-05-15T13:00:00Z","geo":{"geometry":{"coordinates":[-61.0716234,14.6040506],"type":"Point"},"placekey":"@bs6-jrg-33q","address":{"country_code":"MQ","formatted_address":"Rue Garnier Pagès, 97200 Fort-de-France, Martinique, France","locality":"Fort-de-France","postcode":"97200","region":"Fort-de-France"}},"labels":["business","conference"],"duration":7200,"start_local":"2024-05-15T09:00:00","end":"2024-05-15T15:00:00Z","end_local":"2024-05-15T11:00:00","updated":"2024-06-04T22:04:37Z"},{"title":"ANSSI : PRESENTATION DU DISPOSITIF MON AIDE CYBER","description":"Sourced from predicthq.com - Découvrez le dispositif mon aide cyber de l'ANSSI avec le délégué Outre Mer Moïse MOYAL","category":"conferences","start":"2024-05-14T19:00:00Z","geo":{"geometry":{"coordinates":[-61.00446789999999,14.6156116],"type":"Point"},"placekey":"@bs6-kft-49z","address":{"country_code":"MQ","formatted_address":"97232 Le Lamentin, Martinique, France","locality":"Le Lamentin","postcode":"97232","region":"Fort-de-France"}},"labels":["conference","science","technology"],"duration":3600,"start_local":"2024-05-14T15:00:00","end":"2024-05-14T20:00:00Z","end_local":"2024-05-14T16:00:00","updated":"2024-06-05T13:54:28Z"},{"title":"CTM : “SUBVENTIONS ET FINANCEMENT D'ENTREPRISES”","description":"Sourced from predicthq.com - Découvrez lors de cet atelier les différents financements et subventions dont vous pouvez bénéficier en temps qu'entrepreneur et entreprise.","category":"conferences","start":"2024-05-14T18:00:00Z","geo":{"geometry":{"coordinates":[-61.00446789999999,14.6156116],"type":"Point"},"placekey":"@bs6-kft-49z","address":{"country_code":"MQ","formatted_address":"97232 Le Lamentin, Martinique, France","locality":"Le Lamentin","postcode":"97232","region":"Fort-de-France"}},"labels":["business","conference"],"duration":3600,"start_local":"2024-05-14T14:00:00","end":"2024-05-14T19:00:00Z","end_local":"2024-05-14T15:00:00","updated":"2024-06-05T20:36:57Z"},{"title":"Vers un réseau martiniquais de l’écoconstruction solidaire ?","description":"Sourced from predicthq.com - Venez découvrir la démarche du réseau de professionnels de l’écoconstruction solidaire ÉCHOBAT, organisé avec l'association KeBATI","category":"conferences","start":"2024-05-13T20:00:00Z","geo":{"geometry":{"coordinates":[-61.06918,14.6382287],"type":"Point"},"placekey":"@bs6-jpy-3dv","address":{"country_code":"MQ","formatted_address":"97200 Fort-de-France, Martinique, France","locality":"Fort-de-France","postcode":"97200","region":"Fort-de-France"}},"labels":["business","conference"],"duration":7200,"start_local":"2024-05-13T16:00:00","end":"2024-05-13T22:00:00Z","end_local":"2024-05-13T18:00:00","updated":"2024-06-05T09:14:39Z"},{"title":"Division d'Honneur - Samaritaine vs Vauclinois","description":"Sourced from predicthq.com","category":"sports","start":"2024-05-11T20:00:00Z","geo":{"geometry":{"coordinates":[-61.01005211810764,14.747422959419442],"type":"Point"},"placekey":"@bs6-jy6-9vf","address":{"country_code":"MQ","formatted_address":"Q2J4+HHH, Sainte-Marie 97230, Martinique","postcode":"97230","locality":"Sainte-Marie","region":"La Trinité"}},"labels":["soccer","sport"],"duration":0,"start_local":"2024-05-11T16:00:00","end":"2024-05-11T20:00:00Z","end_local":"2024-05-11T16:00:00","updated":"2024-06-12T16:56:43Z"},{"title":"Division d'Honneur - Case-Pilote vs Stade Spiritain","description":"Sourced from predicthq.com","category":"sports","start":"2024-05-11T20:00:00Z","geo":{"geometry":{"coordinates":[-61.13691508769989,14.643579595070404],"type":"Point"},"placekey":"@bs6-jny-9s5","address":{"country_code":"MQ","formatted_address":"Stade Omer Kromwell, Case-Pilote 97222, Martinique","postcode":"97222","locality":"Case-Pilote","region":"Saint-Pierre"}},"labels":["soccer","sport"],"duration":0,"start_local":"2024-05-11T16:00:00","end":"2024-05-11T20:00:00Z","end_local":"2024-05-11T16:00:00","updated":"2024-06-12T07:18:13Z"},{"title":"Division d'Honneur - Club Franciscain vs Riveraine","description":"Sourced from predicthq.com","category":"sports","start":"2024-05-11T20:00:00Z","geo":{"geometry":{"coordinates":[-60.9099653,14.6184373],"type":"Point"},"placekey":"@bs6-n9x-2rk","address":{"country_code":"MQ","formatted_address":"J39R+92F, Le François 97240, Martinique","postcode":"97240","locality":"Le François","region":"Le Marin"}},"labels":["soccer","sport"],"duration":0,"start_local":"2024-05-11T16:00:00","end":"2024-05-11T20:00:00Z","end_local":"2024-05-11T16:00:00","updated":"2024-06-12T17:55:19Z"},{"title":"Division d'Honneur - New Club vs Aiglon","description":"Sourced from predicthq.com","category":"sports","start":"2024-05-11T20:00:00Z","geo":{"geometry":{"coordinates":[-60.9691428,14.54661630000001],"type":"Point"},"placekey":"@bs6-kgy-swk","address":{"country_code":"MQ","formatted_address":"N5, Rivière-Salée 97215, Martinique","postcode":"97215","locality":"Rivière-Salée","region":"Le Marin"}},"labels":["soccer","sport"],"duration":0,"start_local":"2024-05-11T16:00:00","end":"2024-05-11T20:00:00Z","end_local":"2024-05-11T16:00:00","updated":"2024-06-12T05:27:42Z"},{"title":"Division d'Honneur - Golden Star vs Golden Lion","description":"Sourced from predicthq.com","category":"sports","start":"2024-05-11T20:00:00Z","geo":{"geometry":{"coordinates":[-61.0462081,14.60335],"type":"Point"},"placekey":"@bs6-kdp-5j9","address":{"country_code":"MQ","formatted_address":"JX33+8GM, Stade d'Honneur de Dillon, Fort-de-France 97200, Martinique","postcode":"97200","locality":"Fort-de-France","region":"Fort-de-France"}},"labels":["soccer","sport"],"duration":0,"start_local":"2024-05-11T16:00:00","end":"2024-05-11T20:00:00Z","end_local":"2024-05-11T16:00:00","updated":"2024-06-12T14:32:04Z"},{"title":"Division d'Honneur - Diamantinoise vs Club Péléen","description":"Sourced from predicthq.com","category":"sports","start":"2024-05-11T20:00:00Z","geo":{"geometry":{"coordinates":[-61.0314437,14.4815727],"type":"Point"},"placekey":"@bs6-htf-tvz","address":{"country_code":"MQ","formatted_address":"FXJ9+JCF, Le Diamant 97223, Martinique","postcode":"97223","locality":"Le Diamant","region":"Le Marin"}},"labels":["soccer","sport"],"duration":0,"start_local":"2024-05-11T16:00:00","end":"2024-05-11T20:00:00Z","end_local":"2024-05-11T16:00:00","updated":"2024-06-12T03:21:06Z"},{"title":"Division d'Honneur - RC Saint Joseph vs Club Colonial","description":"Sourced from predicthq.com","category":"sports","start":"2024-05-11T20:00:00Z","geo":{"geometry":{"coordinates":[-61.035892184,14.6737322607],"type":"Point"},"placekey":"@bs6-jyc-xt9","address":{"country_code":"MQ","formatted_address":"Rue de la Republique\n97212 Saint-Joseph\nMartinique","postcode":"97212","locality":"Saint-Joseph","region":"Martinique"}},"labels":["soccer","sport"],"duration":0,"start_local":"2024-05-11T16:00:00","end":"2024-05-11T20:00:00Z","end_local":"2024-05-11T16:00:00","updated":"2024-06-12T01:10:37Z"},{"title":"Tchimbé Raid","description":"Sourced from predicthq.com","category":"sports","start":"2024-05-11T14:00:00Z","geo":{"geometry":{"coordinates":[-61.1759804,14.7430041],"type":"Point"},"placekey":"@bs6-k4h-btv","address":{"country_code":"MQ","formatted_address":"97250 Saint-Pierre, Martinique, France","locality":"Saint-Pierre","postcode":"97250","region":"Saint-Pierre"}},"labels":["outdoor-sports","running","sport"],"duration":0,"start_local":"2024-05-11T10:00:00","end":"2024-05-11T14:00:00Z","end_local":"2024-05-11T10:00:00","updated":"2024-06-05T01:37:46Z"},{"title":"CONFÉRENCE DÉBAT: JADIN K JOUNEN LA FOUYE TE - LASOTE","description":"Sourced from predicthq.com - Un moment d'échange avec l'association LASOTE en partenariat avec le MANA, sur deux techniques agricoles traditionnelles !!!","category":"conferences","start":"2024-05-07T22:00:00Z","geo":{"geometry":{"coordinates":[-61.0095682,14.7958843],"type":"Point"},"placekey":"@bs5-jxk-mhq","address":{"country_code":"MQ","formatted_address":"Rue du Pave, 97230 Sainte-Marie, Martinique, France","locality":"Sainte-Marie","postcode":"97230","region":"La Trinité"}},"labels":["community","conference"],"duration":12600,"start_local":"2024-05-07T18:00:00","end":"2024-05-08T01:30:00Z","end_local":"2024-05-07T21:30:00","updated":"2024-06-05T08:22:43Z"},{"title":"Tiger Run Five","description":"Sourced from predicthq.com","category":"sports","start":"2024-05-05T10:00:00Z","geo":{"geometry":{"coordinates":[-61.069884,14.6060576],"type":"Point"},"placekey":"@bs6-kdr-f9f","address":{"country_code":"MQ","formatted_address":"Rue Victor Hugo, 97200 Fort-de-France, Martinique, France","locality":"Fort-de-France","postcode":"97200","region":"Fort-de-France"}},"labels":["outdoor-sports","running","sport"],"duration":0,"start_local":"2024-05-05T06:00:00","end":"2024-05-05T10:00:00Z","end_local":"2024-05-05T06:00:00","updated":"2024-06-04T23:31:30Z"},{"title":"Division d'Honneur - Case-Pilote vs Samaritaine","description":"Sourced from predicthq.com","category":"sports","start":"2024-05-04T20:00:00Z","geo":{"geometry":{"coordinates":[-61.13691508769989,14.643579595070404],"type":"Point"},"placekey":"@bs6-jny-9s5","address":{"country_code":"MQ","formatted_address":"Stade Omer Kromwell, Case-Pilote 97222, Martinique","postcode":"97222","locality":"Case-Pilote","region":"Saint-Pierre"}},"labels":["soccer","sport"],"duration":0,"start_local":"2024-05-04T16:00:00","end":"2024-05-04T20:00:00Z","end_local":"2024-05-04T16:00:00","updated":"2024-06-11T23:23:59Z"},{"title":"Division d'Honneur - Riveraine vs Stade Spiritain","description":"Sourced from predicthq.com","category":"sports","start":"2024-05-04T20:00:00Z","geo":{"geometry":{"coordinates":[-61.17587149143219,14.8694372722914],"type":"Point"},"placekey":"@bs4-xmc-47q","address":{"country_code":"MQ","formatted_address":"5 D10, Grand'Rivière 97218, Martinique","postcode":"97218","locality":"Grand'Rivière","region":"La Trinité"}},"labels":["soccer","sport"],"duration":0,"start_local":"2024-05-04T16:00:00","end":"2024-05-04T20:00:00Z","end_local":"2024-05-04T16:00:00","updated":"2024-06-12T05:10:12Z"},{"title":"Division d'Honneur - Vauclinois vs RC Saint Joseph","description":"Sourced from predicthq.com","category":"sports","start":"2024-05-04T20:00:00Z","geo":{"geometry":{"coordinates":[-60.851612916,14.543040045],"type":"Point"},"placekey":"@bs6-j4b-7yv","address":{"country_code":"MQ","formatted_address":"7 Lot. du Stade, Le Vauclin 97280, Martinique","postcode":"97280","locality":"Le Vauclin","region":"Le Marin"}},"labels":["soccer","sport"],"duration":0,"start_local":"2024-05-04T16:00:00","end":"2024-05-04T20:00:00Z","end_local":"2024-05-04T16:00:00","updated":"2024-06-12T02:22:25Z"},{"title":"Division d'Honneur - Aiglon vs Diamantinoise","description":"Sourced from predicthq.com","category":"sports","start":"2024-05-04T20:00:00Z","geo":{"geometry":{"coordinates":[-60.9876705105,14.6205268968],"type":"Point"},"placekey":"@bs6-kfj-q2k","address":{"country_code":"MQ","formatted_address":"D3\n97232 Le Lamentin\nMartinique","postcode":"97232","locality":"Le Lamentin","region":"Martinique"}},"labels":["soccer","sport"],"duration":0,"start_local":"2024-05-04T16:00:00","end":"2024-05-04T20:00:00Z","end_local":"2024-05-04T16:00:00","updated":"2024-06-12T09:37:51Z"},{"title":"Division d'Honneur - Club Colonial vs New Club","description":"Sourced from predicthq.com","category":"sports","start":"2024-05-04T00:00:00Z","geo":{"geometry":{"coordinates":[-61.0853488,14.6028878],"type":"Point"},"placekey":"@bs6-jrf-p35","address":{"country_code":"MQ","formatted_address":"97200 Fort-de-France Bay, Martinique, France","postcode":"97200","locality":"Fort-de-France Bay","region":"Fort-de-France"}},"labels":["soccer","sport"],"duration":0,"start_local":"2024-05-03T20:00:00","end":"2024-05-04T00:00:00Z","end_local":"2024-05-03T20:00:00","updated":"2024-06-12T01:44:27Z"},{"title":"Division d'Honneur - Club Péléen vs Golden Star","description":"Sourced from predicthq.com","category":"sports","start":"2024-05-04T00:00:00Z","geo":{"geometry":{"coordinates":[-61.135128444,14.77932874],"type":"Point"},"placekey":"@bs6-k23-mzf","address":{"country_code":"MQ","formatted_address":"8 Rue Emile Bilon, Le Morne Rouge 97260, Martinique","postcode":"97260","locality":"Le Morne Rouge","region":"Saint-Pierre"}},"labels":["soccer","sport"],"duration":0,"start_local":"2024-05-03T20:00:00","end":"2024-05-04T00:00:00Z","end_local":"2024-05-03T20:00:00","updated":"2024-06-12T06:02:15Z"},{"title":"Division d'Honneur - Golden Lion vs Club Franciscain","description":"Sourced from predicthq.com","category":"sports","start":"2024-05-04T00:00:00Z","geo":{"geometry":{"coordinates":[-61.035892184,14.6737322607],"type":"Point"},"placekey":"@bs6-jyc-xt9","address":{"country_code":"MQ","formatted_address":"Rue de la Republique\n97212 Saint-Joseph\nMartinique","postcode":"97212","locality":"Saint-Joseph","region":"Martinique"}},"labels":["soccer","sport"],"duration":0,"start_local":"2024-05-03T20:00:00","end":"2024-05-04T00:00:00Z","end_local":"2024-05-03T20:00:00","updated":"2024-06-11T21:53:23Z"},{"title":"REUNION D'INFORMATION - Cybersécurité : Comment protéger mon entreprise ?","description":"Sourced from predicthq.com - Découvrez des astuces et bonnes pratiques pour anticiper les attaques et protéger vos systèmes et vos données !","category":"conferences","start":"2024-04-29T21:30:00Z","geo":{"geometry":{"coordinates":[-61.0322039,14.614573],"type":"Point"},"placekey":"@bs6-kdt-4jv","address":{"country_code":"MQ","formatted_address":"Centre d'Affaires Californie, Le Lamentin 97232, Martinique","postcode":"97232","locality":"Le Lamentin","region":"Fort-de-France"}},"labels":["conference","science","technology"],"duration":5400,"start_local":"2024-04-29T17:30:00","end":"2024-04-29T23:00:00Z","end_local":"2024-04-29T19:00:00","updated":"2024-06-05T13:22:28Z"},{"title":"Division d'Honneur - Riveraine vs Case-Pilote","description":"Sourced from predicthq.com","category":"sports","start":"2024-04-27T20:00:00Z","geo":{"geometry":{"coordinates":[-61.17587149143219,14.8694372722914],"type":"Point"},"placekey":"@bs4-xmc-47q","address":{"country_code":"MQ","formatted_address":"5 D10, Grand'Rivière 97218, Martinique","postcode":"97218","locality":"Grand'Rivière","region":"La Trinité"}},"labels":["soccer","sport"],"duration":0,"start_local":"2024-04-27T16:00:00","end":"2024-04-27T20:00:00Z","end_local":"2024-04-27T16:00:00","updated":"2024-06-11T23:05:44Z"},{"title":"Division d'Honneur - Golden Star vs Aiglon","description":"Sourced from predicthq.com","category":"sports","start":"2024-04-27T00:00:00Z","geo":{"geometry":{"coordinates":[-61.0462081,14.60335],"type":"Point"},"placekey":"@bs6-kdp-5j9","address":{"country_code":"MQ","formatted_address":"JX33+8GM, Stade d'Honneur de Dillon, Fort-de-France 97200, Martinique","postcode":"97200","locality":"Fort-de-France","region":"Fort-de-France"}},"labels":["soccer","sport"],"duration":0,"start_local":"2024-04-26T20:00:00","end":"2024-04-27T00:00:00Z","end_local":"2024-04-26T20:00:00","updated":"2024-06-12T01:46:17Z"},{"title":"Division d'Honneur - Stade Spiritain vs Golden Lion","description":"Sourced from predicthq.com","category":"sports","start":"2024-04-27T00:00:00Z","geo":{"geometry":{"coordinates":[-60.938979135,14.55916125],"type":"Point"},"placekey":"@bs6-j37-ckf","address":{"country_code":"MQ","formatted_address":"H356+C33 JARDIN PARTAGée Saint-Esprit, Saint-Esprit 97270, Martinique","postcode":"97270","locality":"Saint-Esprit","region":"Le Marin"}},"labels":["soccer","sport"],"duration":0,"start_local":"2024-04-26T20:00:00","end":"2024-04-27T00:00:00Z","end_local":"2024-04-26T20:00:00","updated":"2024-06-12T04:40:52Z"},{"title":"Division d'Honneur - Club Franciscain vs Club Péléen","description":"Sourced from predicthq.com","category":"sports","start":"2024-04-27T00:00:00Z","geo":{"geometry":{"coordinates":[-60.9099653,14.6184373],"type":"Point"},"placekey":"@bs6-n9x-2rk","address":{"country_code":"MQ","formatted_address":"J39R+92F, Le François 97240, Martinique","postcode":"97240","locality":"Le François","region":"Le Marin"}},"labels":["soccer","sport"],"duration":0,"start_local":"2024-04-26T20:00:00","end":"2024-04-27T00:00:00Z","end_local":"2024-04-26T20:00:00","updated":"2024-06-12T00:39:26Z"},{"title":"Division d'Honneur - RC Saint Joseph vs Samaritaine","description":"Sourced from predicthq.com","category":"sports","start":"2024-04-27T00:00:00Z","geo":{"geometry":{"coordinates":[-61.035892184,14.6737322607],"type":"Point"},"placekey":"@bs6-jyc-xt9","address":{"country_code":"MQ","formatted_address":"Rue de la Republique\n97212 Saint-Joseph\nMartinique","postcode":"97212","locality":"Saint-Joseph","region":"Martinique"}},"labels":["soccer","sport"],"duration":0,"start_local":"2024-04-26T20:00:00","end":"2024-04-27T00:00:00Z","end_local":"2024-04-26T20:00:00","updated":"2024-06-12T04:50:46Z"},{"title":"Division d'Honneur - Diamantinoise vs Club Colonial","description":"Sourced from predicthq.com","category":"sports","start":"2024-04-27T00:00:00Z","geo":{"geometry":{"coordinates":[-61.0314437,14.4815727],"type":"Point"},"placekey":"@bs6-htf-tvz","address":{"country_code":"MQ","formatted_address":"FXJ9+JCF, Le Diamant 97223, Martinique","postcode":"97223","locality":"Le Diamant","region":"Le Marin"}},"labels":["soccer","sport"],"duration":0,"start_local":"2024-04-26T20:00:00","end":"2024-04-27T00:00:00Z","end_local":"2024-04-26T20:00:00","updated":"2024-06-12T04:09:09Z"},{"title":"Division d'Honneur - New Club vs Vauclinois","description":"Sourced from predicthq.com","category":"sports","start":"2024-04-27T00:00:00Z","geo":{"geometry":{"coordinates":[-60.9691428,14.54661630000001],"type":"Point"},"placekey":"@bs6-kgy-swk","address":{"country_code":"MQ","formatted_address":"N5, Rivière-Salée 97215, Martinique","postcode":"97215","locality":"Rivière-Salée","region":"Le Marin"}},"labels":["soccer","sport"],"duration":0,"start_local":"2024-04-26T20:00:00","end":"2024-04-27T00:00:00Z","end_local":"2024-04-26T20:00:00","updated":"2024-06-12T00:48:09Z"},{"title":"Financer vos projets grâce aux fonds européens (FSE / FEDER)","description":"Sourced from predicthq.com - Apprenez comment obtenir du financement pour vos projets grâce aux fonds européens !","category":"conferences","start":"2024-04-25T22:00:00Z","geo":{"geometry":{"coordinates":[-61.00446789999999,14.6156116],"type":"Point"},"placekey":"@bs6-kft-49z","address":{"country_code":"MQ","formatted_address":"97232 Le Lamentin, Martinique, France","locality":"Le Lamentin","postcode":"97232","region":"Fort-de-France"}},"labels":["business","conference"],"duration":7200,"start_local":"2024-04-25T18:00:00","end":"2024-04-26T00:00:00Z","end_local":"2024-04-25T20:00:00","updated":"2024-06-05T02:07:17Z"},{"title":"Accélération Commerciale : La Vente est un Sport !","description":"Sourced from predicthq.com - Joignez-vous à notre atelier où nous explorerons ensemble toutes les étapes de la vente B to B de manière dynamique et conviviale !","category":"conferences","start":"2024-04-25T22:00:00Z","geo":{"geometry":{"coordinates":[-61.0707324,14.6036389],"type":"Point"},"placekey":"@bs6-jrg-3kf","address":{"country_code":"MQ","formatted_address":"Rue Ernest Deproge, 97200 Fort-de-France, Martinique, France","locality":"Fort-de-France","postcode":"97200","region":"Fort-de-France"}},"labels":["business","conference"],"duration":5400,"start_local":"2024-04-25T18:00:00","end":"2024-04-25T23:30:00Z","end_local":"2024-04-25T19:30:00","updated":"2024-06-05T17:14:50Z"},{"title":"Division d'Honneur - Aiglon vs Club Franciscain","description":"Sourced from predicthq.com","category":"sports","start":"2024-04-21T20:00:00Z","geo":{"geometry":{"coordinates":[-60.9876705105,14.6205268968],"type":"Point"},"placekey":"@bs6-kfj-q2k","address":{"country_code":"MQ","formatted_address":"D3\n97232 Le Lamentin\nMartinique","postcode":"97232","locality":"Le Lamentin","region":"Martinique"}},"labels":["soccer","sport"],"duration":0,"start_local":"2024-04-21T16:00:00","end":"2024-04-21T20:00:00Z","end_local":"2024-04-21T16:00:00","updated":"2024-06-12T02:09:03Z"},{"title":"Division d'Honneur - Samaritaine vs New Club","description":"Sourced from predicthq.com","category":"sports","start":"2024-04-21T20:00:00Z","geo":{"geometry":{"coordinates":[-61.01005211810764,14.747422959419442],"type":"Point"},"placekey":"@bs6-jy6-9vf","address":{"country_code":"MQ","formatted_address":"Q2J4+HHH, Sainte-Marie 97230, Martinique","postcode":"97230","locality":"Sainte-Marie","region":"La Trinité"}},"labels":["soccer","sport"],"duration":0,"start_local":"2024-04-21T16:00:00","end":"2024-04-21T20:00:00Z","end_local":"2024-04-21T16:00:00","updated":"2024-06-12T13:59:00Z"},{"title":"Les Foulées Foyalaises","description":"Sourced from predicthq.com","category":"sports","start":"2024-04-21T10:30:00Z","geo":{"geometry":{"coordinates":[-61.069884,14.6060576],"type":"Point"},"placekey":"@bs6-kdr-f9f","address":{"country_code":"MQ","formatted_address":"Rue Victor Hugo, 97200 Fort-de-France, Martinique, France","locality":"Fort-de-France","postcode":"97200","region":"Fort-de-France"}},"labels":["outdoor-sports","running","sport"],"duration":0,"start_local":"2024-04-21T06:30:00","end":"2024-04-21T10:30:00Z","end_local":"2024-04-21T06:30:00","updated":"2024-06-04T23:00:53Z"},{"title":"Division d'Honneur - Case-Pilote vs RC Saint Joseph","description":"Sourced from predicthq.com","category":"sports","start":"2024-04-20T20:00:00Z","geo":{"geometry":{"coordinates":[-61.13691508769989,14.643579595070404],"type":"Point"},"placekey":"@bs6-jny-9s5","address":{"country_code":"MQ","formatted_address":"Stade Omer Kromwell, Case-Pilote 97222, Martinique","postcode":"97222","locality":"Case-Pilote","region":"Saint-Pierre"}},"labels":["soccer","sport"],"duration":0,"start_local":"2024-04-20T16:00:00","end":"2024-04-20T20:00:00Z","end_local":"2024-04-20T16:00:00","updated":"2024-06-11T21:38:25Z"},{"title":"Division d'Honneur - Vauclinois vs Diamantinoise","description":"Sourced from predicthq.com","category":"sports","start":"2024-04-20T20:00:00Z","geo":{"geometry":{"coordinates":[-60.851612916,14.543040045],"type":"Point"},"placekey":"@bs6-j4b-7yv","address":{"country_code":"MQ","formatted_address":"7 Lot. du Stade, Le Vauclin 97280, Martinique","postcode":"97280","locality":"Le Vauclin","region":"Le Marin"}},"labels":["soccer","sport"],"duration":0,"start_local":"2024-04-20T16:00:00","end":"2024-04-20T20:00:00Z","end_local":"2024-04-20T16:00:00","updated":"2024-06-12T10:15:35Z"},{"title":"Division d'Honneur - Golden Star vs Club Colonial","description":"Sourced from predicthq.com","category":"sports","start":"2024-04-20T00:00:00Z","geo":{"geometry":{"coordinates":[-61.0462081,14.60335],"type":"Point"},"placekey":"@bs6-kdp-5j9","address":{"country_code":"MQ","formatted_address":"JX33+8GM, Stade d'Honneur de Dillon, Fort-de-France 97200, Martinique","postcode":"97200","locality":"Fort-de-France","region":"Fort-de-France"}},"labels":["soccer","sport"],"duration":0,"start_local":"2024-04-19T20:00:00","end":"2024-04-20T00:00:00Z","end_local":"2024-04-19T20:00:00","updated":"2024-06-12T13:34:21Z"},{"title":"Division d'Honneur - Club Péléen vs Stade Spiritain","description":"Sourced from predicthq.com","category":"sports","start":"2024-04-20T00:00:00Z","geo":{"geometry":{"coordinates":[-61.135128444,14.77932874],"type":"Point"},"placekey":"@bs6-k23-mzf","address":{"country_code":"MQ","formatted_address":"8 Rue Emile Bilon, Le Morne Rouge 97260, Martinique","postcode":"97260","locality":"Le Morne Rouge","region":"Saint-Pierre"}},"labels":["soccer","sport"],"duration":0,"start_local":"2024-04-19T20:00:00","end":"2024-04-20T00:00:00Z","end_local":"2024-04-19T20:00:00","updated":"2024-06-12T08:42:24Z"},{"title":"Division d'Honneur - Golden Lion vs Riveraine","description":"Sourced from predicthq.com","category":"sports","start":"2024-04-20T00:00:00Z","geo":{"geometry":{"coordinates":[-61.035892184,14.6737322607],"type":"Point"},"placekey":"@bs6-jyc-xt9","address":{"country_code":"MQ","formatted_address":"Rue de la Republique\n97212 Saint-Joseph\nMartinique","postcode":"97212","locality":"Saint-Joseph","region":"Martinique"}},"labels":["soccer","sport"],"duration":0,"start_local":"2024-04-19T20:00:00","end":"2024-04-20T00:00:00Z","end_local":"2024-04-19T20:00:00","updated":"2024-06-12T03:18:44Z"},{"title":"Les 7 leviers de la rémunération du dirigeant","description":"Sourced from predicthq.com - Découvrez comment maximiser votre rémunération en tant que chef d’entreprise en rejoignant notre conférence animée par Laurent Bauer !","category":"conferences","start":"2024-04-18T22:00:00Z","geo":{"geometry":{"coordinates":[-61.0707324,14.6036389],"type":"Point"},"placekey":"@bs6-jrg-3kf","address":{"country_code":"MQ","formatted_address":"Rue Ernest Deproge, 97200 Fort-de-France, Martinique, France","locality":"Fort-de-France","postcode":"97200","region":"Fort-de-France"}},"labels":["business","conference"],"duration":5400,"start_local":"2024-04-18T18:00:00","end":"2024-04-18T23:30:00Z","end_local":"2024-04-18T19:30:00","updated":"2024-06-05T09:30:40Z"},{"title":"BIZNESS FANM TALK","description":"Sourced from predicthq.com - Un événement de networking, de partage et d'inspiration inédit !","category":"conferences","start":"2024-04-18T22:00:00Z","geo":{"geometry":{"coordinates":[-61.095363899999995,14.6054815],"type":"Point"},"placekey":"@bs6-jrj-8jv","address":{"country_code":"MQ","formatted_address":"Résidence les Alizés de Batelière, 97233 Schoelcher, Martinique, France","locality":"Schoelcher","postcode":"97233","region":"Fort-de-France"}},"labels":["business","conference"],"duration":14400,"start_local":"2024-04-18T18:00:00","end":"2024-04-19T02:00:00Z","end_local":"2024-04-18T22:00:00","updated":"2024-06-12T06:30:30Z"},{"title":"Lancement de la stratégie de développement social du Nord","description":"Sourced from predicthq.com - Réunion de lancement de la stratégie de développement social : diagnostic territorial, projet de développement, plan d'actions.","category":"conferences","start":"2024-04-17T13:30:00Z","geo":{"geometry":{"coordinates":[-60.93036209999999,14.6529286],"type":"Point"},"placekey":"@bs6-n9q-swk","address":{"country_code":"MQ","formatted_address":"97231 Le Robert, Martinique, France","locality":"Le Robert","postcode":"97231","region":"La Trinité"}},"labels":["community","conference"],"duration":10800,"start_local":"2024-04-17T09:30:00","end":"2024-04-17T16:30:00Z","end_local":"2024-04-17T12:30:00","updated":"2024-06-05T02:52:57Z"},{"title":"Division d'Honneur - Golden Lion vs Case-Pilote","description":"Sourced from predicthq.com","category":"sports","start":"2024-04-13T23:00:00Z","geo":{"geometry":{"coordinates":[-61.035892184,14.6737322607],"type":"Point"},"placekey":"@bs6-jyc-xt9","address":{"country_code":"MQ","formatted_address":"Rue de la Republique\n97212 Saint-Joseph\nMartinique","postcode":"97212","locality":"Saint-Joseph","region":"Martinique"}},"labels":["soccer","sport"],"duration":0,"start_local":"2024-04-13T19:00:00","end":"2024-04-13T23:00:00Z","end_local":"2024-04-13T19:00:00","updated":"2024-06-12T05:20:58Z"},{"title":"Christophe Mert","description":"Sourced from predicthq.com - N/A","category":"performing-arts","start":"2024-04-13T23:00:00Z","geo":{"geometry":{"coordinates":[-61.0696393,14.604391],"type":"Point"},"placekey":"@bs6-kdr-f75","address":{"country_code":"MQ","formatted_address":"Rue Antoine Siger, 97200 Fort-de-France, Martinique, France","locality":"Fort-de-France","postcode":"97200","region":"Fort-de-France"}},"labels":["concert","music","performing-arts"],"duration":5400,"start_local":"2024-04-13T19:00:00","end":"2024-04-14T00:30:00Z","end_local":"2024-04-13T20:30:00","updated":"2024-06-05T13:17:23Z"},{"title":"Division d'Honneur - Riveraine vs Club Péléen","description":"Sourced from predicthq.com","category":"sports","start":"2024-04-13T20:00:00Z","geo":{"geometry":{"coordinates":[-61.17587149143219,14.8694372722914],"type":"Point"},"placekey":"@bs4-xmc-47q","address":{"country_code":"MQ","formatted_address":"5 D10, Grand'Rivière 97218, Martinique","postcode":"97218","locality":"Grand'Rivière","region":"La Trinité"}},"labels":["soccer","sport"],"duration":0,"start_local":"2024-04-13T16:00:00","end":"2024-04-13T20:00:00Z","end_local":"2024-04-13T16:00:00","updated":"2024-06-12T05:36:07Z"},{"title":"Division d'Honneur - Diamantinoise vs Samaritaine","description":"Sourced from predicthq.com","category":"sports","start":"2024-04-13T20:00:00Z","geo":{"geometry":{"coordinates":[-61.0314437,14.4815727],"type":"Point"},"placekey":"@bs6-htf-tvz","address":{"country_code":"MQ","formatted_address":"FXJ9+JCF, Le Diamant 97223, Martinique","postcode":"97223","locality":"Le Diamant","region":"Le Marin"}},"labels":["soccer","sport"],"duration":0,"start_local":"2024-04-13T16:00:00","end":"2024-04-13T20:00:00Z","end_local":"2024-04-13T16:00:00","updated":"2024-06-12T13:02:41Z"},{"title":"Division d'Honneur - New Club vs RC Saint Joseph","description":"Sourced from predicthq.com","category":"sports","start":"2024-04-13T00:00:00Z","geo":{"geometry":{"coordinates":[-60.9691428,14.54661630000001],"type":"Point"},"placekey":"@bs6-kgy-swk","address":{"country_code":"MQ","formatted_address":"N5, Rivière-Salée 97215, Martinique","postcode":"97215","locality":"Rivière-Salée","region":"Le Marin"}},"labels":["soccer","sport"],"duration":0,"start_local":"2024-04-12T20:00:00","end":"2024-04-13T00:00:00Z","end_local":"2024-04-12T20:00:00","updated":"2024-06-12T18:53:29Z"},{"title":"Division d'Honneur - Stade Spiritain vs Aiglon","description":"Sourced from predicthq.com","category":"sports","start":"2024-04-13T00:00:00Z","geo":{"geometry":{"coordinates":[-60.938979135,14.55916125],"type":"Point"},"placekey":"@bs6-j37-ckf","address":{"country_code":"MQ","formatted_address":"H356+C33 JARDIN PARTAGée Saint-Esprit, Saint-Esprit 97270, Martinique","postcode":"97270","locality":"Saint-Esprit","region":"Le Marin"}},"labels":["soccer","sport"],"duration":0,"start_local":"2024-04-12T20:00:00","end":"2024-04-13T00:00:00Z","end_local":"2024-04-12T20:00:00","updated":"2024-06-11T22:41:30Z"},{"title":"Division d'Honneur - Club Franciscain vs Club Colonial","description":"Sourced from predicthq.com","category":"sports","start":"2024-04-13T00:00:00Z","geo":{"geometry":{"coordinates":[-60.9099653,14.6184373],"type":"Point"},"placekey":"@bs6-n9x-2rk","address":{"country_code":"MQ","formatted_address":"J39R+92F, Le François 97240, Martinique","postcode":"97240","locality":"Le François","region":"Le Marin"}},"labels":["soccer","sport"],"duration":0,"start_local":"2024-04-12T20:00:00","end":"2024-04-13T00:00:00Z","end_local":"2024-04-12T20:00:00","updated":"2024-06-11T22:21:22Z"},{"title":"Division d'Honneur - Golden Star vs Vauclinois","description":"Sourced from predicthq.com","category":"sports","start":"2024-04-13T00:00:00Z","geo":{"geometry":{"coordinates":[-61.0462081,14.60335],"type":"Point"},"placekey":"@bs6-kdp-5j9","address":{"country_code":"MQ","formatted_address":"JX33+8GM, Stade d'Honneur de Dillon, Fort-de-France 97200, Martinique","postcode":"97200","locality":"Fort-de-France","region":"Fort-de-France"}},"labels":["soccer","sport"],"duration":0,"start_local":"2024-04-12T20:00:00","end":"2024-04-13T00:00:00Z","end_local":"2024-04-12T20:00:00","updated":"2024-06-12T14:48:36Z"},{"title":"Sam Horizon","description":"Sourced from predicthq.com","category":"sports","start":"2024-04-07T11:00:00Z","geo":{"geometry":{"coordinates":[-60.937506,14.5618515],"type":"Point"},"placekey":"@bs6-kfg-9pv","address":{"country_code":"MQ","formatted_address":"97270 Saint-Esprit, Martinique, France","locality":"Saint-Esprit","postcode":"97270","region":"Le Marin"}},"labels":["outdoor-sports","running","sport"],"duration":0,"start_local":"2024-04-07T07:00:00","end":"2024-04-07T11:00:00Z","end_local":"2024-04-07T07:00:00","updated":"2024-06-12T06:37:14Z"},{"title":"Christophe Mert","description":"Sourced from predicthq.com - N/A","category":"performing-arts","start":"2024-04-06T23:00:00Z","geo":{"geometry":{"coordinates":[-61.0696393,14.604391],"type":"Point"},"placekey":"@bs6-kdr-f75","address":{"country_code":"MQ","formatted_address":"Rue Antoine Siger, 97200 Fort-de-France, Martinique, France","locality":"Fort-de-France","postcode":"97200","region":"Fort-de-France"}},"labels":["concert","music","performing-arts"],"duration":5400,"start_local":"2024-04-06T19:00:00","end":"2024-04-07T00:30:00Z","end_local":"2024-04-06T20:30:00","updated":"2024-06-05T04:42:59Z"}]