[{"title":"Control Conference Africa","description":"Sourced from predicthq.com","category":"conferences","start":"2024-09-16T05:00:00Z","geo":{"geometry":{"coordinates":[57.501155,-20.160874],"type":"Point"},"placekey":"@jyb-4dv-789","address":{"country_code":"MU","formatted_address":"Port Louis\nMauritius","locality":"Mauritius"}},"labels":["conference"],"duration":118800,"start_local":"2024-09-16T09:00:00","end":"2024-09-17T14:00:00Z","end_local":"2024-09-17T18:00:00","updated":"2024-05-31T23:11:34Z"},{"title":"Ciel Ferney Trail","description":"Sourced from predicthq.com","category":"sports","start":"2024-09-13T20:00:00Z","geo":{"geometry":{"coordinates":[57.689957,-20.3181453],"type":"Point"},"placekey":"@jyb-fwd-5pv","address":{"country_code":"MU","formatted_address":"Flacq District, Mauritius","region":"Flacq District"}},"labels":["outdoor-sports","running","sport"],"duration":86399,"start_local":"2024-09-14T00:00:00","end":"2024-09-14T19:59:59Z","end_local":"2024-09-14T23:59:59","updated":"2024-06-04T00:17:46Z"},{"title":"Mauritius CIO Summit","description":"Sourced from predicthq.com","category":"conferences","start":"2024-09-11T20:00:00Z","geo":{"geometry":{"coordinates":[57.51626,-20.070645],"type":"Point"},"placekey":"@jyb-4fn-2kz","address":{"country_code":"MU","formatted_address":"Village Hall LanePointe Aux Piments Pointe aux Piments Mauritius","locality":"Mauritius"}},"labels":["conference"],"duration":86399,"start_local":"2024-09-12T00:00:00","end":"2024-09-12T19:59:59Z","end_local":"2024-09-12T23:59:59","updated":"2024-06-04T10:50:03Z"},{"title":"La Ferme Trail","description":"Sourced from predicthq.com","category":"sports","start":"2024-08-30T20:00:00Z","geo":{"geometry":{"coordinates":[57.4207553175,-20.2558128816],"type":"Point"},"placekey":"@jyb-4mc-xdv","address":{"country_code":"MU","formatted_address":"Bambous, Rivière Noire District, Mauritius","locality":"Bambous","region":"Rivière Noire District"}},"labels":["outdoor-sports","running","sport"],"duration":86399,"start_local":"2024-08-31T00:00:00","end":"2024-08-31T19:59:59Z","end_local":"2024-08-31T23:59:59","updated":"2024-06-04T08:06:03Z"},{"title":"Trail de la Liberté","description":"Sourced from predicthq.com","category":"sports","start":"2024-08-17T03:30:00Z","geo":{"geometry":{"coordinates":[57.3284609,-20.4450478],"type":"Point"},"placekey":"@jy9-xmc-7kf","address":{"country_code":"MU","formatted_address":"Le Morne, Rivière Noire District, Mauritius","locality":"Le Morne","region":"Rivière Noire District"}},"labels":["outdoor-sports","running","sport"],"duration":0,"start_local":"2024-08-17T07:30:00","end":"2024-08-17T03:30:00Z","end_local":"2024-08-17T07:30:00","updated":"2024-06-04T11:15:06Z"},{"title":"THE BIGGEST INTERNATIONAL SHOPPING FESTIVAL, MAURITIUS SHOPPING FESTIVAL 2024","description":"Sourced from predicthq.com","category":"expos","start":"2024-08-08T20:00:00Z","geo":{"geometry":{"coordinates":[57.4913681,-20.1958797],"type":"Point"},"placekey":"@jyb-4dk-nbk","address":{"country_code":"MU","formatted_address":"Port Louis, Port Louis District, Mauritius","locality":"Port Louis","region":"Port Louis District"}},"labels":["expo","furniture","household","jewelry","product"],"duration":604799,"start_local":"2024-08-09T00:00:00","end":"2024-08-15T19:59:59Z","end_local":"2024-08-15T23:59:59","updated":"2024-06-04T00:29:14Z"},{"title":"Ultra-Trail Raid-light Beachcomber","description":"Sourced from predicthq.com","category":"sports","start":"2024-07-28T00:30:00Z","geo":{"geometry":{"coordinates":[57.7190156,-20.4421379],"type":"Point"},"placekey":"@jy9-z4j-3yv","address":{"country_code":"MU","formatted_address":"Rue des Carangues, Blue Bay, Mauritius","locality":"Blue Bay","region":"Grand Port District"}},"labels":["outdoor-sports","running","sport"],"duration":0,"start_local":"2024-07-28T04:30:00","end":"2024-07-28T00:30:00Z","end_local":"2024-07-28T04:30:00","updated":"2024-06-28T07:33:14Z"},{"title":"Digital Transformation Conference","description":"Sourced from predicthq.com - Join us at the Digital Transformation Conference to learn how to navigate the ever-changing digital landscape and drive innovation","category":"conferences","start":"2024-07-24T05:00:00Z","geo":{"geometry":{"coordinates":[57.4983684,-20.16197469999999],"type":"Point"},"placekey":"@jyb-4dv-6kz","address":{"country_code":"MU","formatted_address":"Port Louis, Mauritius","locality":"Port Louis","region":"Port Louis"}},"labels":["business","conference"],"duration":28800,"start_local":"2024-07-24T09:00:00","end":"2024-07-24T13:00:00Z","end_local":"2024-07-24T17:00:00","updated":"2024-06-13T01:02:28Z"},{"title":"World Conference on Science Engineering and Technology","description":"Sourced from predicthq.com","category":"conferences","start":"2024-07-21T05:00:00Z","geo":{"geometry":{"coordinates":[57.541492,-20.04151],"type":"Point"},"placekey":"@jyb-4zx-kpv","address":{"country_code":"MU","formatted_address":"Coastal Road\nTrou-aux-Biches 22322\nMauritius","locality":"Mauritius"}},"labels":["conference"],"duration":118800,"start_local":"2024-07-21T09:00:00","end":"2024-07-22T14:00:00Z","end_local":"2024-07-22T18:00:00","updated":"2024-07-02T09:17:45Z"},{"title":"Developers Conference","description":"Sourced from predicthq.com","category":"conferences","start":"2024-07-18T05:00:00Z","geo":{"geometry":{"coordinates":[57.498368,-20.161975],"type":"Point"},"placekey":"@jyb-4dv-6kz","address":{"country_code":"MU","formatted_address":"Port Louis, Mauritius","locality":"Port Louis","region":"Port Louis"}},"labels":["conference"],"duration":205200,"start_local":"2024-07-18T09:00:00","end":"2024-07-20T14:00:00Z","end_local":"2024-07-20T18:00:00","updated":"2024-05-31T23:29:47Z"},{"title":"Advances in Hospitality and Tourism Marketing and Management Conference","description":"Sourced from predicthq.com","category":"conferences","start":"2024-07-15T05:00:00Z","geo":{"geometry":{"coordinates":[57.501155,-20.160874],"type":"Point"},"placekey":"@jyb-4dv-789","address":{"country_code":"MU","formatted_address":"Port Louis\nMauritius","locality":"Mauritius"}},"labels":["conference"],"duration":378000,"start_local":"2024-07-15T09:00:00","end":"2024-07-19T14:00:00Z","end_local":"2024-07-19T18:00:00","updated":"2024-05-31T22:54:23Z"},{"title":"Dodo Trail","description":"Sourced from predicthq.com","category":"sports","start":"2024-07-12T20:00:00Z","geo":{"geometry":{"coordinates":[57.3284609,-20.4450478],"type":"Point"},"placekey":"@jy9-xmc-7kf","address":{"country_code":"MU","formatted_address":"Le Morne, Rivière Noire District, Mauritius","locality":"Le Morne","region":"Rivière Noire District"}},"labels":["outdoor-sports","running","sport"],"duration":86399,"start_local":"2024-07-13T00:00:00","end":"2024-07-13T19:59:59Z","end_local":"2024-07-13T23:59:59","updated":"2024-06-28T20:05:20Z"},{"title":"ISTQB® Foundation Training Course for your Testing team - Mauritius","description":"Sourced from predicthq.com - ISTQB® FOUNDATION TRAINING COURSE FOR THE TEAM \nThe aim of this course is to provide you with the knowledge and skills to pass an exam certi","category":"conferences","start":"2024-07-08T05:00:00Z","geo":{"geometry":{"coordinates":[57.4930037,-20.2480646],"type":"Point"},"placekey":"@jyb-4td-m8v","address":{"country_code":"MU","formatted_address":"Quatre Bornes, Plaines Wilhems District, Mauritius","locality":"Quatre Bornes","region":"Plaines Wilhems District"}},"labels":["business","conference"],"duration":28800,"start_local":"2024-07-08T09:00:00","end":"2024-07-08T13:00:00Z","end_local":"2024-07-08T17:00:00","updated":"2024-06-13T01:25:51Z"},{"title":"Mauritius Marathon","description":"Sourced from predicthq.com","category":"sports","start":"2024-07-06T20:00:00Z","geo":{"geometry":{"coordinates":[57.3284609,-20.4450478],"type":"Point"},"placekey":"@jy9-xmc-7kf","address":{"country_code":"MU","formatted_address":"Le Morne, Rivière Noire District, Mauritius","locality":"Le Morne","region":"Rivière Noire District"}},"labels":["marathon","outdoor-sports","running","sport"],"duration":86399,"start_local":"2024-07-07T00:00:00","end":"2024-07-07T19:59:59Z","end_local":"2024-07-07T23:59:59","updated":"2024-06-29T20:02:43Z"},{"title":"Demo Day |  From Raw Data into Actionable Intelligence","description":"Sourced from predicthq.com - Discover the data-driven projects realized by our students during the last weeks of the Data Analytics and Data Science bootcamps.","category":"conferences","start":"2024-07-06T07:00:00Z","geo":{"geometry":{"coordinates":[57.5386004,-20.2267074],"type":"Point"},"placekey":"@jyb-4sb-yd9","address":{"country_code":"MU","formatted_address":"Saint Pierre, Moka District, Mauritius","locality":"Saint Pierre","region":"Moka District"}},"labels":["conference","science","technology"],"duration":7200,"start_local":"2024-07-06T11:00:00","end":"2024-07-06T09:00:00Z","end_local":"2024-07-06T13:00:00","updated":"2024-06-20T03:34:31Z"},{"title":"Upcoming Dubai Real Estate Event in Mauritius","description":"Sourced from predicthq.com - Join us for a real estate event in Mauritius showcasing upcoming properties in Dubai!","category":"conferences","start":"2024-07-06T06:00:00Z","geo":{"geometry":{"coordinates":[57.489596,-20.243013],"type":"Point"},"placekey":"@jyb-4tf-djv","address":{"country_code":"MU","formatted_address":"65 Cybercity\nEbene\nMauritius","locality":"Mauritius"}},"labels":["business","conference"],"duration":122400,"start_local":"2024-07-06T10:00:00","end":"2024-07-07T16:00:00Z","end_local":"2024-07-07T20:00:00","updated":"2024-06-27T13:05:36Z"},{"title":"Society 5.0 Conference","description":"Sourced from predicthq.com","category":"conferences","start":"2024-06-26T05:00:00Z","geo":{"geometry":{"coordinates":[57.466667,-20.176769],"type":"Point"},"placekey":"@jyb-4ds-ffz","address":{"country_code":"MU","formatted_address":"Avenue De La Concorde, Port Louis, Mauritius","locality":"Port Louis","region":"Rivière Noire District"}},"labels":["conference"],"duration":205200,"start_local":"2024-06-26T09:00:00","end":"2024-06-28T14:00:00Z","end_local":"2024-06-28T18:00:00","updated":"2024-06-16T00:40:17Z"},{"title":"Magenta Cross - Trail","description":"Sourced from predicthq.com","category":"sports","start":"2024-06-22T03:30:00Z","geo":{"geometry":{"coordinates":[57.4651909,-20.2834584],"type":"Point"},"placekey":"@jyb-4mj-wkz","address":{"country_code":"MU","formatted_address":"Koosseal Avenue, Quatre Bornes, Mauritius","locality":"Quatre Bornes","region":"Plaines Wilhems District"}},"labels":["outdoor-sports","running","sport"],"duration":0,"start_local":"2024-06-22T07:30:00","end":"2024-06-22T03:30:00Z","end_local":"2024-06-22T07:30:00","updated":"2024-06-04T01:18:24Z"},{"title":"Célébrons la diversité en musique","description":"Sourced from predicthq.com - Venez célébrer la diversité à travers la musique lors de notre événement spécial!","category":"concerts","start":"2024-06-21T07:00:00Z","geo":{"geometry":{"coordinates":[57.52125179999999,-20.3212129],"type":"Point"},"placekey":"@jyb-4rh-nh5","address":{"country_code":"MU","formatted_address":"Saint Clement Street, Curepipe, Mauritius","locality":"Curepipe","region":"Plaines Wilhems District"}},"labels":["concert","music"],"duration":14400,"start_local":"2024-06-21T11:00:00","end":"2024-06-21T11:00:00Z","end_local":"2024-06-21T15:00:00","updated":"2024-06-20T02:03:26Z"},{"title":"World Conference on Science Engineering and Technology","description":"Sourced from predicthq.com","category":"conferences","start":"2024-06-21T05:00:00Z","geo":{"geometry":{"coordinates":[57.541492,-20.04151],"type":"Point"},"placekey":"@jyb-4zx-kpv","address":{"country_code":"MU","formatted_address":"Coastal Road\nTrou-aux-Biches 22322\nMauritius","locality":"Mauritius"}},"labels":["conference"],"duration":118800,"start_local":"2024-06-21T09:00:00","end":"2024-06-22T14:00:00Z","end_local":"2024-06-22T18:00:00","updated":"2024-06-01T02:05:33Z"},{"title":"OffChain Mauritius","description":"Sourced from predicthq.com - No speakers, just mingle with other crypto and Web3 professionals & enthusiasts.","category":"conferences","start":"2024-06-13T14:00:00Z","geo":{"geometry":{"coordinates":[57.502378,-20.1612799],"type":"Point"},"placekey":"@jyb-4dv-7bk","address":{"country_code":"MU","formatted_address":"Sir William Newton Street, Port Louis, Mauritius","locality":"Port Louis","region":"Port Louis District"}},"labels":["business","conference"],"duration":10800,"start_local":"2024-06-13T18:00:00","end":"2024-06-13T17:00:00Z","end_local":"2024-06-13T21:00:00","updated":"2024-05-30T01:08:17Z"},{"title":"API Mauritius & Indian Oceans Property Forum","description":"Sourced from predicthq.com","category":"conferences","start":"2024-06-13T05:00:00Z","geo":{"geometry":{"coordinates":[57.509612,-20.09304],"type":"Point"},"placekey":"@jyb-4ff-8d9","address":{"country_code":"MU","formatted_address":"Balaclava Fort\nBalaclava\nMauritius","locality":"Mauritius"}},"labels":["conference"],"duration":32400,"start_local":"2024-06-13T09:00:00","end":"2024-06-13T14:00:00Z","end_local":"2024-06-13T18:00:00","updated":"2024-05-27T13:45:18Z"},{"title":"INTERNATIONAL FORUM ON INVESTMENT AND DISPUTE SETTLEMENT IN AfCFTA (IFIDSA)","description":"Sourced from predicthq.com - Join us at IFIDSA to discuss investment opportunities and dispute resolution within the African Continental Free Trade Area.","category":"conferences","start":"2024-06-13T05:00:00Z","geo":{"geometry":{"coordinates":[57.4983684,-20.16197469999999],"type":"Point"},"placekey":"@jyb-4dv-6kz","address":{"country_code":"MU","formatted_address":"Port Louis, Mauritius","locality":"Port Louis","region":"Port Louis"}},"labels":["business","conference"],"duration":75600,"start_local":"2024-06-13T09:00:00","end":"2024-06-14T02:00:00Z","end_local":"2024-06-14T06:00:00","updated":"2024-06-04T05:12:47Z"},{"title":"TechVerse by Accenture","description":"Sourced from predicthq.com - A moment of reinvention – Technology in the forefront!","category":"conferences","start":"2024-06-11T05:00:00Z","geo":{"geometry":{"coordinates":[57.492429,-20.2424769],"type":"Point"},"placekey":"@jyb-4tf-8jv","address":{"country_code":"MU","formatted_address":"Quatre Bornes, Plaines Wilhems District, Mauritius","locality":"Quatre Bornes","region":"Plaines Wilhems District"}},"labels":["conference","science","technology"],"duration":10800,"start_local":"2024-06-11T09:00:00","end":"2024-06-11T08:00:00Z","end_local":"2024-06-11T12:00:00","updated":"2024-05-26T10:58:01Z"},{"title":"ISTQB® Foundation Training Course for your Testing team - Mauritius","description":"Sourced from predicthq.com - ISTQB® FOUNDATION TRAINING COURSE FOR THE TEAM \nThe aim of this course is to provide you with the knowledge and skills to pass an exam certi","category":"conferences","start":"2024-06-10T05:00:00Z","geo":{"geometry":{"coordinates":[57.4930037,-20.2480646],"type":"Point"},"placekey":"@jyb-4td-m8v","address":{"country_code":"MU","formatted_address":"Quatre Bornes, Plaines Wilhems District, Mauritius","locality":"Quatre Bornes","region":"Plaines Wilhems District"}},"labels":["business","conference"],"duration":28800,"start_local":"2024-06-10T09:00:00","end":"2024-06-10T13:00:00Z","end_local":"2024-06-10T17:00:00","updated":"2024-06-04T08:31:25Z"},{"title":"International Conference on Smart Energy Systems and Artificial Intelligence","description":"Sourced from predicthq.com","category":"conferences","start":"2024-06-03T05:00:00Z","geo":{"geometry":{"coordinates":[57.501155,-20.160874],"type":"Point"},"placekey":"@jyb-4dv-789","address":{"country_code":"MU","formatted_address":"Port Louis\nMauritius","locality":"Mauritius"}},"labels":["conference"],"duration":291600,"start_local":"2024-06-03T09:00:00","end":"2024-06-06T14:00:00Z","end_local":"2024-06-06T18:00:00","updated":"2024-05-31T23:03:28Z"},{"title":"World Conference on Science Engineering and Technology","description":"Sourced from predicthq.com","category":"conferences","start":"2024-05-21T05:00:00Z","geo":{"geometry":{"coordinates":[57.541492,-20.04151],"type":"Point"},"placekey":"@jyb-4zx-kpv","address":{"country_code":"MU","formatted_address":"Coastal Road\nTrou-aux-Biches 22322\nMauritius","locality":"Mauritius"}},"labels":["conference"],"duration":118800,"start_local":"2024-05-21T09:00:00","end":"2024-05-22T14:00:00Z","end_local":"2024-05-22T18:00:00","updated":"2024-06-01T02:06:10Z"},{"title":"Annual Eco Resort Network","description":"Sourced from predicthq.com","category":"conferences","start":"2024-05-17T20:00:00Z","geo":{"geometry":{"coordinates":[57.501155,-20.160874],"type":"Point"},"placekey":"@jyb-4dv-789","address":{"country_code":"MU","formatted_address":"Port Louis\nMauritius","locality":"Mauritius"}},"labels":["conference"],"duration":431999,"start_local":"2024-05-18T00:00:00","end":"2024-05-22T19:59:59Z","end_local":"2024-05-22T23:59:59","updated":"2024-05-31T23:17:45Z"},{"title":"ISTQB® Foundation Training Course for your Testing team - Mauritius","description":"Sourced from predicthq.com - ISTQB® FOUNDATION TRAINING COURSE FOR THE TEAM \nThe aim of this course is to provide you with the knowledge and skills to pass an exam certi","category":"conferences","start":"2024-05-13T05:00:00Z","geo":{"geometry":{"coordinates":[57.4930037,-20.2480646],"type":"Point"},"placekey":"@jyb-4td-m8v","address":{"country_code":"MU","formatted_address":"Quatre Bornes, Plaines Wilhems District, Mauritius","locality":"Quatre Bornes","region":"Plaines Wilhems District"}},"labels":["business","conference"],"duration":28800,"start_local":"2024-05-13T09:00:00","end":"2024-05-13T13:00:00Z","end_local":"2024-05-13T17:00:00","updated":"2024-06-05T01:46:16Z"},{"title":"Royal Raid","description":"Sourced from predicthq.com","category":"sports","start":"2024-05-11T01:30:00Z","geo":{"geometry":{"coordinates":[57.4138889,-20.5041667],"type":"Point"},"placekey":"@jy9-z89-3t9","address":{"country_code":"MU","formatted_address":"Bel Ombre, Savanne District, Mauritius","locality":"Bel Ombre","region":"Savanne District"}},"labels":["outdoor-sports","running","sport"],"duration":0,"start_local":"2024-05-11T05:30:00","end":"2024-05-11T01:30:00Z","end_local":"2024-05-11T05:30:00","updated":"2024-06-05T08:52:40Z"},{"title":"World Conference on Science Engineering and Technology","description":"Sourced from predicthq.com","category":"conferences","start":"2024-04-21T05:00:00Z","geo":{"geometry":{"coordinates":[57.541492,-20.04151],"type":"Point"},"placekey":"@jyb-4zx-kpv","address":{"country_code":"MU","formatted_address":"Coastal Road\nTrou-aux-Biches 22322\nMauritius","locality":"Mauritius"}},"labels":["conference"],"duration":118800,"start_local":"2024-04-21T09:00:00","end":"2024-04-22T14:00:00Z","end_local":"2024-04-22T18:00:00","updated":"2024-06-01T02:05:50Z"},{"title":"Upskilled Traineeship Expo","description":"Sourced from predicthq.com - Come check out the Upskilled Traineeship Expo, where you can explore various traineeship opportunities and kickstart your career!","category":"expos","start":"2024-04-16T05:30:00Z","geo":{"geometry":{"coordinates":[57.4952662,-20.2240861],"type":"Point"},"placekey":"@jyb-4tb-5mk","address":{"country_code":"MU","formatted_address":"Moka, Moka District, Mauritius","locality":"Moka","region":"Moka District"}},"labels":["business","expo"],"duration":10800,"start_local":"2024-04-16T09:30:00","end":"2024-04-16T08:30:00Z","end_local":"2024-04-16T12:30:00","updated":"2024-06-05T17:24:26Z"},{"title":"Mystik Garden Festival","description":"Sourced from predicthq.com","category":"festivals","start":"2024-04-12T20:00:00Z","geo":{"geometry":{"coordinates":[57.520626,-20.0856876],"type":"Point"},"placekey":"@jyb-4fd-whq","address":{"country_code":"MU","formatted_address":"WG7C+P7C, Balaclava, Mauritius","locality":"Balaclava","region":"Pamplemousses District"}},"labels":["festival","music"],"duration":86399,"start_local":"2024-04-13T00:00:00","end":"2024-04-13T19:59:59Z","end_local":"2024-04-13T23:59:59","updated":"2024-06-05T16:11:28Z"},{"title":"ISTQB® Foundation Training Course for your Testing team - Mauritius","description":"Sourced from predicthq.com - ISTQB® FOUNDATION TRAINING COURSE FOR THE TEAM \nThe aim of this course is to provide you with the knowledge and skills to pass an exam certi","category":"conferences","start":"2024-04-08T05:00:00Z","geo":{"geometry":{"coordinates":[57.4930037,-20.2480646],"type":"Point"},"placekey":"@jyb-4td-m8v","address":{"country_code":"MU","formatted_address":"Quatre Bornes, Plaines Wilhems District, Mauritius","locality":"Quatre Bornes","region":"Plaines Wilhems District"}},"labels":["business","conference"],"duration":28800,"start_local":"2024-04-08T09:00:00","end":"2024-04-08T13:00:00Z","end_local":"2024-04-08T17:00:00","updated":"2024-06-05T05:49:33Z"}]