[{"title":"Super League - FOMO vs Karonga United","description":"Sourced from predicthq.com","category":"sports","start":"2024-09-29T12:30:00Z","geo":{"geometry":{"coordinates":[35.5041620639221,-16.02365833469162],"type":"Point"},"placekey":"@hzc-83z-rc5","address":{"country_code":"MW","formatted_address":"Mulanje, Malawi","locality":"Mulanje","region":"Southern Region"}},"labels":["soccer","sport"],"duration":0,"start_local":"2024-09-29T14:30:00","end":"2024-09-29T12:30:00Z","end_local":"2024-09-29T14:30:00","updated":"2024-06-20T17:40:06Z"},{"title":"Super League - CIVO United vs MAFCO","description":"Sourced from predicthq.com","category":"sports","start":"2024-09-29T12:30:00Z","geo":{"geometry":{"coordinates":[33.7584072,-13.977959],"type":"Point"},"placekey":"@hz2-nwb-z2k","address":{"country_code":"MW","formatted_address":"2QC5+R9 Lilongwe, Malawi","locality":"Lilongwe","region":"Central Region"}},"labels":["soccer","sport"],"duration":0,"start_local":"2024-09-29T14:30:00","end":"2024-09-29T12:30:00Z","end_local":"2024-09-29T14:30:00","updated":"2024-06-20T18:28:28Z"},{"title":"Super League - Dedza Dynamos vs Moyale Barracks","description":"Sourced from predicthq.com","category":"sports","start":"2024-09-29T12:30:00Z","geo":{"geometry":{"coordinates":[34.33006525039673,-14.377880402343536],"type":"Point"},"placekey":"@hzb-vrg-mx5","address":{"country_code":"MW","formatted_address":"J8CJ+V33, Dedza, Malawi","locality":"Dedza","region":"Central Region"}},"labels":["soccer","sport"],"duration":0,"start_local":"2024-09-29T14:30:00","end":"2024-09-29T12:30:00Z","end_local":"2024-09-29T14:30:00","updated":"2024-06-20T17:25:57Z"},{"title":"Super League - Kamuzu Barracks vs Mighty Tigers","description":"Sourced from predicthq.com","category":"sports","start":"2024-09-29T12:30:00Z","geo":{"geometry":{"coordinates":[33.719938884,-13.525271349],"type":"Point"},"placekey":"@hz2-hz7-gkz","address":{"country_code":"MW","formatted_address":"FPF9+VXM, Mponela, Malawi","locality":"Mponela","region":"Central Region"}},"labels":["soccer","sport"],"duration":0,"start_local":"2024-09-29T14:30:00","end":"2024-09-29T12:30:00Z","end_local":"2024-09-29T14:30:00","updated":"2024-06-20T17:26:22Z"},{"title":"Super League - Silver Strikers vs Baka City","description":"Sourced from predicthq.com","category":"sports","start":"2024-09-28T12:30:00Z","geo":{"geometry":{"coordinates":[33.7696519,-13.953588],"type":"Point"},"placekey":"@hz2-ng7-8n5","address":{"country_code":"MW","formatted_address":"2QW9+HV6, Lilongwe, Malawi","locality":"Lilongwe","region":"Central Region"}},"labels":["soccer","sport"],"duration":0,"start_local":"2024-09-28T14:30:00","end":"2024-09-28T12:30:00Z","end_local":"2024-09-28T14:30:00","updated":"2024-06-20T17:26:22Z"},{"title":"Super League - Chitipa United vs Bangwe All Stars","description":"Sourced from predicthq.com","category":"sports","start":"2024-09-28T12:30:00Z","geo":{"geometry":{"coordinates":[33.90143829999999,-9.9401133],"type":"Point"},"placekey":"@hwp-nmn-x3q","address":{"country_code":"MW","formatted_address":"M26, Karonga, Malawi","locality":"Karonga","region":"Northern Region"}},"labels":["soccer","sport"],"duration":0,"start_local":"2024-09-28T14:30:00","end":"2024-09-28T12:30:00Z","end_local":"2024-09-28T14:30:00","updated":"2024-06-20T17:24:56Z"},{"title":"Super League - Nyasa Big Bullets vs Creck","description":"Sourced from predicthq.com","category":"sports","start":"2024-09-28T12:30:00Z","geo":{"geometry":{"coordinates":[35.0343421,-15.7990774],"type":"Point"},"placekey":"@hzb-69f-kxq","address":{"country_code":"MW","formatted_address":"622M+9P8, Blantyre, Malawi","locality":"Blantyre","region":"Southern Region"}},"labels":["soccer","sport"],"duration":0,"start_local":"2024-09-28T14:30:00","end":"2024-09-28T12:30:00Z","end_local":"2024-09-28T14:30:00","updated":"2024-06-20T17:58:24Z"},{"title":"Super League - Mighty Wanderers vs Mzuzu City Hammers","description":"Sourced from predicthq.com","category":"sports","start":"2024-09-24T12:30:00Z","geo":{"geometry":{"coordinates":[35.0343421,-15.7990774],"type":"Point"},"placekey":"@hzb-69f-kxq","address":{"country_code":"MW","formatted_address":"622M+9P8, Blantyre, Malawi","locality":"Blantyre","region":"Southern Region"}},"labels":["soccer","sport"],"duration":0,"start_local":"2024-09-24T14:30:00","end":"2024-09-24T12:30:00Z","end_local":"2024-09-24T14:30:00","updated":"2024-06-20T17:26:22Z"},{"title":"Super League - MAFCO vs Mzuzu City Hammers","description":"Sourced from predicthq.com","category":"sports","start":"2024-09-22T12:30:00Z","geo":{"geometry":{"coordinates":[34.28343772,-12.9230057],"type":"Point"},"placekey":"@hz2-kmg-4gk","address":{"country_code":"MW","formatted_address":"37GM+RGR, Nkhotakota, Malawi","locality":"Nkhotakota","region":"Central Region"}},"labels":["soccer","sport"],"duration":0,"start_local":"2024-09-22T14:30:00","end":"2024-09-22T12:30:00Z","end_local":"2024-09-22T14:30:00","updated":"2024-06-20T18:28:23Z"},{"title":"Super League - Karonga United vs Bangwe All Stars","description":"Sourced from predicthq.com","category":"sports","start":"2024-09-22T12:30:00Z","geo":{"geometry":{"coordinates":[33.90143829999999,-9.9401133],"type":"Point"},"placekey":"@hwp-nmn-x3q","address":{"country_code":"MW","formatted_address":"M26, Karonga, Malawi","locality":"Karonga","region":"Northern Region"}},"labels":["soccer","sport"],"duration":0,"start_local":"2024-09-22T14:30:00","end":"2024-09-22T12:30:00Z","end_local":"2024-09-22T14:30:00","updated":"2024-06-20T18:03:49Z"},{"title":"Super League - Dedza Dynamos vs Mighty Tigers","description":"Sourced from predicthq.com","category":"sports","start":"2024-09-22T12:30:00Z","geo":{"geometry":{"coordinates":[34.33006525039673,-14.377880402343536],"type":"Point"},"placekey":"@hzb-vrg-mx5","address":{"country_code":"MW","formatted_address":"J8CJ+V33, Dedza, Malawi","locality":"Dedza","region":"Central Region"}},"labels":["soccer","sport"],"duration":0,"start_local":"2024-09-22T14:30:00","end":"2024-09-22T12:30:00Z","end_local":"2024-09-22T14:30:00","updated":"2024-06-20T17:40:11Z"},{"title":"Super League - Creck vs Chitipa United","description":"Sourced from predicthq.com","category":"sports","start":"2024-09-21T12:30:00Z","geo":{"geometry":{"coordinates":[33.80616009235382,-13.978448852496237],"type":"Point"},"placekey":"@hz2-nwf-3yv","address":{"country_code":"MW","formatted_address":"3Q8M+64C, Lilongwe, Malawi","locality":"Lilongwe","region":"Central Region"}},"labels":["soccer","sport"],"duration":0,"start_local":"2024-09-21T14:30:00","end":"2024-09-21T12:30:00Z","end_local":"2024-09-21T14:30:00","updated":"2024-06-20T17:24:56Z"},{"title":"Super League - Moyale Barracks vs Kamuzu Barracks","description":"Sourced from predicthq.com","category":"sports","start":"2024-09-21T12:30:00Z","geo":{"geometry":{"coordinates":[34.0228906,-11.4500497],"type":"Point"},"placekey":"@hyz-y9x-9j9","address":{"country_code":"MW","formatted_address":"G2XF+X5J, Mzuzu, Malawi","locality":"Mzuzu","region":"Northern Region"}},"labels":["soccer","sport"],"duration":0,"start_local":"2024-09-21T14:30:00","end":"2024-09-21T12:30:00Z","end_local":"2024-09-21T14:30:00","updated":"2024-06-20T11:55:57Z"},{"title":"Super League - Baka City vs CIVO United","description":"Sourced from predicthq.com","category":"sports","start":"2024-09-21T12:30:00Z","geo":{"geometry":{"coordinates":[33.90143829999999,-9.9401133],"type":"Point"},"placekey":"@hwp-nmn-x3q","address":{"country_code":"MW","formatted_address":"M26, Karonga, Malawi","locality":"Karonga","region":"Northern Region"}},"labels":["soccer","sport"],"duration":0,"start_local":"2024-09-21T14:30:00","end":"2024-09-21T12:30:00Z","end_local":"2024-09-21T14:30:00","updated":"2024-06-20T12:48:09Z"},{"title":"Super League - Silver Strikers vs Nyasa Big Bullets","description":"Sourced from predicthq.com","category":"sports","start":"2024-09-18T12:30:00Z","geo":{"geometry":{"coordinates":[33.7696519,-13.953588],"type":"Point"},"placekey":"@hz2-ng7-8n5","address":{"country_code":"MW","formatted_address":"2QW9+HV6, Lilongwe, Malawi","locality":"Lilongwe","region":"Central Region"}},"labels":["soccer","sport"],"duration":0,"start_local":"2024-09-18T14:30:00","end":"2024-09-18T12:30:00Z","end_local":"2024-09-18T14:30:00","updated":"2024-06-20T11:51:31Z"},{"title":"Super League - Mighty Wanderers vs FOMO","description":"Sourced from predicthq.com","category":"sports","start":"2024-09-18T12:30:00Z","geo":{"geometry":{"coordinates":[35.0343421,-15.7990774],"type":"Point"},"placekey":"@hzb-69f-kxq","address":{"country_code":"MW","formatted_address":"622M+9P8, Blantyre, Malawi","locality":"Blantyre","region":"Southern Region"}},"labels":["soccer","sport"],"duration":0,"start_local":"2024-09-18T14:30:00","end":"2024-09-18T12:30:00Z","end_local":"2024-09-18T14:30:00","updated":"2024-06-20T12:15:46Z"},{"title":"Super League - Mighty Tigers vs Bangwe All Stars","description":"Sourced from predicthq.com","category":"sports","start":"2024-09-15T12:30:00Z","geo":{"geometry":{"coordinates":[35.056574488526834,-15.83535245857782],"type":"Point"},"placekey":"@hzb-69p-4vz","address":{"country_code":"MW","formatted_address":"5374+VJ2, Blantyre, Malawi","locality":"Blantyre","region":"Southern Region"}},"labels":["soccer","sport"],"duration":0,"start_local":"2024-09-15T14:30:00","end":"2024-09-15T12:30:00Z","end_local":"2024-09-15T14:30:00","updated":"2024-06-20T17:40:11Z"},{"title":"Super League - FOMO vs Creck","description":"Sourced from predicthq.com","category":"sports","start":"2024-09-15T12:30:00Z","geo":{"geometry":{"coordinates":[35.5041620639221,-16.02365833469162],"type":"Point"},"placekey":"@hzc-83z-rc5","address":{"country_code":"MW","formatted_address":"Mulanje, Malawi","locality":"Mulanje","region":"Southern Region"}},"labels":["soccer","sport"],"duration":0,"start_local":"2024-09-15T14:30:00","end":"2024-09-15T12:30:00Z","end_local":"2024-09-15T14:30:00","updated":"2024-06-20T17:30:59Z"},{"title":"Super League - CIVO United vs Mighty Wanderers","description":"Sourced from predicthq.com","category":"sports","start":"2024-09-15T12:30:00Z","geo":{"geometry":{"coordinates":[33.7584072,-13.977959],"type":"Point"},"placekey":"@hz2-nwb-z2k","address":{"country_code":"MW","formatted_address":"2QC5+R9 Lilongwe, Malawi","locality":"Lilongwe","region":"Central Region"}},"labels":["soccer","sport"],"duration":0,"start_local":"2024-09-15T14:30:00","end":"2024-09-15T12:30:00Z","end_local":"2024-09-15T14:30:00","updated":"2024-06-20T12:11:46Z"},{"title":"Super League - Karonga United vs MAFCO","description":"Sourced from predicthq.com","category":"sports","start":"2024-09-15T12:30:00Z","geo":{"geometry":{"coordinates":[33.90143829999999,-9.9401133],"type":"Point"},"placekey":"@hwp-nmn-x3q","address":{"country_code":"MW","formatted_address":"M26, Karonga, Malawi","locality":"Karonga","region":"Northern Region"}},"labels":["soccer","sport"],"duration":0,"start_local":"2024-09-15T14:30:00","end":"2024-09-15T12:30:00Z","end_local":"2024-09-15T14:30:00","updated":"2024-06-20T17:58:24Z"},{"title":"Super League - Mzuzu City Hammers vs Silver Strikers","description":"Sourced from predicthq.com","category":"sports","start":"2024-09-14T12:30:00Z","geo":{"geometry":{"coordinates":[33.7696519,-13.953588],"type":"Point"},"placekey":"@hz2-ng7-8n5","address":{"country_code":"MW","formatted_address":"2QW9+HV6, Lilongwe, Malawi","locality":"Lilongwe","region":"Central Region"}},"labels":["soccer","sport"],"duration":0,"start_local":"2024-09-14T14:30:00","end":"2024-09-14T12:30:00Z","end_local":"2024-09-14T14:30:00","updated":"2024-06-20T11:53:57Z"},{"title":"Super League - Nyasa Big Bullets vs Dedza Dynamos","description":"Sourced from predicthq.com","category":"sports","start":"2024-09-14T12:30:00Z","geo":{"geometry":{"coordinates":[35.0343421,-15.7990774],"type":"Point"},"placekey":"@hzb-69f-kxq","address":{"country_code":"MW","formatted_address":"622M+9P8, Blantyre, Malawi","locality":"Blantyre","region":"Southern Region"}},"labels":["soccer","sport"],"duration":0,"start_local":"2024-09-14T14:30:00","end":"2024-09-14T12:30:00Z","end_local":"2024-09-14T14:30:00","updated":"2024-06-20T12:17:51Z"},{"title":"Super League - Kamuzu Barracks vs MAFCO","description":"Sourced from predicthq.com","category":"sports","start":"2024-09-08T12:30:00Z","geo":{"geometry":{"coordinates":[33.719938884,-13.525271349],"type":"Point"},"placekey":"@hz2-hz7-gkz","address":{"country_code":"MW","formatted_address":"FPF9+VXM, Mponela, Malawi","locality":"Mponela","region":"Central Region"}},"labels":["soccer","sport"],"duration":0,"start_local":"2024-09-08T14:30:00","end":"2024-09-08T12:30:00Z","end_local":"2024-09-08T14:30:00","updated":"2024-06-20T17:35:55Z"},{"title":"Super League - Bangwe All Stars vs CIVO United","description":"Sourced from predicthq.com","category":"sports","start":"2024-09-08T12:30:00Z","geo":{"geometry":{"coordinates":[35.056574488526834,-15.83535245857782],"type":"Point"},"placekey":"@hzb-69p-4vz","address":{"country_code":"MW","formatted_address":"5374+VJ2, Blantyre, Malawi","locality":"Blantyre","region":"Southern Region"}},"labels":["soccer","sport"],"duration":0,"start_local":"2024-09-08T14:30:00","end":"2024-09-08T12:30:00Z","end_local":"2024-09-08T14:30:00","updated":"2024-06-20T17:25:57Z"},{"title":"Super League - Moyale Barracks vs FOMO","description":"Sourced from predicthq.com","category":"sports","start":"2024-09-08T12:30:00Z","geo":{"geometry":{"coordinates":[34.0228906,-11.4500497],"type":"Point"},"placekey":"@hyz-y9x-9j9","address":{"country_code":"MW","formatted_address":"G2XF+X5J, Mzuzu, Malawi","locality":"Mzuzu","region":"Northern Region"}},"labels":["soccer","sport"],"duration":0,"start_local":"2024-09-08T14:30:00","end":"2024-09-08T12:30:00Z","end_local":"2024-09-08T14:30:00","updated":"2024-06-20T17:40:11Z"},{"title":"Super League - Silver Strikers vs Mighty Tigers","description":"Sourced from predicthq.com","category":"sports","start":"2024-09-07T12:30:00Z","geo":{"geometry":{"coordinates":[33.7696519,-13.953588],"type":"Point"},"placekey":"@hz2-ng7-8n5","address":{"country_code":"MW","formatted_address":"2QW9+HV6, Lilongwe, Malawi","locality":"Lilongwe","region":"Central Region"}},"labels":["soccer","sport"],"duration":0,"start_local":"2024-09-07T14:30:00","end":"2024-09-07T12:30:00Z","end_local":"2024-09-07T14:30:00","updated":"2024-06-20T17:26:27Z"},{"title":"Super League - Creck vs Mighty Wanderers","description":"Sourced from predicthq.com","category":"sports","start":"2024-09-07T12:30:00Z","geo":{"geometry":{"coordinates":[33.80616009235382,-13.978448852496237],"type":"Point"},"placekey":"@hz2-nwf-3yv","address":{"country_code":"MW","formatted_address":"3Q8M+64C, Lilongwe, Malawi","locality":"Lilongwe","region":"Central Region"}},"labels":["soccer","sport"],"duration":0,"start_local":"2024-09-07T14:30:00","end":"2024-09-07T12:30:00Z","end_local":"2024-09-07T14:30:00","updated":"2024-06-20T18:28:23Z"},{"title":"Super League - Nyasa Big Bullets vs Karonga United","description":"Sourced from predicthq.com","category":"sports","start":"2024-09-07T12:30:00Z","geo":{"geometry":{"coordinates":[35.0343421,-15.7990774],"type":"Point"},"placekey":"@hzb-69f-kxq","address":{"country_code":"MW","formatted_address":"622M+9P8, Blantyre, Malawi","locality":"Blantyre","region":"Southern Region"}},"labels":["soccer","sport"],"duration":0,"start_local":"2024-09-07T14:30:00","end":"2024-09-07T12:30:00Z","end_local":"2024-09-07T14:30:00","updated":"2024-06-20T12:31:12Z"},{"title":"Super League - Baka City vs Chitipa United","description":"Sourced from predicthq.com","category":"sports","start":"2024-09-07T12:30:00Z","geo":{"geometry":{"coordinates":[33.90143829999999,-9.9401133],"type":"Point"},"placekey":"@hwp-nmn-x3q","address":{"country_code":"MW","formatted_address":"M26, Karonga, Malawi","locality":"Karonga","region":"Northern Region"}},"labels":["soccer","sport"],"duration":0,"start_local":"2024-09-07T14:30:00","end":"2024-09-07T12:30:00Z","end_local":"2024-09-07T14:30:00","updated":"2024-06-20T18:25:03Z"},{"title":"Super League - MAFCO vs Baka City","description":"Sourced from predicthq.com","category":"sports","start":"2024-09-01T12:30:00Z","geo":{"geometry":{"coordinates":[34.28343772,-12.9230057],"type":"Point"},"placekey":"@hz2-kmg-4gk","address":{"country_code":"MW","formatted_address":"37GM+RGR, Nkhotakota, Malawi","locality":"Nkhotakota","region":"Central Region"}},"labels":["soccer","sport"],"duration":0,"start_local":"2024-09-01T14:30:00","end":"2024-09-01T12:30:00Z","end_local":"2024-09-01T14:30:00","updated":"2024-06-20T12:14:34Z"},{"title":"Super League - Mzuzu City Hammers vs Bangwe All Stars","description":"Sourced from predicthq.com","category":"sports","start":"2024-09-01T12:30:00Z","geo":{"geometry":{"coordinates":[34.0228906,-11.4500497],"type":"Point"},"placekey":"@hyz-y9x-9j9","address":{"country_code":"MW","formatted_address":"G2XF+X5J, Mzuzu, Malawi","locality":"Mzuzu","region":"Northern Region"}},"labels":["soccer","sport"],"duration":0,"start_local":"2024-09-01T14:30:00","end":"2024-09-01T12:30:00Z","end_local":"2024-09-01T14:30:00","updated":"2024-06-20T12:16:46Z"},{"title":"Super League - FOMO vs Mighty Tigers","description":"Sourced from predicthq.com","category":"sports","start":"2024-09-01T12:30:00Z","geo":{"geometry":{"coordinates":[35.5041620639221,-16.02365833469162],"type":"Point"},"placekey":"@hzc-83z-rc5","address":{"country_code":"MW","formatted_address":"Mulanje, Malawi","locality":"Mulanje","region":"Southern Region"}},"labels":["soccer","sport"],"duration":0,"start_local":"2024-09-01T14:30:00","end":"2024-09-01T12:30:00Z","end_local":"2024-09-01T14:30:00","updated":"2024-06-20T12:20:12Z"},{"title":"Super League - Karonga United vs Silver Strikers","description":"Sourced from predicthq.com","category":"sports","start":"2024-08-31T12:30:00Z","geo":{"geometry":{"coordinates":[33.90143829999999,-9.9401133],"type":"Point"},"placekey":"@hwp-nmn-x3q","address":{"country_code":"MW","formatted_address":"M26, Karonga, Malawi","locality":"Karonga","region":"Northern Region"}},"labels":["soccer","sport"],"duration":0,"start_local":"2024-08-31T14:30:00","end":"2024-08-31T12:30:00Z","end_local":"2024-08-31T14:30:00","updated":"2024-06-20T17:30:59Z"},{"title":"Super League - Mighty Wanderers vs Nyasa Big Bullets","description":"Sourced from predicthq.com","category":"sports","start":"2024-08-31T12:30:00Z","geo":{"geometry":{"coordinates":[35.0343421,-15.7990774],"type":"Point"},"placekey":"@hzb-69f-kxq","address":{"country_code":"MW","formatted_address":"622M+9P8, Blantyre, Malawi","locality":"Blantyre","region":"Southern Region"}},"labels":["soccer","sport"],"duration":0,"start_local":"2024-08-31T14:30:00","end":"2024-08-31T12:30:00Z","end_local":"2024-08-31T14:30:00","updated":"2024-06-20T12:05:02Z"},{"title":"Super League - Creck vs Kamuzu Barracks","description":"Sourced from predicthq.com","category":"sports","start":"2024-08-31T12:30:00Z","geo":{"geometry":{"coordinates":[33.80616009235382,-13.978448852496237],"type":"Point"},"placekey":"@hz2-nwf-3yv","address":{"country_code":"MW","formatted_address":"3Q8M+64C, Lilongwe, Malawi","locality":"Lilongwe","region":"Central Region"}},"labels":["soccer","sport"],"duration":0,"start_local":"2024-08-31T14:30:00","end":"2024-08-31T12:30:00Z","end_local":"2024-08-31T14:30:00","updated":"2024-06-20T12:47:01Z"},{"title":"Super League - FOMO vs MAFCO","description":"Sourced from predicthq.com","category":"sports","start":"2024-08-25T12:30:00Z","geo":{"geometry":{"coordinates":[35.5041620639221,-16.02365833469162],"type":"Point"},"placekey":"@hzc-83z-rc5","address":{"country_code":"MW","formatted_address":"Mulanje, Malawi","locality":"Mulanje","region":"Southern Region"}},"labels":["soccer","sport"],"duration":0,"start_local":"2024-08-25T14:30:00","end":"2024-08-25T12:30:00Z","end_local":"2024-08-25T14:30:00","updated":"2024-06-20T11:56:02Z"},{"title":"Super League - Moyale Barracks vs Karonga United","description":"Sourced from predicthq.com","category":"sports","start":"2024-08-25T12:30:00Z","geo":{"geometry":{"coordinates":[34.0228906,-11.4500497],"type":"Point"},"placekey":"@hyz-y9x-9j9","address":{"country_code":"MW","formatted_address":"G2XF+X5J, Mzuzu, Malawi","locality":"Mzuzu","region":"Northern Region"}},"labels":["soccer","sport"],"duration":0,"start_local":"2024-08-25T14:30:00","end":"2024-08-25T12:30:00Z","end_local":"2024-08-25T14:30:00","updated":"2024-06-20T11:58:18Z"},{"title":"Super League - Creck vs Baka City","description":"Sourced from predicthq.com","category":"sports","start":"2024-08-25T12:30:00Z","geo":{"geometry":{"coordinates":[33.80616009235382,-13.978448852496237],"type":"Point"},"placekey":"@hz2-nwf-3yv","address":{"country_code":"MW","formatted_address":"3Q8M+64C, Lilongwe, Malawi","locality":"Lilongwe","region":"Central Region"}},"labels":["soccer","sport"],"duration":0,"start_local":"2024-08-25T14:30:00","end":"2024-08-25T12:30:00Z","end_local":"2024-08-25T14:30:00","updated":"2024-06-20T11:56:02Z"},{"title":"Super League - Nyasa Big Bullets vs Chitipa United","description":"Sourced from predicthq.com","category":"sports","start":"2024-08-24T12:30:00Z","geo":{"geometry":{"coordinates":[35.0343421,-15.7990774],"type":"Point"},"placekey":"@hzb-69f-kxq","address":{"country_code":"MW","formatted_address":"622M+9P8, Blantyre, Malawi","locality":"Blantyre","region":"Southern Region"}},"labels":["soccer","sport"],"duration":0,"start_local":"2024-08-24T14:30:00","end":"2024-08-24T12:30:00Z","end_local":"2024-08-24T14:30:00","updated":"2024-06-20T17:26:22Z"},{"title":"Super League - Silver Strikers vs Kamuzu Barracks","description":"Sourced from predicthq.com","category":"sports","start":"2024-08-24T12:30:00Z","geo":{"geometry":{"coordinates":[33.7696519,-13.953588],"type":"Point"},"placekey":"@hz2-ng7-8n5","address":{"country_code":"MW","formatted_address":"2QW9+HV6, Lilongwe, Malawi","locality":"Lilongwe","region":"Central Region"}},"labels":["soccer","sport"],"duration":0,"start_local":"2024-08-24T14:30:00","end":"2024-08-24T12:30:00Z","end_local":"2024-08-24T14:30:00","updated":"2024-06-20T12:47:01Z"},{"title":"Super League - Dedza Dynamos vs CIVO United","description":"Sourced from predicthq.com","category":"sports","start":"2024-08-24T12:30:00Z","geo":{"geometry":{"coordinates":[34.33006525039673,-14.377880402343536],"type":"Point"},"placekey":"@hzb-vrg-mx5","address":{"country_code":"MW","formatted_address":"J8CJ+V33, Dedza, Malawi","locality":"Dedza","region":"Central Region"}},"labels":["soccer","sport"],"duration":0,"start_local":"2024-08-24T14:30:00","end":"2024-08-24T12:30:00Z","end_local":"2024-08-24T14:30:00","updated":"2024-06-20T12:41:33Z"},{"title":"Super League - Moyale Barracks vs Mighty Wanderers","description":"Sourced from predicthq.com","category":"sports","start":"2024-08-24T12:30:00Z","geo":{"geometry":{"coordinates":[34.0228906,-11.4500497],"type":"Point"},"placekey":"@hyz-y9x-9j9","address":{"country_code":"MW","formatted_address":"G2XF+X5J, Mzuzu, Malawi","locality":"Mzuzu","region":"Northern Region"}},"labels":["soccer","sport"],"duration":0,"start_local":"2024-08-24T14:30:00","end":"2024-08-24T12:30:00Z","end_local":"2024-08-24T14:30:00","updated":"2024-06-20T12:41:33Z"},{"title":"Super League - Karonga United vs Baka City","description":"Sourced from predicthq.com","category":"sports","start":"2024-08-18T12:30:00Z","geo":{"geometry":{"coordinates":[33.90143829999999,-9.9401133],"type":"Point"},"placekey":"@hwp-nmn-x3q","address":{"country_code":"MW","formatted_address":"M26, Karonga, Malawi","locality":"Karonga","region":"Northern Region"}},"labels":["soccer","sport"],"duration":0,"start_local":"2024-08-18T14:30:00","end":"2024-08-18T12:30:00Z","end_local":"2024-08-18T14:30:00","updated":"2024-06-20T17:30:59Z"},{"title":"Super League - Bangwe All Stars vs Dedza Dynamos","description":"Sourced from predicthq.com","category":"sports","start":"2024-08-18T12:30:00Z","geo":{"geometry":{"coordinates":[35.056574488526834,-15.83535245857782],"type":"Point"},"placekey":"@hzb-69p-4vz","address":{"country_code":"MW","formatted_address":"5374+VJ2, Blantyre, Malawi","locality":"Blantyre","region":"Southern Region"}},"labels":["soccer","sport"],"duration":0,"start_local":"2024-08-18T14:30:00","end":"2024-08-18T12:30:00Z","end_local":"2024-08-18T14:30:00","updated":"2024-06-20T12:30:36Z"},{"title":"Super League - Moyale Barracks vs Mzuzu City Hammers","description":"Sourced from predicthq.com","category":"sports","start":"2024-08-18T12:30:00Z","geo":{"geometry":{"coordinates":[34.0228906,-11.4500497],"type":"Point"},"placekey":"@hyz-y9x-9j9","address":{"country_code":"MW","formatted_address":"G2XF+X5J, Mzuzu, Malawi","locality":"Mzuzu","region":"Northern Region"}},"labels":["soccer","sport"],"duration":0,"start_local":"2024-08-18T14:30:00","end":"2024-08-18T12:30:00Z","end_local":"2024-08-18T14:30:00","updated":"2024-06-20T17:40:11Z"},{"title":"Super League - Mighty Wanderers vs MAFCO","description":"Sourced from predicthq.com","category":"sports","start":"2024-08-18T12:30:00Z","geo":{"geometry":{"coordinates":[35.0343421,-15.7990774],"type":"Point"},"placekey":"@hzb-69f-kxq","address":{"country_code":"MW","formatted_address":"622M+9P8, Blantyre, Malawi","locality":"Blantyre","region":"Southern Region"}},"labels":["soccer","sport"],"duration":0,"start_local":"2024-08-18T14:30:00","end":"2024-08-18T12:30:00Z","end_local":"2024-08-18T14:30:00","updated":"2024-06-20T11:58:18Z"},{"title":"Super League - FOMO vs Kamuzu Barracks","description":"Sourced from predicthq.com","category":"sports","start":"2024-08-17T12:30:00Z","geo":{"geometry":{"coordinates":[35.5041620639221,-16.02365833469162],"type":"Point"},"placekey":"@hzc-83z-rc5","address":{"country_code":"MW","formatted_address":"Mulanje, Malawi","locality":"Mulanje","region":"Southern Region"}},"labels":["soccer","sport"],"duration":0,"start_local":"2024-08-17T14:30:00","end":"2024-08-17T12:30:00Z","end_local":"2024-08-17T14:30:00","updated":"2024-06-20T11:53:57Z"},{"title":"Super League - Mighty Tigers vs Nyasa Big Bullets","description":"Sourced from predicthq.com","category":"sports","start":"2024-08-17T12:30:00Z","geo":{"geometry":{"coordinates":[35.0343421,-15.7990774],"type":"Point"},"placekey":"@hzb-69f-kxq","address":{"country_code":"MW","formatted_address":"622M+9P8, Blantyre, Malawi","locality":"Blantyre","region":"Southern Region"}},"labels":["soccer","sport"],"duration":0,"start_local":"2024-08-17T14:30:00","end":"2024-08-17T12:30:00Z","end_local":"2024-08-17T14:30:00","updated":"2024-06-20T11:58:12Z"},{"title":"Super League - CIVO United vs Creck","description":"Sourced from predicthq.com","category":"sports","start":"2024-08-17T12:30:00Z","geo":{"geometry":{"coordinates":[33.7584072,-13.977959],"type":"Point"},"placekey":"@hz2-nwb-z2k","address":{"country_code":"MW","formatted_address":"2QC5+R9 Lilongwe, Malawi","locality":"Lilongwe","region":"Central Region"}},"labels":["soccer","sport"],"duration":0,"start_local":"2024-08-17T14:30:00","end":"2024-08-17T12:30:00Z","end_local":"2024-08-17T14:30:00","updated":"2024-06-20T17:35:55Z"},{"title":"Super League - Chitipa United vs Silver Strikers","description":"Sourced from predicthq.com","category":"sports","start":"2024-08-17T12:30:00Z","geo":{"geometry":{"coordinates":[33.90143829999999,-9.9401133],"type":"Point"},"placekey":"@hwp-nmn-x3q","address":{"country_code":"MW","formatted_address":"M26, Karonga, Malawi","locality":"Karonga","region":"Northern Region"}},"labels":["soccer","sport"],"duration":0,"start_local":"2024-08-17T14:30:00","end":"2024-08-17T12:30:00Z","end_local":"2024-08-17T14:30:00","updated":"2024-06-20T17:58:19Z"},{"title":"MWNOG-1 &  SAFNOG-9","description":"Sourced from predicthq.com - MWNOG-1 & SAFNOG-9: Two awesome tech networking events in one - don't miss out on the opportunity to connect with industry experts and learn","category":"conferences","start":"2024-08-13T08:00:00Z","geo":{"geometry":{"coordinates":[33.617577,-14.0475228],"type":"Point"},"placekey":"@hvn-2pv-jjv","address":{"country_code":"MW","formatted_address":"Chirinza, Central Region, Malawi","locality":"Chirinza","region":"Central Region"}},"labels":["conference","science","technology"],"duration":156600,"start_local":"2024-08-13T10:00:00","end":"2024-08-15T03:30:00Z","end_local":"2024-08-15T05:30:00","updated":"2024-07-04T19:25:07Z"},{"title":"Super League - MAFCO vs Mighty Tigers","description":"Sourced from predicthq.com","category":"sports","start":"2024-08-11T12:30:00Z","geo":{"geometry":{"coordinates":[34.28343772,-12.9230057],"type":"Point"},"placekey":"@hz2-kmg-4gk","address":{"country_code":"MW","formatted_address":"37GM+RGR, Nkhotakota, Malawi","locality":"Nkhotakota","region":"Central Region"}},"labels":["soccer","sport"],"duration":0,"start_local":"2024-08-11T14:30:00","end":"2024-08-11T12:30:00Z","end_local":"2024-08-11T14:30:00","updated":"2024-06-28T03:31:11Z"},{"title":"Super League - Baka City vs Mzuzu City Hammers","description":"Sourced from predicthq.com","category":"sports","start":"2024-08-11T12:30:00Z","geo":{"geometry":{"coordinates":[33.90143829999999,-9.9401133],"type":"Point"},"placekey":"@hwp-nmn-x3q","address":{"country_code":"MW","formatted_address":"M26, Karonga, Malawi","locality":"Karonga","region":"Northern Region"}},"labels":["soccer","sport"],"duration":0,"start_local":"2024-08-11T14:30:00","end":"2024-08-11T12:30:00Z","end_local":"2024-08-11T14:30:00","updated":"2024-06-20T12:14:34Z"},{"title":"Super League - Bangwe All Stars vs FOMO","description":"Sourced from predicthq.com","category":"sports","start":"2024-08-11T12:30:00Z","geo":{"geometry":{"coordinates":[35.056574488526834,-15.83535245857782],"type":"Point"},"placekey":"@hzb-69p-4vz","address":{"country_code":"MW","formatted_address":"5374+VJ2, Blantyre, Malawi","locality":"Blantyre","region":"Southern Region"}},"labels":["soccer","sport"],"duration":0,"start_local":"2024-08-11T14:30:00","end":"2024-08-11T12:30:00Z","end_local":"2024-08-11T14:30:00","updated":"2024-06-20T12:32:33Z"},{"title":"Super League - Creck vs Karonga United","description":"Sourced from predicthq.com","category":"sports","start":"2024-08-11T12:30:00Z","geo":{"geometry":{"coordinates":[33.80616009235382,-13.978448852496237],"type":"Point"},"placekey":"@hz2-nwf-3yv","address":{"country_code":"MW","formatted_address":"3Q8M+64C, Lilongwe, Malawi","locality":"Lilongwe","region":"Central Region"}},"labels":["soccer","sport"],"duration":0,"start_local":"2024-08-11T14:30:00","end":"2024-08-11T12:30:00Z","end_local":"2024-08-11T14:30:00","updated":"2024-06-11T01:08:07Z"},{"title":"Super League - CIVO United vs Silver Strikers","description":"Sourced from predicthq.com","category":"sports","start":"2024-08-10T12:30:00Z","geo":{"geometry":{"coordinates":[33.7584072,-13.977959],"type":"Point"},"placekey":"@hz2-nwb-z2k","address":{"country_code":"MW","formatted_address":"2QC5+R9 Lilongwe, Malawi","locality":"Lilongwe","region":"Central Region"}},"labels":["soccer","sport"],"duration":0,"start_local":"2024-08-10T14:30:00","end":"2024-08-10T12:30:00Z","end_local":"2024-08-10T14:30:00","updated":"2024-06-20T12:44:00Z"},{"title":"Super League - Dedza Dynamos vs Mighty Wanderers","description":"Sourced from predicthq.com","category":"sports","start":"2024-08-10T12:30:00Z","geo":{"geometry":{"coordinates":[34.33006525039673,-14.377880402343536],"type":"Point"},"placekey":"@hzb-vrg-mx5","address":{"country_code":"MW","formatted_address":"J8CJ+V33, Dedza, Malawi","locality":"Dedza","region":"Central Region"}},"labels":["soccer","sport"],"duration":0,"start_local":"2024-08-10T14:30:00","end":"2024-08-10T12:30:00Z","end_local":"2024-08-10T14:30:00","updated":"2024-06-20T12:22:12Z"},{"title":"Super League - Nyasa Big Bullets vs Moyale Barracks","description":"Sourced from predicthq.com","category":"sports","start":"2024-08-10T12:30:00Z","geo":{"geometry":{"coordinates":[35.0343421,-15.7990774],"type":"Point"},"placekey":"@hzb-69f-kxq","address":{"country_code":"MW","formatted_address":"622M+9P8, Blantyre, Malawi","locality":"Blantyre","region":"Southern Region"}},"labels":["soccer","sport"],"duration":0,"start_local":"2024-08-10T14:30:00","end":"2024-08-10T12:30:00Z","end_local":"2024-08-10T14:30:00","updated":"2024-06-20T12:29:48Z"},{"title":"Super League - Kamuzu Barracks vs Chitipa United","description":"Sourced from predicthq.com","category":"sports","start":"2024-08-10T12:30:00Z","geo":{"geometry":{"coordinates":[33.719938884,-13.525271349],"type":"Point"},"placekey":"@hz2-hz7-gkz","address":{"country_code":"MW","formatted_address":"FPF9+VXM, Mponela, Malawi","locality":"Mponela","region":"Central Region"}},"labels":["soccer","sport"],"duration":0,"start_local":"2024-08-10T14:30:00","end":"2024-08-10T12:30:00Z","end_local":"2024-08-10T14:30:00","updated":"2024-06-20T12:26:13Z"},{"title":"BROADCASTING EDUTAINMENT IN THE AGE OF NEW MEDIA","description":"Sourced from predicthq.com - Come and learn more about Ubongo's impact, explore broadcast partnership opportunities, and discuss ways to collaborate with us!","category":"conferences","start":"2024-08-09T06:00:00Z","geo":{"geometry":{"coordinates":[33.7579501,-13.97658],"type":"Point"},"placekey":"@hz2-nwb-z4v","address":{"country_code":"MW","formatted_address":"Kamuzu Processsion Rd, Lilongwe, Malawi","locality":"Lilongwe","region":"Central Region"}},"labels":["conference","entertainment"],"duration":18000,"start_local":"2024-08-09T08:00:00","end":"2024-08-09T11:00:00Z","end_local":"2024-08-09T13:00:00","updated":"2024-06-20T13:00:17Z"},{"title":"Super League - Mighty Tigers vs Moyale Barracks","description":"Sourced from predicthq.com","category":"sports","start":"2024-08-04T12:30:00Z","geo":{"geometry":{"coordinates":[35.0343421,-15.7990774],"type":"Point"},"placekey":"@hzb-69f-kxq","address":{"country_code":"MW","formatted_address":"622M+9P8, Blantyre, Malawi","locality":"Blantyre","region":"Southern Region"}},"labels":["soccer","sport"],"duration":0,"start_local":"2024-08-04T14:30:00","end":"2024-08-04T12:30:00Z","end_local":"2024-08-04T14:30:00","updated":"2024-06-20T12:26:26Z"},{"title":"Super League - FOMO vs Silver Strikers","description":"Sourced from predicthq.com","category":"sports","start":"2024-08-04T12:30:00Z","geo":{"geometry":{"coordinates":[35.5041620639221,-16.02365833469162],"type":"Point"},"placekey":"@hzc-83z-rc5","address":{"country_code":"MW","formatted_address":"Mulanje, Malawi","locality":"Mulanje","region":"Southern Region"}},"labels":["soccer","sport"],"duration":0,"start_local":"2024-08-04T14:30:00","end":"2024-08-04T12:30:00Z","end_local":"2024-08-04T14:30:00","updated":"2024-06-20T11:54:02Z"},{"title":"Super League - CIVO United vs Nyasa Big Bullets","description":"Sourced from predicthq.com","category":"sports","start":"2024-08-04T12:30:00Z","geo":{"geometry":{"coordinates":[33.7584072,-13.977959],"type":"Point"},"placekey":"@hz2-nwb-z2k","address":{"country_code":"MW","formatted_address":"2QC5+R9 Lilongwe, Malawi","locality":"Lilongwe","region":"Central Region"}},"labels":["soccer","sport"],"duration":0,"start_local":"2024-08-04T14:30:00","end":"2024-08-04T12:30:00Z","end_local":"2024-08-04T14:30:00","updated":"2024-06-20T17:58:19Z"},{"title":"Super League - Karonga United vs Dedza Dynamos","description":"Sourced from predicthq.com","category":"sports","start":"2024-08-04T12:30:00Z","geo":{"geometry":{"coordinates":[33.90143829999999,-9.9401133],"type":"Point"},"placekey":"@hwp-nmn-x3q","address":{"country_code":"MW","formatted_address":"M26, Karonga, Malawi","locality":"Karonga","region":"Northern Region"}},"labels":["soccer","sport"],"duration":0,"start_local":"2024-08-04T14:30:00","end":"2024-08-04T12:30:00Z","end_local":"2024-08-04T14:30:00","updated":"2024-06-20T12:17:43Z"},{"title":"Super League - Bangwe All Stars vs Kamuzu Barracks","description":"Sourced from predicthq.com","category":"sports","start":"2024-08-03T12:30:00Z","geo":{"geometry":{"coordinates":[35.056574488526834,-15.83535245857782],"type":"Point"},"placekey":"@hzb-69p-4vz","address":{"country_code":"MW","formatted_address":"5374+VJ2, Blantyre, Malawi","locality":"Blantyre","region":"Southern Region"}},"labels":["soccer","sport"],"duration":0,"start_local":"2024-08-03T14:30:00","end":"2024-08-03T12:30:00Z","end_local":"2024-08-03T14:30:00","updated":"2024-06-20T11:58:18Z"},{"title":"Super League - Mighty Wanderers vs Baka City","description":"Sourced from predicthq.com","category":"sports","start":"2024-08-03T12:30:00Z","geo":{"geometry":{"coordinates":[35.0343421,-15.7990774],"type":"Point"},"placekey":"@hzb-69f-kxq","address":{"country_code":"MW","formatted_address":"622M+9P8, Blantyre, Malawi","locality":"Blantyre","region":"Southern Region"}},"labels":["soccer","sport"],"duration":0,"start_local":"2024-08-03T14:30:00","end":"2024-08-03T12:30:00Z","end_local":"2024-08-03T14:30:00","updated":"2024-06-20T17:40:06Z"},{"title":"Super League - Chitipa United vs MAFCO","description":"Sourced from predicthq.com","category":"sports","start":"2024-08-03T12:30:00Z","geo":{"geometry":{"coordinates":[33.90143829999999,-9.9401133],"type":"Point"},"placekey":"@hwp-nmn-x3q","address":{"country_code":"MW","formatted_address":"M26, Karonga, Malawi","locality":"Karonga","region":"Northern Region"}},"labels":["soccer","sport"],"duration":0,"start_local":"2024-08-03T14:30:00","end":"2024-08-03T12:30:00Z","end_local":"2024-08-03T14:30:00","updated":"2024-06-20T18:35:37Z"},{"title":"Super League - Mzuzu City Hammers vs Creck","description":"Sourced from predicthq.com","category":"sports","start":"2024-08-03T12:30:00Z","geo":{"geometry":{"coordinates":[34.0228906,-11.4500497],"type":"Point"},"placekey":"@hyz-y9x-9j9","address":{"country_code":"MW","formatted_address":"G2XF+X5J, Mzuzu, Malawi","locality":"Mzuzu","region":"Northern Region"}},"labels":["soccer","sport"],"duration":0,"start_local":"2024-08-03T14:30:00","end":"2024-08-03T12:30:00Z","end_local":"2024-08-03T14:30:00","updated":"2024-06-20T12:14:34Z"},{"title":"Super League - Mighty Tigers vs FOMO","description":"Sourced from predicthq.com","category":"sports","start":"2024-07-28T12:30:00Z","geo":{"geometry":{"coordinates":[35.0343421,-15.7990774],"type":"Point"},"placekey":"@hzb-69f-kxq","address":{"country_code":"MW","formatted_address":"622M+9P8, Blantyre, Malawi","locality":"Blantyre","region":"Southern Region"}},"labels":["soccer","sport"],"duration":0,"start_local":"2024-07-28T14:30:00","end":"2024-07-28T12:30:00Z","end_local":"2024-07-28T14:30:00","updated":"2024-06-20T11:53:57Z"},{"title":"Super League - Moyale Barracks vs Silver Strikers","description":"Sourced from predicthq.com","category":"sports","start":"2024-07-28T12:30:00Z","geo":{"geometry":{"coordinates":[34.0228906,-11.4500497],"type":"Point"},"placekey":"@hyz-y9x-9j9","address":{"country_code":"MW","formatted_address":"G2XF+X5J, Mzuzu, Malawi","locality":"Mzuzu","region":"Northern Region"}},"labels":["soccer","sport"],"duration":0,"start_local":"2024-07-28T14:30:00","end":"2024-07-28T12:30:00Z","end_local":"2024-07-28T14:30:00","updated":"2024-06-20T11:51:31Z"},{"title":"Super League - MAFCO vs CIVO United","description":"Sourced from predicthq.com","category":"sports","start":"2024-07-28T12:30:00Z","geo":{"geometry":{"coordinates":[34.28343772,-12.9230057],"type":"Point"},"placekey":"@hz2-kmg-4gk","address":{"country_code":"MW","formatted_address":"37GM+RGR, Nkhotakota, Malawi","locality":"Nkhotakota","region":"Central Region"}},"labels":["soccer","sport"],"duration":0,"start_local":"2024-07-28T14:30:00","end":"2024-07-28T12:30:00Z","end_local":"2024-07-28T14:30:00","updated":"2024-06-20T12:41:25Z"},{"title":"Super League - Bangwe All Stars vs Nyasa Big Bullets","description":"Sourced from predicthq.com","category":"sports","start":"2024-07-27T12:30:00Z","geo":{"geometry":{"coordinates":[35.056574488526834,-15.83535245857782],"type":"Point"},"placekey":"@hzb-69p-4vz","address":{"country_code":"MW","formatted_address":"5374+VJ2, Blantyre, Malawi","locality":"Blantyre","region":"Southern Region"}},"labels":["soccer","sport"],"duration":0,"start_local":"2024-07-27T14:30:00","end":"2024-07-27T12:30:00Z","end_local":"2024-07-27T14:30:00","updated":"2024-06-20T12:44:37Z"},{"title":"Super League - Chitipa United vs Kamuzu Barracks","description":"Sourced from predicthq.com","category":"sports","start":"2024-07-27T12:30:00Z","geo":{"geometry":{"coordinates":[33.90143829999999,-9.9401133],"type":"Point"},"placekey":"@hwp-nmn-x3q","address":{"country_code":"MW","formatted_address":"M26, Karonga, Malawi","locality":"Karonga","region":"Northern Region"}},"labels":["soccer","sport"],"duration":0,"start_local":"2024-07-27T14:30:00","end":"2024-07-27T12:30:00Z","end_local":"2024-07-27T14:30:00","updated":"2024-06-20T12:39:56Z"},{"title":"Super League - Creck vs Dedza Dynamos","description":"Sourced from predicthq.com","category":"sports","start":"2024-07-27T12:30:00Z","geo":{"geometry":{"coordinates":[33.80616009235382,-13.978448852496237],"type":"Point"},"placekey":"@hz2-nwf-3yv","address":{"country_code":"MW","formatted_address":"3Q8M+64C, Lilongwe, Malawi","locality":"Lilongwe","region":"Central Region"}},"labels":["soccer","sport"],"duration":0,"start_local":"2024-07-27T14:30:00","end":"2024-07-27T12:30:00Z","end_local":"2024-07-27T14:30:00","updated":"2024-06-20T12:41:04Z"},{"title":"Super League - Silver Strikers vs FOMO","description":"Sourced from predicthq.com","category":"sports","start":"2024-07-21T12:30:00Z","geo":{"geometry":{"coordinates":[33.7696519,-13.953588],"type":"Point"},"placekey":"@hz2-ng7-8n5","address":{"country_code":"MW","formatted_address":"2QW9+HV6, Lilongwe, Malawi","locality":"Lilongwe","region":"Central Region"}},"labels":["soccer","sport"],"duration":0,"start_local":"2024-07-21T14:30:00","end":"2024-07-21T12:30:00Z","end_local":"2024-07-21T14:30:00","updated":"2024-07-05T18:27:37Z"},{"title":"Super League - Moyale Barracks vs Bangwe All Stars","description":"Sourced from predicthq.com","category":"sports","start":"2024-07-21T12:30:00Z","geo":{"geometry":{"coordinates":[34.0228906,-11.4500497],"type":"Point"},"placekey":"@hyz-y9x-9j9","address":{"country_code":"MW","formatted_address":"G2XF+X5J, Mzuzu, Malawi","locality":"Mzuzu","region":"Northern Region"}},"labels":["soccer","sport"],"duration":0,"start_local":"2024-07-21T14:30:00","end":"2024-07-21T12:30:00Z","end_local":"2024-07-21T14:30:00","updated":"2024-07-05T17:36:49Z"},{"title":"Super League - Karonga United vs Nyasa Big Bullets","description":"Sourced from predicthq.com","category":"sports","start":"2024-07-21T12:30:00Z","geo":{"geometry":{"coordinates":[33.90143829999999,-9.9401133],"type":"Point"},"placekey":"@hwp-nmn-x3q","address":{"country_code":"MW","formatted_address":"M26, Karonga, Malawi","locality":"Karonga","region":"Northern Region"}},"labels":["soccer","sport"],"duration":0,"start_local":"2024-07-21T14:30:00","end":"2024-07-21T12:30:00Z","end_local":"2024-07-21T14:30:00","updated":"2024-07-05T17:10:47Z"},{"title":"Super League - Dedza Dynamos vs Baka City","description":"Sourced from predicthq.com","category":"sports","start":"2024-07-21T12:30:00Z","geo":{"geometry":{"coordinates":[34.33006525039673,-14.377880402343536],"type":"Point"},"placekey":"@hzb-vrg-mx5","address":{"country_code":"MW","formatted_address":"J8CJ+V33, Dedza, Malawi","locality":"Dedza","region":"Central Region"}},"labels":["soccer","sport"],"duration":0,"start_local":"2024-07-21T14:30:00","end":"2024-07-21T12:30:00Z","end_local":"2024-07-21T14:30:00","updated":"2024-07-05T17:22:57Z"},{"title":"Super League - Kamuzu Barracks vs Creck","description":"Sourced from predicthq.com","category":"sports","start":"2024-07-21T12:30:00Z","geo":{"geometry":{"coordinates":[33.719938884,-13.525271349],"type":"Point"},"placekey":"@hz2-hz7-gkz","address":{"country_code":"MW","formatted_address":"FPF9+VXM, Mponela, Malawi","locality":"Mponela","region":"Central Region"}},"labels":["soccer","sport"],"duration":0,"start_local":"2024-07-21T14:30:00","end":"2024-07-21T12:30:00Z","end_local":"2024-07-21T14:30:00","updated":"2024-07-05T17:10:27Z"},{"title":"Super League - Dedza Dynamos vs Mzuzu City Hammers","description":"Sourced from predicthq.com","category":"sports","start":"2024-07-20T12:30:00Z","geo":{"geometry":{"coordinates":[34.33006525039673,-14.377880402343536],"type":"Point"},"placekey":"@hzb-vrg-mx5","address":{"country_code":"MW","formatted_address":"J8CJ+V33, Dedza, Malawi","locality":"Dedza","region":"Central Region"}},"labels":["soccer","sport"],"duration":0,"start_local":"2024-07-20T14:30:00","end":"2024-07-20T12:30:00Z","end_local":"2024-07-20T14:30:00","updated":"2024-06-11T10:16:21Z"},{"title":"Super League - MAFCO vs Mighty Wanderers","description":"Sourced from predicthq.com","category":"sports","start":"2024-07-20T12:30:00Z","geo":{"geometry":{"coordinates":[34.28343772,-12.9230057],"type":"Point"},"placekey":"@hz2-kmg-4gk","address":{"country_code":"MW","formatted_address":"37GM+RGR, Nkhotakota, Malawi","locality":"Nkhotakota","region":"Central Region"}},"labels":["soccer","sport"],"duration":0,"start_local":"2024-07-20T14:30:00","end":"2024-07-20T12:30:00Z","end_local":"2024-07-20T14:30:00","updated":"2024-07-05T17:22:57Z"},{"title":"Super League - Mzuzu City Hammers vs Chitipa United","description":"Sourced from predicthq.com","category":"sports","start":"2024-07-20T12:30:00Z","geo":{"geometry":{"coordinates":[34.0228906,-11.4500497],"type":"Point"},"placekey":"@hyz-y9x-9j9","address":{"country_code":"MW","formatted_address":"G2XF+X5J, Mzuzu, Malawi","locality":"Mzuzu","region":"Northern Region"}},"labels":["soccer","sport"],"duration":0,"start_local":"2024-07-20T14:30:00","end":"2024-07-20T12:30:00Z","end_local":"2024-07-20T14:30:00","updated":"2024-07-05T17:36:43Z"},{"title":"Super League - CIVO United vs Mighty Tigers","description":"Sourced from predicthq.com","category":"sports","start":"2024-07-20T12:30:00Z","geo":{"geometry":{"coordinates":[33.7584072,-13.977959],"type":"Point"},"placekey":"@hz2-nwb-z2k","address":{"country_code":"MW","formatted_address":"2QC5+R9 Lilongwe, Malawi","locality":"Lilongwe","region":"Central Region"}},"labels":["soccer","sport"],"duration":0,"start_local":"2024-07-20T14:30:00","end":"2024-07-20T12:30:00Z","end_local":"2024-07-20T14:30:00","updated":"2024-07-05T18:25:01Z"},{"title":"Super League - Dedza Dynamos vs Kamuzu Barracks","description":"Sourced from predicthq.com","category":"sports","start":"2024-07-18T12:30:00Z","geo":{"geometry":{"coordinates":[34.33006525039673,-14.377880402343536],"type":"Point"},"placekey":"@hzb-vrg-mx5","address":{"country_code":"MW","formatted_address":"J8CJ+V33, Dedza, Malawi","locality":"Dedza","region":"Central Region"}},"labels":["soccer","sport"],"duration":0,"start_local":"2024-07-18T14:30:00","end":"2024-07-18T12:30:00Z","end_local":"2024-07-18T14:30:00","updated":"2024-06-20T12:07:21Z"},{"title":"Super League - Baka City vs Moyale Barracks","description":"Sourced from predicthq.com","category":"sports","start":"2024-07-18T12:30:00Z","geo":{"geometry":{"coordinates":[33.90143829999999,-9.9401133],"type":"Point"},"placekey":"@hwp-nmn-x3q","address":{"country_code":"MW","formatted_address":"M26, Karonga, Malawi","locality":"Karonga","region":"Northern Region"}},"labels":["soccer","sport"],"duration":0,"start_local":"2024-07-18T14:30:00","end":"2024-07-18T12:30:00Z","end_local":"2024-07-18T14:30:00","updated":"2024-06-20T12:20:55Z"},{"title":"Super League - Creck vs CIVO United","description":"Sourced from predicthq.com","category":"sports","start":"2024-07-18T12:30:00Z","geo":{"geometry":{"coordinates":[33.80616009235382,-13.978448852496237],"type":"Point"},"placekey":"@hz2-nwf-3yv","address":{"country_code":"MW","formatted_address":"3Q8M+64C, Lilongwe, Malawi","locality":"Lilongwe","region":"Central Region"}},"labels":["soccer","sport"],"duration":0,"start_local":"2024-07-18T14:30:00","end":"2024-07-18T12:30:00Z","end_local":"2024-07-18T14:30:00","updated":"2024-06-20T12:10:12Z"},{"title":"Super League - Nyasa Big Bullets vs FOMO","description":"Sourced from predicthq.com","category":"sports","start":"2024-07-18T12:30:00Z","geo":{"geometry":{"coordinates":[35.5041620639221,-16.02365833469162],"type":"Point"},"placekey":"@hzc-83z-rc5","address":{"country_code":"MW","formatted_address":"Mulanje, Malawi","locality":"Mulanje","region":"Southern Region"}},"labels":["soccer","sport"],"duration":0,"start_local":"2024-07-18T14:30:00","end":"2024-07-18T12:30:00Z","end_local":"2024-07-18T14:30:00","updated":"2024-06-20T11:51:31Z"},{"title":"Super League - MAFCO vs Karonga United","description":"Sourced from predicthq.com","category":"sports","start":"2024-07-17T12:30:00Z","geo":{"geometry":{"coordinates":[34.28343772,-12.9230057],"type":"Point"},"placekey":"@hz2-kmg-4gk","address":{"country_code":"MW","formatted_address":"37GM+RGR, Nkhotakota, Malawi","locality":"Nkhotakota","region":"Central Region"}},"labels":["soccer","sport"],"duration":0,"start_local":"2024-07-17T14:30:00","end":"2024-07-17T12:30:00Z","end_local":"2024-07-17T14:30:00","updated":"2024-06-20T12:17:34Z"},{"title":"Super League - Bangwe All Stars vs Mighty Tigers","description":"Sourced from predicthq.com","category":"sports","start":"2024-07-17T12:30:00Z","geo":{"geometry":{"coordinates":[35.0343421,-15.7990774],"type":"Point"},"placekey":"@hzb-69f-kxq","address":{"country_code":"MW","formatted_address":"622M+9P8, Blantyre, Malawi","locality":"Blantyre","region":"Southern Region"}},"labels":["soccer","sport"],"duration":0,"start_local":"2024-07-17T14:30:00","end":"2024-07-17T12:30:00Z","end_local":"2024-07-17T14:30:00","updated":"2024-06-20T12:21:31Z"},{"title":"Super League - Silver Strikers vs Mzuzu City Hammers","description":"Sourced from predicthq.com","category":"sports","start":"2024-07-17T12:30:00Z","geo":{"geometry":{"coordinates":[33.7696519,-13.953588],"type":"Point"},"placekey":"@hz2-ng7-8n5","address":{"country_code":"MW","formatted_address":"2QW9+HV6, Lilongwe, Malawi","locality":"Lilongwe","region":"Central Region"}},"labels":["soccer","sport"],"duration":0,"start_local":"2024-07-17T14:30:00","end":"2024-07-17T12:30:00Z","end_local":"2024-07-17T14:30:00","updated":"2024-06-20T18:07:22Z"},{"title":"Super League - Chitipa United vs Baka City","description":"Sourced from predicthq.com","category":"sports","start":"2024-07-14T12:30:00Z","geo":{"geometry":{"coordinates":[33.90143829999999,-9.9401133],"type":"Point"},"placekey":"@hwp-nmn-x3q","address":{"country_code":"MW","formatted_address":"M26, Karonga, Malawi","locality":"Karonga","region":"Northern Region"}},"labels":["soccer","sport"],"duration":0,"start_local":"2024-07-14T14:30:00","end":"2024-07-14T12:30:00Z","end_local":"2024-07-14T14:30:00","updated":"2024-06-20T17:35:55Z"},{"title":"Super League - Mzuzu City Hammers vs Dedza Dynamos","description":"Sourced from predicthq.com","category":"sports","start":"2024-07-14T12:30:00Z","geo":{"geometry":{"coordinates":[34.0228906,-11.4500497],"type":"Point"},"placekey":"@hyz-y9x-9j9","address":{"country_code":"MW","formatted_address":"G2XF+X5J, Mzuzu, Malawi","locality":"Mzuzu","region":"Northern Region"}},"labels":["soccer","sport"],"duration":0,"start_local":"2024-07-14T14:30:00","end":"2024-07-14T12:30:00Z","end_local":"2024-07-14T14:30:00","updated":"2024-06-20T11:51:31Z"},{"title":"Super League - Nyasa Big Bullets vs CIVO United","description":"Sourced from predicthq.com","category":"sports","start":"2024-07-14T12:30:00Z","geo":{"geometry":{"coordinates":[35.0343421,-15.7990774],"type":"Point"},"placekey":"@hzb-69f-kxq","address":{"country_code":"MW","formatted_address":"622M+9P8, Blantyre, Malawi","locality":"Blantyre","region":"Southern Region"}},"labels":["soccer","sport"],"duration":0,"start_local":"2024-07-14T14:30:00","end":"2024-07-14T12:30:00Z","end_local":"2024-07-14T14:30:00","updated":"2024-07-04T18:29:22Z"},{"title":"Super League - Kamuzu Barracks vs Silver Strikers","description":"Sourced from predicthq.com","category":"sports","start":"2024-07-14T12:30:00Z","geo":{"geometry":{"coordinates":[33.7584072,-13.977959],"type":"Point"},"placekey":"@hz2-nwb-z2k","address":{"country_code":"MW","formatted_address":"2QC5+R9 Lilongwe, Malawi","locality":"Lilongwe","region":"Central Region"}},"labels":["soccer","sport"],"duration":0,"start_local":"2024-07-14T14:30:00","end":"2024-07-14T12:30:00Z","end_local":"2024-07-14T14:30:00","updated":"2024-07-05T17:48:41Z"},{"title":"Super League - Mighty Wanderers vs Moyale Barracks","description":"Sourced from predicthq.com","category":"sports","start":"2024-07-13T12:30:00Z","geo":{"geometry":{"coordinates":[35.0343421,-15.7990774],"type":"Point"},"placekey":"@hzb-69f-kxq","address":{"country_code":"MW","formatted_address":"622M+9P8, Blantyre, Malawi","locality":"Blantyre","region":"Southern Region"}},"labels":["soccer","sport"],"duration":0,"start_local":"2024-07-13T14:30:00","end":"2024-07-13T12:30:00Z","end_local":"2024-07-13T14:30:00","updated":"2024-07-04T18:29:22Z"},{"title":"Super League - Karonga United vs FOMO","description":"Sourced from predicthq.com","category":"sports","start":"2024-07-13T12:30:00Z","geo":{"geometry":{"coordinates":[33.90143829999999,-9.9401133],"type":"Point"},"placekey":"@hwp-nmn-x3q","address":{"country_code":"MW","formatted_address":"M26, Karonga, Malawi","locality":"Karonga","region":"Northern Region"}},"labels":["soccer","sport"],"duration":0,"start_local":"2024-07-13T14:30:00","end":"2024-07-13T12:30:00Z","end_local":"2024-07-13T14:30:00","updated":"2024-06-20T12:47:01Z"},{"title":"Super League - Creck vs Bangwe All Stars","description":"Sourced from predicthq.com","category":"sports","start":"2024-07-13T12:30:00Z","geo":{"geometry":{"coordinates":[33.80616009235382,-13.978448852496237],"type":"Point"},"placekey":"@hz2-nwf-3yv","address":{"country_code":"MW","formatted_address":"3Q8M+64C, Lilongwe, Malawi","locality":"Lilongwe","region":"Central Region"}},"labels":["soccer","sport"],"duration":0,"start_local":"2024-07-13T14:30:00","end":"2024-07-13T12:30:00Z","end_local":"2024-07-13T14:30:00","updated":"2024-06-20T12:29:48Z"},{"title":"Super League - Mzuzu City Hammers vs MAFCO","description":"Sourced from predicthq.com","category":"sports","start":"2024-07-01T12:30:00Z","geo":{"geometry":{"coordinates":[34.0228906,-11.4500497],"type":"Point"},"placekey":"@hyz-y9x-9j9","address":{"country_code":"MW","formatted_address":"G2XF+X5J, Mzuzu, Malawi","locality":"Mzuzu","region":"Northern Region"}},"labels":["soccer","sport"],"duration":0,"start_local":"2024-07-01T14:30:00","end":"2024-07-01T12:30:00Z","end_local":"2024-07-01T14:30:00","updated":"2024-06-28T17:17:05Z"},{"title":"Super League - CIVO United vs Silver Strikers","description":"Sourced from predicthq.com","category":"sports","start":"2024-06-30T12:30:00Z","geo":{"geometry":{"coordinates":[33.7584072,-13.977959],"type":"Point"},"placekey":"@hz2-nwb-z2k","address":{"country_code":"MW","formatted_address":"2QC5+R9 Lilongwe, Malawi","locality":"Lilongwe","region":"Central Region"}},"labels":["soccer","sport"],"duration":0,"start_local":"2024-06-30T14:30:00","end":"2024-06-30T12:30:00Z","end_local":"2024-06-30T14:30:00","updated":"2024-06-20T17:30:54Z"},{"title":"Super League - Mighty Tigers vs Mighty Wanderers","description":"Sourced from predicthq.com","category":"sports","start":"2024-06-30T12:30:00Z","geo":{"geometry":{"coordinates":[35.0343421,-15.7990774],"type":"Point"},"placekey":"@hzb-69f-kxq","address":{"country_code":"MW","formatted_address":"622M+9P8, Blantyre, Malawi","locality":"Blantyre","region":"Southern Region"}},"labels":["soccer","sport"],"duration":0,"start_local":"2024-06-30T14:30:00","end":"2024-06-30T12:30:00Z","end_local":"2024-06-30T14:30:00","updated":"2024-06-24T18:13:12Z"},{"title":"Super League - Dedza Dynamos vs Karonga United","description":"Sourced from predicthq.com","category":"sports","start":"2024-06-30T12:30:00Z","geo":{"geometry":{"coordinates":[34.33006525039673,-14.377880402343536],"type":"Point"},"placekey":"@hzb-vrg-mx5","address":{"country_code":"MW","formatted_address":"J8CJ+V33, Dedza, Malawi","locality":"Dedza","region":"Central Region"}},"labels":["soccer","sport"],"duration":0,"start_local":"2024-06-30T14:30:00","end":"2024-06-30T12:30:00Z","end_local":"2024-06-30T14:30:00","updated":"2024-06-20T11:56:02Z"},{"title":"Super League - Chitipa United vs Creck","description":"Sourced from predicthq.com","category":"sports","start":"2024-06-30T12:30:00Z","geo":{"geometry":{"coordinates":[33.90143829999999,-9.9401133],"type":"Point"},"placekey":"@hwp-nmn-x3q","address":{"country_code":"MW","formatted_address":"M26, Karonga, Malawi","locality":"Karonga","region":"Northern Region"}},"labels":["soccer","sport"],"duration":0,"start_local":"2024-06-30T14:30:00","end":"2024-06-30T12:30:00Z","end_local":"2024-06-30T14:30:00","updated":"2024-06-24T18:05:43Z"},{"title":"Super League - Kamuzu Barracks vs Nyasa Big Bullets","description":"Sourced from predicthq.com","category":"sports","start":"2024-06-29T12:30:00Z","geo":{"geometry":{"coordinates":[33.7584072,-13.977959],"type":"Point"},"placekey":"@hz2-nwb-z2k","address":{"country_code":"MW","formatted_address":"2QC5+R9 Lilongwe, Malawi","locality":"Lilongwe","region":"Central Region"}},"labels":["soccer","sport"],"duration":0,"start_local":"2024-06-29T14:30:00","end":"2024-06-29T12:30:00Z","end_local":"2024-06-29T14:30:00","updated":"2024-06-20T12:21:26Z"},{"title":"Super League - FOMO vs Moyale Barracks","description":"Sourced from predicthq.com","category":"sports","start":"2024-06-29T12:30:00Z","geo":{"geometry":{"coordinates":[35.5041620639221,-16.02365833469162],"type":"Point"},"placekey":"@hzc-83z-rc5","address":{"country_code":"MW","formatted_address":"Mulanje, Malawi","locality":"Mulanje","region":"Southern Region"}},"labels":["soccer","sport"],"duration":0,"start_local":"2024-06-29T14:30:00","end":"2024-06-29T12:30:00Z","end_local":"2024-06-29T14:30:00","updated":"2024-06-24T19:53:42Z"},{"title":"Super League - Baka City vs Bangwe All Stars","description":"Sourced from predicthq.com","category":"sports","start":"2024-06-29T12:30:00Z","geo":{"geometry":{"coordinates":[33.90143829999999,-9.9401133],"type":"Point"},"placekey":"@hwp-nmn-x3q","address":{"country_code":"MW","formatted_address":"M26, Karonga, Malawi","locality":"Karonga","region":"Northern Region"}},"labels":["soccer","sport"],"duration":0,"start_local":"2024-06-29T14:30:00","end":"2024-06-29T12:30:00Z","end_local":"2024-06-29T14:30:00","updated":"2024-06-24T18:06:38Z"},{"title":"Super League - Baka City vs Kamuzu Barracks","description":"Sourced from predicthq.com","category":"sports","start":"2024-06-24T12:30:00Z","geo":{"geometry":{"coordinates":[33.90143829999999,-9.9401133],"type":"Point"},"placekey":"@hwp-nmn-x3q","address":{"country_code":"MW","formatted_address":"M26, Karonga, Malawi","locality":"Karonga","region":"Northern Region"}},"labels":["soccer","sport"],"duration":0,"start_local":"2024-06-24T14:30:00","end":"2024-06-24T12:30:00Z","end_local":"2024-06-24T14:30:00","updated":"2024-06-20T17:30:59Z"},{"title":"Super League - Mighty Tigers vs Silver Strikers","description":"Sourced from predicthq.com","category":"sports","start":"2024-06-24T12:30:00Z","geo":{"geometry":{"coordinates":[35.0343421,-15.7990774],"type":"Point"},"placekey":"@hzb-69f-kxq","address":{"country_code":"MW","formatted_address":"622M+9P8, Blantyre, Malawi","locality":"Blantyre","region":"Southern Region"}},"labels":["soccer","sport"],"duration":0,"start_local":"2024-06-24T14:30:00","end":"2024-06-24T12:30:00Z","end_local":"2024-06-24T14:30:00","updated":"2024-06-19T16:12:30Z"},{"title":"Super League - FOMO vs Dedza Dynamos","description":"Sourced from predicthq.com","category":"sports","start":"2024-06-23T12:30:00Z","geo":{"geometry":{"coordinates":[35.5041620639221,-16.02365833469162],"type":"Point"},"placekey":"@hzc-83z-rc5","address":{"country_code":"MW","formatted_address":"Mulanje, Malawi","locality":"Mulanje","region":"Southern Region"}},"labels":["soccer","sport"],"duration":0,"start_local":"2024-06-23T14:30:00","end":"2024-06-23T12:30:00Z","end_local":"2024-06-23T14:30:00","updated":"2024-06-19T13:17:45Z"},{"title":"Super League - Karonga United vs Moyale Barracks","description":"Sourced from predicthq.com","category":"sports","start":"2024-06-23T12:30:00Z","geo":{"geometry":{"coordinates":[33.90143829999999,-9.9401133],"type":"Point"},"placekey":"@hwp-nmn-x3q","address":{"country_code":"MW","formatted_address":"M26, Karonga, Malawi","locality":"Karonga","region":"Northern Region"}},"labels":["soccer","sport"],"duration":0,"start_local":"2024-06-23T14:30:00","end":"2024-06-23T12:30:00Z","end_local":"2024-06-23T14:30:00","updated":"2024-06-19T11:36:05Z"},{"title":"Super League - MAFCO vs Chitipa United","description":"Sourced from predicthq.com","category":"sports","start":"2024-06-23T12:30:00Z","geo":{"geometry":{"coordinates":[34.28343772,-12.9230057],"type":"Point"},"placekey":"@hz2-kmg-4gk","address":{"country_code":"MW","formatted_address":"37GM+RGR, Nkhotakota, Malawi","locality":"Nkhotakota","region":"Central Region"}},"labels":["soccer","sport"],"duration":0,"start_local":"2024-06-23T14:30:00","end":"2024-06-23T12:30:00Z","end_local":"2024-06-23T14:30:00","updated":"2024-06-19T11:55:11Z"},{"title":"Super League - Mighty Wanderers vs CIVO United","description":"Sourced from predicthq.com","category":"sports","start":"2024-06-23T12:30:00Z","geo":{"geometry":{"coordinates":[35.0343421,-15.7990774],"type":"Point"},"placekey":"@hzb-69f-kxq","address":{"country_code":"MW","formatted_address":"622M+9P8, Blantyre, Malawi","locality":"Blantyre","region":"Southern Region"}},"labels":["soccer","sport"],"duration":0,"start_local":"2024-06-23T14:30:00","end":"2024-06-23T12:30:00Z","end_local":"2024-06-23T14:30:00","updated":"2024-06-19T13:18:03Z"},{"title":"Super League - Creck vs Nyasa Big Bullets","description":"Sourced from predicthq.com","category":"sports","start":"2024-06-23T12:30:00Z","geo":{"geometry":{"coordinates":[33.7584072,-13.977959],"type":"Point"},"placekey":"@hz2-nwb-z2k","address":{"country_code":"MW","formatted_address":"2QC5+R9 Lilongwe, Malawi","locality":"Lilongwe","region":"Central Region"}},"labels":["soccer","sport"],"duration":0,"start_local":"2024-06-23T14:30:00","end":"2024-06-23T12:30:00Z","end_local":"2024-06-23T14:30:00","updated":"2024-06-20T18:28:28Z"},{"title":"Super League - Bangwe All Stars vs Mzuzu City Hammers","description":"Sourced from predicthq.com","category":"sports","start":"2024-06-23T12:30:00Z","geo":{"geometry":{"coordinates":[35.056574488526834,-15.83535245857782],"type":"Point"},"placekey":"@hzb-69p-4vz","address":{"country_code":"MW","formatted_address":"5374+VJ2, Blantyre, Malawi","locality":"Blantyre","region":"Southern Region"}},"labels":["soccer","sport"],"duration":0,"start_local":"2024-06-23T14:30:00","end":"2024-06-23T12:30:00Z","end_local":"2024-06-23T14:30:00","updated":"2024-06-19T11:54:37Z"},{"title":"Super League - Bangwe All Stars vs Chitipa United","description":"Sourced from predicthq.com","category":"sports","start":"2024-06-02T12:30:00Z","geo":{"geometry":{"coordinates":[35.056574488526834,-15.83535245857782],"type":"Point"},"placekey":"@hzb-69p-4vz","address":{"country_code":"MW","formatted_address":"5374+VJ2, Blantyre, Malawi","locality":"Blantyre","region":"Southern Region"}},"labels":["soccer","sport"],"duration":0,"start_local":"2024-06-02T14:30:00","end":"2024-06-02T12:30:00Z","end_local":"2024-06-02T14:30:00","updated":"2024-06-12T17:38:56Z"},{"title":"Super League - Nyasa Big Bullets vs Silver Strikers","description":"Sourced from predicthq.com","category":"sports","start":"2024-06-02T12:30:00Z","geo":{"geometry":{"coordinates":[35.0343421,-15.7990774],"type":"Point"},"placekey":"@hzb-69f-kxq","address":{"country_code":"MW","formatted_address":"622M+9P8, Blantyre, Malawi","locality":"Blantyre","region":"Southern Region"}},"labels":["soccer","sport"],"duration":0,"start_local":"2024-06-02T14:30:00","end":"2024-06-02T12:30:00Z","end_local":"2024-06-02T14:30:00","updated":"2024-06-11T22:47:09Z"},{"title":"Super League - Mighty Wanderers vs Dedza Dynamos","description":"Sourced from predicthq.com","category":"sports","start":"2024-06-01T12:30:00Z","geo":{"geometry":{"coordinates":[35.0343421,-15.7990774],"type":"Point"},"placekey":"@hzb-69f-kxq","address":{"country_code":"MW","formatted_address":"622M+9P8, Blantyre, Malawi","locality":"Blantyre","region":"Southern Region"}},"labels":["soccer","sport"],"duration":0,"start_local":"2024-06-01T14:30:00","end":"2024-06-01T12:30:00Z","end_local":"2024-06-01T14:30:00","updated":"2024-06-12T08:03:06Z"},{"title":"Super League - FOMO vs Mzuzu City Hammers","description":"Sourced from predicthq.com","category":"sports","start":"2024-06-01T12:30:00Z","geo":{"geometry":{"coordinates":[35.5041620639221,-16.02365833469162],"type":"Point"},"placekey":"@hzc-83z-rc5","address":{"country_code":"MW","formatted_address":"Mulanje, Malawi","locality":"Mulanje","region":"Southern Region"}},"labels":["soccer","sport"],"duration":0,"start_local":"2024-06-01T14:30:00","end":"2024-06-01T12:30:00Z","end_local":"2024-06-01T14:30:00","updated":"2024-06-12T03:17:44Z"},{"title":"Super League - Moyale Barracks vs Mighty Tigers","description":"Sourced from predicthq.com","category":"sports","start":"2024-06-01T12:30:00Z","geo":{"geometry":{"coordinates":[34.0228906,-11.4500497],"type":"Point"},"placekey":"@hyz-y9x-9j9","address":{"country_code":"MW","formatted_address":"G2XF+X5J, Mzuzu, Malawi","locality":"Mzuzu","region":"Northern Region"}},"labels":["soccer","sport"],"duration":0,"start_local":"2024-06-01T14:30:00","end":"2024-06-01T12:30:00Z","end_local":"2024-06-01T14:30:00","updated":"2024-06-12T05:23:19Z"},{"title":"Super League - MAFCO vs Creck","description":"Sourced from predicthq.com","category":"sports","start":"2024-06-01T12:30:00Z","geo":{"geometry":{"coordinates":[34.28343772,-12.9230057],"type":"Point"},"placekey":"@hz2-kmg-4gk","address":{"country_code":"MW","formatted_address":"37GM+RGR, Nkhotakota, Malawi","locality":"Nkhotakota","region":"Central Region"}},"labels":["soccer","sport"],"duration":0,"start_local":"2024-06-01T14:30:00","end":"2024-06-01T12:30:00Z","end_local":"2024-06-01T14:30:00","updated":"2024-06-11T22:19:03Z"},{"title":"Super League - CIVO United vs Baka City","description":"Sourced from predicthq.com","category":"sports","start":"2024-05-31T12:30:00Z","geo":{"geometry":{"coordinates":[33.7584072,-13.977959],"type":"Point"},"placekey":"@hz2-nwb-z2k","address":{"country_code":"MW","formatted_address":"2QC5+R9 Lilongwe, Malawi","locality":"Lilongwe","region":"Central Region"}},"labels":["soccer","sport"],"duration":0,"start_local":"2024-05-31T14:30:00","end":"2024-05-31T12:30:00Z","end_local":"2024-05-31T14:30:00","updated":"2024-06-12T17:38:39Z"},{"title":"Super League - Kamuzu Barracks vs Karonga United","description":"Sourced from predicthq.com","category":"sports","start":"2024-05-30T12:30:00Z","geo":{"geometry":{"coordinates":[33.7584072,-13.977959],"type":"Point"},"placekey":"@hz2-nwb-z2k","address":{"country_code":"MW","formatted_address":"2QC5+R9 Lilongwe, Malawi","locality":"Lilongwe","region":"Central Region"}},"labels":["soccer","sport"],"duration":0,"start_local":"2024-05-30T14:30:00","end":"2024-05-30T12:30:00Z","end_local":"2024-05-30T14:30:00","updated":"2024-06-12T03:40:19Z"},{"title":"Super League - Moyale Barracks vs Nyasa Big Bullets","description":"Sourced from predicthq.com","category":"sports","start":"2024-05-27T12:30:00Z","geo":{"geometry":{"coordinates":[34.0228906,-11.4500497],"type":"Point"},"placekey":"@hyz-y9x-9j9","address":{"country_code":"MW","formatted_address":"G2XF+X5J, Mzuzu, Malawi","locality":"Mzuzu","region":"Northern Region"}},"labels":["soccer","sport"],"duration":0,"start_local":"2024-05-27T14:30:00","end":"2024-05-27T12:30:00Z","end_local":"2024-05-27T14:30:00","updated":"2024-06-12T02:35:26Z"},{"title":"Super League - Dedza Dynamos vs Bangwe All Stars","description":"Sourced from predicthq.com","category":"sports","start":"2024-05-26T12:30:00Z","geo":{"geometry":{"coordinates":[34.33006525039673,-14.377880402343536],"type":"Point"},"placekey":"@hzb-vrg-mx5","address":{"country_code":"MW","formatted_address":"J8CJ+V33, Dedza, Malawi","locality":"Dedza","region":"Central Region"}},"labels":["soccer","sport"],"duration":0,"start_local":"2024-05-26T14:30:00","end":"2024-05-26T12:30:00Z","end_local":"2024-05-26T14:30:00","updated":"2024-06-12T07:48:42Z"},{"title":"Super League - Mighty Tigers vs Kamuzu Barracks","description":"Sourced from predicthq.com","category":"sports","start":"2024-05-26T12:30:00Z","geo":{"geometry":{"coordinates":[35.0343421,-15.7990774],"type":"Point"},"placekey":"@hzb-69f-kxq","address":{"country_code":"MW","formatted_address":"622M+9P8, Blantyre, Malawi","locality":"Blantyre","region":"Southern Region"}},"labels":["soccer","sport"],"duration":0,"start_local":"2024-05-26T14:30:00","end":"2024-05-26T12:30:00Z","end_local":"2024-05-26T14:30:00","updated":"2024-06-20T11:53:57Z"},{"title":"Super League - Silver Strikers vs Karonga United","description":"Sourced from predicthq.com","category":"sports","start":"2024-05-25T12:30:00Z","geo":{"geometry":{"coordinates":[33.7696519,-13.953588],"type":"Point"},"placekey":"@hz2-ng7-8n5","address":{"country_code":"MW","formatted_address":"2QW9+HV6, Lilongwe, Malawi","locality":"Lilongwe","region":"Central Region"}},"labels":["soccer","sport"],"duration":0,"start_local":"2024-05-25T14:30:00","end":"2024-05-25T12:30:00Z","end_local":"2024-05-25T14:30:00","updated":"2024-06-12T00:41:37Z"},{"title":"Super League - MAFCO vs FOMO","description":"Sourced from predicthq.com","category":"sports","start":"2024-05-25T12:30:00Z","geo":{"geometry":{"coordinates":[34.28343772,-12.9230057],"type":"Point"},"placekey":"@hz2-kmg-4gk","address":{"country_code":"MW","formatted_address":"37GM+RGR, Nkhotakota, Malawi","locality":"Nkhotakota","region":"Central Region"}},"labels":["soccer","sport"],"duration":0,"start_local":"2024-05-25T14:30:00","end":"2024-05-25T12:30:00Z","end_local":"2024-05-25T14:30:00","updated":"2024-06-12T07:41:53Z"},{"title":"Super League - Mzuzu City Hammers vs Mighty Wanderers","description":"Sourced from predicthq.com","category":"sports","start":"2024-05-25T12:30:00Z","geo":{"geometry":{"coordinates":[34.0228906,-11.4500497],"type":"Point"},"placekey":"@hyz-y9x-9j9","address":{"country_code":"MW","formatted_address":"G2XF+X5J, Mzuzu, Malawi","locality":"Mzuzu","region":"Northern Region"}},"labels":["soccer","sport"],"duration":0,"start_local":"2024-05-25T14:30:00","end":"2024-05-25T12:30:00Z","end_local":"2024-05-25T14:30:00","updated":"2024-06-11T21:24:05Z"},{"title":"Super League - Baka City vs Creck","description":"Sourced from predicthq.com","category":"sports","start":"2024-05-25T12:30:00Z","geo":{"geometry":{"coordinates":[33.90143829999999,-9.9401133],"type":"Point"},"placekey":"@hwp-nmn-x3q","address":{"country_code":"MW","formatted_address":"M26, Karonga, Malawi","locality":"Karonga","region":"Northern Region"}},"labels":["soccer","sport"],"duration":0,"start_local":"2024-05-25T14:30:00","end":"2024-05-25T12:30:00Z","end_local":"2024-05-25T14:30:00","updated":"2024-06-20T12:47:46Z"},{"title":"Super League - Chitipa United vs CIVO United","description":"Sourced from predicthq.com","category":"sports","start":"2024-05-24T12:30:00Z","geo":{"geometry":{"coordinates":[33.90143829999999,-9.9401133],"type":"Point"},"placekey":"@hwp-nmn-x3q","address":{"country_code":"MW","formatted_address":"M26, Karonga, Malawi","locality":"Karonga","region":"Northern Region"}},"labels":["soccer","sport"],"duration":0,"start_local":"2024-05-24T14:30:00","end":"2024-05-24T12:30:00Z","end_local":"2024-05-24T14:30:00","updated":"2024-06-11T21:38:39Z"},{"title":"Super League - Bangwe All Stars vs MAFCO","description":"Sourced from predicthq.com","category":"sports","start":"2024-05-19T12:30:00Z","geo":{"geometry":{"coordinates":[35.056574488526834,-15.83535245857782],"type":"Point"},"placekey":"@hzb-69p-4vz","address":{"country_code":"MW","formatted_address":"5374+VJ2, Blantyre, Malawi","locality":"Blantyre","region":"Southern Region"}},"labels":["soccer","sport"],"duration":0,"start_local":"2024-05-19T14:30:00","end":"2024-05-19T12:30:00Z","end_local":"2024-05-19T14:30:00","updated":"2024-06-12T01:50:38Z"},{"title":"Super League - Dedza Dynamos vs Chitipa United","description":"Sourced from predicthq.com","category":"sports","start":"2024-05-19T12:30:00Z","geo":{"geometry":{"coordinates":[34.33006525039673,-14.377880402343536],"type":"Point"},"placekey":"@hzb-vrg-mx5","address":{"country_code":"MW","formatted_address":"J8CJ+V33, Dedza, Malawi","locality":"Dedza","region":"Central Region"}},"labels":["soccer","sport"],"duration":0,"start_local":"2024-05-19T14:30:00","end":"2024-05-19T12:30:00Z","end_local":"2024-05-19T14:30:00","updated":"2024-06-12T03:48:06Z"},{"title":"Super League - Silver Strikers vs Mighty Wanderers","description":"Sourced from predicthq.com","category":"sports","start":"2024-05-19T12:30:00Z","geo":{"geometry":{"coordinates":[33.7696519,-13.953588],"type":"Point"},"placekey":"@hz2-ng7-8n5","address":{"country_code":"MW","formatted_address":"2QW9+HV6, Lilongwe, Malawi","locality":"Lilongwe","region":"Central Region"}},"labels":["soccer","sport"],"duration":0,"start_local":"2024-05-19T14:30:00","end":"2024-05-19T12:30:00Z","end_local":"2024-05-19T14:30:00","updated":"2024-06-20T12:48:01Z"},{"title":"Super League - Karonga United vs CIVO United","description":"Sourced from predicthq.com","category":"sports","start":"2024-05-19T12:30:00Z","geo":{"geometry":{"coordinates":[33.90143829999999,-9.9401133],"type":"Point"},"placekey":"@hwp-nmn-x3q","address":{"country_code":"MW","formatted_address":"M26, Karonga, Malawi","locality":"Karonga","region":"Northern Region"}},"labels":["soccer","sport"],"duration":0,"start_local":"2024-05-19T14:30:00","end":"2024-05-19T12:30:00Z","end_local":"2024-05-19T14:30:00","updated":"2024-06-12T10:39:33Z"},{"title":"Super League - Nyasa Big Bullets vs Mzuzu City Hammers","description":"Sourced from predicthq.com","category":"sports","start":"2024-05-18T12:30:00Z","geo":{"geometry":{"coordinates":[35.0343421,-15.7990774],"type":"Point"},"placekey":"@hzb-69f-kxq","address":{"country_code":"MW","formatted_address":"622M+9P8, Blantyre, Malawi","locality":"Blantyre","region":"Southern Region"}},"labels":["soccer","sport"],"duration":0,"start_local":"2024-05-18T14:30:00","end":"2024-05-18T12:30:00Z","end_local":"2024-05-18T14:30:00","updated":"2024-06-12T03:35:09Z"},{"title":"Super League - Kamuzu Barracks vs Moyale Barracks","description":"Sourced from predicthq.com","category":"sports","start":"2024-05-18T12:30:00Z","geo":{"geometry":{"coordinates":[32.988842624,-13.74017333],"type":"Point"},"placekey":"@hvm-3rk-89z","address":{"country_code":"MW","formatted_address":"Kapiri, Malawi","locality":"Kapiri"}},"labels":["soccer","sport"],"duration":0,"start_local":"2024-05-18T14:30:00","end":"2024-05-18T12:30:00Z","end_local":"2024-05-18T14:30:00","updated":"2024-06-12T08:29:50Z"},{"title":"Super League - Creck vs FOMO","description":"Sourced from predicthq.com","category":"sports","start":"2024-05-18T12:30:00Z","geo":{"geometry":{"coordinates":[33.7584072,-13.977959],"type":"Point"},"placekey":"@hz2-nwb-z2k","address":{"country_code":"MW","formatted_address":"2QC5+R9 Lilongwe, Malawi","locality":"Lilongwe","region":"Central Region"}},"labels":["soccer","sport"],"duration":0,"start_local":"2024-05-18T14:30:00","end":"2024-05-18T12:30:00Z","end_local":"2024-05-18T14:30:00","updated":"2024-06-12T15:06:55Z"},{"title":"Super League - Mighty Tigers vs Baka City","description":"Sourced from predicthq.com","category":"sports","start":"2024-05-16T12:30:00Z","geo":{"geometry":{"coordinates":[35.0343421,-15.7990774],"type":"Point"},"placekey":"@hzb-69f-kxq","address":{"country_code":"MW","formatted_address":"622M+9P8, Blantyre, Malawi","locality":"Blantyre","region":"Southern Region"}},"labels":["soccer","sport"],"duration":0,"start_local":"2024-05-16T14:30:00","end":"2024-05-16T12:30:00Z","end_local":"2024-05-16T14:30:00","updated":"2024-06-12T04:23:29Z"},{"title":"Super League - Silver Strikers vs Creck","description":"Sourced from predicthq.com","category":"sports","start":"2024-05-12T12:30:00Z","geo":{"geometry":{"coordinates":[33.7696519,-13.953588],"type":"Point"},"placekey":"@hz2-ng7-8n5","address":{"country_code":"MW","formatted_address":"2QW9+HV6, Lilongwe, Malawi","locality":"Lilongwe","region":"Central Region"}},"labels":["soccer","sport"],"duration":0,"start_local":"2024-05-12T14:30:00","end":"2024-05-12T12:30:00Z","end_local":"2024-05-12T14:30:00","updated":"2024-06-12T08:53:31Z"},{"title":"Super League - Mighty Tigers vs Dedza Dynamos","description":"Sourced from predicthq.com","category":"sports","start":"2024-05-12T12:30:00Z","geo":{"geometry":{"coordinates":[35.0343421,-15.7990774],"type":"Point"},"placekey":"@hzb-69f-kxq","address":{"country_code":"MW","formatted_address":"622M+9P8, Blantyre, Malawi","locality":"Blantyre","region":"Southern Region"}},"labels":["soccer","sport"],"duration":0,"start_local":"2024-05-12T14:30:00","end":"2024-05-12T12:30:00Z","end_local":"2024-05-12T14:30:00","updated":"2024-06-12T13:03:13Z"},{"title":"Super League - Mzuzu City Hammers vs Kamuzu Barracks","description":"Sourced from predicthq.com","category":"sports","start":"2024-05-12T12:30:00Z","geo":{"geometry":{"coordinates":[34.0228906,-11.4500497],"type":"Point"},"placekey":"@hyz-y9x-9j9","address":{"country_code":"MW","formatted_address":"G2XF+X5J, Mzuzu, Malawi","locality":"Mzuzu","region":"Northern Region"}},"labels":["soccer","sport"],"duration":0,"start_local":"2024-05-12T14:30:00","end":"2024-05-12T12:30:00Z","end_local":"2024-05-12T14:30:00","updated":"2024-06-11T21:19:32Z"},{"title":"Super League - Moyale Barracks vs Chitipa United","description":"Sourced from predicthq.com","category":"sports","start":"2024-05-11T12:30:00Z","geo":{"geometry":{"coordinates":[34.0228906,-11.4500497],"type":"Point"},"placekey":"@hyz-y9x-9j9","address":{"country_code":"MW","formatted_address":"G2XF+X5J, Mzuzu, Malawi","locality":"Mzuzu","region":"Northern Region"}},"labels":["soccer","sport"],"duration":0,"start_local":"2024-05-11T14:30:00","end":"2024-05-11T12:30:00Z","end_local":"2024-05-11T14:30:00","updated":"2024-06-12T06:16:43Z"},{"title":"Super League - CIVO United vs Bangwe All Stars","description":"Sourced from predicthq.com","category":"sports","start":"2024-05-11T12:30:00Z","geo":{"geometry":{"coordinates":[33.7584072,-13.977959],"type":"Point"},"placekey":"@hz2-nwb-z2k","address":{"country_code":"MW","formatted_address":"2QC5+R9 Lilongwe, Malawi","locality":"Lilongwe","region":"Central Region"}},"labels":["soccer","sport"],"duration":0,"start_local":"2024-05-11T14:30:00","end":"2024-05-11T12:30:00Z","end_local":"2024-05-11T14:30:00","updated":"2024-06-12T04:58:33Z"},{"title":"Super League - MAFCO vs Nyasa Big Bullets","description":"Sourced from predicthq.com","category":"sports","start":"2024-05-11T12:30:00Z","geo":{"geometry":{"coordinates":[34.28343772,-12.9230057],"type":"Point"},"placekey":"@hz2-kmg-4gk","address":{"country_code":"MW","formatted_address":"37GM+RGR, Nkhotakota, Malawi","locality":"Nkhotakota","region":"Central Region"}},"labels":["soccer","sport"],"duration":0,"start_local":"2024-05-11T14:30:00","end":"2024-05-11T12:30:00Z","end_local":"2024-05-11T14:30:00","updated":"2024-06-12T13:55:47Z"},{"title":"Super League - FOMO vs Baka City","description":"Sourced from predicthq.com","category":"sports","start":"2024-05-11T12:30:00Z","geo":{"geometry":{"coordinates":[35.5041620639221,-16.02365833469162],"type":"Point"},"placekey":"@hzc-83z-rc5","address":{"country_code":"MW","formatted_address":"Mulanje, Malawi","locality":"Mulanje","region":"Southern Region"}},"labels":["soccer","sport"],"duration":0,"start_local":"2024-05-11T14:30:00","end":"2024-05-11T12:30:00Z","end_local":"2024-05-11T14:30:00","updated":"2024-06-12T14:44:37Z"},{"title":"Super League - Mighty Wanderers vs Karonga United","description":"Sourced from predicthq.com","category":"sports","start":"2024-05-11T12:30:00Z","geo":{"geometry":{"coordinates":[35.0343421,-15.7990774],"type":"Point"},"placekey":"@hzb-69f-kxq","address":{"country_code":"MW","formatted_address":"622M+9P8, Blantyre, Malawi","locality":"Blantyre","region":"Southern Region"}},"labels":["soccer","sport"],"duration":0,"start_local":"2024-05-11T14:30:00","end":"2024-05-11T12:30:00Z","end_local":"2024-05-11T14:30:00","updated":"2024-06-12T05:37:33Z"},{"title":"Project Pitch Day","description":"Sourced from predicthq.com - 8 CorpsAfrica Volunteers will pitch their small-scale, high-impact community-led development projects they intend to implement.","category":"conferences","start":"2024-05-11T12:00:00Z","geo":{"geometry":{"coordinates":[33.7579501,-13.97658],"type":"Point"},"placekey":"@hz2-nwb-z4v","address":{"country_code":"MW","formatted_address":"Kamuzu Processsion Rd, Lilongwe, Malawi","locality":"Lilongwe","region":"Central Region"}},"labels":["business","conference"],"duration":10800,"start_local":"2024-05-11T14:00:00","end":"2024-05-11T15:00:00Z","end_local":"2024-05-11T17:00:00","updated":"2024-06-05T15:36:57Z"},{"title":"Super League - Dedza Dynamos vs MAFCO","description":"Sourced from predicthq.com","category":"sports","start":"2024-05-05T12:30:00Z","geo":{"geometry":{"coordinates":[34.33006525039673,-14.377880402343536],"type":"Point"},"placekey":"@hzb-vrg-mx5","address":{"country_code":"MW","formatted_address":"J8CJ+V33, Dedza, Malawi","locality":"Dedza","region":"Central Region"}},"labels":["soccer","sport"],"duration":0,"start_local":"2024-05-05T14:30:00","end":"2024-05-05T12:30:00Z","end_local":"2024-05-05T14:30:00","updated":"2024-06-11T21:47:29Z"},{"title":"Super League - Kamuzu Barracks vs Bangwe All Stars","description":"Sourced from predicthq.com","category":"sports","start":"2024-05-05T12:30:00Z","geo":{"geometry":{"coordinates":[32.988842624,-13.74017333],"type":"Point"},"placekey":"@hvm-3rk-89z","address":{"country_code":"MW","formatted_address":"Kapiri, Malawi","locality":"Kapiri"}},"labels":["soccer","sport"],"duration":0,"start_local":"2024-05-05T14:30:00","end":"2024-05-05T12:30:00Z","end_local":"2024-05-05T14:30:00","updated":"2024-06-12T00:40:08Z"},{"title":"Super League - CIVO United vs FOMO","description":"Sourced from predicthq.com","category":"sports","start":"2024-05-05T12:30:00Z","geo":{"geometry":{"coordinates":[33.7584072,-13.977959],"type":"Point"},"placekey":"@hz2-nwb-z2k","address":{"country_code":"MW","formatted_address":"2QC5+R9 Lilongwe, Malawi","locality":"Lilongwe","region":"Central Region"}},"labels":["soccer","sport"],"duration":0,"start_local":"2024-05-05T14:30:00","end":"2024-05-05T12:30:00Z","end_local":"2024-05-05T14:30:00","updated":"2024-06-12T06:05:27Z"},{"title":"Super League - Karonga United vs Creck","description":"Sourced from predicthq.com","category":"sports","start":"2024-05-05T12:30:00Z","geo":{"geometry":{"coordinates":[33.90143829999999,-9.9401133],"type":"Point"},"placekey":"@hwp-nmn-x3q","address":{"country_code":"MW","formatted_address":"M26, Karonga, Malawi","locality":"Karonga","region":"Northern Region"}},"labels":["soccer","sport"],"duration":0,"start_local":"2024-05-05T14:30:00","end":"2024-05-05T12:30:00Z","end_local":"2024-05-05T14:30:00","updated":"2024-06-12T06:43:36Z"},{"title":"Super League - Mzuzu City Hammers vs Moyale Barracks","description":"Sourced from predicthq.com","category":"sports","start":"2024-05-04T12:30:00Z","geo":{"geometry":{"coordinates":[34.0228906,-11.4500497],"type":"Point"},"placekey":"@hyz-y9x-9j9","address":{"country_code":"MW","formatted_address":"G2XF+X5J, Mzuzu, Malawi","locality":"Mzuzu","region":"Northern Region"}},"labels":["soccer","sport"],"duration":0,"start_local":"2024-05-04T14:30:00","end":"2024-05-04T12:30:00Z","end_local":"2024-05-04T14:30:00","updated":"2024-06-12T10:14:07Z"},{"title":"Super League - Nyasa Big Bullets vs Mighty Wanderers","description":"Sourced from predicthq.com","category":"sports","start":"2024-05-04T12:30:00Z","geo":{"geometry":{"coordinates":[35.0343421,-15.7990774],"type":"Point"},"placekey":"@hzb-69f-kxq","address":{"country_code":"MW","formatted_address":"622M+9P8, Blantyre, Malawi","locality":"Blantyre","region":"Southern Region"}},"labels":["soccer","sport"],"duration":0,"start_local":"2024-05-04T14:30:00","end":"2024-05-04T12:30:00Z","end_local":"2024-05-04T14:30:00","updated":"2024-06-12T04:03:46Z"},{"title":"Super League - Baka City vs Silver Strikers","description":"Sourced from predicthq.com","category":"sports","start":"2024-05-04T12:30:00Z","geo":{"geometry":{"coordinates":[33.90143829999999,-9.9401133],"type":"Point"},"placekey":"@hwp-nmn-x3q","address":{"country_code":"MW","formatted_address":"M26, Karonga, Malawi","locality":"Karonga","region":"Northern Region"}},"labels":["soccer","sport"],"duration":0,"start_local":"2024-05-04T14:30:00","end":"2024-05-04T12:30:00Z","end_local":"2024-05-04T14:30:00","updated":"2024-06-12T18:08:10Z"},{"title":"Super League - Chitipa United vs Mighty Tigers","description":"Sourced from predicthq.com","category":"sports","start":"2024-05-02T12:30:00Z","geo":{"geometry":{"coordinates":[33.90143829999999,-9.9401133],"type":"Point"},"placekey":"@hwp-nmn-x3q","address":{"country_code":"MW","formatted_address":"M26, Karonga, Malawi","locality":"Karonga","region":"Northern Region"}},"labels":["soccer","sport"],"duration":0,"start_local":"2024-05-02T14:30:00","end":"2024-05-02T12:30:00Z","end_local":"2024-05-02T14:30:00","updated":"2024-06-12T03:35:52Z"},{"title":"Super League - Bangwe All Stars vs Mighty Wanderers","description":"Sourced from predicthq.com","category":"sports","start":"2024-04-28T12:30:00Z","geo":{"geometry":{"coordinates":[35.056574488526834,-15.83535245857782],"type":"Point"},"placekey":"@hzb-69p-4vz","address":{"country_code":"MW","formatted_address":"5374+VJ2, Blantyre, Malawi","locality":"Blantyre","region":"Southern Region"}},"labels":["soccer","sport"],"duration":0,"start_local":"2024-04-28T14:30:00","end":"2024-04-28T12:30:00Z","end_local":"2024-04-28T14:30:00","updated":"2024-06-12T09:10:36Z"},{"title":"Super League - Moyale Barracks vs Dedza Dynamos","description":"Sourced from predicthq.com","category":"sports","start":"2024-04-28T12:30:00Z","geo":{"geometry":{"coordinates":[34.0228906,-11.4500497],"type":"Point"},"placekey":"@hyz-y9x-9j9","address":{"country_code":"MW","formatted_address":"G2XF+X5J, Mzuzu, Malawi","locality":"Mzuzu","region":"Northern Region"}},"labels":["soccer","sport"],"duration":0,"start_local":"2024-04-28T14:30:00","end":"2024-04-28T12:30:00Z","end_local":"2024-04-28T14:30:00","updated":"2024-06-12T03:03:44Z"},{"title":"Super League - Karonga United vs Mighty Tigers","description":"Sourced from predicthq.com","category":"sports","start":"2024-04-28T12:30:00Z","geo":{"geometry":{"coordinates":[33.90143829999999,-9.9401133],"type":"Point"},"placekey":"@hwp-nmn-x3q","address":{"country_code":"MW","formatted_address":"M26, Karonga, Malawi","locality":"Karonga","region":"Northern Region"}},"labels":["soccer","sport"],"duration":0,"start_local":"2024-04-28T14:30:00","end":"2024-04-28T12:30:00Z","end_local":"2024-04-28T14:30:00","updated":"2024-06-12T06:36:42Z"},{"title":"Super League - CIVO United vs Kamuzu Barracks","description":"Sourced from predicthq.com","category":"sports","start":"2024-04-28T12:30:00Z","geo":{"geometry":{"coordinates":[33.7584072,-13.977959],"type":"Point"},"placekey":"@hz2-nwb-z2k","address":{"country_code":"MW","formatted_address":"2QC5+R9 Lilongwe, Malawi","locality":"Lilongwe","region":"Central Region"}},"labels":["soccer","sport"],"duration":0,"start_local":"2024-04-28T14:30:00","end":"2024-04-28T12:30:00Z","end_local":"2024-04-28T14:30:00","updated":"2024-06-11T22:26:10Z"},{"title":"Super League - FOMO vs Chitipa United","description":"Sourced from predicthq.com","category":"sports","start":"2024-04-28T12:30:00Z","geo":{"geometry":{"coordinates":[35.5041620639221,-16.02365833469162],"type":"Point"},"placekey":"@hzc-83z-rc5","address":{"country_code":"MW","formatted_address":"Mulanje, Malawi","locality":"Mulanje","region":"Southern Region"}},"labels":["soccer","sport"],"duration":0,"start_local":"2024-04-28T14:30:00","end":"2024-04-28T12:30:00Z","end_local":"2024-04-28T14:30:00","updated":"2024-06-12T00:15:27Z"},{"title":"Super League - Nyasa Big Bullets vs Baka City","description":"Sourced from predicthq.com","category":"sports","start":"2024-04-27T12:30:00Z","geo":{"geometry":{"coordinates":[35.0343421,-15.7990774],"type":"Point"},"placekey":"@hzb-69f-kxq","address":{"country_code":"MW","formatted_address":"622M+9P8, Blantyre, Malawi","locality":"Blantyre","region":"Southern Region"}},"labels":["soccer","sport"],"duration":0,"start_local":"2024-04-27T14:30:00","end":"2024-04-27T12:30:00Z","end_local":"2024-04-27T14:30:00","updated":"2024-06-12T04:16:37Z"},{"title":"Super League - Creck vs Mzuzu City Hammers","description":"Sourced from predicthq.com","category":"sports","start":"2024-04-27T12:30:00Z","geo":{"geometry":{"coordinates":[33.7584072,-13.977959],"type":"Point"},"placekey":"@hz2-nwb-z2k","address":{"country_code":"MW","formatted_address":"2QC5+R9 Lilongwe, Malawi","locality":"Lilongwe","region":"Central Region"}},"labels":["soccer","sport"],"duration":0,"start_local":"2024-04-27T14:30:00","end":"2024-04-27T12:30:00Z","end_local":"2024-04-27T14:30:00","updated":"2024-06-12T09:36:24Z"},{"title":"Super League - Bangwe All Stars vs Karonga United","description":"Sourced from predicthq.com","category":"sports","start":"2024-04-21T12:30:00Z","geo":{"geometry":{"coordinates":[35.056574488526834,-15.83535245857782],"type":"Point"},"placekey":"@hzb-69p-4vz","address":{"country_code":"MW","formatted_address":"5374+VJ2, Blantyre, Malawi","locality":"Blantyre","region":"Southern Region"}},"labels":["soccer","sport"],"duration":0,"start_local":"2024-04-21T14:30:00","end":"2024-04-21T12:30:00Z","end_local":"2024-04-21T14:30:00","updated":"2024-06-12T04:04:04Z"},{"title":"Super League - Dedza Dynamos vs Silver Strikers","description":"Sourced from predicthq.com","category":"sports","start":"2024-04-21T12:30:00Z","geo":{"geometry":{"coordinates":[34.33006525039673,-14.377880402343536],"type":"Point"},"placekey":"@hzb-vrg-mx5","address":{"country_code":"MW","formatted_address":"J8CJ+V33, Dedza, Malawi","locality":"Dedza","region":"Central Region"}},"labels":["soccer","sport"],"duration":0,"start_local":"2024-04-21T14:30:00","end":"2024-04-21T12:30:00Z","end_local":"2024-04-21T14:30:00","updated":"2024-06-11T22:45:48Z"},{"title":"Super League - Chitipa United vs Nyasa Big Bullets","description":"Sourced from predicthq.com","category":"sports","start":"2024-04-21T12:30:00Z","geo":{"geometry":{"coordinates":[33.90143829999999,-9.9401133],"type":"Point"},"placekey":"@hwp-nmn-x3q","address":{"country_code":"MW","formatted_address":"M26, Karonga, Malawi","locality":"Karonga","region":"Northern Region"}},"labels":["soccer","sport"],"duration":0,"start_local":"2024-04-21T14:30:00","end":"2024-04-21T12:30:00Z","end_local":"2024-04-21T14:30:00","updated":"2024-06-12T00:40:55Z"},{"title":"Super League - Mighty Tigers vs Mzuzu City Hammers","description":"Sourced from predicthq.com","category":"sports","start":"2024-04-21T12:30:00Z","geo":{"geometry":{"coordinates":[35.0343421,-15.7990774],"type":"Point"},"placekey":"@hzb-69f-kxq","address":{"country_code":"MW","formatted_address":"622M+9P8, Blantyre, Malawi","locality":"Blantyre","region":"Southern Region"}},"labels":["soccer","sport"],"duration":0,"start_local":"2024-04-21T14:30:00","end":"2024-04-21T12:30:00Z","end_local":"2024-04-21T14:30:00","updated":"2024-06-12T03:04:12Z"},{"title":"Super League - Baka City vs MAFCO","description":"Sourced from predicthq.com","category":"sports","start":"2024-04-20T12:30:00Z","geo":{"geometry":{"coordinates":[33.90143829999999,-9.9401133],"type":"Point"},"placekey":"@hwp-nmn-x3q","address":{"country_code":"MW","formatted_address":"M26, Karonga, Malawi","locality":"Karonga","region":"Northern Region"}},"labels":["soccer","sport"],"duration":0,"start_local":"2024-04-20T14:30:00","end":"2024-04-20T12:30:00Z","end_local":"2024-04-20T14:30:00","updated":"2024-06-12T03:53:41Z"},{"title":"Super League - Mighty Wanderers vs Creck","description":"Sourced from predicthq.com","category":"sports","start":"2024-04-20T12:30:00Z","geo":{"geometry":{"coordinates":[35.0343421,-15.7990774],"type":"Point"},"placekey":"@hzb-69f-kxq","address":{"country_code":"MW","formatted_address":"622M+9P8, Blantyre, Malawi","locality":"Blantyre","region":"Southern Region"}},"labels":["soccer","sport"],"duration":0,"start_local":"2024-04-20T14:30:00","end":"2024-04-20T12:30:00Z","end_local":"2024-04-20T14:30:00","updated":"2024-06-12T08:55:26Z"},{"title":"Super League - Kamuzu Barracks vs FOMO","description":"Sourced from predicthq.com","category":"sports","start":"2024-04-20T12:30:00Z","geo":{"geometry":{"coordinates":[33.7584072,-13.977959],"type":"Point"},"placekey":"@hz2-nwb-z2k","address":{"country_code":"MW","formatted_address":"2QC5+R9 Lilongwe, Malawi","locality":"Lilongwe","region":"Central Region"}},"labels":["soccer","sport"],"duration":0,"start_local":"2024-04-20T14:30:00","end":"2024-04-20T12:30:00Z","end_local":"2024-04-20T14:30:00","updated":"2024-06-12T08:07:12Z"},{"title":"Super League - Moyale Barracks vs CIVO United","description":"Sourced from predicthq.com","category":"sports","start":"2024-04-20T12:30:00Z","geo":{"geometry":{"coordinates":[34.0228906,-11.4500497],"type":"Point"},"placekey":"@hyz-y9x-9j9","address":{"country_code":"MW","formatted_address":"G2XF+X5J, Mzuzu, Malawi","locality":"Mzuzu","region":"Northern Region"}},"labels":["soccer","sport"],"duration":0,"start_local":"2024-04-20T14:30:00","end":"2024-04-20T12:30:00Z","end_local":"2024-04-20T14:30:00","updated":"2024-06-12T05:11:44Z"},{"title":"Sustainable Futures Global - Partnership & Networking event","description":"Sourced from predicthq.com - Join us","category":"conferences","start":"2024-04-16T16:00:00Z","geo":{"geometry":{"coordinates":[33.80410579999999,-13.9260853],"type":"Point"},"placekey":"@hz2-ng7-zcq","address":{"country_code":"MW","formatted_address":"Lilongwe, Central Region, Malawi","locality":"Lilongwe","region":"Central Region"}},"labels":["business","conference"],"duration":7200,"start_local":"2024-04-16T18:00:00","end":"2024-04-16T18:00:00Z","end_local":"2024-04-16T20:00:00","updated":"2024-06-05T00:39:45Z"},{"title":"Writing, International Publishing, and Knowlegde Exchange - Masterclass","description":"Sourced from predicthq.com - Come join us for a day of learning and networking with writers, publishers, and knowledge enthusiasts from around the world!","category":"conferences","start":"2024-04-16T06:00:00Z","geo":{"geometry":{"coordinates":[33.80410579999999,-13.9260853],"type":"Point"},"placekey":"@hz2-ng7-zcq","address":{"country_code":"MW","formatted_address":"Lilongwe, Central Region, Malawi","locality":"Lilongwe","region":"Central Region"}},"labels":["conference"],"duration":43200,"start_local":"2024-04-16T08:00:00","end":"2024-04-16T18:00:00Z","end_local":"2024-04-16T20:00:00","updated":"2024-06-05T12:50:21Z"},{"title":"Super League - Silver Strikers vs Bangwe All Stars","description":"Sourced from predicthq.com","category":"sports","start":"2024-04-14T12:30:00Z","geo":{"geometry":{"coordinates":[33.7696519,-13.953588],"type":"Point"},"placekey":"@hz2-ng7-8n5","address":{"country_code":"MW","formatted_address":"2QW9+HV6, Lilongwe, Malawi","locality":"Lilongwe","region":"Central Region"}},"labels":["soccer","sport"],"duration":0,"start_local":"2024-04-14T14:30:00","end":"2024-04-14T12:30:00Z","end_local":"2024-04-14T14:30:00","updated":"2024-06-12T03:33:03Z"},{"title":"Super League - Chitipa United vs Karonga United","description":"Sourced from predicthq.com","category":"sports","start":"2024-04-14T12:30:00Z","geo":{"geometry":{"coordinates":[33.90143829999999,-9.9401133],"type":"Point"},"placekey":"@hwp-nmn-x3q","address":{"country_code":"MW","formatted_address":"M26, Karonga, Malawi","locality":"Karonga","region":"Northern Region"}},"labels":["soccer","sport"],"duration":0,"start_local":"2024-04-14T14:30:00","end":"2024-04-14T12:30:00Z","end_local":"2024-04-14T14:30:00","updated":"2024-06-12T09:08:42Z"},{"title":"Super League - Creck vs Moyale Barracks","description":"Sourced from predicthq.com","category":"sports","start":"2024-04-14T12:30:00Z","geo":{"geometry":{"coordinates":[33.7584072,-13.977959],"type":"Point"},"placekey":"@hz2-nwb-z2k","address":{"country_code":"MW","formatted_address":"2QC5+R9 Lilongwe, Malawi","locality":"Lilongwe","region":"Central Region"}},"labels":["soccer","sport"],"duration":0,"start_local":"2024-04-14T14:30:00","end":"2024-04-14T12:30:00Z","end_local":"2024-04-14T14:30:00","updated":"2024-06-11T23:06:03Z"},{"title":"Super League - FOMO vs Mighty Wanderers","description":"Sourced from predicthq.com","category":"sports","start":"2024-04-14T12:30:00Z","geo":{"geometry":{"coordinates":[35.5041620639221,-16.02365833469162],"type":"Point"},"placekey":"@hzc-83z-rc5","address":{"country_code":"MW","formatted_address":"Mulanje, Malawi","locality":"Mulanje","region":"Southern Region"}},"labels":["soccer","sport"],"duration":0,"start_local":"2024-04-14T14:30:00","end":"2024-04-14T12:30:00Z","end_local":"2024-04-14T14:30:00","updated":"2024-06-12T05:34:33Z"},{"title":"Super League - MAFCO vs Kamuzu Barracks","description":"Sourced from predicthq.com","category":"sports","start":"2024-04-13T12:30:00Z","geo":{"geometry":{"coordinates":[34.28343772,-12.9230057],"type":"Point"},"placekey":"@hz2-kmg-4gk","address":{"country_code":"MW","formatted_address":"37GM+RGR, Nkhotakota, Malawi","locality":"Nkhotakota","region":"Central Region"}},"labels":["soccer","sport"],"duration":0,"start_local":"2024-04-13T14:30:00","end":"2024-04-13T12:30:00Z","end_local":"2024-04-13T14:30:00","updated":"2024-06-12T06:46:50Z"},{"title":"Super League - Nyasa Big Bullets vs Mighty Tigers","description":"Sourced from predicthq.com","category":"sports","start":"2024-04-13T12:30:00Z","geo":{"geometry":{"coordinates":[35.0343421,-15.7990774],"type":"Point"},"placekey":"@hzb-69f-kxq","address":{"country_code":"MW","formatted_address":"622M+9P8, Blantyre, Malawi","locality":"Blantyre","region":"Southern Region"}},"labels":["soccer","sport"],"duration":0,"start_local":"2024-04-13T14:30:00","end":"2024-04-13T12:30:00Z","end_local":"2024-04-13T14:30:00","updated":"2024-06-11T22:05:29Z"},{"title":"Super League - CIVO United vs Dedza Dynamos","description":"Sourced from predicthq.com","category":"sports","start":"2024-04-13T12:30:00Z","geo":{"geometry":{"coordinates":[33.7584072,-13.977959],"type":"Point"},"placekey":"@hz2-nwb-z2k","address":{"country_code":"MW","formatted_address":"2QC5+R9 Lilongwe, Malawi","locality":"Lilongwe","region":"Central Region"}},"labels":["soccer","sport"],"duration":0,"start_local":"2024-04-13T14:30:00","end":"2024-04-13T12:30:00Z","end_local":"2024-04-13T14:30:00","updated":"2024-06-12T06:46:07Z"},{"title":"Super League - Mzuzu City Hammers vs Baka City","description":"Sourced from predicthq.com","category":"sports","start":"2024-04-13T12:30:00Z","geo":{"geometry":{"coordinates":[34.0228906,-11.4500497],"type":"Point"},"placekey":"@hyz-y9x-9j9","address":{"country_code":"MW","formatted_address":"G2XF+X5J, Mzuzu, Malawi","locality":"Mzuzu","region":"Northern Region"}},"labels":["soccer","sport"],"duration":0,"start_local":"2024-04-13T14:30:00","end":"2024-04-13T12:30:00Z","end_local":"2024-04-13T14:30:00","updated":"2024-06-12T02:11:42Z"},{"title":"Super League - Mighty Wanderers vs Kamuzu Barracks","description":"Sourced from predicthq.com","category":"sports","start":"2024-04-07T12:30:00Z","geo":{"geometry":{"coordinates":[35.0343421,-15.7990774],"type":"Point"},"placekey":"@hzb-69f-kxq","address":{"country_code":"MW","formatted_address":"622M+9P8, Blantyre, Malawi","locality":"Blantyre","region":"Southern Region"}},"labels":["soccer","sport"],"duration":0,"start_local":"2024-04-07T14:30:00","end":"2024-04-07T12:30:00Z","end_local":"2024-04-07T14:30:00","updated":"2024-06-12T09:25:09Z"},{"title":"Super League - Mzuzu City Hammers vs CIVO United","description":"Sourced from predicthq.com","category":"sports","start":"2024-04-07T12:30:00Z","geo":{"geometry":{"coordinates":[34.0228906,-11.4500497],"type":"Point"},"placekey":"@hyz-y9x-9j9","address":{"country_code":"MW","formatted_address":"G2XF+X5J, Mzuzu, Malawi","locality":"Mzuzu","region":"Northern Region"}},"labels":["soccer","sport"],"duration":0,"start_local":"2024-04-07T14:30:00","end":"2024-04-07T12:30:00Z","end_local":"2024-04-07T14:30:00","updated":"2024-06-11T20:37:13Z"},{"title":"Super League - Creck vs Mighty Tigers","description":"Sourced from predicthq.com","category":"sports","start":"2024-04-07T12:30:00Z","geo":{"geometry":{"coordinates":[33.7584072,-13.977959],"type":"Point"},"placekey":"@hz2-nwb-z2k","address":{"country_code":"MW","formatted_address":"2QC5+R9 Lilongwe, Malawi","locality":"Lilongwe","region":"Central Region"}},"labels":["soccer","sport"],"duration":0,"start_local":"2024-04-07T14:30:00","end":"2024-04-07T12:30:00Z","end_local":"2024-04-07T14:30:00","updated":"2024-06-12T08:07:24Z"},{"title":"Super League - Baka City vs Karonga United","description":"Sourced from predicthq.com","category":"sports","start":"2024-04-07T12:30:00Z","geo":{"geometry":{"coordinates":[33.90143829999999,-9.9401133],"type":"Point"},"placekey":"@hwp-nmn-x3q","address":{"country_code":"MW","formatted_address":"M26, Karonga, Malawi","locality":"Karonga","region":"Northern Region"}},"labels":["soccer","sport"],"duration":0,"start_local":"2024-04-07T14:30:00","end":"2024-04-07T12:30:00Z","end_local":"2024-04-07T14:30:00","updated":"2024-06-12T17:44:17Z"}]