[{"title":"Estrategias de Busca de Emprego","description":"Sourced from predicthq.com - Vamos aprender juntos as melhores estratégias para encontrar emprego!","category":"conferences","start":"2024-09-04T08:00:00Z","geo":{"geometry":{"coordinates":[33.4607744,-19.1054879],"type":"Point"},"placekey":"@hxn-wh4-8vz","address":{"country_code":"MZ","formatted_address":"Chimoio, Manica, Mozambique","locality":"Chimoio","region":"Manica"}},"labels":["business","conference"],"duration":7200,"start_local":"2024-09-04T10:00:00","end":"2024-09-04T10:00:00Z","end_local":"2024-09-04T12:00:00","updated":"2024-07-04T12:53:24Z"},{"title":"SARIMA Conference","description":"Sourced from predicthq.com","category":"conferences","start":"2024-09-03T07:00:00Z","geo":{"geometry":{"coordinates":[32.6069962,-25.9567303],"type":"Point"},"placekey":"@nc7-pdf-j9z","address":{"country_code":"MZ","formatted_address":"141 Avenida Marginal, 1100 Maputo, Mozambique","postcode":"1100","locality":"Maputo","region":"Cidade de Maputo"}},"labels":["conference"],"duration":205200,"start_local":"2024-09-03T09:00:00","end":"2024-09-05T16:00:00Z","end_local":"2024-09-05T18:00:00","updated":"2024-05-27T17:02:46Z"},{"title":"Orientacao vpcacional no Ecoturismo","description":"Sourced from predicthq.com - Vem descobrir como explorar carreira no ecoturismo! Aprenda sobre oportunidades profissionais e orientação vocacional.","category":"conferences","start":"2024-08-28T08:00:00Z","geo":{"geometry":{"coordinates":[33.4607744,-19.1054879],"type":"Point"},"placekey":"@hxn-wh4-8vz","address":{"country_code":"MZ","formatted_address":"Chimoio, Manica, Mozambique","locality":"Chimoio","region":"Manica"}},"labels":["conference","outdoor"],"duration":7200,"start_local":"2024-08-28T10:00:00","end":"2024-08-28T10:00:00Z","end_local":"2024-08-28T12:00:00","updated":"2024-07-04T00:35:22Z"},{"title":"FACIM","description":"Sourced from predicthq.com - Trade Fair and Agricultural Exhibition","category":"expos","start":"2024-08-25T22:00:00Z","geo":{"geometry":{"coordinates":[32.6390827,-25.779148],"type":"Point"},"placekey":"@ncz-7xs-qzz","address":{"country_code":"MZ","formatted_address":"Marracuene District, Maputo Province, Mozambique","locality":"Marracuene District","region":"Maputo Province"}},"labels":["expo","product"],"duration":604799,"start_local":"2024-08-26T00:00:00","end":"2024-09-01T21:59:59Z","end_local":"2024-09-01T23:59:59","updated":"2024-07-02T06:31:26Z"},{"title":"When Pigs Fly","description":"Sourced from predicthq.com - Get ready to witness the impossible at When Pigs Fly - a fun-filled event where pigs will soar through the sky!","category":"festivals","start":"2024-08-21T08:00:00Z","geo":{"geometry":{"coordinates":[33.4607744,-19.1054879],"type":"Point"},"placekey":"@hxn-wh4-8vz","address":{"country_code":"MZ","formatted_address":"Chimoio, Manica, Mozambique","locality":"Chimoio","region":"Manica"}},"labels":["festival"],"duration":7200,"start_local":"2024-08-21T10:00:00","end":"2024-08-21T10:00:00Z","end_local":"2024-08-21T12:00:00","updated":"2024-07-04T05:25:49Z"},{"title":"Carta de apresentacao profissional","description":"Sourced from predicthq.com - Neste evento, vamos aprender como criar uma carta de apresentação profissional que vai impressionar os recrutadores e garantir aquela entrev","category":"conferences","start":"2024-08-21T08:00:00Z","geo":{"geometry":{"coordinates":[33.4607744,-19.1054879],"type":"Point"},"placekey":"@hxn-wh4-8vz","address":{"country_code":"MZ","formatted_address":"Chimoio, Manica, Mozambique","locality":"Chimoio","region":"Manica"}},"labels":["business","conference"],"duration":7200,"start_local":"2024-08-21T10:00:00","end":"2024-08-21T10:00:00Z","end_local":"2024-08-21T12:00:00","updated":"2024-07-04T09:18:24Z"},{"title":"International Youth Conference - HD13","description":"Sourced from predicthq.com - H​D13 is an International Youth Conference, which, on this occasion, will be hosted by Mozambique for its 13th edition","category":"conferences","start":"2024-08-15T15:30:00Z","geo":{"geometry":{"coordinates":[34.9177258,-19.8271197],"type":"Point"},"placekey":"@hxv-7sv-rrk","address":{"country_code":"MZ","formatted_address":"Beira, Sofala Province, Mozambique","locality":"Beira","region":"Sofala Province"}},"labels":["community","conference"],"duration":70200,"start_local":"2024-08-15T17:30:00","end":"2024-08-16T11:00:00Z","end_local":"2024-08-16T13:00:00","updated":"2024-06-04T07:29:24Z"},{"title":"Carta de Apresentacao Profissional","description":"Sourced from predicthq.com - Neste evento, vamos aprender a criar uma carta de apresentação profissional que vai te destacar no mercado de trabalho!","category":"conferences","start":"2024-08-14T08:00:00Z","geo":{"geometry":{"coordinates":[33.4607744,-19.1054879],"type":"Point"},"placekey":"@hxn-wh4-8vz","address":{"country_code":"MZ","formatted_address":"Chimoio, Manica, Mozambique","locality":"Chimoio","region":"Manica"}},"labels":["business","conference"],"duration":7200,"start_local":"2024-08-14T10:00:00","end":"2024-08-14T10:00:00Z","end_local":"2024-08-14T12:00:00","updated":"2024-07-04T04:48:40Z"},{"title":"International Tourism RACE Motorsports Camps & Training Workshop","description":"Sourced from predicthq.com","category":"expos","start":"2024-08-01T22:00:00Z","geo":{"geometry":{"coordinates":[32.624213,-25.938787],"type":"Point"},"placekey":"@nc7-pdg-rp9","address":{"country_code":"MZ","formatted_address":"Maputo, Mozambique","locality":"Maputo","region":"Maputo"}},"labels":["expo"],"duration":518399,"start_local":"2024-08-02T00:00:00","end":"2024-08-07T21:59:59Z","end_local":"2024-08-07T23:59:59","updated":"2024-06-30T09:15:37Z"},{"title":"Orientacao Vocacional na Contabilidade","description":"Sourced from predicthq.com - Vamos descobrir juntos se a contabilidade é o caminho certo para você na Orientação Vocacional na Contabilidade!","category":"conferences","start":"2024-07-31T08:00:00Z","geo":{"geometry":{"coordinates":[33.4607744,-19.1054879],"type":"Point"},"placekey":"@hxn-wh4-8vz","address":{"country_code":"MZ","formatted_address":"Chimoio, Manica, Mozambique","locality":"Chimoio","region":"Manica"}},"labels":["conference"],"duration":7200,"start_local":"2024-07-31T10:00:00","end":"2024-07-31T10:00:00Z","end_local":"2024-07-31T12:00:00","updated":"2024-07-05T09:29:40Z"},{"title":"Tecnostress","description":"Sourced from predicthq.com - Get ready to tackle the modern-day challenge of tecnostress at our event filled with tips, tricks, and strategies to help you manage and ove","category":"conferences","start":"2024-07-24T08:00:00Z","geo":{"geometry":{"coordinates":[33.4607744,-19.1054879],"type":"Point"},"placekey":"@hxn-wh4-8vz","address":{"country_code":"MZ","formatted_address":"Chimoio, Manica, Mozambique","locality":"Chimoio","region":"Manica"}},"labels":["conference","science","technology"],"duration":7200,"start_local":"2024-07-24T10:00:00","end":"2024-07-24T10:00:00Z","end_local":"2024-07-24T12:00:00","updated":"2024-07-04T16:54:04Z"},{"title":"CSR & Sustainability Summit MOZ","description":"Sourced from predicthq.com","category":"conferences","start":"2024-07-17T07:00:00Z","geo":{"geometry":{"coordinates":[32.6086043,-25.9542276],"type":"Point"},"placekey":"@nc7-pd6-f4v","address":{"country_code":"MZ","formatted_address":"4441 Av. da Marginal, Maputo, Mozambique","locality":"Maputo","region":"Maputo"}},"labels":["conference"],"duration":118800,"start_local":"2024-07-17T09:00:00","end":"2024-07-18T16:00:00Z","end_local":"2024-07-18T18:00:00","updated":"2024-05-31T22:57:55Z"},{"title":"AGILITY Open Warehouse Maputo","description":"Sourced from predicthq.com - Brunch and Tour at Agility Warehouse Park in Maputo","category":"expos","start":"2024-07-17T06:30:00Z","geo":{"geometry":{"coordinates":[32.5985984,-25.960205],"type":"Point"},"placekey":"@nc7-pdf-35z","address":{"country_code":"MZ","formatted_address":"Rua de Dar-Es-Salaam, Maputo, Mozambique","locality":"Maputo","region":"Maputo"}},"labels":["expo","sport"],"duration":9000,"start_local":"2024-07-17T08:30:00","end":"2024-07-17T09:00:00Z","end_local":"2024-07-17T11:00:00","updated":"2024-07-04T17:01:39Z"},{"title":"II Conferência de Lideres Em Moçambique","description":"Sourced from predicthq.com - Uma conferencia para Pastores e lideres organizada pelo Conselho Evangelico de Moçambique","category":"conferences","start":"2024-07-11T17:00:07Z","geo":{"geometry":{"coordinates":[34.8400821,-19.8348407],"type":"Point"},"placekey":"@hxv-7t7-gc5","address":{"country_code":"MZ","formatted_address":"Beira, Sofala, Mozambique","locality":"Beira","region":"Sofala"}},"labels":["community","conference"],"duration":10800,"start_local":"2024-07-11T19:00:07","end":"2024-07-11T20:00:07Z","end_local":"2024-07-11T22:00:07","updated":"2024-06-06T02:25:43Z"},{"title":"Carta De apresentação Profissional","description":"Sourced from predicthq.com - Vem aprender a criar uma carta de apresentação profissional que vai te destacar no mercado de trabalho!","category":"conferences","start":"2024-07-10T10:00:00Z","geo":{"geometry":{"coordinates":[33.4607744,-19.1054879],"type":"Point"},"placekey":"@hxn-wh4-8vz","address":{"country_code":"MZ","formatted_address":"Chimoio, Manica, Mozambique","locality":"Chimoio","region":"Manica"}},"labels":["business","conference"],"duration":21600,"start_local":"2024-07-10T12:00:00","end":"2024-07-10T16:00:00Z","end_local":"2024-07-10T18:00:00","updated":"2024-07-04T00:35:43Z"},{"title":"Elevator Pitch","description":"Sourced from predicthq.com - Get ready to pitch your idea in 60 seconds or less to a panel of judges and win some awesome prizes at Elevator Pitch!","category":"conferences","start":"2024-07-10T08:00:00Z","geo":{"geometry":{"coordinates":[33.4607744,-19.1054879],"type":"Point"},"placekey":"@hxn-wh4-8vz","address":{"country_code":"MZ","formatted_address":"Chimoio, Manica, Mozambique","locality":"Chimoio","region":"Manica"}},"labels":["business","conference"],"duration":12600,"start_local":"2024-07-10T10:00:00","end":"2024-07-10T11:30:00Z","end_local":"2024-07-10T13:30:00","updated":"2024-07-04T17:03:15Z"},{"title":"Mozambique Energy & Industry Summit","description":"Sourced from predicthq.com","category":"conferences","start":"2024-07-02T07:00:00Z","geo":{"geometry":{"coordinates":[40.529869,-12.96383],"type":"Point"},"placekey":"@hz4-kwg-qfz","address":{"country_code":"MZ","formatted_address":"Pemba, Cabo Delgado Province, Mozambique","locality":"Pemba","region":"Cabo Delgado Province"}},"labels":["conference"],"duration":205200,"start_local":"2024-07-02T09:00:00","end":"2024-07-04T16:00:00Z","end_local":"2024-07-04T18:00:00","updated":"2024-05-27T03:59:22Z"},{"title":"BFSI Conference 2024","description":"Sourced from predicthq.com - Transforming the BFSI Sector to Boost Local Content Development and Integration into Mega Projects.","category":"conferences","start":"2024-06-19T06:00:00Z","geo":{"geometry":{"coordinates":[32.60112969999999,-25.9552457],"type":"Point"},"placekey":"@nc7-pdf-g49","address":{"country_code":"MZ","formatted_address":"Rua Dom Sebastião, 1750 Maputo, Mozambique","locality":"Maputo","postcode":"1750","region":"Maputo"}},"labels":["business","conference"],"duration":14400,"start_local":"2024-06-19T08:00:00","end":"2024-06-19T10:00:00Z","end_local":"2024-06-19T12:00:00","updated":"2024-06-04T06:39:29Z"},{"title":"Saturday \"Run & Breakfast\" With Folks in tech & startups","description":"Sourced from predicthq.com - Join us for a fun Saturday morning run followed by a delicious breakfast with fellow tech and startup enthusiasts!","category":"community","start":"2024-05-25T05:30:00Z","geo":{"geometry":{"coordinates":[32.5972482,-25.972167],"type":"Point"},"placekey":"@nc7-pdf-rkz","address":{"country_code":"MZ","formatted_address":"Rua da Gorongosa, Maputo, Mozambique","locality":"Maputo","region":"Maputo"}},"labels":["community","sport"],"duration":9000,"start_local":"2024-05-25T07:30:00","end":"2024-05-25T08:00:00Z","end_local":"2024-05-25T10:00:00","updated":"2024-05-23T02:51:51Z"},{"title":"Throes + The Shine","description":"Sourced from predicthq.com","category":"community","start":"2024-05-11T19:00:00Z","geo":{"geometry":{"coordinates":[32.57127,-25.97285],"type":"Point"},"placekey":"@nc7-p4m-bx5","address":{"country_code":"MZ","formatted_address":"468 Avenida Samora Machel, Maputo, Mozambique","locality":"Maputo","region":"Maputo"}},"labels":["concert","music"],"duration":0,"start_local":"2024-05-11T21:00:00","end":"2024-05-11T19:00:00Z","end_local":"2024-05-11T21:00:00","updated":"2024-06-05T21:57:56Z"},{"title":"Mozambique Mining and Energy Conference","description":"Sourced from predicthq.com","category":"conferences","start":"2024-05-01T22:00:00Z","geo":{"geometry":{"coordinates":[32.6086043,-25.9542276],"type":"Point"},"placekey":"@nc7-pd6-f4v","address":{"country_code":"MZ","formatted_address":"4441 Av. da Marginal, Maputo, Mozambique","locality":"Maputo","region":"Maputo"}},"labels":["conference"],"duration":172799,"start_local":"2024-05-02T00:00:00","end":"2024-05-03T21:59:59Z","end_local":"2024-05-03T23:59:59","updated":"2024-06-05T08:20:19Z"},{"title":"Carlos Manaca and Luis XL Garcia","description":"Sourced from predicthq.com","category":"concerts","start":"2024-04-27T21:45:00Z","geo":{"geometry":{"coordinates":[32.6070008,-25.9577554],"type":"Point"},"placekey":"@nc7-pdf-j35","address":{"country_code":"MZ","formatted_address":"2JR4+VRR, Maputo, Mozambique","locality":"Maputo","region":"Maputo"}},"labels":["concert","music"],"duration":0,"start_local":"2024-04-27T23:45:00","end":"2024-04-27T21:45:00Z","end_local":"2024-04-27T23:45:00","updated":"2024-06-12T06:05:11Z"},{"title":"1st Southern Africa and 2nd East Africa LPG Expo - Mozambique 2024","description":"Sourced from predicthq.com - This LPG event, backed by WLGA, drives regional LPG growth with 40+ exhibitors and 1,000 stakeholders in Southern and East Africa region","category":"expos","start":"2024-04-17T07:00:00Z","geo":{"geometry":{"coordinates":[32.6082694,-25.9550754],"type":"Point"},"placekey":"@nc7-pd6-dy9","address":{"country_code":"MZ","formatted_address":"Avenida da Marginal, Maputo, Mozambique","locality":"Maputo","region":"Maputo"}},"labels":["business","expo"],"duration":118800,"start_local":"2024-04-17T09:00:00","end":"2024-04-18T16:00:00Z","end_local":"2024-04-18T18:00:00","updated":"2024-06-04T23:08:39Z"}]