[{"title":"SEG Conference","description":"Sourced from predicthq.com","category":"conferences","start":"2024-09-27T07:00:00Z","geo":{"geometry":{"coordinates":[17.083794,-22.5981],"type":"Point"},"placekey":"@kwr-zjh-s89","address":{"country_code":"NA","formatted_address":"Windhoek, Khomas Region, Namibia","locality":"Windhoek","region":"Khomas Region"}},"labels":["conference"],"duration":291600,"start_local":"2024-09-27T09:00:00","end":"2024-09-30T16:00:00Z","end_local":"2024-09-30T18:00:00","updated":"2024-06-14T02:54:43Z"},{"title":"Global African Hydrogen Summit","description":"Sourced from predicthq.com","category":"conferences","start":"2024-09-03T07:00:00Z","geo":{"geometry":{"coordinates":[17.082942,-22.597245],"type":"Point"},"placekey":"@kwr-zjh-rx5","address":{"country_code":"NA","formatted_address":"Windhoek, Khomas Region, Namibia","locality":"Windhoek","region":"Khomas Region"}},"labels":["conference"],"duration":205200,"start_local":"2024-09-03T09:00:00","end":"2024-09-05T16:00:00Z","end_local":"2024-09-05T18:00:00","updated":"2024-06-30T11:56:55Z"},{"title":"OATF - Ongwediva Annual Trade Fair","description":"Sourced from predicthq.com","category":"expos","start":"2024-08-22T22:00:00Z","geo":{"geometry":{"coordinates":[15.7550135,-17.7816464],"type":"Point"},"placekey":"@kwf-55j-qfz","address":{"country_code":"NA","formatted_address":"Ongwediva, Oshana Region, Namibia","locality":"Ongwediva","region":"Oshana Region"}},"labels":["expo","product"],"duration":777599,"start_local":"2024-08-23T00:00:00","end":"2024-08-31T21:59:59Z","end_local":"2024-08-31T23:59:59","updated":"2024-06-04T06:27:58Z"},{"title":"Namibia International Oil and Gas Conference & Exhibition","description":"Sourced from predicthq.com","category":"expos","start":"2024-08-20T07:00:00Z","geo":{"geometry":{"coordinates":[17.078305,-22.616487],"type":"Point"},"placekey":"@kwr-zhq-jn5","address":{"country_code":"NA","formatted_address":"B1 Western Bypass, Windhoek, Namibia","locality":"Windhoek","region":"Khomas Region"}},"labels":["expo"],"duration":205200,"start_local":"2024-08-20T09:00:00","end":"2024-08-22T16:00:00Z","end_local":"2024-08-22T18:00:00","updated":"2024-06-01T14:10:55Z"},{"title":"Mining Expo & Conference","description":"Sourced from predicthq.com","category":"expos","start":"2024-08-07T07:00:00Z","geo":{"geometry":{"coordinates":[17.0900744,-22.5818218],"type":"Point"},"placekey":"@kwr-zjm-r49","address":{"country_code":"NA","formatted_address":"C38Q+9RJ, Jan Jonker St, Windhoek, Namibia","locality":"Windhoek","region":"Khomas Region"}},"labels":["expo"],"duration":118800,"start_local":"2024-08-07T09:00:00","end":"2024-08-08T16:00:00Z","end_local":"2024-08-08T18:00:00","updated":"2024-05-31T22:51:01Z"},{"title":"Rugby Union Internationals - Friendlies 2 - Namibia vs Portugal","description":"Sourced from predicthq.com","category":"sports","start":"2024-07-13T13:00:00Z","geo":{"geometry":{"coordinates":[17.0884342,-22.607397],"type":"Point"},"placekey":"@kwr-zjj-87q","address":{"country_code":"NA","formatted_address":"93VQ+29V, Windhoek, Namibia","locality":"Windhoek","region":"Khomas Region"}},"labels":["rugby","sport"],"duration":0,"start_local":"2024-07-13T15:00:00","end":"2024-07-13T13:00:00Z","end_local":"2024-07-13T15:00:00","updated":"2024-06-10T23:34:59Z"},{"title":"Africa Hospitality Investment Forum","description":"Sourced from predicthq.com","category":"conferences","start":"2024-06-25T07:00:00Z","geo":{"geometry":{"coordinates":[17.08425,-22.569072],"type":"Point"},"placekey":"@kwr-tm5-d7q","address":{"country_code":"NA","formatted_address":"Western Bypass, Windhoek, Namibia","locality":"Windhoek","region":"Khomas Region"}},"labels":["conference"],"duration":205200,"start_local":"2024-06-25T09:00:00","end":"2024-06-27T16:00:00Z","end_local":"2024-06-27T18:00:00","updated":"2024-05-27T10:44:19Z"},{"title":"Child Research Initiative and Training (CRIT) Namibia Kick-Off Conference","description":"Sourced from predicthq.com - Join us at the CRIT Namibia Kick-Off Conference to learn, share, and collaborate on child research and training!","category":"conferences","start":"2024-06-25T05:30:00Z","geo":{"geometry":{"coordinates":[17.0842147,-22.5649344],"type":"Point"},"placekey":"@kwr-tm5-c89","address":{"country_code":"NA","formatted_address":"Windhoek, Khomas Region, Namibia","locality":"Windhoek","region":"Khomas Region"}},"labels":["conference"],"duration":207000,"start_local":"2024-06-25T07:30:00","end":"2024-06-27T15:00:00Z","end_local":"2024-06-27T17:00:00","updated":"2024-05-23T02:51:51Z"},{"title":"Southern African Rare Earths International Conference","description":"Sourced from predicthq.com","category":"conferences","start":"2024-06-19T07:00:00Z","geo":{"geometry":{"coordinates":[14.529212,-22.674476],"type":"Point"},"placekey":"@kv9-npx-649","address":{"country_code":"NA","formatted_address":"2 Theo-Ben Gurirab Ave, Swakopmund, Namibia","locality":"Swakopmund","region":"Erongo Region"}},"labels":["conference"],"duration":118800,"start_local":"2024-06-19T09:00:00","end":"2024-06-20T16:00:00Z","end_local":"2024-06-20T18:00:00","updated":"2024-05-31T22:41:06Z"},{"title":"It Takes A Village - Edition 9 |  Funding Entrepreneurship","description":"Sourced from predicthq.com - Join us for an exciting evening where we'll discuss the topic of financial support for SMEs with Melvin Hosea Angula!","category":"conferences","start":"2024-06-18T16:00:00Z","geo":{"geometry":{"coordinates":[17.0875388,-22.5529574],"type":"Point"},"placekey":"@kwr-tm4-y7q","address":{"country_code":"NA","formatted_address":"Windhoek, Khomas Region, Namibia","locality":"Windhoek","region":"Khomas Region"}},"labels":["business","conference"],"duration":7200,"start_local":"2024-06-18T18:00:00","end":"2024-06-18T18:00:00Z","end_local":"2024-06-18T20:00:00","updated":"2024-06-06T01:12:58Z"},{"title":"Werner van Zyl","description":"Sourced from predicthq.com","category":"concerts","start":"2024-06-15T12:00:00Z","geo":{"geometry":{"coordinates":[14.5429506,-22.8201351],"type":"Point"},"placekey":"@kv9-p5v-j7q","address":{"country_code":"NA","formatted_address":"5GQV+XH8, Langstrand, Namibia","locality":"Langstrand"}},"labels":["concert","music"],"duration":0,"start_local":"2024-06-15T14:00:00","end":"2024-06-15T12:00:00Z","end_local":"2024-06-15T14:00:00","updated":"2024-06-11T02:18:23Z"},{"title":"Women  Conference- Theme  woman its your set time","description":"Sourced from predicthq.com - Get ready to be  biblically inspired and empowered at our Women Conference, where we celebrate all  woman - it's your time to shine!","category":"conferences","start":"2024-06-01T09:00:00Z","geo":{"geometry":{"coordinates":[17.0842147,-22.5649344],"type":"Point"},"placekey":"@kwr-tm5-c89","address":{"country_code":"NA","formatted_address":"Windhoek, Khomas Region, Namibia","locality":"Windhoek","region":"Khomas Region"}},"labels":["community","conference"],"duration":21600,"start_local":"2024-06-01T11:00:00","end":"2024-06-01T15:00:00Z","end_local":"2024-06-01T17:00:00","updated":"2024-05-23T02:46:59Z"},{"title":"It Takes A Village | Deep Dive into Namibia's Blue Economy","description":"Sourced from predicthq.com - Join us for another evening filled with exciting discussions and networking!","category":"conferences","start":"2024-05-16T16:00:00Z","geo":{"geometry":{"coordinates":[17.0875388,-22.5529574],"type":"Point"},"placekey":"@kwr-tm4-y7q","address":{"country_code":"NA","formatted_address":"Windhoek, Khomas Region, Namibia","locality":"Windhoek","region":"Khomas Region"}},"labels":["business","conference"],"duration":7200,"start_local":"2024-05-16T18:00:00","end":"2024-05-16T18:00:00Z","end_local":"2024-05-16T20:00:00","updated":"2024-06-05T04:01:06Z"},{"title":"Werner van Zyl","description":"Sourced from predicthq.com","category":"concerts","start":"2024-05-11T18:00:00Z","geo":{"geometry":{"coordinates":[18.1072922,-19.5728703],"type":"Point"},"placekey":"@kww-fxg-3h5","address":{"country_code":"NA","formatted_address":"Grootfontein, Otjozondjupa Region, Namibia","locality":"Grootfontein","region":"Otjozondjupa Region"}},"labels":["concert","music"],"duration":0,"start_local":"2024-05-11T20:00:00","end":"2024-05-11T18:00:00Z","end_local":"2024-05-11T20:00:00","updated":"2024-06-12T01:47:52Z"},{"title":"Werner van Zyl","description":"Sourced from predicthq.com","category":"concerts","start":"2024-05-10T18:00:00Z","geo":{"geometry":{"coordinates":[14.6004915,-22.6467419],"type":"Point"},"placekey":"@kv9-nys-m6k","address":{"country_code":"NA","formatted_address":"Swakopmund, Erongo Region, Namibia","locality":"Swakopmund","region":"Erongo Region"}},"labels":["concert","music"],"duration":0,"start_local":"2024-05-10T20:00:00","end":"2024-05-10T18:00:00Z","end_local":"2024-05-10T20:00:00","updated":"2024-06-12T13:55:41Z"},{"title":"Werner van Zyl","description":"Sourced from predicthq.com","category":"concerts","start":"2024-05-08T18:00:00Z","geo":{"geometry":{"coordinates":[14.5057507,-22.9584084],"type":"Point"},"placekey":"@kv9-syj-3h5","address":{"country_code":"NA","formatted_address":"73, Walvis Bay, Namibia","locality":"Walvis Bay","region":"Erongo Region"}},"labels":["concert","music"],"duration":0,"start_local":"2024-05-08T20:00:00","end":"2024-05-08T18:00:00Z","end_local":"2024-05-08T20:00:00","updated":"2024-06-12T17:00:54Z"},{"title":"Giovanni Guidi Trio: A Jazz Odyssey [FREE]","description":"Sourced from predicthq.com - Embark on a musical journey with Italy's Giovanni Guidi Trio on their African Tour! Free concert in Namibia","category":"concerts","start":"2024-05-06T16:00:00Z","geo":{"geometry":{"coordinates":[17.08545299999999,-22.562458],"type":"Point"},"placekey":"@kwr-tm5-c3q","address":{"country_code":"NA","formatted_address":"Robert Mugabe Avenue, Windhoek, Namibia","locality":"Windhoek","region":"Khomas Region"}},"labels":["concert","music"],"duration":7200,"start_local":"2024-05-06T18:00:00","end":"2024-05-06T18:00:00Z","end_local":"2024-05-06T20:00:00","updated":"2024-06-05T03:32:45Z"},{"title":"Werner van Zyl","description":"Sourced from predicthq.com","category":"concerts","start":"2024-05-04T12:00:00Z","geo":{"geometry":{"coordinates":[14.5429506,-22.8201351],"type":"Point"},"placekey":"@kv9-p5v-j7q","address":{"country_code":"NA","formatted_address":"5GQV+XH8, Langstrand, Namibia","locality":"Langstrand"}},"labels":["concert","music"],"duration":0,"start_local":"2024-05-04T14:00:00","end":"2024-05-04T12:00:00Z","end_local":"2024-05-04T14:00:00","updated":"2024-06-11T21:29:27Z"},{"title":"Namibia Tourism Expo","description":"Sourced from predicthq.com","category":"expos","start":"2024-04-23T22:00:00Z","geo":{"geometry":{"coordinates":[17.077125,-22.618726],"type":"Point"},"placekey":"@kwr-zhq-6rk","address":{"country_code":"NA","formatted_address":"Windhoek, Khomas Region, Namibia","locality":"Windhoek","region":"Khomas Region"}},"labels":["expo"],"duration":259199,"start_local":"2024-04-24T00:00:00","end":"2024-04-26T21:59:59Z","end_local":"2024-04-26T23:59:59","updated":"2024-06-05T02:21:53Z"}]