[{"title":"CLEAN LANGUAGE","description":"Sourced from predicthq.com","category":"community","start":"2024-09-13T21:00:00Z","geo":{"geometry":{"coordinates":[166.4375,-22.27147],"type":"Point"},"placekey":"@jpv-fj3-75z","address":{"country_code":"NC","formatted_address":"Rue Jules Ferry, 98800 Nouméa, Nouvelle-Calédonie, France","locality":"Nouméa","postcode":"98800","region":"Province Sud"}},"labels":["community","concert","music"],"duration":115200,"start_local":"2024-09-14T08:00:00","end":"2024-09-15T05:00:00Z","end_local":"2024-09-15T16:00:00","updated":"2024-06-04T08:36:08Z"},{"title":"Désensibilisation par les mouvements oculaires DMO","description":"Sourced from predicthq.com","category":"community","start":"2024-09-06T21:00:00Z","geo":{"geometry":{"coordinates":[166.45,-22.2667],"type":"Point"},"placekey":"@jpv-fj3-c3q","address":{"country_code":"NC","formatted_address":"Rue Bouquet de la Grye, 98800 Nouméa, Nouvelle-Calédonie, France","locality":"Nouméa","postcode":"98800","region":"South Province"}},"labels":["community","concert","music"],"duration":115200,"start_local":"2024-09-07T08:00:00","end":"2024-09-08T05:00:00Z","end_local":"2024-09-08T16:00:00","updated":"2024-06-03T23:54:16Z"},{"title":"Super Ligue - AS Mont-Dore vs Kunié","description":"Sourced from predicthq.com","category":"sports","start":"2024-08-31T05:30:00Z","geo":{"geometry":{"coordinates":[166.51839137077332,-22.22739520830601],"type":"Point"},"placekey":"@jpt-4vk-4sq","address":{"country_code":"NC","formatted_address":"84 Rue Antoine Griscelli, New Caledonia","locality":"Boulari","region":"Province Sud"}},"labels":["soccer","sport"],"duration":0,"start_local":"2024-08-31T16:30:00","end":"2024-08-31T05:30:00Z","end_local":"2024-08-31T16:30:00","updated":"2024-06-11T05:24:36Z"},{"title":"Super Ligue - Magenta vs Saint Louis","description":"Sourced from predicthq.com","category":"sports","start":"2024-08-31T04:30:00Z","geo":{"geometry":{"coordinates":[166.4675151,-22.2656542],"type":"Point"},"placekey":"@jpv-fz4-z2k","address":{"country_code":"NC","formatted_address":"Noumea, South Province, Nouvelle-Calédonie, France","locality":"Noumea","region":"South Province"}},"labels":["soccer","sport"],"duration":0,"start_local":"2024-08-31T15:30:00","end":"2024-08-31T04:30:00Z","end_local":"2024-08-31T15:30:00","updated":"2024-06-11T07:40:30Z"},{"title":"Super Ligue - Horizon Patho vs Hienghène Sport","description":"Sourced from predicthq.com","category":"sports","start":"2024-08-31T04:00:00Z","geo":{"geometry":{"coordinates":[168.03454031345288,-21.482519792692475],"type":"Point"},"placekey":"@jpv-rd2-ygk","address":{"country_code":"NC","formatted_address":"Marché de La Roche, R.M.1, La Roche, New Caledonia","locality":"La Roche","region":"Province des îles Loyauté"}},"labels":["soccer","sport"],"duration":0,"start_local":"2024-08-31T15:00:00","end":"2024-08-31T04:00:00Z","end_local":"2024-08-31T15:00:00","updated":"2024-06-11T08:02:36Z"},{"title":"Super Ligue - Lössi vs Tiga Sport","description":"Sourced from predicthq.com","category":"sports","start":"2024-08-31T03:00:00Z","geo":{"geometry":{"coordinates":[166.51839137077332,-22.22739520830601],"type":"Point"},"placekey":"@jpt-4vk-4sq","address":{"country_code":"NC","formatted_address":"84 Rue Antoine Griscelli, New Caledonia","locality":"Boulari","region":"Province Sud"}},"labels":["soccer","sport"],"duration":0,"start_local":"2024-08-31T14:00:00","end":"2024-08-31T03:00:00Z","end_local":"2024-08-31T14:00:00","updated":"2024-06-11T02:01:24Z"},{"title":"Super Ligue - Gaïca vs Ne Drehu","description":"Sourced from predicthq.com","category":"sports","start":"2024-08-31T02:00:00Z","geo":{"geometry":{"coordinates":[166.4675151,-22.2656542],"type":"Point"},"placekey":"@jpv-fz4-z2k","address":{"country_code":"NC","formatted_address":"Noumea, South Province, Nouvelle-Calédonie, France","locality":"Noumea","region":"South Province"}},"labels":["soccer","sport"],"duration":0,"start_local":"2024-08-31T13:00:00","end":"2024-08-31T02:00:00Z","end_local":"2024-08-31T13:00:00","updated":"2024-06-11T07:31:11Z"},{"title":"Marathon International Mobil de Nouvelle Calédonie","description":"Sourced from predicthq.com","category":"sports","start":"2024-08-24T20:00:00Z","geo":{"geometry":{"coordinates":[166.4480887,-22.2734912],"type":"Point"},"placekey":"@jpv-fj2-yqf","address":{"country_code":"NC","formatted_address":"Rue Auguste Benebig, 98800 Nouméa, Nouvelle-Calédonie, France","locality":"Nouméa","postcode":"98800","region":"Province Sud"}},"labels":["marathon","outdoor-sports","running","sport"],"duration":0,"start_local":"2024-08-25T07:00:00","end":"2024-08-24T20:00:00Z","end_local":"2024-08-25T07:00:00","updated":"2024-06-04T02:17:22Z"},{"title":"Super Ligue - Tiga Sport vs Gaïca","description":"Sourced from predicthq.com","category":"sports","start":"2024-08-24T04:30:00Z","geo":{"geometry":{"coordinates":[166.4675151,-22.2656542],"type":"Point"},"placekey":"@jpv-fz4-z2k","address":{"country_code":"NC","formatted_address":"Noumea, South Province, Nouvelle-Calédonie, France","locality":"Noumea","region":"South Province"}},"labels":["soccer","sport"],"duration":0,"start_local":"2024-08-24T15:30:00","end":"2024-08-24T04:30:00Z","end_local":"2024-08-24T15:30:00","updated":"2024-06-11T04:06:57Z"},{"title":"Super Ligue - Ne Drehu vs Magenta","description":"Sourced from predicthq.com","category":"sports","start":"2024-08-24T04:00:00Z","geo":{"geometry":{"coordinates":[167.2696926233482,-20.921656687969122],"type":"Point"},"placekey":"@jpt-mw3-3yv","address":{"country_code":"NC","formatted_address":"We (Lifou, Loyalty Islands), Nouvelle-Calédonie, France","locality":"We (Lifou, Loyalty Islands)"}},"labels":["soccer","sport"],"duration":0,"start_local":"2024-08-24T15:00:00","end":"2024-08-24T04:00:00Z","end_local":"2024-08-24T15:00:00","updated":"2024-06-11T02:36:21Z"},{"title":"Super Ligue - Hienghène Sport vs Lössi","description":"Sourced from predicthq.com","category":"sports","start":"2024-08-24T04:00:00Z","geo":{"geometry":{"coordinates":[164.856744,-21.0548287],"type":"Point"},"placekey":"@jpx-x2t-d35","address":{"country_code":"NC","formatted_address":"Koné, Province Nord, Nouvelle-Calédonie, France","locality":"Koné","region":"Province Nord"}},"labels":["soccer","sport"],"duration":0,"start_local":"2024-08-24T15:00:00","end":"2024-08-24T04:00:00Z","end_local":"2024-08-24T15:00:00","updated":"2024-06-11T00:29:22Z"},{"title":"Super Ligue - Saint Louis vs AS Mont-Dore","description":"Sourced from predicthq.com","category":"sports","start":"2024-08-24T04:00:00Z","geo":{"geometry":{"coordinates":[166.51839137077332,-22.22739520830601],"type":"Point"},"placekey":"@jpt-4vk-4sq","address":{"country_code":"NC","formatted_address":"84 Rue Antoine Griscelli, New Caledonia","locality":"Boulari","region":"Province Sud"}},"labels":["soccer","sport"],"duration":0,"start_local":"2024-08-24T15:00:00","end":"2024-08-24T04:00:00Z","end_local":"2024-08-24T15:00:00","updated":"2024-06-11T04:09:55Z"},{"title":"Super Ligue - Kunié vs Horizon Patho","description":"Sourced from predicthq.com","category":"sports","start":"2024-08-24T02:00:00Z","geo":{"geometry":{"coordinates":[166.4675151,-22.2656542],"type":"Point"},"placekey":"@jpv-fz4-z2k","address":{"country_code":"NC","formatted_address":"Noumea, South Province, Nouvelle-Calédonie, France","locality":"Noumea","region":"South Province"}},"labels":["soccer","sport"],"duration":0,"start_local":"2024-08-24T13:00:00","end":"2024-08-24T02:00:00Z","end_local":"2024-08-24T13:00:00","updated":"2024-06-11T04:33:06Z"},{"title":"Super Ligue - AS Mont-Dore vs Ne Drehu","description":"Sourced from predicthq.com","category":"sports","start":"2024-08-17T05:30:00Z","geo":{"geometry":{"coordinates":[166.51839137077332,-22.22739520830601],"type":"Point"},"placekey":"@jpt-4vk-4sq","address":{"country_code":"NC","formatted_address":"84 Rue Antoine Griscelli, New Caledonia","locality":"Boulari","region":"Province Sud"}},"labels":["soccer","sport"],"duration":0,"start_local":"2024-08-17T16:30:00","end":"2024-08-17T05:30:00Z","end_local":"2024-08-17T16:30:00","updated":"2024-06-11T08:16:35Z"},{"title":"Super Ligue - Magenta vs Tiga Sport","description":"Sourced from predicthq.com","category":"sports","start":"2024-08-17T04:30:00Z","geo":{"geometry":{"coordinates":[166.4675151,-22.2656542],"type":"Point"},"placekey":"@jpv-fz4-z2k","address":{"country_code":"NC","formatted_address":"Noumea, South Province, Nouvelle-Calédonie, France","locality":"Noumea","region":"South Province"}},"labels":["soccer","sport"],"duration":0,"start_local":"2024-08-17T15:30:00","end":"2024-08-17T04:30:00Z","end_local":"2024-08-17T15:30:00","updated":"2024-06-11T05:30:24Z"},{"title":"Super Ligue - Horizon Patho vs Lössi","description":"Sourced from predicthq.com","category":"sports","start":"2024-08-17T04:00:00Z","geo":{"geometry":{"coordinates":[168.03454031345288,-21.482519792692475],"type":"Point"},"placekey":"@jpv-rd2-ygk","address":{"country_code":"NC","formatted_address":"Marché de La Roche, R.M.1, La Roche, New Caledonia","locality":"La Roche","region":"Province des îles Loyauté"}},"labels":["soccer","sport"],"duration":0,"start_local":"2024-08-17T15:00:00","end":"2024-08-17T04:00:00Z","end_local":"2024-08-17T15:00:00","updated":"2024-06-11T03:38:08Z"},{"title":"Super Ligue - Saint Louis vs Kunié","description":"Sourced from predicthq.com","category":"sports","start":"2024-08-17T03:00:00Z","geo":{"geometry":{"coordinates":[166.51839137077332,-22.22739520830601],"type":"Point"},"placekey":"@jpt-4vk-4sq","address":{"country_code":"NC","formatted_address":"84 Rue Antoine Griscelli, New Caledonia","locality":"Boulari","region":"Province Sud"}},"labels":["soccer","sport"],"duration":0,"start_local":"2024-08-17T14:00:00","end":"2024-08-17T03:00:00Z","end_local":"2024-08-17T14:00:00","updated":"2024-06-11T03:21:24Z"},{"title":"Super Ligue - Gaïca vs Hienghène Sport","description":"Sourced from predicthq.com","category":"sports","start":"2024-08-17T02:00:00Z","geo":{"geometry":{"coordinates":[166.4675151,-22.2656542],"type":"Point"},"placekey":"@jpv-fz4-z2k","address":{"country_code":"NC","formatted_address":"Noumea, South Province, Nouvelle-Calédonie, France","locality":"Noumea","region":"South Province"}},"labels":["soccer","sport"],"duration":0,"start_local":"2024-08-17T13:00:00","end":"2024-08-17T02:00:00Z","end_local":"2024-08-17T13:00:00","updated":"2024-06-11T06:15:37Z"},{"title":"CLEAN LANGUAGE","description":"Sourced from predicthq.com","category":"community","start":"2024-07-19T21:00:00Z","geo":{"geometry":{"coordinates":[166.4375,-22.27147],"type":"Point"},"placekey":"@jpv-fj3-75z","address":{"country_code":"NC","formatted_address":"Rue Jules Ferry, 98800 Nouméa, Nouvelle-Calédonie, France","locality":"Nouméa","postcode":"98800","region":"Province Sud"}},"labels":["community","concert","music"],"duration":115200,"start_local":"2024-07-20T08:00:00","end":"2024-07-21T05:00:00Z","end_local":"2024-07-21T16:00:00","updated":"2024-06-04T08:16:33Z"},{"title":"Désensibilisation par les mouvements oculaires DMO","description":"Sourced from predicthq.com","category":"community","start":"2024-07-05T21:00:00Z","geo":{"geometry":{"coordinates":[166.45,-22.2667],"type":"Point"},"placekey":"@jpv-fj3-c3q","address":{"country_code":"NC","formatted_address":"Rue Bouquet de la Grye, 98800 Nouméa, Nouvelle-Calédonie, France","locality":"Nouméa","postcode":"98800","region":"South Province"}},"labels":["community","concert","music"],"duration":115200,"start_local":"2024-07-06T08:00:00","end":"2024-07-07T05:00:00Z","end_local":"2024-07-07T16:00:00","updated":"2024-06-04T00:29:04Z"},{"title":"Conquer Overthinking And Make Lasting Changes","description":"Sourced from predicthq.com - Learn the 4-step action model to train your mind to get the results you want and the happiness you deserve.","category":"conferences","start":"2024-07-04T08:00:00Z","geo":{"geometry":{"coordinates":[166.4480887,-22.2734912],"type":"Point"},"placekey":"@jpv-fj2-yqf","address":{"country_code":"NC","formatted_address":"Rue Auguste Benebig, 98800 Nouméa, Nouvelle-Calédonie, France","locality":"Nouméa","postcode":"98800","region":"Province Sud"}},"labels":["conference","health"],"duration":3600,"start_local":"2024-07-04T19:00:00","end":"2024-07-04T09:00:00Z","end_local":"2024-07-04T20:00:00","updated":"2024-07-04T01:28:08Z"},{"title":"Conquer Overthinking And Make Lasting Changes","description":"Sourced from predicthq.com - Learn the 4-step action model to train your mind to get the results you want and the happiness you deserve.","category":"conferences","start":"2024-06-27T08:00:00Z","geo":{"geometry":{"coordinates":[166.4480887,-22.2734912],"type":"Point"},"placekey":"@jpv-fj2-yqf","address":{"country_code":"NC","formatted_address":"Rue Auguste Benebig, 98800 Nouméa, Nouvelle-Calédonie, France","locality":"Nouméa","postcode":"98800","region":"Province Sud"}},"labels":["conference","health"],"duration":3600,"start_local":"2024-06-27T19:00:00","end":"2024-06-27T09:00:00Z","end_local":"2024-06-27T20:00:00","updated":"2024-06-27T03:45:23Z"},{"title":"Conquer Overthinking And Make Lasting Changes","description":"Sourced from predicthq.com - Learn the 4-step action model to train your mind to get the results you want and the happiness you deserve.","category":"conferences","start":"2024-06-20T08:00:00Z","geo":{"geometry":{"coordinates":[166.4480887,-22.2734912],"type":"Point"},"placekey":"@jpv-fj2-yqf","address":{"country_code":"NC","formatted_address":"Rue Auguste Benebig, 98800 Nouméa, Nouvelle-Calédonie, France","locality":"Nouméa","postcode":"98800","region":"Province Sud"}},"labels":["conference","health"],"duration":3600,"start_local":"2024-06-20T19:00:00","end":"2024-06-20T09:00:00Z","end_local":"2024-06-20T20:00:00","updated":"2024-06-20T09:38:10Z"},{"title":"Conquer Overthinking And Make Lasting Changes","description":"Sourced from predicthq.com - Learn the 4-step action model to train your mind to get the results you want and the happiness you deserve.","category":"conferences","start":"2024-06-13T08:00:00Z","geo":{"geometry":{"coordinates":[166.4480887,-22.2734912],"type":"Point"},"placekey":"@jpv-fj2-yqf","address":{"country_code":"NC","formatted_address":"Rue Auguste Benebig, 98800 Nouméa, Nouvelle-Calédonie, France","locality":"Nouméa","postcode":"98800","region":"Province Sud"}},"labels":["conference","health"],"duration":3600,"start_local":"2024-06-13T19:00:00","end":"2024-06-13T09:00:00Z","end_local":"2024-06-13T20:00:00","updated":"2024-06-13T02:44:09Z"},{"title":"Conquer Overthinking And Make Lasting Changes","description":"Sourced from predicthq.com - Learn the 4-step action model to train your mind to get the results you want and the happiness you deserve.","category":"conferences","start":"2024-06-06T08:00:00Z","geo":{"geometry":{"coordinates":[166.4480887,-22.2734912],"type":"Point"},"placekey":"@jpv-fj2-yqf","address":{"country_code":"NC","formatted_address":"Rue Auguste Benebig, 98800 Nouméa, Nouvelle-Calédonie, France","locality":"Nouméa","postcode":"98800","region":"Province Sud"}},"labels":["conference","health"],"duration":3600,"start_local":"2024-06-06T19:00:00","end":"2024-06-06T09:00:00Z","end_local":"2024-06-06T20:00:00","updated":"2024-06-06T00:35:39Z"},{"title":"Conquer Overthinking And Make Lasting Changes","description":"Sourced from predicthq.com - Learn the 4-step action model to train your mind to get the results you want and the happiness you deserve.","category":"conferences","start":"2024-05-30T08:00:00Z","geo":{"geometry":{"coordinates":[166.4480887,-22.2734912],"type":"Point"},"placekey":"@jpv-fj2-yqf","address":{"country_code":"NC","formatted_address":"Rue Auguste Benebig, 98800 Nouméa, Nouvelle-Calédonie, France","locality":"Nouméa","postcode":"98800","region":"Province Sud"}},"labels":["conference","health"],"duration":3600,"start_local":"2024-05-30T19:00:00","end":"2024-05-30T09:00:00Z","end_local":"2024-05-30T20:00:00","updated":"2024-05-30T01:01:14Z"},{"title":"Conquer Overthinking And Make Lasting Changes","description":"Sourced from predicthq.com - Learn the 4-step action model to train your mind to get the results you want and the happiness you deserve.","category":"conferences","start":"2024-05-23T08:00:00Z","geo":{"geometry":{"coordinates":[166.4480887,-22.2734912],"type":"Point"},"placekey":"@jpv-fj2-yqf","address":{"country_code":"NC","formatted_address":"Rue Auguste Benebig, 98800 Nouméa, Nouvelle-Calédonie, France","locality":"Nouméa","postcode":"98800","region":"Province Sud"}},"labels":["conference","health"],"duration":3600,"start_local":"2024-05-23T19:00:00","end":"2024-05-23T09:00:00Z","end_local":"2024-05-23T20:00:00","updated":"2024-06-05T19:14:27Z"},{"title":"Conquer Overthinking And Make Lasting Changes","description":"Sourced from predicthq.com - Learn the 4-step action model to train your mind to get the results you want and the happiness you deserve.","category":"conferences","start":"2024-05-16T08:00:00Z","geo":{"geometry":{"coordinates":[166.4480887,-22.2734912],"type":"Point"},"placekey":"@jpv-fj2-yqf","address":{"country_code":"NC","formatted_address":"Rue Auguste Benebig, 98800 Nouméa, Nouvelle-Calédonie, France","locality":"Nouméa","postcode":"98800","region":"Province Sud"}},"labels":["conference","health"],"duration":3600,"start_local":"2024-05-16T19:00:00","end":"2024-05-16T09:00:00Z","end_local":"2024-05-16T20:00:00","updated":"2024-06-05T09:13:16Z"},{"title":"Super Ligue - Ne Drehu vs Lössi","description":"Sourced from predicthq.com","category":"sports","start":"2024-05-11T04:00:00Z","geo":{"geometry":{"coordinates":[167.2696926233482,-20.921656687969122],"type":"Point"},"placekey":"@jpt-mw3-3yv","address":{"country_code":"NC","formatted_address":"We (Lifou, Loyalty Islands), Nouvelle-Calédonie, France","locality":"We (Lifou, Loyalty Islands)"}},"labels":["soccer","sport"],"duration":0,"start_local":"2024-05-11T15:00:00","end":"2024-05-11T04:00:00Z","end_local":"2024-05-11T15:00:00","updated":"2024-06-12T06:57:02Z"},{"title":"Super Ligue - Saint Louis vs Gaïca","description":"Sourced from predicthq.com","category":"sports","start":"2024-05-11T04:00:00Z","geo":{"geometry":{"coordinates":[166.4675151,-22.2656542],"type":"Point"},"placekey":"@jpv-fz4-z2k","address":{"country_code":"NC","formatted_address":"Noumea, South Province, Nouvelle-Calédonie, France","locality":"Noumea","region":"South Province"}},"labels":["soccer","sport"],"duration":0,"start_local":"2024-05-11T15:00:00","end":"2024-05-11T04:00:00Z","end_local":"2024-05-11T15:00:00","updated":"2024-06-12T06:56:01Z"},{"title":"Super Ligue - Tiga Sport vs Hienghène Sport","description":"Sourced from predicthq.com","category":"sports","start":"2024-05-11T01:30:00Z","geo":{"geometry":{"coordinates":[166.4675151,-22.2656542],"type":"Point"},"placekey":"@jpv-fz4-z2k","address":{"country_code":"NC","formatted_address":"Noumea, South Province, Nouvelle-Calédonie, France","locality":"Noumea","region":"South Province"}},"labels":["soccer","sport"],"duration":0,"start_local":"2024-05-11T12:30:00","end":"2024-05-11T01:30:00Z","end_local":"2024-05-11T12:30:00","updated":"2024-06-12T05:22:31Z"},{"title":"Super Ligue - Horizon Patho vs AS Mont-Dore","description":"Sourced from predicthq.com","category":"sports","start":"2024-05-11T00:00:00Z","geo":{"geometry":{"coordinates":[168.03454031345288,-21.482519792692475],"type":"Point"},"placekey":"@jpv-rd2-ygk","address":{"country_code":"NC","formatted_address":"Marché de La Roche, R.M.1, La Roche, New Caledonia","locality":"La Roche","region":"Province des îles Loyauté"}},"labels":["soccer","sport"],"duration":0,"start_local":"2024-05-11T11:00:00","end":"2024-05-11T00:00:00Z","end_local":"2024-05-11T11:00:00","updated":"2024-06-11T23:14:21Z"},{"title":"Conquer Overthinking And Make Lasting Changes","description":"Sourced from predicthq.com - Learn the 4-step action model to train your mind to get the results you want and the happiness you deserve.","category":"conferences","start":"2024-05-09T08:00:00Z","geo":{"geometry":{"coordinates":[166.4480887,-22.2734912],"type":"Point"},"placekey":"@jpv-fj2-yqf","address":{"country_code":"NC","formatted_address":"Rue Auguste Benebig, 98800 Nouméa, Nouvelle-Calédonie, France","locality":"Nouméa","postcode":"98800","region":"Province Sud"}},"labels":["conference","health"],"duration":3600,"start_local":"2024-05-09T19:00:00","end":"2024-05-09T09:00:00Z","end_local":"2024-05-09T20:00:00","updated":"2024-06-05T02:22:31Z"},{"title":"Soirée spéciale PICC LINE","description":"Sourced from predicthq.com - Le PICC LINE, dispositif de perfusion aujourd'hui implanté en hospitalier comme au domicile. Pourquoi, Quand et Comment l'utiliser ?","category":"conferences","start":"2024-05-07T08:30:00Z","geo":{"geometry":{"coordinates":[166.446066,-22.3018092],"type":"Point"},"placekey":"@jpv-fy8-jn5","address":{"country_code":"NC","formatted_address":"98800 Nouméa, Nouvelle-Calédonie, France","locality":"Nouméa","postcode":"98800","region":"Province Sud"}},"labels":["business","conference"],"duration":7200,"start_local":"2024-05-07T19:30:00","end":"2024-05-07T10:30:00Z","end_local":"2024-05-07T21:30:00","updated":"2024-06-05T11:24:18Z"},{"title":"Super Ligue - Tiga Sport vs Lössi","description":"Sourced from predicthq.com","category":"sports","start":"2024-05-04T04:30:00Z","geo":{"geometry":{"coordinates":[166.4675151,-22.2656542],"type":"Point"},"placekey":"@jpv-fz4-z2k","address":{"country_code":"NC","formatted_address":"Noumea, South Province, Nouvelle-Calédonie, France","locality":"Noumea","region":"South Province"}},"labels":["soccer","sport"],"duration":0,"start_local":"2024-05-04T15:30:00","end":"2024-05-04T04:30:00Z","end_local":"2024-05-04T15:30:00","updated":"2024-06-11T23:55:12Z"},{"title":"Super Ligue - Hienghène Sport vs Horizon Patho","description":"Sourced from predicthq.com","category":"sports","start":"2024-05-04T04:00:00Z","geo":{"geometry":{"coordinates":[164.856744,-21.0548287],"type":"Point"},"placekey":"@jpx-x2t-d35","address":{"country_code":"NC","formatted_address":"Koné, Province Nord, Nouvelle-Calédonie, France","locality":"Koné","region":"Province Nord"}},"labels":["soccer","sport"],"duration":0,"start_local":"2024-05-04T15:00:00","end":"2024-05-04T04:00:00Z","end_local":"2024-05-04T15:00:00","updated":"2024-06-12T02:08:45Z"},{"title":"Super Ligue - Saint Louis vs Magenta","description":"Sourced from predicthq.com","category":"sports","start":"2024-05-04T04:00:00Z","geo":{"geometry":{"coordinates":[166.51839137077332,-22.22739520830601],"type":"Point"},"placekey":"@jpt-4vk-4sq","address":{"country_code":"NC","formatted_address":"84 Rue Antoine Griscelli, New Caledonia","locality":"Boulari","region":"Province Sud"}},"labels":["soccer","sport"],"duration":0,"start_local":"2024-05-04T15:00:00","end":"2024-05-04T04:00:00Z","end_local":"2024-05-04T15:00:00","updated":"2024-06-11T22:12:54Z"},{"title":"Super Ligue - Ne Drehu vs Gaïca","description":"Sourced from predicthq.com","category":"sports","start":"2024-05-04T04:00:00Z","geo":{"geometry":{"coordinates":[167.2696926233482,-20.921656687969122],"type":"Point"},"placekey":"@jpt-mw3-3yv","address":{"country_code":"NC","formatted_address":"We (Lifou, Loyalty Islands), Nouvelle-Calédonie, France","locality":"We (Lifou, Loyalty Islands)"}},"labels":["soccer","sport"],"duration":0,"start_local":"2024-05-04T15:00:00","end":"2024-05-04T04:00:00Z","end_local":"2024-05-04T15:00:00","updated":"2024-06-12T11:58:41Z"},{"title":"Super Ligue - Kunié vs AS Mont-Dore","description":"Sourced from predicthq.com","category":"sports","start":"2024-05-04T02:00:00Z","geo":{"geometry":{"coordinates":[166.4675151,-22.2656542],"type":"Point"},"placekey":"@jpv-fz4-z2k","address":{"country_code":"NC","formatted_address":"Noumea, South Province, Nouvelle-Calédonie, France","locality":"Noumea","region":"South Province"}},"labels":["soccer","sport"],"duration":0,"start_local":"2024-05-04T13:00:00","end":"2024-05-04T02:00:00Z","end_local":"2024-05-04T13:00:00","updated":"2024-06-12T11:41:44Z"},{"title":"Conquer Overthinking And Make Lasting Changes","description":"Sourced from predicthq.com - Learn the 4-step action model to train your mind to get the results you want and the happiness you deserve.","category":"conferences","start":"2024-05-02T08:00:00Z","geo":{"geometry":{"coordinates":[166.4480887,-22.2734912],"type":"Point"},"placekey":"@jpv-fj2-yqf","address":{"country_code":"NC","formatted_address":"Rue Auguste Benebig, 98800 Nouméa, Nouvelle-Calédonie, France","locality":"Nouméa","postcode":"98800","region":"Province Sud"}},"labels":["conference","health"],"duration":3600,"start_local":"2024-05-02T19:00:00","end":"2024-05-02T09:00:00Z","end_local":"2024-05-02T20:00:00","updated":"2024-06-05T06:54:00Z"},{"title":"Super Ligue - Gaïca vs Tiga Sport","description":"Sourced from predicthq.com","category":"sports","start":"2024-04-27T04:30:00Z","geo":{"geometry":{"coordinates":[166.4675151,-22.2656542],"type":"Point"},"placekey":"@jpv-fz4-z2k","address":{"country_code":"NC","formatted_address":"Noumea, South Province, Nouvelle-Calédonie, France","locality":"Noumea","region":"South Province"}},"labels":["soccer","sport"],"duration":0,"start_local":"2024-04-27T15:30:00","end":"2024-04-27T04:30:00Z","end_local":"2024-04-27T15:30:00","updated":"2024-06-12T07:47:05Z"},{"title":"Super Ligue - AS Mont-Dore vs Saint Louis","description":"Sourced from predicthq.com","category":"sports","start":"2024-04-27T04:30:00Z","geo":{"geometry":{"coordinates":[166.51839137077332,-22.22739520830601],"type":"Point"},"placekey":"@jpt-4vk-4sq","address":{"country_code":"NC","formatted_address":"84 Rue Antoine Griscelli, New Caledonia","locality":"Boulari","region":"Province Sud"}},"labels":["soccer","sport"],"duration":0,"start_local":"2024-04-27T15:30:00","end":"2024-04-27T04:30:00Z","end_local":"2024-04-27T15:30:00","updated":"2024-06-11T22:06:58Z"},{"title":"Super Ligue - Horizon Patho vs Kunié","description":"Sourced from predicthq.com","category":"sports","start":"2024-04-27T04:00:00Z","geo":{"geometry":{"coordinates":[168.03454031345288,-21.482519792692475],"type":"Point"},"placekey":"@jpv-rd2-ygk","address":{"country_code":"NC","formatted_address":"Marché de La Roche, R.M.1, La Roche, New Caledonia","locality":"La Roche","region":"Province des îles Loyauté"}},"labels":["soccer","sport"],"duration":0,"start_local":"2024-04-27T15:00:00","end":"2024-04-27T04:00:00Z","end_local":"2024-04-27T15:00:00","updated":"2024-06-12T19:42:00Z"},{"title":"Super Ligue - Magenta vs Ne Drehu","description":"Sourced from predicthq.com","category":"sports","start":"2024-04-27T02:00:00Z","geo":{"geometry":{"coordinates":[166.51839137077332,-22.22739520830601],"type":"Point"},"placekey":"@jpt-4vk-4sq","address":{"country_code":"NC","formatted_address":"84 Rue Antoine Griscelli, New Caledonia","locality":"Boulari","region":"Province Sud"}},"labels":["soccer","sport"],"duration":0,"start_local":"2024-04-27T13:00:00","end":"2024-04-27T02:00:00Z","end_local":"2024-04-27T13:00:00","updated":"2024-06-11T21:30:13Z"},{"title":"Super Ligue - Lössi vs Hienghène Sport","description":"Sourced from predicthq.com","category":"sports","start":"2024-04-27T02:00:00Z","geo":{"geometry":{"coordinates":[166.4675151,-22.2656542],"type":"Point"},"placekey":"@jpv-fz4-z2k","address":{"country_code":"NC","formatted_address":"Noumea, South Province, Nouvelle-Calédonie, France","locality":"Noumea","region":"South Province"}},"labels":["soccer","sport"],"duration":0,"start_local":"2024-04-27T13:00:00","end":"2024-04-27T02:00:00Z","end_local":"2024-04-27T13:00:00","updated":"2024-06-12T02:07:20Z"},{"title":"Super Ligue - Tiga Sport vs Magenta","description":"Sourced from predicthq.com","category":"sports","start":"2024-04-21T04:00:00Z","geo":{"geometry":{"coordinates":[166.4675151,-22.2656542],"type":"Point"},"placekey":"@jpv-fz4-z2k","address":{"country_code":"NC","formatted_address":"Noumea, South Province, Nouvelle-Calédonie, France","locality":"Noumea","region":"South Province"}},"labels":["soccer","sport"],"duration":0,"start_local":"2024-04-21T15:00:00","end":"2024-04-21T04:00:00Z","end_local":"2024-04-21T15:00:00","updated":"2024-06-12T07:28:45Z"},{"title":"Super Ligue - Kunié vs Saint Louis","description":"Sourced from predicthq.com","category":"sports","start":"2024-04-20T04:30:00Z","geo":{"geometry":{"coordinates":[166.4675151,-22.2656542],"type":"Point"},"placekey":"@jpv-fz4-z2k","address":{"country_code":"NC","formatted_address":"Noumea, South Province, Nouvelle-Calédonie, France","locality":"Noumea","region":"South Province"}},"labels":["soccer","sport"],"duration":0,"start_local":"2024-04-20T15:30:00","end":"2024-04-20T04:30:00Z","end_local":"2024-04-20T15:30:00","updated":"2024-06-11T22:00:57Z"},{"title":"Super Ligue - Ne Drehu vs AS Mont-Dore","description":"Sourced from predicthq.com","category":"sports","start":"2024-04-20T04:00:00Z","geo":{"geometry":{"coordinates":[167.2696926233482,-20.921656687969122],"type":"Point"},"placekey":"@jpt-mw3-3yv","address":{"country_code":"NC","formatted_address":"We (Lifou, Loyalty Islands), Nouvelle-Calédonie, France","locality":"We (Lifou, Loyalty Islands)"}},"labels":["soccer","sport"],"duration":0,"start_local":"2024-04-20T15:00:00","end":"2024-04-20T04:00:00Z","end_local":"2024-04-20T15:00:00","updated":"2024-06-12T06:49:18Z"},{"title":"Super Ligue - Hienghène Sport vs Gaïca","description":"Sourced from predicthq.com","category":"sports","start":"2024-04-20T04:00:00Z","geo":{"geometry":{"coordinates":[164.856744,-21.0548287],"type":"Point"},"placekey":"@jpx-x2t-d35","address":{"country_code":"NC","formatted_address":"Koné, Province Nord, Nouvelle-Calédonie, France","locality":"Koné","region":"Province Nord"}},"labels":["soccer","sport"],"duration":0,"start_local":"2024-04-20T15:00:00","end":"2024-04-20T04:00:00Z","end_local":"2024-04-20T15:00:00","updated":"2024-06-12T01:49:12Z"},{"title":"Super Ligue - Lössi vs Horizon Patho","description":"Sourced from predicthq.com","category":"sports","start":"2024-04-20T02:00:00Z","geo":{"geometry":{"coordinates":[166.4675151,-22.2656542],"type":"Point"},"placekey":"@jpv-fz4-z2k","address":{"country_code":"NC","formatted_address":"Noumea, South Province, Nouvelle-Calédonie, France","locality":"Noumea","region":"South Province"}},"labels":["soccer","sport"],"duration":0,"start_local":"2024-04-20T13:00:00","end":"2024-04-20T02:00:00Z","end_local":"2024-04-20T13:00:00","updated":"2024-06-11T22:33:44Z"},{"title":"Conquer Overthinking And Make Lasting Changes","description":"Sourced from predicthq.com - Learn the 4-step action model to train your mind to get the results you want and the happiness you deserve.","category":"conferences","start":"2024-04-18T08:00:00Z","geo":{"geometry":{"coordinates":[166.4480887,-22.2734912],"type":"Point"},"placekey":"@jpv-fj2-yqf","address":{"country_code":"NC","formatted_address":"Rue Auguste Benebig, 98800 Nouméa, Nouvelle-Calédonie, France","locality":"Nouméa","postcode":"98800","region":"Province Sud"}},"labels":["conference","health"],"duration":3600,"start_local":"2024-04-18T19:00:00","end":"2024-04-18T09:00:00Z","end_local":"2024-04-18T20:00:00","updated":"2024-06-05T00:53:04Z"},{"title":"Super Ligue - AS Mont-Dore vs Tiga Sport","description":"Sourced from predicthq.com","category":"sports","start":"2024-04-13T04:30:00Z","geo":{"geometry":{"coordinates":[166.51839137077332,-22.22739520830601],"type":"Point"},"placekey":"@jpt-4vk-4sq","address":{"country_code":"NC","formatted_address":"84 Rue Antoine Griscelli, New Caledonia","locality":"Boulari","region":"Province Sud"}},"labels":["soccer","sport"],"duration":0,"start_local":"2024-04-13T15:30:00","end":"2024-04-13T04:30:00Z","end_local":"2024-04-13T15:30:00","updated":"2024-06-12T01:29:11Z"},{"title":"Super Ligue - Kunié vs Ne Drehu","description":"Sourced from predicthq.com","category":"sports","start":"2024-04-13T04:30:00Z","geo":{"geometry":{"coordinates":[166.4675151,-22.2656542],"type":"Point"},"placekey":"@jpv-fz4-z2k","address":{"country_code":"NC","formatted_address":"Noumea, South Province, Nouvelle-Calédonie, France","locality":"Noumea","region":"South Province"}},"labels":["soccer","sport"],"duration":0,"start_local":"2024-04-13T15:30:00","end":"2024-04-13T04:30:00Z","end_local":"2024-04-13T15:30:00","updated":"2024-06-12T00:46:56Z"},{"title":"Super Ligue - Horizon Patho vs Saint Louis","description":"Sourced from predicthq.com","category":"sports","start":"2024-04-13T04:00:00Z","geo":{"geometry":{"coordinates":[168.03454031345288,-21.482519792692475],"type":"Point"},"placekey":"@jpv-rd2-ygk","address":{"country_code":"NC","formatted_address":"Marché de La Roche, R.M.1, La Roche, New Caledonia","locality":"La Roche","region":"Province des îles Loyauté"}},"labels":["soccer","sport"],"duration":0,"start_local":"2024-04-13T15:00:00","end":"2024-04-13T04:00:00Z","end_local":"2024-04-13T15:00:00","updated":"2024-06-12T00:39:48Z"},{"title":"Super Ligue - Gaïca vs Lössi","description":"Sourced from predicthq.com","category":"sports","start":"2024-04-13T02:00:00Z","geo":{"geometry":{"coordinates":[166.51839137077332,-22.22739520830601],"type":"Point"},"placekey":"@jpt-4vk-4sq","address":{"country_code":"NC","formatted_address":"84 Rue Antoine Griscelli, New Caledonia","locality":"Boulari","region":"Province Sud"}},"labels":["soccer","sport"],"duration":0,"start_local":"2024-04-13T13:00:00","end":"2024-04-13T02:00:00Z","end_local":"2024-04-13T13:00:00","updated":"2024-06-12T07:21:55Z"},{"title":"Super Ligue - Magenta vs Hienghène Sport","description":"Sourced from predicthq.com","category":"sports","start":"2024-04-13T02:00:00Z","geo":{"geometry":{"coordinates":[166.4675151,-22.2656542],"type":"Point"},"placekey":"@jpv-fz4-z2k","address":{"country_code":"NC","formatted_address":"Noumea, South Province, Nouvelle-Calédonie, France","locality":"Noumea","region":"South Province"}},"labels":["soccer","sport"],"duration":0,"start_local":"2024-04-13T13:00:00","end":"2024-04-13T02:00:00Z","end_local":"2024-04-13T13:00:00","updated":"2024-06-11T21:19:45Z"},{"title":"Conquer Overthinking And Make Lasting Changes","description":"Sourced from predicthq.com - Learn the 4-step action model to train your mind to get the results you want and the happiness you deserve.","category":"conferences","start":"2024-04-11T08:00:00Z","geo":{"geometry":{"coordinates":[166.4480887,-22.2734912],"type":"Point"},"placekey":"@jpv-fj2-yqf","address":{"country_code":"NC","formatted_address":"Rue Auguste Benebig, 98800 Nouméa, Nouvelle-Calédonie, France","locality":"Nouméa","postcode":"98800","region":"Province Sud"}},"labels":["conference","health"],"duration":3600,"start_local":"2024-04-11T19:00:00","end":"2024-04-11T09:00:00Z","end_local":"2024-04-11T20:00:00","updated":"2024-06-04T22:43:02Z"},{"title":"Super Ligue - Lössi vs Magenta","description":"Sourced from predicthq.com","category":"sports","start":"2024-04-07T04:00:00Z","geo":{"geometry":{"coordinates":[166.4675151,-22.2656542],"type":"Point"},"placekey":"@jpv-fz4-z2k","address":{"country_code":"NC","formatted_address":"Noumea, South Province, Nouvelle-Calédonie, France","locality":"Noumea","region":"South Province"}},"labels":["soccer","sport"],"duration":0,"start_local":"2024-04-07T15:00:00","end":"2024-04-07T04:00:00Z","end_local":"2024-04-07T15:00:00","updated":"2024-06-12T03:21:41Z"}]