[{"title":"Primera Division - Apertura - Deportivo Ocotal vs Rancho Santana","description":"Sourced from predicthq.com","category":"sports","start":"2024-09-16T00:00:00Z","geo":{"geometry":{"coordinates":[-86.46868125826644,13.625249534493014],"type":"Point"},"placekey":"@d5p-fn8-2hq","address":{"country_code":"NI","formatted_address":"JGGJ+3FH, Ocotal, Nicaragua","locality":"Ocotal","region":"Nueva Segovia"}},"labels":["soccer","sport"],"duration":0,"start_local":"2024-09-15T18:00:00","end":"2024-09-16T00:00:00Z","end_local":"2024-09-15T18:00:00","updated":"2024-07-01T19:19:39Z"},{"title":"Primera Division - Apertura - Sport Sébaco vs UNAN Managua","description":"Sourced from predicthq.com","category":"sports","start":"2024-09-15T21:00:00Z","geo":{"geometry":{"coordinates":[-85.983267146,12.917346747],"type":"Point"},"placekey":"@d5n-qk9-wrk","address":{"country_code":"NI","formatted_address":"Yaule Abajo, Matagalpa, Nicaragua","locality":"Matagalpa"}},"labels":["soccer","sport"],"duration":0,"start_local":"2024-09-15T15:00:00","end":"2024-09-15T21:00:00Z","end_local":"2024-09-15T15:00:00","updated":"2024-07-01T17:02:39Z"},{"title":"Primera Division - Apertura - Walter Ferretti vs Matagalpa","description":"Sourced from predicthq.com","category":"sports","start":"2024-09-15T02:00:00Z","geo":{"geometry":{"coordinates":[-86.2730491,12.1092043],"type":"Point"},"placekey":"@d5n-phq-ht9","address":{"country_code":"NI","formatted_address":"Pista de La Unan, Managua, Nicaragua","locality":"Managua","region":"Departamento de Managua"}},"labels":["soccer","sport"],"duration":0,"start_local":"2024-09-14T20:00:00","end":"2024-09-15T02:00:00Z","end_local":"2024-09-14T20:00:00","updated":"2024-07-01T19:18:29Z"},{"title":"Primera Division - Apertura - Diriangén vs Real Estelí","description":"Sourced from predicthq.com","category":"sports","start":"2024-09-15T01:00:00Z","geo":{"geometry":{"coordinates":[-86.2436354,11.8613309],"type":"Point"},"placekey":"@d5s-c6w-mx5","address":{"country_code":"NI","formatted_address":"Diriamba, Carazo Department, Nicaragua","locality":"Diriamba","region":"Carazo Department"}},"labels":["soccer","sport"],"duration":0,"start_local":"2024-09-14T19:00:00","end":"2024-09-15T01:00:00Z","end_local":"2024-09-14T19:00:00","updated":"2024-07-01T18:40:32Z"},{"title":"Primera Division - Apertura - Managua vs Municipal Jalapa","description":"Sourced from predicthq.com","category":"sports","start":"2024-09-14T23:00:00Z","geo":{"geometry":{"coordinates":[-86.2730491,12.1092043],"type":"Point"},"placekey":"@d5n-phq-ht9","address":{"country_code":"NI","formatted_address":"Pista de La Unan, Managua, Nicaragua","locality":"Managua","region":"Departamento de Managua"}},"labels":["soccer","sport"],"duration":0,"start_local":"2024-09-14T17:00:00","end":"2024-09-14T23:00:00Z","end_local":"2024-09-14T17:00:00","updated":"2024-07-01T16:56:45Z"},{"title":"Primera Division - Apertura - Managua vs Diriangén","description":"Sourced from predicthq.com","category":"sports","start":"2024-09-02T01:00:00Z","geo":{"geometry":{"coordinates":[-86.2730491,12.1092043],"type":"Point"},"placekey":"@d5n-phq-ht9","address":{"country_code":"NI","formatted_address":"Pista de La Unan, Managua, Nicaragua","locality":"Managua","region":"Departamento de Managua"}},"labels":["soccer","sport"],"duration":0,"start_local":"2024-09-01T19:00:00","end":"2024-09-02T01:00:00Z","end_local":"2024-09-01T19:00:00","updated":"2024-07-01T16:04:38Z"},{"title":"Primera Division - Apertura - UNAN Managua vs Rancho Santana","description":"Sourced from predicthq.com","category":"sports","start":"2024-09-01T22:00:00Z","geo":{"geometry":{"coordinates":[-86.2730491,12.1092043],"type":"Point"},"placekey":"@d5n-phq-ht9","address":{"country_code":"NI","formatted_address":"Pista de La Unan, Managua, Nicaragua","locality":"Managua","region":"Departamento de Managua"}},"labels":["soccer","sport"],"duration":0,"start_local":"2024-09-01T16:00:00","end":"2024-09-01T22:00:00Z","end_local":"2024-09-01T16:00:00","updated":"2024-07-01T15:18:58Z"},{"title":"Primera Division - Apertura - Municipal Jalapa vs Real Estelí","description":"Sourced from predicthq.com","category":"sports","start":"2024-09-01T21:00:00Z","geo":{"geometry":{"coordinates":[-86.12630009651184,13.925340820012282],"type":"Point"},"placekey":"@8hc-4cx-ty9","address":{"country_code":"NI","formatted_address":"WVGF+4FJ, Jalapa, Nicaragua","locality":"Jalapa","region":"Nueva Segovia"}},"labels":["soccer","sport"],"duration":0,"start_local":"2024-09-01T15:00:00","end":"2024-09-01T21:00:00Z","end_local":"2024-09-01T15:00:00","updated":"2024-07-01T16:57:27Z"},{"title":"Primera Division - Apertura - Deportivo Ocotal vs Walter Ferretti","description":"Sourced from predicthq.com","category":"sports","start":"2024-09-01T01:00:00Z","geo":{"geometry":{"coordinates":[-86.46868125826644,13.625249534493014],"type":"Point"},"placekey":"@d5p-fn8-2hq","address":{"country_code":"NI","formatted_address":"JGGJ+3FH, Ocotal, Nicaragua","locality":"Ocotal","region":"Nueva Segovia"}},"labels":["soccer","sport"],"duration":0,"start_local":"2024-08-31T19:00:00","end":"2024-09-01T01:00:00Z","end_local":"2024-08-31T19:00:00","updated":"2024-07-01T13:15:33Z"},{"title":"Primera Division - Apertura - Matagalpa vs Sport Sébaco","description":"Sourced from predicthq.com","category":"sports","start":"2024-08-31T21:00:00Z","geo":{"geometry":{"coordinates":[-85.983267146,12.917346747],"type":"Point"},"placekey":"@d5n-qk9-wrk","address":{"country_code":"NI","formatted_address":"Yaule Abajo, Matagalpa, Nicaragua","locality":"Matagalpa"}},"labels":["soccer","sport"],"duration":0,"start_local":"2024-08-31T15:00:00","end":"2024-08-31T21:00:00Z","end_local":"2024-08-31T15:00:00","updated":"2024-07-01T17:14:18Z"},{"title":"Primera Division - Apertura - Diriangén vs Walter Ferretti","description":"Sourced from predicthq.com","category":"sports","start":"2024-08-26T00:00:00Z","geo":{"geometry":{"coordinates":[-86.2436354,11.8613309],"type":"Point"},"placekey":"@d5s-c6w-mx5","address":{"country_code":"NI","formatted_address":"Diriamba, Carazo Department, Nicaragua","locality":"Diriamba","region":"Carazo Department"}},"labels":["soccer","sport"],"duration":0,"start_local":"2024-08-25T18:00:00","end":"2024-08-26T00:00:00Z","end_local":"2024-08-25T18:00:00","updated":"2024-07-01T19:14:37Z"},{"title":"Primera Division - Apertura - Sport Sébaco vs Municipal Jalapa","description":"Sourced from predicthq.com","category":"sports","start":"2024-08-25T21:00:00Z","geo":{"geometry":{"coordinates":[-85.983267146,12.917346747],"type":"Point"},"placekey":"@d5n-qk9-wrk","address":{"country_code":"NI","formatted_address":"Yaule Abajo, Matagalpa, Nicaragua","locality":"Matagalpa"}},"labels":["soccer","sport"],"duration":0,"start_local":"2024-08-25T15:00:00","end":"2024-08-25T21:00:00Z","end_local":"2024-08-25T15:00:00","updated":"2024-07-01T16:13:26Z"},{"title":"Primera Division - Apertura - UNAN Managua vs Managua","description":"Sourced from predicthq.com","category":"sports","start":"2024-08-25T02:00:00Z","geo":{"geometry":{"coordinates":[-86.2730491,12.1092043],"type":"Point"},"placekey":"@d5n-phq-ht9","address":{"country_code":"NI","formatted_address":"Pista de La Unan, Managua, Nicaragua","locality":"Managua","region":"Departamento de Managua"}},"labels":["soccer","sport"],"duration":0,"start_local":"2024-08-24T20:00:00","end":"2024-08-25T02:00:00Z","end_local":"2024-08-24T20:00:00","updated":"2024-07-01T19:15:44Z"},{"title":"Primera Division - Apertura - Real Estelí vs Deportivo Ocotal","description":"Sourced from predicthq.com","category":"sports","start":"2024-08-25T01:00:00Z","geo":{"geometry":{"coordinates":[-86.3530422,13.0977412],"type":"Point"},"placekey":"@d5p-sxm-mc5","address":{"country_code":"NI","formatted_address":"Esteli, Estelí Department, Nicaragua","locality":"Esteli","region":"Estelí Department"}},"labels":["soccer","sport"],"duration":0,"start_local":"2024-08-24T19:00:00","end":"2024-08-25T01:00:00Z","end_local":"2024-08-24T19:00:00","updated":"2024-07-01T19:18:29Z"},{"title":"Primera Division - Apertura - Rancho Santana vs Matagalpa","description":"Sourced from predicthq.com","category":"sports","start":"2024-08-24T23:00:00Z","geo":{"geometry":{"coordinates":[-86.2730491,12.1092043],"type":"Point"},"placekey":"@d5n-phq-ht9","address":{"country_code":"NI","formatted_address":"Pista de La Unan, Managua, Nicaragua","locality":"Managua","region":"Departamento de Managua"}},"labels":["soccer","sport"],"duration":0,"start_local":"2024-08-24T17:00:00","end":"2024-08-24T23:00:00Z","end_local":"2024-08-24T17:00:00","updated":"2024-07-01T19:19:39Z"},{"title":"Primera Division - Apertura - Deportivo Ocotal vs Municipal Jalapa","description":"Sourced from predicthq.com","category":"sports","start":"2024-08-19T00:00:00Z","geo":{"geometry":{"coordinates":[-86.46868125826644,13.625249534493014],"type":"Point"},"placekey":"@d5p-fn8-2hq","address":{"country_code":"NI","formatted_address":"JGGJ+3FH, Ocotal, Nicaragua","locality":"Ocotal","region":"Nueva Segovia"}},"labels":["soccer","sport"],"duration":0,"start_local":"2024-08-18T18:00:00","end":"2024-08-19T00:00:00Z","end_local":"2024-08-18T18:00:00","updated":"2024-07-01T17:01:45Z"},{"title":"Primera Division - Apertura - Sport Sébaco vs Diriangén","description":"Sourced from predicthq.com","category":"sports","start":"2024-08-18T21:00:00Z","geo":{"geometry":{"coordinates":[-85.983267146,12.917346747],"type":"Point"},"placekey":"@d5n-qk9-wrk","address":{"country_code":"NI","formatted_address":"Yaule Abajo, Matagalpa, Nicaragua","locality":"Matagalpa"}},"labels":["soccer","sport"],"duration":0,"start_local":"2024-08-18T15:00:00","end":"2024-08-18T21:00:00Z","end_local":"2024-08-18T15:00:00","updated":"2024-07-01T16:47:46Z"},{"title":"Primera Division - Apertura - Walter Ferretti vs UNAN Managua","description":"Sourced from predicthq.com","category":"sports","start":"2024-08-18T02:00:00Z","geo":{"geometry":{"coordinates":[-86.2730491,12.1092043],"type":"Point"},"placekey":"@d5n-phq-ht9","address":{"country_code":"NI","formatted_address":"Pista de La Unan, Managua, Nicaragua","locality":"Managua","region":"Departamento de Managua"}},"labels":["soccer","sport"],"duration":0,"start_local":"2024-08-17T20:00:00","end":"2024-08-18T02:00:00Z","end_local":"2024-08-17T20:00:00","updated":"2024-07-01T19:13:39Z"},{"title":"Primera Division - Apertura - Real Estelí vs Matagalpa","description":"Sourced from predicthq.com","category":"sports","start":"2024-08-18T01:00:00Z","geo":{"geometry":{"coordinates":[-86.3530422,13.0977412],"type":"Point"},"placekey":"@d5p-sxm-mc5","address":{"country_code":"NI","formatted_address":"Esteli, Estelí Department, Nicaragua","locality":"Esteli","region":"Estelí Department"}},"labels":["soccer","sport"],"duration":0,"start_local":"2024-08-17T19:00:00","end":"2024-08-18T01:00:00Z","end_local":"2024-08-17T19:00:00","updated":"2024-07-01T13:31:55Z"},{"title":"Primera Division - Apertura - Rancho Santana vs Managua","description":"Sourced from predicthq.com","category":"sports","start":"2024-08-17T23:00:00Z","geo":{"geometry":{"coordinates":[-86.2730491,12.1092043],"type":"Point"},"placekey":"@d5n-phq-ht9","address":{"country_code":"NI","formatted_address":"Pista de La Unan, Managua, Nicaragua","locality":"Managua","region":"Departamento de Managua"}},"labels":["soccer","sport"],"duration":0,"start_local":"2024-08-17T17:00:00","end":"2024-08-17T23:00:00Z","end_local":"2024-08-17T17:00:00","updated":"2024-07-01T18:17:34Z"},{"title":"Primera Division - Apertura - Managua vs Sport Sébaco","description":"Sourced from predicthq.com","category":"sports","start":"2024-08-12T01:00:00Z","geo":{"geometry":{"coordinates":[-86.2730491,12.1092043],"type":"Point"},"placekey":"@d5n-phq-ht9","address":{"country_code":"NI","formatted_address":"Pista de La Unan, Managua, Nicaragua","locality":"Managua","region":"Departamento de Managua"}},"labels":["soccer","sport"],"duration":0,"start_local":"2024-08-11T19:00:00","end":"2024-08-12T01:00:00Z","end_local":"2024-08-11T19:00:00","updated":"2024-07-01T18:19:44Z"},{"title":"Primera Division - Apertura - Municipal Jalapa vs Rancho Santana","description":"Sourced from predicthq.com","category":"sports","start":"2024-08-11T21:00:00Z","geo":{"geometry":{"coordinates":[-86.12630009651184,13.925340820012282],"type":"Point"},"placekey":"@8hc-4cx-ty9","address":{"country_code":"NI","formatted_address":"WVGF+4FJ, Jalapa, Nicaragua","locality":"Jalapa","region":"Nueva Segovia"}},"labels":["soccer","sport"],"duration":0,"start_local":"2024-08-11T15:00:00","end":"2024-08-11T21:00:00Z","end_local":"2024-08-11T15:00:00","updated":"2024-07-03T22:50:52Z"},{"title":"Primera Division - Apertura - Diriangén vs UNAN Managua","description":"Sourced from predicthq.com","category":"sports","start":"2024-08-11T01:00:00Z","geo":{"geometry":{"coordinates":[-86.2436354,11.8613309],"type":"Point"},"placekey":"@d5s-c6w-mx5","address":{"country_code":"NI","formatted_address":"Diriamba, Carazo Department, Nicaragua","locality":"Diriamba","region":"Carazo Department"}},"labels":["soccer","sport"],"duration":0,"start_local":"2024-08-10T19:00:00","end":"2024-08-11T01:00:00Z","end_local":"2024-08-10T19:00:00","updated":"2024-07-01T13:12:11Z"},{"title":"Primera Division - Apertura - Walter Ferretti vs Real Estelí","description":"Sourced from predicthq.com","category":"sports","start":"2024-08-10T22:00:00Z","geo":{"geometry":{"coordinates":[-86.2730491,12.1092043],"type":"Point"},"placekey":"@d5n-phq-ht9","address":{"country_code":"NI","formatted_address":"Pista de La Unan, Managua, Nicaragua","locality":"Managua","region":"Departamento de Managua"}},"labels":["soccer","sport"],"duration":0,"start_local":"2024-08-10T16:00:00","end":"2024-08-10T22:00:00Z","end_local":"2024-08-10T16:00:00","updated":"2024-07-01T19:13:39Z"},{"title":"Primera Division - Apertura - Matagalpa vs Deportivo Ocotal","description":"Sourced from predicthq.com","category":"sports","start":"2024-08-10T21:00:00Z","geo":{"geometry":{"coordinates":[-85.983267146,12.917346747],"type":"Point"},"placekey":"@d5n-qk9-wrk","address":{"country_code":"NI","formatted_address":"Yaule Abajo, Matagalpa, Nicaragua","locality":"Matagalpa"}},"labels":["soccer","sport"],"duration":0,"start_local":"2024-08-10T15:00:00","end":"2024-08-10T21:00:00Z","end_local":"2024-08-10T15:00:00","updated":"2024-07-01T16:29:12Z"},{"title":"Primera Division - Apertura - Sport Sébaco vs Walter Ferretti","description":"Sourced from predicthq.com","category":"sports","start":"2024-08-04T21:00:00Z","geo":{"geometry":{"coordinates":[-85.983267146,12.917346747],"type":"Point"},"placekey":"@d5n-qk9-wrk","address":{"country_code":"NI","formatted_address":"Yaule Abajo, Matagalpa, Nicaragua","locality":"Matagalpa"}},"labels":["soccer","sport"],"duration":0,"start_local":"2024-08-04T15:00:00","end":"2024-08-04T21:00:00Z","end_local":"2024-08-04T15:00:00","updated":"2024-07-03T19:10:22Z"},{"title":"Primera Division - Apertura - Managua vs Deportivo Ocotal","description":"Sourced from predicthq.com","category":"sports","start":"2024-08-04T02:00:00Z","geo":{"geometry":{"coordinates":[-86.2730491,12.1092043],"type":"Point"},"placekey":"@d5n-phq-ht9","address":{"country_code":"NI","formatted_address":"Pista de La Unan, Managua, Nicaragua","locality":"Managua","region":"Departamento de Managua"}},"labels":["soccer","sport"],"duration":0,"start_local":"2024-08-03T20:00:00","end":"2024-08-04T02:00:00Z","end_local":"2024-08-03T20:00:00","updated":"2024-07-01T13:16:31Z"},{"title":"Primera Division - Apertura - Diriangén vs Matagalpa","description":"Sourced from predicthq.com","category":"sports","start":"2024-08-04T01:00:00Z","geo":{"geometry":{"coordinates":[-86.2436354,11.8613309],"type":"Point"},"placekey":"@d5s-c6w-mx5","address":{"country_code":"NI","formatted_address":"Diriamba, Carazo Department, Nicaragua","locality":"Diriamba","region":"Carazo Department"}},"labels":["soccer","sport"],"duration":0,"start_local":"2024-08-03T19:00:00","end":"2024-08-04T01:00:00Z","end_local":"2024-08-03T19:00:00","updated":"2024-07-01T13:30:58Z"},{"title":"Primera Division - Apertura - UNAN Managua vs Municipal Jalapa","description":"Sourced from predicthq.com","category":"sports","start":"2024-08-03T23:00:00Z","geo":{"geometry":{"coordinates":[-86.2730491,12.1092043],"type":"Point"},"placekey":"@d5n-phq-ht9","address":{"country_code":"NI","formatted_address":"Pista de La Unan, Managua, Nicaragua","locality":"Managua","region":"Departamento de Managua"}},"labels":["soccer","sport"],"duration":0,"start_local":"2024-08-03T17:00:00","end":"2024-08-03T23:00:00Z","end_local":"2024-08-03T17:00:00","updated":"2024-07-03T20:38:41Z"},{"title":"Primera Division - Apertura - Real Estelí vs Rancho Santana","description":"Sourced from predicthq.com","category":"sports","start":"2024-08-03T01:00:00Z","geo":{"geometry":{"coordinates":[-86.3530422,13.0977412],"type":"Point"},"placekey":"@d5p-sxm-mc5","address":{"country_code":"NI","formatted_address":"Esteli, Estelí Department, Nicaragua","locality":"Esteli","region":"Estelí Department"}},"labels":["soccer","sport"],"duration":0,"start_local":"2024-08-02T19:00:00","end":"2024-08-03T01:00:00Z","end_local":"2024-08-02T19:00:00","updated":"2024-07-01T16:47:41Z"},{"title":"Crea Tu Vida Y Mejora Tus Resultados!","description":"Sourced from predicthq.com - ¡Ven y descubre cómo puedes crear la vida que deseas y mejorar tus resultados en este evento inspirador!","category":"conferences","start":"2024-07-13T16:00:00Z","geo":{"geometry":{"coordinates":[-86.26485799999999,12.12658],"type":"Point"},"placekey":"@d5n-phq-p5f","address":{"country_code":"NI","formatted_address":"Managua, Nicaragua","locality":"Managua","postcode":"14005","region":"Managua"}},"labels":["business","conference"],"duration":10800,"start_local":"2024-07-13T10:00:00","end":"2024-07-13T19:00:00Z","end_local":"2024-07-13T13:00:00","updated":"2024-06-04T05:22:26Z"},{"title":"Bronco","description":"Sourced from predicthq.com","category":"concerts","start":"2024-07-06T02:00:00Z","geo":{"geometry":{"coordinates":[-86.2751111,12.1533778],"type":"Point"},"placekey":"@d5n-phw-brk","address":{"country_code":"NI","formatted_address":"Managua, Managua Department, Nicaragua","locality":"Managua","region":"Managua Department"}},"labels":["concert","music"],"duration":0,"start_local":"2024-07-05T20:00:00","end":"2024-07-06T02:00:00Z","end_local":"2024-07-05T20:00:00","updated":"2024-06-11T08:21:53Z"},{"title":"Tech Day Nicaragua","description":"Sourced from predicthq.com - En un mundo que cambia a diario, tenemos que estar siempre INNOVANDO","category":"conferences","start":"2024-07-04T14:00:00Z","geo":{"geometry":{"coordinates":[-86.2737255,12.1437573],"type":"Point"},"placekey":"@d5n-phy-2rk","address":{"country_code":"NI","formatted_address":"Avenida Peatonal General Augusto C. Sandino, Managua, Nicaragua","locality":"Managua","postcode":"11118","region":"Managua"}},"labels":["conference","science","technology"],"duration":36000,"start_local":"2024-07-04T08:00:00","end":"2024-07-05T00:00:00Z","end_local":"2024-07-04T18:00:00","updated":"2024-06-11T08:03:57Z"},{"title":"Omnifono","description":"Sourced from predicthq.com","category":"concerts","start":"2024-06-23T01:00:00Z","geo":{"geometry":{"coordinates":[-86.2622,12.12034],"type":"Point"},"placekey":"@d5n-phq-kxq","address":{"country_code":"NI","formatted_address":"De la embajada de Mexíco, 1/2 al norte, Managua 14034, Nicaragua","postcode":"14034","locality":"Managua","region":"Managua"}},"labels":["concert","music"],"duration":0,"start_local":"2024-06-22T19:00:00","end":"2024-06-23T01:00:00Z","end_local":"2024-06-22T19:00:00","updated":"2024-06-11T06:35:11Z"},{"title":"Friendlies Women - Friendlies 2 - Nicaragua vs Peru","description":"Sourced from predicthq.com","category":"sports","start":"2024-06-05T00:00:00Z","geo":{"geometry":{"coordinates":[-86.3530422,13.0977412],"type":"Point"},"placekey":"@d5p-sxm-mc5","address":{"country_code":"NI","formatted_address":"Esteli, Estelí Department, Nicaragua","locality":"Esteli","region":"Estelí Department"}},"labels":["soccer","sport"],"duration":0,"start_local":"2024-06-04T18:00:00","end":"2024-06-05T00:00:00Z","end_local":"2024-06-04T18:00:00","updated":"2024-06-12T15:50:29Z"},{"title":"Friendlies Women - Friendlies 2 - Nicaragua vs Peru","description":"Sourced from predicthq.com","category":"sports","start":"2024-06-02T00:00:00Z","geo":{"geometry":{"coordinates":[-86.2730491,12.1092043],"type":"Point"},"placekey":"@d5n-phq-ht9","address":{"country_code":"NI","formatted_address":"Pista de La Unan, Managua, Nicaragua","locality":"Managua","region":"Departamento de Managua"}},"labels":["soccer","sport"],"duration":0,"start_local":"2024-06-01T18:00:00","end":"2024-06-02T00:00:00Z","end_local":"2024-06-01T18:00:00","updated":"2024-06-12T09:11:46Z"},{"title":"Anfitrionas: Hablemos de Tecnología","description":"Sourced from predicthq.com - Atención Mujeres Pinoleras…  \n\nComunidad nicaragüense, se nos viene un gran evento presencial a la tierrita .\n\n“Anfitrionas hablemos de","category":"conferences","start":"2024-05-31T19:00:00Z","geo":{"geometry":{"coordinates":[-86.2569274,12.1084918],"type":"Point"},"placekey":"@d5n-pnq-xh5","address":{"country_code":"NI","formatted_address":"Managua, Nicaragua","locality":"Managua","region":"Managua"}},"labels":["conference","science","technology"],"duration":14400,"start_local":"2024-05-31T13:00:00","end":"2024-05-31T23:00:00Z","end_local":"2024-05-31T17:00:00","updated":"2024-05-24T19:15:20Z"},{"title":"Evento del mundo","description":"Sourced from predicthq.com - ¡Ven y únete al Evento del mundo donde celebramos la diversidad cultural con música, comida y arte de todo el planeta!","category":"festivals","start":"2024-05-31T11:30:00Z","geo":{"geometry":{"coordinates":[-86.29637489999999,12.1407842],"type":"Point"},"placekey":"@d5n-phz-7dv","address":{"country_code":"NI","formatted_address":"Managua, Nicaragua","locality":"Managua","region":"Managua"}},"labels":["community","festival"],"duration":12600,"start_local":"2024-05-31T05:30:00","end":"2024-05-31T15:00:00Z","end_local":"2024-05-31T09:00:00","updated":"2024-05-30T01:00:44Z"},{"title":"Evolución Pyme Nicaragua 2024","description":"Sourced from predicthq.com - Este evento está dirigido a pequeñas y medianas empresas de Nicaragua.","category":"conferences","start":"2024-05-28T14:00:00Z","geo":{"geometry":{"coordinates":[-86.2737255,12.1437573],"type":"Point"},"placekey":"@d5n-phy-2rk","address":{"country_code":"NI","formatted_address":"Avenida Peatonal General Augusto C. Sandino, Managua, Nicaragua","locality":"Managua","postcode":"11118","region":"Managua"}},"labels":["business","conference"],"duration":36000,"start_local":"2024-05-28T08:00:00","end":"2024-05-29T00:00:00Z","end_local":"2024-05-28T18:00:00","updated":"2024-06-12T18:09:28Z"},{"title":"Evento en Java","description":"Sourced from predicthq.com - Esto es un evento en Java","category":"conferences","start":"2024-05-19T20:00:00Z","geo":{"geometry":{"coordinates":[-86.27960639999999,12.1097131],"type":"Point"},"placekey":"@d5n-pht-tjv","address":{"country_code":"NI","formatted_address":"Managua, Nicaragua","locality":"Managua","region":"Managua"}},"labels":["conference","science","technology"],"duration":12600,"start_local":"2024-05-19T14:00:00","end":"2024-05-19T23:30:00Z","end_local":"2024-05-19T17:30:00","updated":"2024-06-05T15:48:43Z"},{"title":"Primera Division - Clausura - Final - Diriangén vs Real Estelí","description":"Sourced from predicthq.com","category":"sports","start":"2024-05-19T01:00:00Z","geo":{"geometry":{"coordinates":[-86.2436354,11.8613309],"type":"Point"},"placekey":"@d5s-c6w-mx5","address":{"country_code":"NI","formatted_address":"Diriamba, Carazo Department, Nicaragua","locality":"Diriamba","region":"Carazo Department"}},"labels":["soccer","sport"],"duration":0,"start_local":"2024-05-18T19:00:00","end":"2024-05-19T01:00:00Z","end_local":"2024-05-18T19:00:00","updated":"2024-06-11T23:40:14Z"},{"title":"Remote Work: Best Hiring and Interview Strategies","description":"Sourced from predicthq.com - Learn the top tips and tricks for hiring and interviewing remote workers at our event - it's gonna be a game-changer!","category":"conferences","start":"2024-05-18T16:30:00Z","geo":{"geometry":{"coordinates":[-86.2797281,12.1239902],"type":"Point"},"placekey":"@d5n-phn-mkz","address":{"country_code":"NI","formatted_address":"Managua, Departamento de Managua, Nicaragua","locality":"Managua","region":"Departamento de Managua"}},"labels":["business","conference"],"duration":21600,"start_local":"2024-05-18T10:30:00","end":"2024-05-18T22:30:00Z","end_local":"2024-05-18T16:30:00","updated":"2024-05-28T21:35:50Z"},{"title":"Primera Division - Clausura - Final - Real Estelí vs Diriangén","description":"Sourced from predicthq.com","category":"sports","start":"2024-05-13T01:00:00Z","geo":{"geometry":{"coordinates":[-86.3530422,13.0977412],"type":"Point"},"placekey":"@d5p-sxm-mc5","address":{"country_code":"NI","formatted_address":"Esteli, Estelí Department, Nicaragua","locality":"Esteli","region":"Estelí Department"}},"labels":["soccer","sport"],"duration":0,"start_local":"2024-05-12T19:00:00","end":"2024-05-13T01:00:00Z","end_local":"2024-05-12T19:00:00","updated":"2024-06-12T09:43:50Z"},{"title":"Primera Division - Clausura - Semi-finals - Diriangén vs Municipal Jalapa","description":"Sourced from predicthq.com","category":"sports","start":"2024-05-09T02:00:00Z","geo":{"geometry":{"coordinates":[-86.2436354,11.8613309],"type":"Point"},"placekey":"@d5s-c6w-mx5","address":{"country_code":"NI","formatted_address":"Diriamba, Carazo Department, Nicaragua","locality":"Diriamba","region":"Carazo Department"}},"labels":["soccer","sport"],"duration":0,"start_local":"2024-05-08T20:00:00","end":"2024-05-09T02:00:00Z","end_local":"2024-05-08T20:00:00","updated":"2024-06-12T00:57:59Z"},{"title":"Primera Division - Clausura - Semi-finals - Real Estelí vs Deportivo Ocotal","description":"Sourced from predicthq.com","category":"sports","start":"2024-05-09T01:00:00Z","geo":{"geometry":{"coordinates":[-86.3530422,13.0977412],"type":"Point"},"placekey":"@d5p-sxm-mc5","address":{"country_code":"NI","formatted_address":"Esteli, Estelí Department, Nicaragua","locality":"Esteli","region":"Estelí Department"}},"labels":["soccer","sport"],"duration":0,"start_local":"2024-05-08T19:00:00","end":"2024-05-09T01:00:00Z","end_local":"2024-05-08T19:00:00","updated":"2024-06-11T22:43:19Z"},{"title":"Primera Division - Clausura - Semi-finals - Deportivo Ocotal vs Real Estelí","description":"Sourced from predicthq.com","category":"sports","start":"2024-05-05T01:00:00Z","geo":{"geometry":{"coordinates":[-86.46868125826644,13.625249534493014],"type":"Point"},"placekey":"@d5p-fn8-2hq","address":{"country_code":"NI","formatted_address":"JGGJ+3FH, Ocotal, Nicaragua","locality":"Ocotal","region":"Nueva Segovia"}},"labels":["soccer","sport"],"duration":0,"start_local":"2024-05-04T19:00:00","end":"2024-05-05T01:00:00Z","end_local":"2024-05-04T19:00:00","updated":"2024-06-12T06:59:26Z"},{"title":"Primera Division - Clausura - Semi-finals - Municipal Jalapa vs Diriangén","description":"Sourced from predicthq.com","category":"sports","start":"2024-05-04T21:00:00Z","geo":{"geometry":{"coordinates":[-86.12630009651184,13.925340820012282],"type":"Point"},"placekey":"@8hc-4cx-ty9","address":{"country_code":"NI","formatted_address":"WVGF+4FJ, Jalapa, Nicaragua","locality":"Jalapa","region":"Nueva Segovia"}},"labels":["soccer","sport"],"duration":0,"start_local":"2024-05-04T15:00:00","end":"2024-05-04T21:00:00Z","end_local":"2024-05-04T15:00:00","updated":"2024-06-12T13:49:25Z"},{"title":"Primera Division - Clausura - Preliminary Play-offs - Managua vs Municipal Jalapa","description":"Sourced from predicthq.com","category":"sports","start":"2024-05-02T02:00:00Z","geo":{"geometry":{"coordinates":[-86.2730491,12.1092043],"type":"Point"},"placekey":"@d5n-phq-ht9","address":{"country_code":"NI","formatted_address":"Pista de La Unan, Managua, Nicaragua","locality":"Managua","region":"Departamento de Managua"}},"labels":["soccer","sport"],"duration":0,"start_local":"2024-05-01T20:00:00","end":"2024-05-02T02:00:00Z","end_local":"2024-05-01T20:00:00","updated":"2024-06-12T02:46:50Z"},{"title":"Primera Division - Clausura - Preliminary Play-offs - Deportivo Ocotal vs Walter Ferretti","description":"Sourced from predicthq.com","category":"sports","start":"2024-05-02T01:00:00Z","geo":{"geometry":{"coordinates":[-86.46868125826644,13.625249534493014],"type":"Point"},"placekey":"@d5p-fn8-2hq","address":{"country_code":"NI","formatted_address":"JGGJ+3FH, Ocotal, Nicaragua","locality":"Ocotal","region":"Nueva Segovia"}},"labels":["soccer","sport"],"duration":0,"start_local":"2024-05-01T19:00:00","end":"2024-05-02T01:00:00Z","end_local":"2024-05-01T19:00:00","updated":"2024-06-12T20:02:40Z"},{"title":"Primera Division - Clausura - Walter Ferretti vs Deportivo Ocotal","description":"Sourced from predicthq.com","category":"sports","start":"2024-04-29T01:00:00Z","geo":{"geometry":{"coordinates":[-86.2730491,12.1092043],"type":"Point"},"placekey":"@d5n-phq-ht9","address":{"country_code":"NI","formatted_address":"Pista de La Unan, Managua, Nicaragua","locality":"Managua","region":"Departamento de Managua"}},"labels":["soccer","sport"],"duration":0,"start_local":"2024-04-28T19:00:00","end":"2024-04-29T01:00:00Z","end_local":"2024-04-28T19:00:00","updated":"2024-06-11T22:02:05Z"},{"title":"Primera Division - Clausura - Real Estelí vs Matagalpa","description":"Sourced from predicthq.com","category":"sports","start":"2024-04-29T01:00:00Z","geo":{"geometry":{"coordinates":[-86.3530422,13.0977412],"type":"Point"},"placekey":"@d5p-sxm-mc5","address":{"country_code":"NI","formatted_address":"Esteli, Estelí Department, Nicaragua","locality":"Esteli","region":"Estelí Department"}},"labels":["soccer","sport"],"duration":0,"start_local":"2024-04-28T19:00:00","end":"2024-04-29T01:00:00Z","end_local":"2024-04-28T19:00:00","updated":"2024-06-12T10:02:48Z"},{"title":"Primera Division - Clausura - UNAN Managua vs Sport Sébaco","description":"Sourced from predicthq.com","category":"sports","start":"2024-04-28T22:00:00Z","geo":{"geometry":{"coordinates":[-86.2730491,12.1092043],"type":"Point"},"placekey":"@d5n-phq-ht9","address":{"country_code":"NI","formatted_address":"Pista de La Unan, Managua, Nicaragua","locality":"Managua","region":"Departamento de Managua"}},"labels":["soccer","sport"],"duration":0,"start_local":"2024-04-28T16:00:00","end":"2024-04-28T22:00:00Z","end_local":"2024-04-28T16:00:00","updated":"2024-06-12T01:00:39Z"},{"title":"Primera Division - Clausura - Municipal Jalapa vs Diriangén","description":"Sourced from predicthq.com","category":"sports","start":"2024-04-28T21:00:00Z","geo":{"geometry":{"coordinates":[-86.12630009651184,13.925340820012282],"type":"Point"},"placekey":"@8hc-4cx-ty9","address":{"country_code":"NI","formatted_address":"WVGF+4FJ, Jalapa, Nicaragua","locality":"Jalapa","region":"Nueva Segovia"}},"labels":["soccer","sport"],"duration":0,"start_local":"2024-04-28T15:00:00","end":"2024-04-28T21:00:00Z","end_local":"2024-04-28T15:00:00","updated":"2024-06-12T10:00:40Z"},{"title":"Primera Division - Clausura - Managua vs Orgánica Masachapa","description":"Sourced from predicthq.com","category":"sports","start":"2024-04-28T01:00:00Z","geo":{"geometry":{"coordinates":[-86.2730491,12.1092043],"type":"Point"},"placekey":"@d5n-phq-ht9","address":{"country_code":"NI","formatted_address":"Pista de La Unan, Managua, Nicaragua","locality":"Managua","region":"Departamento de Managua"}},"labels":["soccer","sport"],"duration":0,"start_local":"2024-04-27T19:00:00","end":"2024-04-28T01:00:00Z","end_local":"2024-04-27T19:00:00","updated":"2024-06-12T03:01:37Z"},{"title":"El Poder de la Manada","description":"Sourced from predicthq.com - ¡Únete a \"El Poder de la Manada\" conferencia de Legendarios Nicaragua para conectar, aprender y crecer juntos!. ¡No te lo pierdas!.","category":"conferences","start":"2024-04-27T01:00:00Z","geo":{"geometry":{"coordinates":[-86.33640500000001,12.146951],"type":"Point"},"placekey":"@d5n-pjr-8n5","address":{"country_code":"NI","formatted_address":"Ciudad Sandino, Managua, Nicaragua","locality":"Ciudad Sandino","region":"Managua"}},"labels":["community","conference"],"duration":91800,"start_local":"2024-04-26T19:00:00","end":"2024-04-28T02:30:00Z","end_local":"2024-04-27T20:30:00","updated":"2024-06-05T14:20:20Z"},{"title":"Primera Division - Clausura - Diriangén vs Walter Ferretti","description":"Sourced from predicthq.com","category":"sports","start":"2024-04-26T00:00:00Z","geo":{"geometry":{"coordinates":[-86.2436354,11.8613309],"type":"Point"},"placekey":"@d5s-c6w-mx5","address":{"country_code":"NI","formatted_address":"Diriamba, Carazo Department, Nicaragua","locality":"Diriamba","region":"Carazo Department"}},"labels":["soccer","sport"],"duration":0,"start_local":"2024-04-25T18:00:00","end":"2024-04-26T00:00:00Z","end_local":"2024-04-25T18:00:00","updated":"2024-06-12T05:10:34Z"},{"title":"Primera Division - Clausura - Municipal Jalapa vs UNAN Managua","description":"Sourced from predicthq.com","category":"sports","start":"2024-04-25T21:00:00Z","geo":{"geometry":{"coordinates":[-86.12630009651184,13.925340820012282],"type":"Point"},"placekey":"@8hc-4cx-ty9","address":{"country_code":"NI","formatted_address":"WVGF+4FJ, Jalapa, Nicaragua","locality":"Jalapa","region":"Nueva Segovia"}},"labels":["soccer","sport"],"duration":0,"start_local":"2024-04-25T15:00:00","end":"2024-04-25T21:00:00Z","end_local":"2024-04-25T15:00:00","updated":"2024-06-12T17:39:24Z"},{"title":"Primera Division - Clausura - Deportivo Ocotal vs Sport Sébaco","description":"Sourced from predicthq.com","category":"sports","start":"2024-04-25T01:00:00Z","geo":{"geometry":{"coordinates":[-86.46868125826644,13.625249534493014],"type":"Point"},"placekey":"@d5p-fn8-2hq","address":{"country_code":"NI","formatted_address":"JGGJ+3FH, Ocotal, Nicaragua","locality":"Ocotal","region":"Nueva Segovia"}},"labels":["soccer","sport"],"duration":0,"start_local":"2024-04-24T19:00:00","end":"2024-04-25T01:00:00Z","end_local":"2024-04-24T19:00:00","updated":"2024-06-11T21:20:21Z"},{"title":"Primera Division - Clausura - Orgánica Masachapa vs Real Estelí","description":"Sourced from predicthq.com","category":"sports","start":"2024-04-25T01:00:00Z","geo":{"geometry":{"coordinates":[-86.2730491,12.1092043],"type":"Point"},"placekey":"@d5n-phq-ht9","address":{"country_code":"NI","formatted_address":"Pista de La Unan, Managua, Nicaragua","locality":"Managua","region":"Departamento de Managua"}},"labels":["soccer","sport"],"duration":0,"start_local":"2024-04-24T19:00:00","end":"2024-04-25T01:00:00Z","end_local":"2024-04-24T19:00:00","updated":"2024-06-12T05:22:02Z"},{"title":"Primera Division - Clausura - Matagalpa vs Managua","description":"Sourced from predicthq.com","category":"sports","start":"2024-04-24T21:00:00Z","geo":{"geometry":{"coordinates":[-85.983267146,12.917346747],"type":"Point"},"placekey":"@d5n-qk9-wrk","address":{"country_code":"NI","formatted_address":"Yaule Abajo, Matagalpa, Nicaragua","locality":"Matagalpa"}},"labels":["soccer","sport"],"duration":0,"start_local":"2024-04-24T15:00:00","end":"2024-04-24T21:00:00Z","end_local":"2024-04-24T15:00:00","updated":"2024-06-11T21:18:24Z"},{"title":"Primera Division - Clausura - UNAN Managua vs Diriangén","description":"Sourced from predicthq.com","category":"sports","start":"2024-04-22T01:00:00Z","geo":{"geometry":{"coordinates":[-86.2730491,12.1092043],"type":"Point"},"placekey":"@d5n-phq-ht9","address":{"country_code":"NI","formatted_address":"Pista de La Unan, Managua, Nicaragua","locality":"Managua","region":"Departamento de Managua"}},"labels":["soccer","sport"],"duration":0,"start_local":"2024-04-21T19:00:00","end":"2024-04-22T01:00:00Z","end_local":"2024-04-21T19:00:00","updated":"2024-06-11T23:42:56Z"},{"title":"Primera Division - Clausura - Real Estelí vs Managua","description":"Sourced from predicthq.com","category":"sports","start":"2024-04-22T01:00:00Z","geo":{"geometry":{"coordinates":[-86.3530422,13.0977412],"type":"Point"},"placekey":"@d5p-sxm-mc5","address":{"country_code":"NI","formatted_address":"Esteli, Estelí Department, Nicaragua","locality":"Esteli","region":"Estelí Department"}},"labels":["soccer","sport"],"duration":0,"start_local":"2024-04-21T19:00:00","end":"2024-04-22T01:00:00Z","end_local":"2024-04-21T19:00:00","updated":"2024-06-12T06:34:11Z"},{"title":"Primera Division - Clausura - Orgánica Masachapa vs Walter Ferretti","description":"Sourced from predicthq.com","category":"sports","start":"2024-04-21T22:00:00Z","geo":{"geometry":{"coordinates":[-86.2730491,12.1092043],"type":"Point"},"placekey":"@d5n-phq-ht9","address":{"country_code":"NI","formatted_address":"Pista de La Unan, Managua, Nicaragua","locality":"Managua","region":"Departamento de Managua"}},"labels":["soccer","sport"],"duration":0,"start_local":"2024-04-21T16:00:00","end":"2024-04-21T22:00:00Z","end_local":"2024-04-21T16:00:00","updated":"2024-06-12T17:19:27Z"},{"title":"Primera Division - Clausura - Deportivo Ocotal vs Municipal Jalapa","description":"Sourced from predicthq.com","category":"sports","start":"2024-04-21T01:00:00Z","geo":{"geometry":{"coordinates":[-86.46868125826644,13.625249534493014],"type":"Point"},"placekey":"@d5p-fn8-2hq","address":{"country_code":"NI","formatted_address":"JGGJ+3FH, Ocotal, Nicaragua","locality":"Ocotal","region":"Nueva Segovia"}},"labels":["soccer","sport"],"duration":0,"start_local":"2024-04-20T19:00:00","end":"2024-04-21T01:00:00Z","end_local":"2024-04-20T19:00:00","updated":"2024-06-12T03:13:34Z"},{"title":"Primera Division - Clausura - Sport Sébaco vs Matagalpa","description":"Sourced from predicthq.com","category":"sports","start":"2024-04-21T00:00:00Z","geo":{"geometry":{"coordinates":[-86.3530422,13.0977412],"type":"Point"},"placekey":"@d5p-sxm-mc5","address":{"country_code":"NI","formatted_address":"Esteli, Estelí Department, Nicaragua","locality":"Esteli","region":"Estelí Department"}},"labels":["soccer","sport"],"duration":0,"start_local":"2024-04-20T18:00:00","end":"2024-04-21T00:00:00Z","end_local":"2024-04-20T18:00:00","updated":"2024-06-12T06:15:07Z"},{"title":"Primera Division - Clausura - Managua vs UNAN Managua","description":"Sourced from predicthq.com","category":"sports","start":"2024-04-19T02:00:00Z","geo":{"geometry":{"coordinates":[-86.2730491,12.1092043],"type":"Point"},"placekey":"@d5n-phq-ht9","address":{"country_code":"NI","formatted_address":"Pista de La Unan, Managua, Nicaragua","locality":"Managua","region":"Departamento de Managua"}},"labels":["soccer","sport"],"duration":0,"start_local":"2024-04-18T20:00:00","end":"2024-04-19T02:00:00Z","end_local":"2024-04-18T20:00:00","updated":"2024-06-12T09:13:48Z"},{"title":"Primera Division - Clausura - Walter Ferretti vs Real Estelí","description":"Sourced from predicthq.com","category":"sports","start":"2024-04-18T23:00:00Z","geo":{"geometry":{"coordinates":[-86.2730491,12.1092043],"type":"Point"},"placekey":"@d5n-phq-ht9","address":{"country_code":"NI","formatted_address":"Pista de La Unan, Managua, Nicaragua","locality":"Managua","region":"Departamento de Managua"}},"labels":["soccer","sport"],"duration":0,"start_local":"2024-04-18T17:00:00","end":"2024-04-18T23:00:00Z","end_local":"2024-04-18T17:00:00","updated":"2024-06-12T02:16:15Z"},{"title":"Primera Division - Clausura - Orgánica Masachapa vs Municipal Jalapa","description":"Sourced from predicthq.com","category":"sports","start":"2024-04-18T01:00:00Z","geo":{"geometry":{"coordinates":[-86.2730491,12.1092043],"type":"Point"},"placekey":"@d5n-phq-ht9","address":{"country_code":"NI","formatted_address":"Pista de La Unan, Managua, Nicaragua","locality":"Managua","region":"Departamento de Managua"}},"labels":["soccer","sport"],"duration":0,"start_local":"2024-04-17T19:00:00","end":"2024-04-18T01:00:00Z","end_local":"2024-04-17T19:00:00","updated":"2024-06-12T02:19:57Z"},{"title":"Primera Division - Clausura - Diriangén vs Sport Sébaco","description":"Sourced from predicthq.com","category":"sports","start":"2024-04-18T01:00:00Z","geo":{"geometry":{"coordinates":[-86.2436354,11.8613309],"type":"Point"},"placekey":"@d5s-c6w-mx5","address":{"country_code":"NI","formatted_address":"Diriamba, Carazo Department, Nicaragua","locality":"Diriamba","region":"Carazo Department"}},"labels":["soccer","sport"],"duration":0,"start_local":"2024-04-17T19:00:00","end":"2024-04-18T01:00:00Z","end_local":"2024-04-17T19:00:00","updated":"2024-06-12T06:08:14Z"},{"title":"Primera Division - Clausura - Matagalpa vs Deportivo Ocotal","description":"Sourced from predicthq.com","category":"sports","start":"2024-04-17T21:00:00Z","geo":{"geometry":{"coordinates":[-85.983267146,12.917346747],"type":"Point"},"placekey":"@d5n-qk9-wrk","address":{"country_code":"NI","formatted_address":"Yaule Abajo, Matagalpa, Nicaragua","locality":"Matagalpa"}},"labels":["soccer","sport"],"duration":0,"start_local":"2024-04-17T15:00:00","end":"2024-04-17T21:00:00Z","end_local":"2024-04-17T15:00:00","updated":"2024-06-11T21:46:47Z"},{"title":"Congreso Nacional de Ventas Nicaragua","description":"Sourced from predicthq.com - Descubre cómo maximizar tus resultados y eficiencia en el mundo de las ventas.","category":"conferences","start":"2024-04-16T14:00:00Z","geo":{"geometry":{"coordinates":[-86.2737255,12.1437573],"type":"Point"},"placekey":"@d5n-phy-2rk","address":{"country_code":"NI","formatted_address":"Avenida Peatonal General Augusto C. Sandino, Managua, Nicaragua","locality":"Managua","postcode":"11118","region":"Managua"}},"labels":["business","conference"],"duration":36000,"start_local":"2024-04-16T08:00:00","end":"2024-04-17T00:00:00Z","end_local":"2024-04-16T18:00:00","updated":"2024-06-12T14:28:43Z"},{"title":"Primera Division - Clausura - Orgánica Masachapa vs Matagalpa","description":"Sourced from predicthq.com","category":"sports","start":"2024-04-15T01:00:00Z","geo":{"geometry":{"coordinates":[-86.2730491,12.1092043],"type":"Point"},"placekey":"@d5n-phq-ht9","address":{"country_code":"NI","formatted_address":"Pista de La Unan, Managua, Nicaragua","locality":"Managua","region":"Departamento de Managua"}},"labels":["soccer","sport"],"duration":0,"start_local":"2024-04-14T19:00:00","end":"2024-04-15T01:00:00Z","end_local":"2024-04-14T19:00:00","updated":"2024-06-11T23:47:33Z"},{"title":"Primera Division - Clausura - UNAN Managua vs Deportivo Ocotal","description":"Sourced from predicthq.com","category":"sports","start":"2024-04-14T22:00:00Z","geo":{"geometry":{"coordinates":[-86.2730491,12.1092043],"type":"Point"},"placekey":"@d5n-phq-ht9","address":{"country_code":"NI","formatted_address":"Pista de La Unan, Managua, Nicaragua","locality":"Managua","region":"Departamento de Managua"}},"labels":["soccer","sport"],"duration":0,"start_local":"2024-04-14T16:00:00","end":"2024-04-14T22:00:00Z","end_local":"2024-04-14T16:00:00","updated":"2024-06-12T01:36:12Z"},{"title":"Primera Division - Clausura - Sport Sébaco vs Walter Ferretti","description":"Sourced from predicthq.com","category":"sports","start":"2024-04-14T21:00:00Z","geo":{"geometry":{"coordinates":[-85.983267146,12.917346747],"type":"Point"},"placekey":"@d5n-qk9-wrk","address":{"country_code":"NI","formatted_address":"Yaule Abajo, Matagalpa, Nicaragua","locality":"Matagalpa"}},"labels":["soccer","sport"],"duration":0,"start_local":"2024-04-14T15:00:00","end":"2024-04-14T21:00:00Z","end_local":"2024-04-14T15:00:00","updated":"2024-06-12T04:48:05Z"},{"title":"Primera Division - Clausura - Real Estelí vs Diriangén","description":"Sourced from predicthq.com","category":"sports","start":"2024-04-14T01:00:00Z","geo":{"geometry":{"coordinates":[-86.3530422,13.0977412],"type":"Point"},"placekey":"@d5p-sxm-mc5","address":{"country_code":"NI","formatted_address":"Esteli, Estelí Department, Nicaragua","locality":"Esteli","region":"Estelí Department"}},"labels":["soccer","sport"],"duration":0,"start_local":"2024-04-13T19:00:00","end":"2024-04-14T01:00:00Z","end_local":"2024-04-13T19:00:00","updated":"2024-06-12T01:01:53Z"},{"title":"Primera Division - Clausura - Municipal Jalapa vs Managua","description":"Sourced from predicthq.com","category":"sports","start":"2024-04-13T23:00:00Z","geo":{"geometry":{"coordinates":[-86.12630009651184,13.925340820012282],"type":"Point"},"placekey":"@8hc-4cx-ty9","address":{"country_code":"NI","formatted_address":"WVGF+4FJ, Jalapa, Nicaragua","locality":"Jalapa","region":"Nueva Segovia"}},"labels":["soccer","sport"],"duration":0,"start_local":"2024-04-13T17:00:00","end":"2024-04-13T23:00:00Z","end_local":"2024-04-13T17:00:00","updated":"2024-06-11T21:33:33Z"},{"title":"Primera Division - Clausura - Deportivo Ocotal vs Orgánica Masachapa","description":"Sourced from predicthq.com","category":"sports","start":"2024-04-12T00:00:00Z","geo":{"geometry":{"coordinates":[-86.46868125826644,13.625249534493014],"type":"Point"},"placekey":"@d5p-fn8-2hq","address":{"country_code":"NI","formatted_address":"JGGJ+3FH, Ocotal, Nicaragua","locality":"Ocotal","region":"Nueva Segovia"}},"labels":["soccer","sport"],"duration":0,"start_local":"2024-04-11T18:00:00","end":"2024-04-12T00:00:00Z","end_local":"2024-04-11T18:00:00","updated":"2024-06-11T21:47:43Z"},{"title":"Primera Division - Clausura - Managua vs Diriangén","description":"Sourced from predicthq.com","category":"sports","start":"2024-04-11T02:00:00Z","geo":{"geometry":{"coordinates":[-86.2730491,12.1092043],"type":"Point"},"placekey":"@d5n-phq-ht9","address":{"country_code":"NI","formatted_address":"Pista de La Unan, Managua, Nicaragua","locality":"Managua","region":"Departamento de Managua"}},"labels":["soccer","sport"],"duration":0,"start_local":"2024-04-10T20:00:00","end":"2024-04-11T02:00:00Z","end_local":"2024-04-10T20:00:00","updated":"2024-06-12T11:21:00Z"},{"title":"Primera Division - Clausura - Walter Ferretti vs UNAN Managua","description":"Sourced from predicthq.com","category":"sports","start":"2024-04-10T23:00:00Z","geo":{"geometry":{"coordinates":[-86.2730491,12.1092043],"type":"Point"},"placekey":"@d5n-phq-ht9","address":{"country_code":"NI","formatted_address":"Pista de La Unan, Managua, Nicaragua","locality":"Managua","region":"Departamento de Managua"}},"labels":["soccer","sport"],"duration":0,"start_local":"2024-04-10T17:00:00","end":"2024-04-10T23:00:00Z","end_local":"2024-04-10T17:00:00","updated":"2024-06-12T01:17:30Z"},{"title":"Primera Division - Clausura - Matagalpa vs Municipal Jalapa","description":"Sourced from predicthq.com","category":"sports","start":"2024-04-10T21:00:00Z","geo":{"geometry":{"coordinates":[-85.983267146,12.917346747],"type":"Point"},"placekey":"@d5n-qk9-wrk","address":{"country_code":"NI","formatted_address":"Yaule Abajo, Matagalpa, Nicaragua","locality":"Matagalpa"}},"labels":["soccer","sport"],"duration":0,"start_local":"2024-04-10T15:00:00","end":"2024-04-10T21:00:00Z","end_local":"2024-04-10T15:00:00","updated":"2024-06-11T21:04:18Z"},{"title":"Primera Division - Clausura - Real Estelí vs Sport Sébaco","description":"Sourced from predicthq.com","category":"sports","start":"2024-04-10T01:00:00Z","geo":{"geometry":{"coordinates":[-86.3530422,13.0977412],"type":"Point"},"placekey":"@d5p-sxm-mc5","address":{"country_code":"NI","formatted_address":"Esteli, Estelí Department, Nicaragua","locality":"Esteli","region":"Estelí Department"}},"labels":["soccer","sport"],"duration":0,"start_local":"2024-04-09T19:00:00","end":"2024-04-10T01:00:00Z","end_local":"2024-04-09T19:00:00","updated":"2024-06-12T05:00:05Z"},{"title":"Friendlies Women - Friendlies 2 - Nicaragua vs Cuba","description":"Sourced from predicthq.com","category":"sports","start":"2024-04-10T01:00:00Z","geo":{"geometry":{"coordinates":[-86.2730491,12.1092043],"type":"Point"},"placekey":"@d5n-phq-ht9","address":{"country_code":"NI","formatted_address":"Pista de La Unan, Managua, Nicaragua","locality":"Managua","region":"Departamento de Managua"}},"labels":["soccer","sport"],"duration":0,"start_local":"2024-04-09T19:00:00","end":"2024-04-10T01:00:00Z","end_local":"2024-04-09T19:00:00","updated":"2024-06-12T14:00:19Z"},{"title":"Primera Division - Clausura - Municipal Jalapa vs Walter Ferretti","description":"Sourced from predicthq.com","category":"sports","start":"2024-04-07T21:00:00Z","geo":{"geometry":{"coordinates":[-86.12630009651184,13.925340820012282],"type":"Point"},"placekey":"@8hc-4cx-ty9","address":{"country_code":"NI","formatted_address":"WVGF+4FJ, Jalapa, Nicaragua","locality":"Jalapa","region":"Nueva Segovia"}},"labels":["soccer","sport"],"duration":0,"start_local":"2024-04-07T15:00:00","end":"2024-04-07T21:00:00Z","end_local":"2024-04-07T15:00:00","updated":"2024-06-12T02:05:03Z"},{"title":"Primera Division - Clausura - Matagalpa vs Diriangén","description":"Sourced from predicthq.com","category":"sports","start":"2024-04-07T21:00:00Z","geo":{"geometry":{"coordinates":[-85.983267146,12.917346747],"type":"Point"},"placekey":"@d5n-qk9-wrk","address":{"country_code":"NI","formatted_address":"Yaule Abajo, Matagalpa, Nicaragua","locality":"Matagalpa"}},"labels":["soccer","sport"],"duration":0,"start_local":"2024-04-07T15:00:00","end":"2024-04-07T21:00:00Z","end_local":"2024-04-07T15:00:00","updated":"2024-06-12T11:20:27Z"},{"title":"Primera Division - Clausura - Orgánica Masachapa vs UNAN Managua","description":"Sourced from predicthq.com","category":"sports","start":"2024-04-07T02:00:00Z","geo":{"geometry":{"coordinates":[-86.2730491,12.1092043],"type":"Point"},"placekey":"@d5n-phq-ht9","address":{"country_code":"NI","formatted_address":"Pista de La Unan, Managua, Nicaragua","locality":"Managua","region":"Departamento de Managua"}},"labels":["soccer","sport"],"duration":0,"start_local":"2024-04-06T20:00:00","end":"2024-04-07T02:00:00Z","end_local":"2024-04-06T20:00:00","updated":"2024-06-12T08:39:56Z"},{"title":"Carlos Rivera","description":"Sourced from predicthq.com","category":"concerts","start":"2024-04-07T02:00:00Z","geo":{"geometry":{"coordinates":[-86.2751111,12.1533778],"type":"Point"},"placekey":"@d5n-phw-brk","address":{"country_code":"NI","formatted_address":"Managua, Managua Department, Nicaragua","locality":"Managua","region":"Managua Department"}},"labels":["concert","music"],"duration":0,"start_local":"2024-04-06T20:00:00","end":"2024-04-07T02:00:00Z","end_local":"2024-04-06T20:00:00","updated":"2024-06-26T20:53:47Z"},{"title":"Primera Division - Clausura - Deportivo Ocotal vs Real Estelí","description":"Sourced from predicthq.com","category":"sports","start":"2024-04-07T01:00:00Z","geo":{"geometry":{"coordinates":[-86.46868125826644,13.625249534493014],"type":"Point"},"placekey":"@d5p-fn8-2hq","address":{"country_code":"NI","formatted_address":"JGGJ+3FH, Ocotal, Nicaragua","locality":"Ocotal","region":"Nueva Segovia"}},"labels":["soccer","sport"],"duration":0,"start_local":"2024-04-06T19:00:00","end":"2024-04-07T01:00:00Z","end_local":"2024-04-06T19:00:00","updated":"2024-06-11T23:19:31Z"}]