[{"title":"International Conference on IoT in Social, Mobile, Analytics and Cloud","description":"Sourced from predicthq.com","category":"conferences","start":"2024-10-03T03:15:00Z","geo":{"geometry":{"coordinates":[87.292359,26.792861],"type":"Point"},"placekey":"@7p6-ksn-jjv","address":{"country_code":"NP","formatted_address":"Dharan, 56700, Nepal","locality":"Dharan","postcode":"56700"}},"labels":["conference"],"duration":205200,"start_local":"2024-10-03T09:00:00","end":"2024-10-05T12:15:00Z","end_local":"2024-10-05T18:00:00","updated":"2024-06-01T09:35:23Z"},{"title":"Himalayan International Expo","description":"Sourced from predicthq.com","category":"expos","start":"2024-10-02T18:15:00Z","geo":{"geometry":{"coordinates":[85.3181999,27.700396],"type":"Point"},"placekey":"@7nx-gjm-s5z","address":{"country_code":"NP","formatted_address":"Pradarshani Marg, Kathmandu, Central Development Region 44600, Nepal","postcode":"44600","locality":"Kathmandu","region":"Central Development Region"}},"labels":["expo"],"duration":259199,"start_local":"2024-10-03T00:00:00","end":"2024-10-05T18:14:59Z","end_local":"2024-10-05T23:59:59","updated":"2024-07-02T17:04:57Z"},{"title":"Solukhumbu Trail","description":"Sourced from predicthq.com","category":"sports","start":"2024-09-30T18:15:00Z","geo":{"geometry":{"coordinates":[86.233333,27.633333],"type":"Point"},"placekey":"@7nx-cgb-zmk","address":{"country_code":"NP","formatted_address":"Jiri - Khadichaur Highway, Jiri, Bagmati Province 45503, Nepal","locality":"Jiri","postcode":"45503","region":"Bagmati Province"}},"labels":["outdoor-sports","running","sport"],"duration":86399,"start_local":"2024-10-01T00:00:00","end":"2024-10-01T18:14:59Z","end_local":"2024-10-01T23:59:59","updated":"2024-06-04T05:42:39Z"},{"title":"Kathmandu Marathon","description":"Sourced from predicthq.com","category":"sports","start":"2024-09-27T18:15:00Z","geo":{"geometry":{"coordinates":[85.3239605,27.7172453],"type":"Point"},"placekey":"@7nx-gjh-qvf","address":{"country_code":"NP","formatted_address":"Kathmandu, Bagmati Province 44600, Nepal","locality":"Kathmandu","postcode":"44600","region":"Bagmati Province"}},"labels":["marathon","outdoor-sports","running","sport"],"duration":86399,"start_local":"2024-09-28T00:00:00","end":"2024-09-28T18:14:59Z","end_local":"2024-09-28T23:59:59","updated":"2024-06-04T00:58:23Z"},{"title":"MELOW International Conference","description":"Sourced from predicthq.com","category":"conferences","start":"2024-09-27T03:15:00Z","geo":{"geometry":{"coordinates":[85.538637,27.619619],"type":"Point"},"placekey":"@7nx-bfn-wzf","address":{"country_code":"NP","formatted_address":"JG9Q+PGG, Dhulikhel 45200, Nepal","postcode":"45200","locality":"Dhulikhel","region":"Bagmati Province"}},"labels":["conference"],"duration":205200,"start_local":"2024-09-27T09:00:00","end":"2024-09-29T12:15:00Z","end_local":"2024-09-29T18:00:00","updated":"2024-05-31T23:16:46Z"},{"title":"International Red Panda Trail Race","description":"Sourced from predicthq.com","category":"sports","start":"2024-09-21T02:15:00Z","geo":{"geometry":{"coordinates":[85.333497,27.7232817],"type":"Point"},"placekey":"@7nx-gjh-yy9","address":{"country_code":"NP","formatted_address":"Dasarath Chand Marg, Kathmandu, Bagmati Province 44600, Nepal","locality":"Kathmandu","postcode":"44600","region":"Bagmati Province"}},"labels":["outdoor-sports","running","sport"],"duration":0,"start_local":"2024-09-21T08:00:00","end":"2024-09-21T02:15:00Z","end_local":"2024-09-21T08:00:00","updated":"2024-07-01T08:06:02Z"},{"title":"Foodtech Asia","description":"Sourced from predicthq.com","category":"expos","start":"2024-09-18T18:15:00Z","geo":{"geometry":{"coordinates":[85.406999,27.672841],"type":"Point"},"placekey":"@7nx-g4j-s89","address":{"country_code":"NP","formatted_address":"MCF4+9R, Bhaktapur 44800, Nepal","postcode":"44800","locality":"Bhaktapur","region":"Bagmati Province"}},"labels":["expo"],"duration":259199,"start_local":"2024-09-19T00:00:00","end":"2024-09-21T18:14:59Z","end_local":"2024-09-21T23:59:59","updated":"2024-06-01T20:05:27Z"},{"title":"Asia Pacific Travel Health Society Conference","description":"Sourced from predicthq.com","category":"conferences","start":"2024-09-18T03:15:00Z","geo":{"geometry":{"coordinates":[85.320001,27.71162],"type":"Point"},"placekey":"@7nx-gjj-2tv","address":{"country_code":"NP","formatted_address":"Durbar Marg, Kathmandu 44600, Nepal","postcode":"44600","locality":"Kathmandu","region":"Bagmati Province"}},"labels":["conference"],"duration":291600,"start_local":"2024-09-18T09:00:00","end":"2024-09-21T12:15:00Z","end_local":"2024-09-21T18:00:00","updated":"2024-05-28T04:22:57Z"},{"title":"Food & Beverage And Hospitality","description":"Sourced from predicthq.com - Welcome to culinary journey at Nepal's very first Food & Beverage and Hospitality Exhibition, crafted exclusively for enthusiasts like you.","category":"conferences","start":"2024-09-12T16:15:00Z","geo":{"geometry":{"coordinates":[85.3192355,27.7020032],"type":"Point"},"placekey":"@7nx-gjm-sbk","address":{"country_code":"NP","formatted_address":"Pradarshani Marg, Kathmandu, Bagmati Province 44600, Nepal","locality":"Kathmandu","postcode":"44600","region":"Bagmati Province"}},"labels":["conference","food"],"duration":244800,"start_local":"2024-09-12T22:00:00","end":"2024-09-15T12:15:00Z","end_local":"2024-09-15T18:00:00","updated":"2024-06-16T04:20:23Z"},{"title":"Manaslu Circuit Fast Pack","description":"Sourced from predicthq.com","category":"sports","start":"2024-09-07T00:15:00Z","geo":{"geometry":{"coordinates":[84.6269824,27.9841839],"type":"Point"},"placekey":"@7ny-hqh-hyv","address":{"country_code":"NP","formatted_address":"Gorkha, Gandaki Province 34000, Nepal","locality":"Gorkha","postcode":"34000","region":"Gandaki Province"}},"labels":["outdoor-sports","running","sport"],"duration":0,"start_local":"2024-09-07T06:00:00","end":"2024-09-07T00:15:00Z","end_local":"2024-09-07T06:00:00","updated":"2024-06-04T07:15:58Z"},{"title":"Nepal Electric, Power and Lights International Expo","description":"Sourced from predicthq.com","category":"expos","start":"2024-09-05T18:15:00Z","geo":{"geometry":{"coordinates":[85.3181999,27.700396],"type":"Point"},"placekey":"@7nx-gjm-s5z","address":{"country_code":"NP","formatted_address":"Pradarshani Marg, Kathmandu, Central Development Region 44600, Nepal","postcode":"44600","locality":"Kathmandu","region":"Central Development Region"}},"labels":["expo"],"duration":259199,"start_local":"2024-09-06T00:00:00","end":"2024-09-08T18:14:59Z","end_local":"2024-09-08T23:59:59","updated":"2024-06-16T04:37:19Z"},{"title":"International Conference on Sustainable Water Management","description":"Sourced from predicthq.com","category":"conferences","start":"2024-08-01T03:15:00Z","geo":{"geometry":{"coordinates":[83.962244,28.205169],"type":"Point"},"placekey":"@7pf-5jq-nh5","address":{"country_code":"NP","formatted_address":"Pragati Marga, Pokhara 33700, Nepal","postcode":"33700","locality":"Pokhara","region":"Gandaki Province"}},"labels":["conference"],"duration":118800,"start_local":"2024-08-01T09:00:00","end":"2024-08-02T12:15:00Z","end_local":"2024-08-02T18:00:00","updated":"2024-07-04T00:11:40Z"},{"title":"World Conference on Science Engineering and Technology","description":"Sourced from predicthq.com","category":"conferences","start":"2024-07-26T03:15:00Z","geo":{"geometry":{"coordinates":[85.33352,27.68898],"type":"Point"},"placekey":"@7nx-jf7-9vf","address":{"country_code":"NP","formatted_address":"New Baneshwor Rd\nKathmandu 44600\nNepal","locality":"Kathmandu"}},"labels":["conference"],"duration":118800,"start_local":"2024-07-26T09:00:00","end":"2024-07-27T12:15:00Z","end_local":"2024-07-27T18:00:00","updated":"2024-06-30T07:15:32Z"},{"title":"Association of Nepali Physicists in America ANPA Conference","description":"Sourced from predicthq.com","category":"conferences","start":"2024-07-19T03:15:00Z","geo":{"geometry":{"coordinates":[85.286473,27.679404],"type":"Point"},"placekey":"@7nx-jdk-f75","address":{"country_code":"NP","formatted_address":"M7HP+RP9, Kirtipur 44600, Nepal","postcode":"44600","locality":"Kirtipur","region":"Bagmati Province"}},"labels":["conference"],"duration":205200,"start_local":"2024-07-19T09:00:00","end":"2024-07-21T12:15:00Z","end_local":"2024-07-21T18:00:00","updated":"2024-06-30T07:03:09Z"},{"title":"University of Wolverhampton Open Day!","description":"Sourced from predicthq.com - Join us at the University of Wolverhampton Open Day to explore exciting educational opportunities.","category":"expos","start":"2024-07-13T05:15:00Z","geo":{"geometry":{"coordinates":[85.3308103,27.6898848],"type":"Point"},"placekey":"@7nx-jf7-cdv","address":{"country_code":"NP","formatted_address":"Kathmandu, Bagmati Province 44600, Nepal","locality":"Kathmandu","postcode":"44600","region":"Bagmati Province"}},"labels":["education","expo","family"],"duration":7200,"start_local":"2024-07-13T11:00:00","end":"2024-07-13T07:15:00Z","end_local":"2024-07-13T13:00:00","updated":"2024-07-04T04:30:04Z"},{"title":"International Conference on Renewable, Environment and Agriculture","description":"Sourced from predicthq.com","category":"conferences","start":"2024-07-05T03:15:00Z","geo":{"geometry":{"coordinates":[85.33352,27.68898],"type":"Point"},"placekey":"@7nx-jf7-9vf","address":{"country_code":"NP","formatted_address":"New Baneshwor Rd\nKathmandu 44600\nNepal","locality":"Kathmandu"}},"labels":["conference"],"duration":32400,"start_local":"2024-07-05T09:00:00","end":"2024-07-05T12:15:00Z","end_local":"2024-07-05T18:00:00","updated":"2024-07-01T02:54:02Z"},{"title":"International Conference on Business Management, Humanities and Social Science","description":"Sourced from predicthq.com","category":"conferences","start":"2024-07-05T03:15:00Z","geo":{"geometry":{"coordinates":[85.33352,27.68898],"type":"Point"},"placekey":"@7nx-jf7-9vf","address":{"country_code":"NP","formatted_address":"New Baneshwor Rd\nKathmandu 44600\nNepal","locality":"Kathmandu"}},"labels":["conference"],"duration":32400,"start_local":"2024-07-05T09:00:00","end":"2024-07-05T12:15:00Z","end_local":"2024-07-05T18:00:00","updated":"2024-06-14T04:10:16Z"},{"title":"Asia CLE Conference","description":"Sourced from predicthq.com","category":"conferences","start":"2024-07-04T03:15:00Z","geo":{"geometry":{"coordinates":[85.315197,27.710413],"type":"Point"},"placekey":"@7nx-gjj-6p9","address":{"country_code":"NP","formatted_address":"Kanti Path, Kathmandu, Bagmati Province 44600, Nepal","locality":"Kathmandu","postcode":"44600","region":"Bagmati Province"}},"labels":["conference"],"duration":205200,"start_local":"2024-07-04T09:00:00","end":"2024-07-06T12:15:00Z","end_local":"2024-07-06T18:00:00","updated":"2024-05-31T23:17:07Z"},{"title":"International Conference on Cell and Tissue Science","description":"Sourced from predicthq.com","category":"conferences","start":"2024-07-01T03:15:00Z","geo":{"geometry":{"coordinates":[83.962244,28.205169],"type":"Point"},"placekey":"@7pf-5jq-nh5","address":{"country_code":"NP","formatted_address":"Pragati Marga, Pokhara 33700, Nepal","postcode":"33700","locality":"Pokhara","region":"Gandaki Province"}},"labels":["conference"],"duration":118800,"start_local":"2024-07-01T09:00:00","end":"2024-07-02T12:15:00Z","end_local":"2024-07-02T18:00:00","updated":"2024-06-14T07:12:07Z"},{"title":"International Conference on Sustainable Water Management","description":"Sourced from predicthq.com","category":"conferences","start":"2024-07-01T03:15:00Z","geo":{"geometry":{"coordinates":[83.962244,28.205169],"type":"Point"},"placekey":"@7pf-5jq-nh5","address":{"country_code":"NP","formatted_address":"Pragati Marga, Pokhara 33700, Nepal","postcode":"33700","locality":"Pokhara","region":"Gandaki Province"}},"labels":["conference"],"duration":118800,"start_local":"2024-07-01T09:00:00","end":"2024-07-02T12:15:00Z","end_local":"2024-07-02T18:00:00","updated":"2024-06-16T00:34:28Z"},{"title":"International Conference on Nano Science and Nanotechnology","description":"Sourced from predicthq.com","category":"conferences","start":"2024-07-01T03:15:00Z","geo":{"geometry":{"coordinates":[83.962244,28.205169],"type":"Point"},"placekey":"@7pf-5jq-nh5","address":{"country_code":"NP","formatted_address":"Pragati Marga, Pokhara 33700, Nepal","postcode":"33700","locality":"Pokhara","region":"Gandaki Province"}},"labels":["conference"],"duration":118800,"start_local":"2024-07-01T09:00:00","end":"2024-07-02T12:15:00Z","end_local":"2024-07-02T18:00:00","updated":"2024-06-16T00:59:38Z"},{"title":"UK Education Expo | AHZ Baneshwor Office, Kathmandu!","description":"Sourced from predicthq.com - Learn about world-class universities in the UK and meet their representatives. Get all the answers to your questions about courses, scholars","category":"expos","start":"2024-06-28T04:15:00Z","geo":{"geometry":{"coordinates":[85.3308103,27.6898848],"type":"Point"},"placekey":"@7nx-jf7-cdv","address":{"country_code":"NP","formatted_address":"Kathmandu, Bagmati Province 44600, Nepal","locality":"Kathmandu","postcode":"44600","region":"Bagmati Province"}},"labels":["education","expo","family"],"duration":25200,"start_local":"2024-06-28T10:00:00","end":"2024-06-28T11:15:00Z","end_local":"2024-06-28T17:00:00","updated":"2024-06-16T00:30:07Z"},{"title":"Nepal Kids and Mothers Expo","description":"Sourced from predicthq.com","category":"expos","start":"2024-06-28T03:15:00Z","geo":{"geometry":{"coordinates":[85.3181999,27.700396],"type":"Point"},"placekey":"@7nx-gjm-s5z","address":{"country_code":"NP","formatted_address":"Pradarshani Marg, Kathmandu, Central Development Region 44600, Nepal","postcode":"44600","locality":"Kathmandu","region":"Central Development Region"}},"labels":["expo"],"duration":205200,"start_local":"2024-06-28T09:00:00","end":"2024-06-30T12:15:00Z","end_local":"2024-06-30T18:00:00","updated":"2024-06-03T20:25:45Z"},{"title":"UK Admission Day","description":"Sourced from predicthq.com - Come join us at UK Admission Day to learn about studying in the UK, meet university representatives, and get all your questions answered!","category":"festivals","start":"2024-06-23T03:15:00Z","geo":{"geometry":{"coordinates":[85.3420486,27.6915196],"type":"Point"},"placekey":"@7nx-jf7-dn5","address":{"country_code":"NP","formatted_address":"Kathmandu, Bagmati Province 44600, Nepal","locality":"Kathmandu","postcode":"44600","region":"Bagmati Province"}},"labels":["festival"],"duration":28800,"start_local":"2024-06-23T09:00:00","end":"2024-06-23T11:15:00Z","end_local":"2024-06-23T17:00:00","updated":"2024-06-22T05:34:17Z"},{"title":"World Conference on Science Engineering and Technology","description":"Sourced from predicthq.com","category":"conferences","start":"2024-06-15T03:15:00Z","geo":{"geometry":{"coordinates":[85.33352,27.68898],"type":"Point"},"placekey":"@7nx-jf7-9vf","address":{"country_code":"NP","formatted_address":"New Baneshwor Rd\nKathmandu 44600\nNepal","locality":"Kathmandu"}},"labels":["conference"],"duration":118800,"start_local":"2024-06-15T09:00:00","end":"2024-06-16T12:15:00Z","end_local":"2024-06-16T18:00:00","updated":"2024-05-28T02:47:52Z"},{"title":"UK Universities Application Day at AHZ Kathmandu Office!","description":"Sourced from predicthq.com - The UK Universities Application Day, organized by AHZ, will take place at our Kathmandu Office on June 14 from 10 am to 5 pm.","category":"expos","start":"2024-06-14T04:15:00Z","geo":{"geometry":{"coordinates":[85.322515,27.704372],"type":"Point"},"placekey":"@7nx-gjn-kzz","address":{"country_code":"NP","formatted_address":"Ramshah Path, Kathmandu 44600, Nepal","postcode":"44600","locality":"Kathmandu","region":"Bagmati Province"}},"labels":["business","expo"],"duration":25200,"start_local":"2024-06-14T10:00:00","end":"2024-06-14T11:15:00Z","end_local":"2024-06-14T17:00:00","updated":"2024-06-06T04:30:26Z"},{"title":"UK Universities Application Day at AHZ Pokhara Office!","description":"Sourced from predicthq.com - The UK Universities Application Day, organized by AHZ, will take place at our Pokhara Office on June 14 from 10 am to 5 pm. Get ready!","category":"expos","start":"2024-06-14T04:15:00Z","geo":{"geometry":{"coordinates":[83.9864061,28.2238491],"type":"Point"},"placekey":"@7pf-5jm-3kf","address":{"country_code":"NP","formatted_address":"Pokhara, Gandaki Province 33700, Nepal","locality":"Pokhara","postcode":"33700","region":"Gandaki Province"}},"labels":["business","expo"],"duration":25200,"start_local":"2024-06-14T10:00:00","end":"2024-06-14T11:15:00Z","end_local":"2024-06-14T17:00:00","updated":"2024-06-06T03:25:22Z"},{"title":"UK Universities Application Day at AHZ Butwal Office!","description":"Sourced from predicthq.com - The UK Universities Application Day, organised by AHZ, will take place at our Butwal Office on June 14 from 10 am to 5 pm. Get ready !","category":"expos","start":"2024-06-14T04:15:00Z","geo":{"geometry":{"coordinates":[83.46368830000002,27.6895723],"type":"Point"},"placekey":"@7pd-yr9-vj9","address":{"country_code":"NP","formatted_address":"Butwal, Lumbini Province 32907, Nepal","locality":"Butwal","postcode":"32907","region":"Lumbini Province"}},"labels":["business","expo"],"duration":21600,"start_local":"2024-06-14T10:00:00","end":"2024-06-14T10:15:00Z","end_local":"2024-06-14T16:00:00","updated":"2024-06-06T02:06:52Z"},{"title":"Pre-departure briefing and celebration event - Kathmandu, Nepal","description":"Sourced from predicthq.com - Getting Ready for Session 2, 2024 at Macquarie University","category":"conferences","start":"2024-06-13T05:15:00Z","geo":{"geometry":{"coordinates":[85.3241506,27.7129614],"type":"Point"},"placekey":"@7nx-gjj-3bk","address":{"country_code":"NP","formatted_address":"Manakamana Marg, Kathmandu 44600, Nepal","postcode":"44600","locality":"Kathmandu","region":"Central Development Region"}},"labels":["conference","education","family"],"duration":7200,"start_local":"2024-06-13T11:00:00","end":"2024-06-13T07:15:00Z","end_local":"2024-06-13T13:00:00","updated":"2024-06-06T03:25:22Z"},{"title":"International Conference on Automation Control, Algorithm and Intelligent Bionics","description":"Sourced from predicthq.com","category":"conferences","start":"2024-06-11T03:15:00Z","geo":{"geometry":{"coordinates":[85.318832,27.666756],"type":"Point"},"placekey":"@7nx-jf5-mhq","address":{"country_code":"NP","formatted_address":"Dakshinkali Street, Lalitpur, Bagmati Province 44700, Nepal","locality":"Lalitpur","postcode":"44700","region":"Bagmati Province"}},"labels":["conference"],"duration":205200,"start_local":"2024-06-11T09:00:00","end":"2024-06-13T12:15:00Z","end_local":"2024-06-13T18:00:00","updated":"2024-07-02T10:39:13Z"},{"title":"Indo-Global Multidisciplinary Conference","description":"Sourced from predicthq.com","category":"conferences","start":"2024-06-10T03:15:00Z","geo":{"geometry":{"coordinates":[85.325773,27.711476],"type":"Point"},"placekey":"@7nx-gjj-cqz","address":{"country_code":"NP","formatted_address":"कमलपोखरी मार्ग, Kathmandu, Bagmati Province 44600, Nepal","locality":"Kathmandu","postcode":"44600","region":"Bagmati Province"}},"labels":["conference"],"duration":205200,"start_local":"2024-06-10T09:00:00","end":"2024-06-12T12:15:00Z","end_local":"2024-06-12T18:00:00","updated":"2024-07-02T04:16:36Z"},{"title":"International Conference on Renewable, Environment and Agriculture","description":"Sourced from predicthq.com","category":"conferences","start":"2024-06-05T03:15:00Z","geo":{"geometry":{"coordinates":[85.33352,27.68898],"type":"Point"},"placekey":"@7nx-jf7-9vf","address":{"country_code":"NP","formatted_address":"New Baneshwor Rd\nKathmandu 44600\nNepal","locality":"Kathmandu"}},"labels":["conference"],"duration":118800,"start_local":"2024-06-05T09:00:00","end":"2024-06-06T12:15:00Z","end_local":"2024-06-06T18:00:00","updated":"2024-05-21T21:26:52Z"},{"title":"International Conference on Business Management, Humanities and Social Science","description":"Sourced from predicthq.com","category":"conferences","start":"2024-06-05T03:15:00Z","geo":{"geometry":{"coordinates":[85.33352,27.68898],"type":"Point"},"placekey":"@7nx-jf7-9vf","address":{"country_code":"NP","formatted_address":"New Baneshwor Rd\nKathmandu 44600\nNepal","locality":"Kathmandu"}},"labels":["conference"],"duration":118800,"start_local":"2024-06-05T09:00:00","end":"2024-06-06T12:15:00Z","end_local":"2024-06-06T18:00:00","updated":"2024-05-27T23:51:24Z"},{"title":"Annapurna Marathon","description":"Sourced from predicthq.com","category":"sports","start":"2024-06-02T18:15:00Z","geo":{"geometry":{"coordinates":[83.8260884,28.4632789],"type":"Point"},"placekey":"@7pd-gjm-mp9","address":{"country_code":"NP","formatted_address":"Ghandruk, Gandaki Province 33700, Nepal","locality":"Ghandruk","postcode":"33700","region":"Gandaki Province"}},"labels":["marathon","outdoor-sports","running","sport"],"duration":86399,"start_local":"2024-06-03T00:00:00","end":"2024-06-03T18:14:59Z","end_local":"2024-06-03T23:59:59","updated":"2024-06-04T05:39:13Z"},{"title":"International Conference on Nano Science and Nanotechnology","description":"Sourced from predicthq.com","category":"conferences","start":"2024-06-01T03:15:00Z","geo":{"geometry":{"coordinates":[83.962244,28.205169],"type":"Point"},"placekey":"@7pf-5jq-nh5","address":{"country_code":"NP","formatted_address":"Pragati Marga, Pokhara 33700, Nepal","postcode":"33700","locality":"Pokhara","region":"Gandaki Province"}},"labels":["conference"],"duration":118800,"start_local":"2024-06-01T09:00:00","end":"2024-06-02T12:15:00Z","end_local":"2024-06-02T18:00:00","updated":"2024-05-31T23:02:50Z"},{"title":"International Conference on Cell and Tissue Science","description":"Sourced from predicthq.com","category":"conferences","start":"2024-06-01T03:15:00Z","geo":{"geometry":{"coordinates":[83.962244,28.205169],"type":"Point"},"placekey":"@7pf-5jq-nh5","address":{"country_code":"NP","formatted_address":"Pragati Marga, Pokhara 33700, Nepal","postcode":"33700","locality":"Pokhara","region":"Gandaki Province"}},"labels":["conference"],"duration":118800,"start_local":"2024-06-01T09:00:00","end":"2024-06-02T12:15:00Z","end_local":"2024-06-02T18:00:00","updated":"2024-05-31T23:07:53Z"},{"title":"International Conference on Sustainable Water Management","description":"Sourced from predicthq.com","category":"conferences","start":"2024-06-01T03:15:00Z","geo":{"geometry":{"coordinates":[83.962244,28.205169],"type":"Point"},"placekey":"@7pf-5jq-nh5","address":{"country_code":"NP","formatted_address":"Pragati Marga, Pokhara 33700, Nepal","postcode":"33700","locality":"Pokhara","region":"Gandaki Province"}},"labels":["conference"],"duration":118800,"start_local":"2024-06-01T09:00:00","end":"2024-06-02T12:15:00Z","end_local":"2024-06-02T18:00:00","updated":"2024-05-31T23:20:09Z"},{"title":"UK Universities Admission Day| AHZ Kathmandu Office","description":"Sourced from predicthq.com - Join us at AHZ Kathmandu Office for UK Universities Admission Day where you can get all the information you need to study in the UK!","category":"expos","start":"2024-05-31T05:15:00Z","geo":{"geometry":{"coordinates":[85.32150759999999,27.6980128],"type":"Point"},"placekey":"@7nx-gjm-pjv","address":{"country_code":"NP","formatted_address":"Kathmandu, Bagmati Province 44600, Nepal","locality":"Kathmandu","postcode":"44600","region":"Bagmati Province"}},"labels":["education","expo","family"],"duration":14400,"start_local":"2024-05-31T11:00:00","end":"2024-05-31T09:15:00Z","end_local":"2024-05-31T15:00:00","updated":"2024-05-23T02:45:20Z"},{"title":"International Conference on Sentiment Analysis and Deep Learning","description":"Sourced from predicthq.com","category":"conferences","start":"2024-05-30T03:15:00Z","geo":{"geometry":{"coordinates":[80.177711,28.955548],"type":"Point"},"placekey":"@7t5-9cp-2p9","address":{"country_code":"NP","formatted_address":"Hospital Link, Bhimdatta, Sudurpashchim Province 10400, Nepal","locality":"Bhimdatta","postcode":"10400","region":"Sudurpashchim Province"}},"labels":["conference"],"duration":118800,"start_local":"2024-05-30T09:00:00","end":"2024-05-31T12:15:00Z","end_local":"2024-05-31T18:00:00","updated":"2024-05-28T03:10:52Z"},{"title":"IDP’s UK Admission Day | 27th April 2024 | Kathmandu","description":"Sourced from predicthq.com - Hey guys, come join us on 27th April 2024 in Kathmandu for IDP's UK Admission Day - your chance to kickstart your UK study journey!","category":"expos","start":"2024-05-27T05:15:00Z","geo":{"geometry":{"coordinates":[85.3222487,27.70984469999999],"type":"Point"},"placekey":"@7nx-gjj-4sq","address":{"country_code":"NP","formatted_address":"Hattisar Road, काठमाडौँ, बागमती प्रदेश 44600, Nepal","locality":"काठमाडौँ","postcode":"44600","region":"बागमती प्रदेश"}},"labels":["expo"],"duration":18000,"start_local":"2024-05-27T11:00:00","end":"2024-05-27T10:15:00Z","end_local":"2024-05-27T16:00:00","updated":"2024-06-05T02:50:15Z"},{"title":"Fishtail 100 - Ultra","description":"Sourced from predicthq.com","category":"sports","start":"2024-05-17T23:45:00Z","geo":{"geometry":{"coordinates":[83.9855674,28.2095831],"type":"Point"},"placekey":"@7pf-5jp-pqf","address":{"country_code":"NP","formatted_address":"Phewa Marga, Pokhara, Gandaki Province 33700, Nepal","locality":"Pokhara","postcode":"33700","region":"Gandaki Province"}},"labels":["outdoor-sports","running","sport"],"duration":0,"start_local":"2024-05-18T05:30:00","end":"2024-05-17T23:45:00Z","end_local":"2024-05-18T05:30:00","updated":"2024-06-05T00:45:03Z"},{"title":"Kantipur Half Marathon","description":"Sourced from predicthq.com","category":"sports","start":"2024-05-17T18:15:00Z","geo":{"geometry":{"coordinates":[84.4054477,27.4214549],"type":"Point"},"placekey":"@7p4-rd6-xwk","address":{"country_code":"NP","formatted_address":"Madi, Bagmati Province 44200, Nepal","locality":"Madi","postcode":"44200","region":"Bagmati Province"}},"labels":["marathon","outdoor-sports","running","sport"],"duration":86399,"start_local":"2024-05-18T00:00:00","end":"2024-05-18T18:14:59Z","end_local":"2024-05-18T23:59:59","updated":"2024-06-05T00:43:58Z"},{"title":"ADEX","description":"Sourced from predicthq.com","category":"expos","start":"2024-05-15T18:15:00Z","geo":{"geometry":{"coordinates":[85.3181999,27.700396],"type":"Point"},"placekey":"@7nx-gjm-s5z","address":{"country_code":"NP","formatted_address":"Pradarshani Marg, Kathmandu, Central Development Region 44600, Nepal","postcode":"44600","locality":"Kathmandu","region":"Central Development Region"}},"labels":["expo"],"duration":259199,"start_local":"2024-05-16T00:00:00","end":"2024-05-18T18:14:59Z","end_local":"2024-05-18T23:59:59","updated":"2024-06-05T13:29:29Z"},{"title":"Nepal Esports Expo","description":"Sourced from predicthq.com","category":"expos","start":"2024-05-15T18:15:00Z","geo":{"geometry":{"coordinates":[85.3181999,27.700396],"type":"Point"},"placekey":"@7nx-gjm-s5z","address":{"country_code":"NP","formatted_address":"Pradarshani Marg, Kathmandu, Central Development Region 44600, Nepal","postcode":"44600","locality":"Kathmandu","region":"Central Development Region"}},"labels":["expo"],"duration":259199,"start_local":"2024-05-16T00:00:00","end":"2024-05-18T18:14:59Z","end_local":"2024-05-18T23:59:59","updated":"2024-06-05T02:13:17Z"},{"title":"MICE Nepal Expo","description":"Sourced from predicthq.com","category":"expos","start":"2024-05-15T18:15:00Z","geo":{"geometry":{"coordinates":[85.3181999,27.700396],"type":"Point"},"placekey":"@7nx-gjm-s5z","address":{"country_code":"NP","formatted_address":"Pradarshani Marg, Kathmandu, Central Development Region 44600, Nepal","postcode":"44600","locality":"Kathmandu","region":"Central Development Region"}},"labels":["expo"],"duration":259199,"start_local":"2024-05-16T00:00:00","end":"2024-05-18T18:14:59Z","end_local":"2024-05-18T23:59:59","updated":"2024-06-05T00:47:15Z"},{"title":"EU-Nepal Business Forum","description":"Sourced from predicthq.com","category":"conferences","start":"2024-05-15T03:15:00Z","geo":{"geometry":{"coordinates":[85.291091,27.700717],"type":"Point"},"placekey":"@7nx-gjm-249","address":{"country_code":"NP","formatted_address":"Tahachal Marg, Kathmandu, Central Development Region 00000, Nepal","postcode":"00000","locality":"Kathmandu","region":"Central Development Region"}},"labels":["conference"],"duration":118800,"start_local":"2024-05-15T09:00:00","end":"2024-05-16T12:15:00Z","end_local":"2024-05-16T18:00:00","updated":"2024-05-27T17:58:20Z"},{"title":"Himalayan Xtri","description":"Sourced from predicthq.com","category":"sports","start":"2024-05-10T22:15:00Z","geo":{"geometry":{"coordinates":[83.9453168,28.2153837],"type":"Point"},"placekey":"@7pf-5jj-hyv","address":{"country_code":"NP","formatted_address":"Pokhara, Gandaki Province, Nepal","locality":"Pokhara","region":"Gandaki Province"}},"labels":["outdoor-sports","running","sport"],"duration":0,"start_local":"2024-05-11T04:00:00","end":"2024-05-10T22:15:00Z","end_local":"2024-05-11T04:00:00","updated":"2024-06-05T05:35:27Z"},{"title":"Upper Mustang Tiji Festival Tour 2024","description":"Sourced from predicthq.com - Tiji festival is one of the amazing cultural experience dating back to thousands of years. It is a battle between evil spirit and angels.","category":"festivals","start":"2024-05-05T06:45:00Z","geo":{"geometry":{"coordinates":[83.8685072,29.2080456],"type":"Point"},"placekey":"@7pd-jfn-jgk","address":{"country_code":"NP","formatted_address":"Lo Manthang, Gandaki Province 33100, Nepal","locality":"Lo Manthang","postcode":"33100","region":"Gandaki Province"}},"labels":["festival","religion"],"duration":190800,"start_local":"2024-05-05T12:30:00","end":"2024-05-07T11:45:00Z","end_local":"2024-05-07T17:30:00","updated":"2024-06-05T06:45:08Z"},{"title":"International Conference on Business Management, Humanities and Social Science","description":"Sourced from predicthq.com","category":"conferences","start":"2024-05-05T03:15:00Z","geo":{"geometry":{"coordinates":[85.33352,27.68898],"type":"Point"},"placekey":"@7nx-jf7-9vf","address":{"country_code":"NP","formatted_address":"New Baneshwor Rd\nKathmandu 44600\nNepal","locality":"Kathmandu"}},"labels":["conference"],"duration":118800,"start_local":"2024-05-05T09:00:00","end":"2024-05-06T12:15:00Z","end_local":"2024-05-06T18:00:00","updated":"2024-06-05T11:39:06Z"},{"title":"International Conference on Renewable, Environment and Agriculture","description":"Sourced from predicthq.com","category":"conferences","start":"2024-05-05T03:15:00Z","geo":{"geometry":{"coordinates":[85.33352,27.68898],"type":"Point"},"placekey":"@7nx-jf7-9vf","address":{"country_code":"NP","formatted_address":"New Baneshwor Rd\nKathmandu 44600\nNepal","locality":"Kathmandu"}},"labels":["conference"],"duration":118800,"start_local":"2024-05-05T09:00:00","end":"2024-05-06T12:15:00Z","end_local":"2024-05-06T18:00:00","updated":"2024-06-04T21:49:59Z"},{"title":"Nepal vs West Indies A","description":"Sourced from predicthq.com","category":"sports","start":"2024-05-04T06:30:00Z","geo":{"geometry":{"coordinates":[85.290278,27.678056],"type":"Point"},"placekey":"@7nx-jdk-kvf","address":{"country_code":"NP","formatted_address":"Kathmandu, Nepal","locality":"Kathmandu"}},"labels":["cricket","sport"],"duration":25854,"start_local":"2024-05-04T12:15:00","end":"2024-05-04T13:40:54Z","end_local":"2024-05-04T19:25:54","updated":"2024-05-24T05:24:54Z"},{"title":"Nepal vs West Indies A","description":"Sourced from predicthq.com","category":"sports","start":"2024-05-02T06:30:00Z","geo":{"geometry":{"coordinates":[85.290278,27.678056],"type":"Point"},"placekey":"@7nx-jdk-kvf","address":{"country_code":"NP","formatted_address":"Kathmandu, Nepal","locality":"Kathmandu"}},"labels":["cricket","sport"],"duration":24986,"start_local":"2024-05-02T12:15:00","end":"2024-05-02T13:26:26Z","end_local":"2024-05-02T19:11:26","updated":"2024-05-24T05:24:54Z"},{"title":"Nepal vs West Indies A","description":"Sourced from predicthq.com","category":"sports","start":"2024-05-01T06:30:00Z","geo":{"geometry":{"coordinates":[85.290278,27.678056],"type":"Point"},"placekey":"@7nx-jdk-kvf","address":{"country_code":"NP","formatted_address":"Kathmandu, Nepal","locality":"Kathmandu"}},"labels":["cricket","sport"],"duration":86818,"start_local":"2024-05-01T12:15:00","end":"2024-05-02T06:36:58Z","end_local":"2024-05-02T12:21:58","updated":"2024-05-24T05:40:37Z"},{"title":"International Conference on Cell and Tissue Science","description":"Sourced from predicthq.com","category":"conferences","start":"2024-05-01T03:15:00Z","geo":{"geometry":{"coordinates":[83.962244,28.205169],"type":"Point"},"placekey":"@7pf-5jq-nh5","address":{"country_code":"NP","formatted_address":"Pragati Marga, Pokhara 33700, Nepal","postcode":"33700","locality":"Pokhara","region":"Gandaki Province"}},"labels":["conference"],"duration":118800,"start_local":"2024-05-01T09:00:00","end":"2024-05-02T12:15:00Z","end_local":"2024-05-02T18:00:00","updated":"2024-05-31T23:29:40Z"},{"title":"International Conference on Nano Science and Nanotechnology","description":"Sourced from predicthq.com","category":"conferences","start":"2024-05-01T03:15:00Z","geo":{"geometry":{"coordinates":[83.962244,28.205169],"type":"Point"},"placekey":"@7pf-5jq-nh5","address":{"country_code":"NP","formatted_address":"Pragati Marga, Pokhara 33700, Nepal","postcode":"33700","locality":"Pokhara","region":"Gandaki Province"}},"labels":["conference"],"duration":118800,"start_local":"2024-05-01T09:00:00","end":"2024-05-02T12:15:00Z","end_local":"2024-05-02T18:00:00","updated":"2024-05-31T23:03:43Z"},{"title":"International Conference on Sustainable Water Management","description":"Sourced from predicthq.com","category":"conferences","start":"2024-05-01T03:15:00Z","geo":{"geometry":{"coordinates":[83.962244,28.205169],"type":"Point"},"placekey":"@7pf-5jq-nh5","address":{"country_code":"NP","formatted_address":"Pragati Marga, Pokhara 33700, Nepal","postcode":"33700","locality":"Pokhara","region":"Gandaki Province"}},"labels":["conference"],"duration":118800,"start_local":"2024-05-01T09:00:00","end":"2024-05-02T12:15:00Z","end_local":"2024-05-02T18:00:00","updated":"2024-05-31T23:05:57Z"},{"title":"Nepal vs West Indies A","description":"Sourced from predicthq.com","category":"sports","start":"2024-04-28T06:30:00Z","geo":{"geometry":{"coordinates":[85.290278,27.678056],"type":"Point"},"placekey":"@7nx-jdk-kvf","address":{"country_code":"NP","formatted_address":"Kathmandu, Nepal","locality":"Kathmandu"}},"labels":["cricket","sport"],"duration":19988,"start_local":"2024-04-28T12:15:00","end":"2024-04-28T12:03:08Z","end_local":"2024-04-28T17:48:08","updated":"2024-05-24T05:41:35Z"},{"title":"Nepal vs West Indies A","description":"Sourced from predicthq.com","category":"sports","start":"2024-04-27T07:15:00Z","geo":{"geometry":{"coordinates":[85.290278,27.678056],"type":"Point"},"placekey":"@7nx-jdk-kvf","address":{"country_code":"NP","formatted_address":"Kathmandu, Nepal","locality":"Kathmandu"}},"labels":["cricket","sport"],"duration":14947,"start_local":"2024-04-27T13:00:00","end":"2024-04-27T11:24:07Z","end_local":"2024-04-27T17:09:07","updated":"2024-05-24T05:40:52Z"},{"title":"Building disaster resilient societies: Assessing the effectiveness of assistance","description":"Sourced from predicthq.com - Let's dive into how well we're helping communities bounce back from floods and earthquakes to build disaster-resilience in Nepal.","category":"conferences","start":"2024-04-26T03:45:00Z","geo":{"geometry":{"coordinates":[85.3184948,27.6810911],"type":"Point"},"placekey":"@7nx-jf5-y7q","address":{"country_code":"NP","formatted_address":"Lalitpur, Bagmati Province 44600, Nepal","locality":"Lalitpur","postcode":"44600","region":"Bagmati Province"}},"labels":["conference","fundraiser"],"duration":16200,"start_local":"2024-04-26T09:30:00","end":"2024-04-26T08:15:00Z","end_local":"2024-04-26T14:00:00","updated":"2024-06-04T22:13:38Z"},{"title":"Himal Race","description":"Sourced from predicthq.com","category":"sports","start":"2024-04-24T18:15:00Z","geo":{"geometry":{"coordinates":[83.9066219,28.6890347],"type":"Point"},"placekey":"@7pd-dpg-qcq","address":{"country_code":"NP","formatted_address":"Khangsar, Gandaki Province, Nepal","locality":"Khangsar","region":"Gandaki Province"}},"labels":["outdoor-sports","running","sport"],"duration":86399,"start_local":"2024-04-25T00:00:00","end":"2024-04-25T18:14:59Z","end_local":"2024-04-25T23:59:59","updated":"2024-06-04T22:09:13Z"},{"title":"International Conference on Inventive Computation Technologies","description":"Sourced from predicthq.com","category":"conferences","start":"2024-04-24T03:15:00Z","geo":{"geometry":{"coordinates":[85.319223,27.684288],"type":"Point"},"placekey":"@7nx-jf5-wx5","address":{"country_code":"NP","formatted_address":"Kathmandu, Nepal, Central Development Region 44700, Nepal","postcode":"44700","locality":"Kathmandu, Nepal","region":"Central Development Region"}},"labels":["conference"],"duration":205200,"start_local":"2024-04-24T09:00:00","end":"2024-04-26T12:15:00Z","end_local":"2024-04-26T18:00:00","updated":"2024-05-25T10:06:29Z"},{"title":"University of Bedfordshire Open Day","description":"Sourced from predicthq.com","category":"expos","start":"2024-04-23T18:15:00Z","geo":{"geometry":{"coordinates":[85.322515,27.704372],"type":"Point"},"placekey":"@7nx-gjn-kzz","address":{"country_code":"NP","formatted_address":"Ramshah Path, Kathmandu 44600, Nepal","postcode":"44600","locality":"Kathmandu","region":"Bagmati Province"}},"labels":["expo"],"duration":86399,"start_local":"2024-04-24T00:00:00","end":"2024-04-24T18:14:59Z","end_local":"2024-04-24T23:59:59","updated":"2024-05-31T23:55:33Z"},{"title":"International Conference on Bioscience and Biotechnology","description":"Sourced from predicthq.com","category":"conferences","start":"2024-04-21T03:15:00Z","geo":{"geometry":{"coordinates":[85.352704,27.608811],"type":"Point"},"placekey":"@7nx-jc7-qmk","address":{"country_code":"NP","formatted_address":"Godawari, Bagmati Province, Nepal","locality":"Godawari","region":"Bagmati Province"}},"labels":["conference"],"duration":291600,"start_local":"2024-04-21T09:00:00","end":"2024-04-24T12:15:00Z","end_local":"2024-04-24T18:00:00","updated":"2024-05-27T22:10:10Z"},{"title":"IDP’s Australia Admission Day | 20th April 2024 | Kathmandu","description":"Sourced from predicthq.com - Join us for a day dedicated to helping you secure admission to Australian universities through IDP on 20th April 2024 in Kathmandu!","category":"expos","start":"2024-04-20T05:15:00Z","geo":{"geometry":{"coordinates":[85.3222487,27.70984469999999],"type":"Point"},"placekey":"@7nx-gjj-4sq","address":{"country_code":"NP","formatted_address":"Hattisar Road, काठमाडौँ, बागमती प्रदेश 44600, Nepal","locality":"काठमाडौँ","postcode":"44600","region":"बागमती प्रदेश"}},"labels":["expo","outdoor"],"duration":18000,"start_local":"2024-04-20T11:00:00","end":"2024-04-20T10:15:00Z","end_local":"2024-04-20T16:00:00","updated":"2024-06-05T00:20:22Z"},{"title":"World Conference on Science Engineering and Technology","description":"Sourced from predicthq.com","category":"conferences","start":"2024-04-13T03:15:00Z","geo":{"geometry":{"coordinates":[85.33352,27.68898],"type":"Point"},"placekey":"@7nx-jf7-9vf","address":{"country_code":"NP","formatted_address":"New Baneshwor Rd\nKathmandu 44600\nNepal","locality":"Kathmandu"}},"labels":["conference"],"duration":118800,"start_local":"2024-04-13T09:00:00","end":"2024-04-14T12:15:00Z","end_local":"2024-04-14T18:00:00","updated":"2024-06-05T00:26:09Z"},{"title":"Jumla Rara Ultra Marathon","description":"Sourced from predicthq.com","category":"sports","start":"2024-04-12T18:15:00Z","geo":{"geometry":{"coordinates":[82.12784,29.2787765],"type":"Point"},"placekey":"@7pf-9cf-p9z","address":{"country_code":"NP","formatted_address":"Chandannath, Karnali Province 21200, Nepal","locality":"Chandannath","postcode":"21200","region":"Karnali Province"}},"labels":["marathon","outdoor-sports","running","sport"],"duration":86399,"start_local":"2024-04-13T00:00:00","end":"2024-04-13T18:14:59Z","end_local":"2024-04-13T23:59:59","updated":"2024-06-05T05:34:20Z"},{"title":"International Conference on Business Management and Social Science","description":"Sourced from predicthq.com","category":"conferences","start":"2024-04-10T03:15:00Z","geo":{"geometry":{"coordinates":[85.33352,27.68898],"type":"Point"},"placekey":"@7nx-jf7-9vf","address":{"country_code":"NP","formatted_address":"New Baneshwor Rd\nKathmandu 44600\nNepal","locality":"Kathmandu"}},"labels":["conference"],"duration":32400,"start_local":"2024-04-10T09:00:00","end":"2024-04-10T12:15:00Z","end_local":"2024-04-10T18:00:00","updated":"2024-06-05T07:43:39Z"},{"title":"International Conference on Environmental, Food, Agriculture and Bio-Technology","description":"Sourced from predicthq.com","category":"conferences","start":"2024-04-10T03:15:00Z","geo":{"geometry":{"coordinates":[85.33352,27.68898],"type":"Point"},"placekey":"@7nx-jf7-9vf","address":{"country_code":"NP","formatted_address":"New Baneshwor Rd\nKathmandu 44600\nNepal","locality":"Kathmandu"}},"labels":["conference"],"duration":32400,"start_local":"2024-04-10T09:00:00","end":"2024-04-10T12:15:00Z","end_local":"2024-04-10T18:00:00","updated":"2024-06-05T03:51:27Z"},{"title":"UK Universities Admission Day - AHZ Kathmandu Office","description":"Sourced from predicthq.com - Come to our UK Universities Admission Day at AHZ Kathmandu Office to get all the info you need for studying in the UK!","category":"expos","start":"2024-04-09T10:15:00Z","geo":{"geometry":{"coordinates":[85.322515,27.704372],"type":"Point"},"placekey":"@7nx-gjn-kzz","address":{"country_code":"NP","formatted_address":"Ramshah Path, Kathmandu 44600, Nepal","postcode":"44600","locality":"Kathmandu","region":"Bagmati Province"}},"labels":["expo"],"duration":5400,"start_local":"2024-04-09T16:00:00","end":"2024-04-09T11:45:00Z","end_local":"2024-04-09T17:30:00","updated":"2024-05-31T23:55:33Z"},{"title":"Nepal Tattoo Convention","description":"Sourced from predicthq.com","category":"conferences","start":"2024-04-05T03:15:00Z","geo":{"geometry":{"coordinates":[85.306165,27.680618],"type":"Point"},"placekey":"@7nx-jf5-sdv","address":{"country_code":"NP","formatted_address":"Lalitpur, Bagmati Province 44600, Nepal","locality":"Lalitpur","postcode":"44600","region":"Bagmati Province"}},"labels":["conference"],"duration":205200,"start_local":"2024-04-05T09:00:00","end":"2024-04-07T12:15:00Z","end_local":"2024-04-07T18:00:00","updated":"2024-05-27T17:50:12Z"}]