[{"title":"AAPG International Conference & Exhibition","description":"Sourced from predicthq.com","category":"expos","start":"2024-09-30T05:00:00Z","geo":{"geometry":{"coordinates":[58.3241268,23.5681653],"type":"Point"},"placekey":"@8c4-x3r-4d9","address":{"country_code":"OM","formatted_address":"Muscat, Oman","locality":"Muscat","region":"Muscat Governorate"}},"labels":["expo"],"duration":205200,"start_local":"2024-09-30T09:00:00","end":"2024-10-02T14:00:00Z","end_local":"2024-10-02T18:00:00","updated":"2024-06-04T04:28:34Z"},{"title":"The Global Currency Forum","description":"Sourced from predicthq.com","category":"conferences","start":"2024-09-30T05:00:00Z","geo":{"geometry":{"coordinates":[58.659868,23.551418],"type":"Point"},"placekey":"@8c4-wnv-389","address":{"country_code":"OM","formatted_address":"100 Al Jissah St, Muscat 100, Oman","postcode":"100","locality":"Muscat","region":"Muscat Governorate"}},"labels":["conference"],"duration":291600,"start_local":"2024-09-30T09:00:00","end":"2024-10-03T14:00:00Z","end_local":"2024-10-03T18:00:00","updated":"2024-06-30T09:32:20Z"},{"title":"Food & Hospitality Oman","description":"Sourced from predicthq.com","category":"expos","start":"2024-09-22T20:00:00Z","geo":{"geometry":{"coordinates":[58.3241268,23.5681653],"type":"Point"},"placekey":"@8c4-x3r-4d9","address":{"country_code":"OM","formatted_address":"Muscat, Oman","locality":"Muscat","region":"Muscat Governorate"}},"labels":["expo"],"duration":259199,"start_local":"2024-09-23T00:00:00","end":"2024-09-25T19:59:59Z","end_local":"2024-09-25T23:59:59","updated":"2024-06-04T09:40:35Z"},{"title":"Oman Health Exhibition & Conference","description":"Sourced from predicthq.com","category":"expos","start":"2024-09-22T20:00:00Z","geo":{"geometry":{"coordinates":[58.3241268,23.5681653],"type":"Point"},"placekey":"@8c4-x3r-4d9","address":{"country_code":"OM","formatted_address":"Muscat, Oman","locality":"Muscat","region":"Muscat Governorate"}},"labels":["expo"],"duration":259199,"start_local":"2024-09-23T00:00:00","end":"2024-09-25T19:59:59Z","end_local":"2024-09-25T23:59:59","updated":"2024-05-31T23:10:26Z"},{"title":"Future Tech Event","description":"Sourced from predicthq.com","category":"expos","start":"2024-09-22T20:00:00Z","geo":{"geometry":{"coordinates":[58.3241268,23.5681653],"type":"Point"},"placekey":"@8c4-x3r-4d9","address":{"country_code":"OM","formatted_address":"Muscat, Oman","locality":"Muscat","region":"Muscat Governorate"}},"labels":["expo"],"duration":172799,"start_local":"2024-09-23T00:00:00","end":"2024-09-24T19:59:59Z","end_local":"2024-09-24T23:59:59","updated":"2024-06-30T07:14:46Z"},{"title":"Cyberx Oman Summit","description":"Sourced from predicthq.com","category":"conferences","start":"2024-09-16T20:00:00Z","geo":{"geometry":{"coordinates":[58.359515,23.587921],"type":"Point"},"placekey":"@8c4-wzd-dd9","address":{"country_code":"OM","formatted_address":"Muscat, Muscat Governorate, Oman","locality":"Muscat","region":"Muscat Governorate"}},"labels":["conference"],"duration":86399,"start_local":"2024-09-17T00:00:00","end":"2024-09-17T19:59:59Z","end_local":"2024-09-17T23:59:59","updated":"2024-06-30T09:30:24Z"},{"title":"International Conference on Business Management and Social Innovation","description":"Sourced from predicthq.com","category":"conferences","start":"2024-09-13T05:00:00Z","geo":{"geometry":{"coordinates":[58.4834,23.6285],"type":"Point"},"placekey":"@8c4-w9g-psq","address":{"country_code":"OM","formatted_address":"112, Muscat, Muscat Governorate, Oman","postcode":"112","locality":"Muscat","region":"Muscat Governorate"}},"labels":["conference"],"duration":205200,"start_local":"2024-09-13T09:00:00","end":"2024-09-15T14:00:00Z","end_local":"2024-09-15T18:00:00","updated":"2024-06-04T08:11:15Z"},{"title":"International Conference on Management and Information Technology","description":"Sourced from predicthq.com","category":"conferences","start":"2024-09-12T05:00:00Z","geo":{"geometry":{"coordinates":[58.564404,23.578373],"type":"Point"},"placekey":"@8c4-wkq-fxq","address":{"country_code":"OM","formatted_address":"Near Indian School, Al Wada Al Kabir St, Muscat 117, Oman","postcode":"117","locality":"Muscat","region":"Muscat Governorate"}},"labels":["conference"],"duration":118800,"start_local":"2024-09-12T09:00:00","end":"2024-09-13T14:00:00Z","end_local":"2024-09-13T18:00:00","updated":"2024-06-30T09:51:31Z"},{"title":"International Conference on Recent Advances in Medical and Health Sciences","description":"Sourced from predicthq.com","category":"conferences","start":"2024-09-12T05:00:00Z","geo":{"geometry":{"coordinates":[58.564404,23.578373],"type":"Point"},"placekey":"@8c4-wkq-fxq","address":{"country_code":"OM","formatted_address":"Near Indian School, Al Wada Al Kabir St, Muscat 117, Oman","postcode":"117","locality":"Muscat","region":"Muscat Governorate"}},"labels":["conference"],"duration":118800,"start_local":"2024-09-12T09:00:00","end":"2024-09-13T14:00:00Z","end_local":"2024-09-13T18:00:00","updated":"2024-07-01T01:50:10Z"},{"title":"IFN Oman Forum","description":"Sourced from predicthq.com","category":"conferences","start":"2024-09-09T05:00:00Z","geo":{"geometry":{"coordinates":[58.444508,23.608341],"type":"Point"},"placekey":"@8c4-wzp-cqz","address":{"country_code":"OM","formatted_address":"133 Al Shati St, Muscat, Oman","locality":"Muscat","region":"Muscat Governorate"}},"labels":["conference"],"duration":32400,"start_local":"2024-09-09T09:00:00","end":"2024-09-09T14:00:00Z","end_local":"2024-09-09T18:00:00","updated":"2024-06-30T10:34:30Z"},{"title":"International Conference on Soil, Plant and Water Science","description":"Sourced from predicthq.com","category":"conferences","start":"2024-08-01T05:00:00Z","geo":{"geometry":{"coordinates":[54.302784,17.031383],"type":"Point"},"placekey":"@c7q-jjx-c5z","address":{"country_code":"OM","formatted_address":"28J3+H4 Salalah, Oman","locality":"Salalah","region":"Dhofar Governorate"}},"labels":["conference"],"duration":118800,"start_local":"2024-08-01T09:00:00","end":"2024-08-02T14:00:00Z","end_local":"2024-08-02T18:00:00","updated":"2024-07-03T19:31:21Z"},{"title":"Apply for U.S. Green Card. $800K EB-5 Investment – Muscat, Oman","description":"Sourced from predicthq.com - Get all the details on how to apply for a U.S. Green Card through an $800K EB-5 Investment at our in-person event in Muscat on July 28, 2024","category":"conferences","start":"2024-07-28T06:30:00Z","geo":{"geometry":{"coordinates":[58.3282465,23.5693146],"type":"Point"},"placekey":"@8c4-x25-kfz","address":{"country_code":"OM","formatted_address":"Muscat, Muscat Governorate, Oman","locality":"Muscat","region":"Muscat Governorate"}},"labels":["business","conference"],"duration":27000,"start_local":"2024-07-28T10:30:00","end":"2024-07-28T14:00:00Z","end_local":"2024-07-28T18:00:00","updated":"2024-06-30T07:14:36Z"},{"title":"International Conference on Finance, Bank & Economics","description":"Sourced from predicthq.com","category":"conferences","start":"2024-07-22T05:00:00Z","geo":{"geometry":{"coordinates":[58.4834,23.6285],"type":"Point"},"placekey":"@8c4-w9g-psq","address":{"country_code":"OM","formatted_address":"112, Muscat, Muscat Governorate, Oman","postcode":"112","locality":"Muscat","region":"Muscat Governorate"}},"labels":["conference"],"duration":291600,"start_local":"2024-07-22T09:00:00","end":"2024-07-25T14:00:00Z","end_local":"2024-07-25T18:00:00","updated":"2024-06-16T02:13:03Z"},{"title":"RICS in Oman: \"AI in Construction: Risk or Opportunity?\"","description":"Sourced from predicthq.com","category":"expos","start":"2024-07-09T20:00:00Z","geo":{"geometry":{"coordinates":[58.43356,23.596052],"type":"Point"},"placekey":"@8c4-wzk-t35","address":{"country_code":"OM","formatted_address":"Muscat, Muscat Governorate, Oman","locality":"Muscat","region":"Muscat Governorate"}},"labels":["expo"],"duration":86399,"start_local":"2024-07-10T00:00:00","end":"2024-07-10T19:59:59Z","end_local":"2024-07-10T23:59:59","updated":"2024-06-30T06:01:08Z"},{"title":"International Conference on Cell and Tissue Science","description":"Sourced from predicthq.com","category":"conferences","start":"2024-07-01T05:00:00Z","geo":{"geometry":{"coordinates":[56.712429,24.41072],"type":"Point"},"placekey":"@8cf-csq-fxq","address":{"country_code":"OM","formatted_address":"Beach front of Al-Zafaran Falaj al Qabail, Sohar 322, Oman","postcode":"322","locality":"Sohar"}},"labels":["conference"],"duration":118800,"start_local":"2024-07-01T09:00:00","end":"2024-07-02T14:00:00Z","end_local":"2024-07-02T18:00:00","updated":"2024-06-04T14:15:32Z"},{"title":"International Conference on Sustainable Water Management","description":"Sourced from predicthq.com","category":"conferences","start":"2024-07-01T05:00:00Z","geo":{"geometry":{"coordinates":[56.712429,24.41072],"type":"Point"},"placekey":"@8cf-csq-fxq","address":{"country_code":"OM","formatted_address":"Beach front of Al-Zafaran Falaj al Qabail, Sohar 322, Oman","postcode":"322","locality":"Sohar"}},"labels":["conference"],"duration":118800,"start_local":"2024-07-01T09:00:00","end":"2024-07-02T14:00:00Z","end_local":"2024-07-02T18:00:00","updated":"2024-06-14T02:36:48Z"},{"title":"International Conference on Sustainable Water Management","description":"Sourced from predicthq.com","category":"conferences","start":"2024-07-01T05:00:00Z","geo":{"geometry":{"coordinates":[54.302784,17.031383],"type":"Point"},"placekey":"@c7q-jjx-c5z","address":{"country_code":"OM","formatted_address":"28J3+H4 Salalah, Oman","locality":"Salalah","region":"Dhofar Governorate"}},"labels":["conference"],"duration":118800,"start_local":"2024-07-01T09:00:00","end":"2024-07-02T14:00:00Z","end_local":"2024-07-02T18:00:00","updated":"2024-07-01T02:10:58Z"},{"title":"International Conference on Soil, Plant and Water Science","description":"Sourced from predicthq.com","category":"conferences","start":"2024-07-01T05:00:00Z","geo":{"geometry":{"coordinates":[54.302784,17.031383],"type":"Point"},"placekey":"@c7q-jjx-c5z","address":{"country_code":"OM","formatted_address":"28J3+H4 Salalah, Oman","locality":"Salalah","region":"Dhofar Governorate"}},"labels":["conference"],"duration":118800,"start_local":"2024-07-01T09:00:00","end":"2024-07-02T14:00:00Z","end_local":"2024-07-02T18:00:00","updated":"2024-07-01T03:44:32Z"},{"title":"International Conference on Nano Science and Nanotechnology","description":"Sourced from predicthq.com","category":"conferences","start":"2024-07-01T05:00:00Z","geo":{"geometry":{"coordinates":[54.302784,17.031383],"type":"Point"},"placekey":"@c7q-jjx-c5z","address":{"country_code":"OM","formatted_address":"28J3+H4 Salalah, Oman","locality":"Salalah","region":"Dhofar Governorate"}},"labels":["conference"],"duration":118800,"start_local":"2024-07-01T09:00:00","end":"2024-07-02T14:00:00Z","end_local":"2024-07-02T18:00:00","updated":"2024-06-04T14:14:36Z"},{"title":"International Conference on Cell and Tissue Science","description":"Sourced from predicthq.com","category":"conferences","start":"2024-07-01T05:00:00Z","geo":{"geometry":{"coordinates":[54.302784,17.031383],"type":"Point"},"placekey":"@c7q-jjx-c5z","address":{"country_code":"OM","formatted_address":"28J3+H4 Salalah, Oman","locality":"Salalah","region":"Dhofar Governorate"}},"labels":["conference"],"duration":118800,"start_local":"2024-07-01T09:00:00","end":"2024-07-02T14:00:00Z","end_local":"2024-07-02T18:00:00","updated":"2024-06-04T17:01:06Z"},{"title":"World Congress on Industrial Biotechnology","description":"Sourced from predicthq.com","category":"conferences","start":"2024-07-01T05:00:00Z","geo":{"geometry":{"coordinates":[54.302784,17.031383],"type":"Point"},"placekey":"@c7q-jjx-c5z","address":{"country_code":"OM","formatted_address":"28J3+H4 Salalah, Oman","locality":"Salalah","region":"Dhofar Governorate"}},"labels":["conference"],"duration":118800,"start_local":"2024-07-01T09:00:00","end":"2024-07-02T14:00:00Z","end_local":"2024-07-02T18:00:00","updated":"2024-06-04T14:45:29Z"},{"title":"International Conference on Nano Science and Nanotechnology","description":"Sourced from predicthq.com","category":"conferences","start":"2024-07-01T05:00:00Z","geo":{"geometry":{"coordinates":[56.712429,24.41072],"type":"Point"},"placekey":"@8cf-csq-fxq","address":{"country_code":"OM","formatted_address":"Beach front of Al-Zafaran Falaj al Qabail, Sohar 322, Oman","postcode":"322","locality":"Sohar"}},"labels":["conference"],"duration":118800,"start_local":"2024-07-01T09:00:00","end":"2024-07-02T14:00:00Z","end_local":"2024-07-02T18:00:00","updated":"2024-06-04T14:15:22Z"},{"title":"KLINIKUM+| HealthTech for the Tech-Savvy Doctor?","description":"Sourced from predicthq.com - Prepare to be inspired, informed, and equipped with the knowledge and tools to embrace the future of healthcare, happy healing!","category":"conferences","start":"2024-06-27T06:00:00Z","geo":{"geometry":{"coordinates":[58.30610679999999,23.5713067],"type":"Point"},"placekey":"@8c4-x3r-kxq","address":{"country_code":"OM","formatted_address":"Muscat, Muscat Governorate, Oman","locality":"Muscat","region":"Muscat Governorate"}},"labels":["conference","science","technology"],"duration":7200,"start_local":"2024-06-27T10:00:00","end":"2024-06-27T08:00:00Z","end_local":"2024-06-27T12:00:00","updated":"2024-06-04T01:43:12Z"},{"title":"AFC World Cup Qualifiers - 2nd Round - Oman vs Kyrgyz Republic","description":"Sourced from predicthq.com","category":"sports","start":"2024-06-11T16:00:00Z","geo":{"geometry":{"coordinates":[58.39950329999999,23.5731503],"type":"Point"},"placekey":"@8c4-x2k-9cq","address":{"country_code":"OM","formatted_address":"Muscat, Oman","locality":"Muscat","region":"Muscat Governorate"}},"labels":["soccer","sport"],"duration":17487,"start_local":"2024-06-11T20:00:00","end":"2024-06-11T20:51:27Z","end_local":"2024-06-12T00:51:27","updated":"2024-06-12T03:35:12Z"},{"title":"Investment Funds: Introduction and practical guidance for Oman","description":"Sourced from predicthq.com - The seminar will discuss fund structures and why these are used along with practical guidance on how funds are set-up and managed in Oman.","category":"conferences","start":"2024-06-05T05:00:00Z","geo":{"geometry":{"coordinates":[58.3093143,23.5793669],"type":"Point"},"placekey":"@8c4-x3r-7kf","address":{"country_code":"OM","formatted_address":"99 Street, Muscat, Muscat Governorate, Oman","locality":"Muscat","region":"Muscat Governorate"}},"labels":["business","conference"],"duration":7200,"start_local":"2024-06-05T09:00:00","end":"2024-06-05T07:00:00Z","end_local":"2024-06-05T11:00:00","updated":"2024-05-30T01:56:41Z"},{"title":"HORECA Oman","description":"Sourced from predicthq.com","category":"expos","start":"2024-06-04T07:00:00Z","geo":{"geometry":{"coordinates":[58.3241268,23.5681653],"type":"Point"},"placekey":"@8c4-x3r-4d9","address":{"country_code":"OM","formatted_address":"Muscat, Oman","locality":"Muscat","region":"Muscat Governorate"}},"labels":["expo"],"duration":201600,"start_local":"2024-06-04T11:00:00","end":"2024-06-06T15:00:00Z","end_local":"2024-06-06T19:00:00","updated":"2024-05-31T23:08:21Z"},{"title":"International Conference on Sustainable Water Management","description":"Sourced from predicthq.com","category":"conferences","start":"2024-06-01T05:00:00Z","geo":{"geometry":{"coordinates":[56.712429,24.41072],"type":"Point"},"placekey":"@8cf-csq-fxq","address":{"country_code":"OM","formatted_address":"Beach front of Al-Zafaran Falaj al Qabail, Sohar 322, Oman","postcode":"322","locality":"Sohar"}},"labels":["conference"],"duration":118800,"start_local":"2024-06-01T09:00:00","end":"2024-06-02T14:00:00Z","end_local":"2024-06-02T18:00:00","updated":"2024-06-01T11:47:32Z"},{"title":"International Conference on Nano Science and Nanotechnology","description":"Sourced from predicthq.com","category":"conferences","start":"2024-06-01T05:00:00Z","geo":{"geometry":{"coordinates":[54.302784,17.031383],"type":"Point"},"placekey":"@c7q-jjx-c5z","address":{"country_code":"OM","formatted_address":"28J3+H4 Salalah, Oman","locality":"Salalah","region":"Dhofar Governorate"}},"labels":["conference"],"duration":118800,"start_local":"2024-06-01T09:00:00","end":"2024-06-02T14:00:00Z","end_local":"2024-06-02T18:00:00","updated":"2024-05-31T22:59:55Z"},{"title":"International Conference on Cell and Tissue Science","description":"Sourced from predicthq.com","category":"conferences","start":"2024-06-01T05:00:00Z","geo":{"geometry":{"coordinates":[56.712429,24.41072],"type":"Point"},"placekey":"@8cf-csq-fxq","address":{"country_code":"OM","formatted_address":"Beach front of Al-Zafaran Falaj al Qabail, Sohar 322, Oman","postcode":"322","locality":"Sohar"}},"labels":["conference"],"duration":118800,"start_local":"2024-06-01T09:00:00","end":"2024-06-02T14:00:00Z","end_local":"2024-06-02T18:00:00","updated":"2024-06-01T11:47:32Z"},{"title":"International Conference on Nano Science and Nanotechnology","description":"Sourced from predicthq.com","category":"conferences","start":"2024-06-01T05:00:00Z","geo":{"geometry":{"coordinates":[56.712429,24.41072],"type":"Point"},"placekey":"@8cf-csq-fxq","address":{"country_code":"OM","formatted_address":"Beach front of Al-Zafaran Falaj al Qabail, Sohar 322, Oman","postcode":"322","locality":"Sohar"}},"labels":["conference"],"duration":118800,"start_local":"2024-06-01T09:00:00","end":"2024-06-02T14:00:00Z","end_local":"2024-06-02T18:00:00","updated":"2024-06-01T11:47:27Z"},{"title":"How the latest Aus Budget will impact the property market & investors","description":"Sourced from predicthq.com - Find out what's in store for investors in the coming year from the Federal & Vic Budgets (8pm SIN/KUL, 5:30pm IST)","category":"conferences","start":"2024-05-30T12:00:00Z","geo":{"geometry":{"coordinates":[58.3828717,23.5880307],"type":"Point"},"placekey":"@8c4-wz5-zmk","address":{"country_code":"OM","formatted_address":"Muscat, Muscat Governorate, Oman","locality":"Muscat","region":"Muscat Governorate"}},"labels":["business","conference"],"duration":2700,"start_local":"2024-05-30T16:00:00","end":"2024-05-30T12:45:00Z","end_local":"2024-05-30T16:45:00","updated":"2024-05-30T02:20:51Z"},{"title":"R/E Agents - partner with us to make upto $1m in Bonus with AU property","description":"Sourced from predicthq.com - Find out how partnering with the right Australian Property Developer can earn your business upto AU$1m in bonuses every year","category":"conferences","start":"2024-05-28T07:00:00Z","geo":{"geometry":{"coordinates":[58.3828717,23.5880307],"type":"Point"},"placekey":"@8c4-wz5-zmk","address":{"country_code":"OM","formatted_address":"Muscat, Muscat Governorate, Oman","locality":"Muscat","region":"Muscat Governorate"}},"labels":["business","conference"],"duration":2700,"start_local":"2024-05-28T11:00:00","end":"2024-05-28T07:45:00Z","end_local":"2024-05-28T11:45:00","updated":"2024-05-23T02:44:05Z"},{"title":"COMEX","description":"Sourced from predicthq.com - IT, Telecom & Technology Show","category":"expos","start":"2024-05-27T05:00:00Z","geo":{"geometry":{"coordinates":[58.3241268,23.5681653],"type":"Point"},"placekey":"@8c4-x3r-4d9","address":{"country_code":"OM","formatted_address":"Muscat, Oman","locality":"Muscat","region":"Muscat Governorate"}},"labels":["expo","technology"],"duration":302400,"start_local":"2024-05-27T09:00:00","end":"2024-05-30T17:00:00Z","end_local":"2024-05-30T21:00:00","updated":"2024-06-05T16:30:17Z"},{"title":"Professional League - Oman Club vs Sur","description":"Sourced from predicthq.com","category":"sports","start":"2024-05-24T15:25:00Z","geo":{"geometry":{"coordinates":[58.39950329999999,23.5731503],"type":"Point"},"placekey":"@8c4-x2k-9cq","address":{"country_code":"OM","formatted_address":"Muscat, Oman","locality":"Muscat","region":"Muscat Governorate"}},"labels":["soccer","sport"],"duration":0,"start_local":"2024-05-24T19:25:00","end":"2024-05-24T15:25:00Z","end_local":"2024-05-24T19:25:00","updated":"2024-06-12T00:04:40Z"},{"title":"Professional League - Al Seeb vs Al Shabab","description":"Sourced from predicthq.com","category":"sports","start":"2024-05-24T15:25:00Z","geo":{"geometry":{"coordinates":[58.2165374,23.618716],"type":"Point"},"placekey":"@8c4-vfj-zxq","address":{"country_code":"OM","formatted_address":"Al Barakat Street, Sib, Muscat Governorate, Oman","locality":"Sib","region":"Muscat Governorate"}},"labels":["soccer","sport"],"duration":0,"start_local":"2024-05-24T19:25:00","end":"2024-05-24T15:25:00Z","end_local":"2024-05-24T19:25:00","updated":"2024-06-12T11:36:58Z"},{"title":"Professional League - Sohar vs Al Nasr","description":"Sourced from predicthq.com","category":"sports","start":"2024-05-24T15:25:00Z","geo":{"geometry":{"coordinates":[56.7434311332,24.3347600522],"type":"Point"},"placekey":"@8cf-c5y-xdv","address":{"country_code":"OM","formatted_address":"8PMV+RH4, Sohar, Oman","locality":"Sohar","region":"Al Batinah North Governorate"}},"labels":["soccer","sport"],"duration":0,"start_local":"2024-05-24T19:25:00","end":"2024-05-24T15:25:00Z","end_local":"2024-05-24T19:25:00","updated":"2024-06-11T23:09:01Z"},{"title":"Professional League - Bahla vs Ibri","description":"Sourced from predicthq.com","category":"sports","start":"2024-05-24T15:25:00Z","geo":{"geometry":{"coordinates":[57.5897687,22.9047176],"type":"Point"},"placekey":"@8bz-wmb-fxq","address":{"country_code":"OM","formatted_address":"حي التراث, Ad Dakhiliyah ‍Governorate, Oman","locality":"حي التراث","region":"Ad Dakhiliyah ‍Governorate"}},"labels":["soccer","sport"],"duration":0,"start_local":"2024-05-24T19:25:00","end":"2024-05-24T15:25:00Z","end_local":"2024-05-24T19:25:00","updated":"2024-06-12T03:43:27Z"},{"title":"Professional League - Al Rustaq vs Al Wehda","description":"Sourced from predicthq.com","category":"sports","start":"2024-05-24T15:25:00Z","geo":{"geometry":{"coordinates":[57.479116129927206,23.5411717210642],"type":"Point"},"placekey":"@8c5-3qf-qfz","address":{"country_code":"OM","formatted_address":"Ash Shibika, Rustaq, Oman","locality":"Rustaq"}},"labels":["soccer","sport"],"duration":0,"start_local":"2024-05-24T19:25:00","end":"2024-05-24T15:25:00Z","end_local":"2024-05-24T19:25:00","updated":"2024-06-12T14:21:15Z"},{"title":"Professional League - Dhofar vs Al Nahda","description":"Sourced from predicthq.com","category":"sports","start":"2024-05-24T15:25:00Z","geo":{"geometry":{"coordinates":[54.1441612,17.08282],"type":"Point"},"placekey":"@c7q-p53-zfz","address":{"country_code":"OM","formatted_address":"Thumrayt St, Salalah, Oman","locality":"Salalah","region":"Dhofar Governorate"}},"labels":["soccer","sport"],"duration":0,"start_local":"2024-05-24T19:25:00","end":"2024-05-24T15:25:00Z","end_local":"2024-05-24T19:25:00","updated":"2024-06-12T07:13:10Z"},{"title":"Oman Bride Show","description":"Sourced from predicthq.com","category":"expos","start":"2024-05-22T20:00:00Z","geo":{"geometry":{"coordinates":[58.3018309,23.6141447],"type":"Point"},"placekey":"@8c4-x3x-3kf","address":{"country_code":"OM","formatted_address":"18th November St, Muscat, Oman","locality":"Muscat"}},"labels":["expo"],"duration":259199,"start_local":"2024-05-23T00:00:00","end":"2024-05-25T19:59:59Z","end_local":"2024-05-25T23:59:59","updated":"2024-06-05T12:02:58Z"},{"title":"Navigating International Taxation: OECD's Inclusive Framework on BEPS","description":"Sourced from predicthq.com - OECD's Inclusive Framework on BEPS Pillar 2 is here - what to do about it?","category":"conferences","start":"2024-05-21T04:45:00Z","geo":{"geometry":{"coordinates":[58.3093143,23.5793669],"type":"Point"},"placekey":"@8c4-x3r-7kf","address":{"country_code":"OM","formatted_address":"99 Street, Muscat, Muscat Governorate, Oman","locality":"Muscat","region":"Muscat Governorate"}},"labels":["business","conference"],"duration":8100,"start_local":"2024-05-21T08:45:00","end":"2024-05-21T07:00:00Z","end_local":"2024-05-21T11:00:00","updated":"2024-06-05T00:46:58Z"},{"title":"Professional League - Ibri vs Sohar","description":"Sourced from predicthq.com","category":"sports","start":"2024-05-19T15:15:00Z","geo":{"geometry":{"coordinates":[56.417938470840454,23.246413120866567],"type":"Point"},"placekey":"@8c2-zmv-xh5","address":{"country_code":"OM","formatted_address":"6CW9+XG, Ibri, Oman","locality":"Ibri","region":"Ad Dhahirah Governorate"}},"labels":["soccer","sport"],"duration":0,"start_local":"2024-05-19T19:15:00","end":"2024-05-19T15:15:00Z","end_local":"2024-05-19T19:15:00","updated":"2024-06-12T03:44:39Z"},{"title":"Professional League - Al Rustaq vs Dhofar","description":"Sourced from predicthq.com","category":"sports","start":"2024-05-19T15:15:00Z","geo":{"geometry":{"coordinates":[57.479116129927206,23.5411717210642],"type":"Point"},"placekey":"@8c5-3qf-qfz","address":{"country_code":"OM","formatted_address":"Ash Shibika, Rustaq, Oman","locality":"Rustaq"}},"labels":["soccer","sport"],"duration":0,"start_local":"2024-05-19T19:15:00","end":"2024-05-19T15:15:00Z","end_local":"2024-05-19T19:15:00","updated":"2024-06-12T03:00:41Z"},{"title":"Professional League - Al Shabab vs Bahla","description":"Sourced from predicthq.com","category":"sports","start":"2024-05-19T15:15:00Z","geo":{"geometry":{"coordinates":[58.39950329999999,23.5731503],"type":"Point"},"placekey":"@8c4-x2k-9cq","address":{"country_code":"OM","formatted_address":"Muscat, Oman","locality":"Muscat","region":"Muscat Governorate"}},"labels":["soccer","sport"],"duration":0,"start_local":"2024-05-19T19:15:00","end":"2024-05-19T15:15:00Z","end_local":"2024-05-19T19:15:00","updated":"2024-06-12T04:26:11Z"},{"title":"Professional League - Al Nasr vs Sur","description":"Sourced from predicthq.com","category":"sports","start":"2024-05-19T15:15:00Z","geo":{"geometry":{"coordinates":[54.1441612,17.08282],"type":"Point"},"placekey":"@c7q-p53-zfz","address":{"country_code":"OM","formatted_address":"Thumrayt St, Salalah, Oman","locality":"Salalah","region":"Dhofar Governorate"}},"labels":["soccer","sport"],"duration":0,"start_local":"2024-05-19T19:15:00","end":"2024-05-19T15:15:00Z","end_local":"2024-05-19T19:15:00","updated":"2024-06-12T01:01:15Z"},{"title":"Professional League - Al Seeb vs Al Nahda","description":"Sourced from predicthq.com","category":"sports","start":"2024-05-19T15:15:00Z","geo":{"geometry":{"coordinates":[58.2165374,23.618716],"type":"Point"},"placekey":"@8c4-vfj-zxq","address":{"country_code":"OM","formatted_address":"Al Barakat Street, Sib, Muscat Governorate, Oman","locality":"Sib","region":"Muscat Governorate"}},"labels":["soccer","sport"],"duration":0,"start_local":"2024-05-19T19:15:00","end":"2024-05-19T15:15:00Z","end_local":"2024-05-19T19:15:00","updated":"2024-06-12T12:21:33Z"},{"title":"Professional League - Al Wehda vs Oman Club","description":"Sourced from predicthq.com","category":"sports","start":"2024-05-19T15:15:00Z","geo":{"geometry":{"coordinates":[59.4729140742,22.5277952931],"type":"Point"},"placekey":"@8c4-gqn-cqz","address":{"country_code":"OM","formatted_address":"Sur Sports Complex, Sur, Oman","locality":"Sur","region":"Ash Sharqiyah South Governorate"}},"labels":["soccer","sport"],"duration":0,"start_local":"2024-05-19T19:15:00","end":"2024-05-19T15:15:00Z","end_local":"2024-05-19T19:15:00","updated":"2024-06-12T04:29:34Z"},{"title":"Digital Wellness","description":"Sourced from predicthq.com - Seminar about the Digital Wellness","category":"conferences","start":"2024-05-18T15:30:00Z","geo":{"geometry":{"coordinates":[58.54333299999996,23.600278],"type":"Point"},"placekey":"@8c4-wkk-dvz","address":{"country_code":"OM","formatted_address":"112, مسقط, محافظة مسقط, Oman","locality":"مسقط","postcode":"112","region":"محافظة مسقط"}},"labels":["conference","health"],"duration":3600,"start_local":"2024-05-18T19:30:00","end":"2024-05-18T16:30:00Z","end_local":"2024-05-18T20:30:00","updated":"2024-06-05T05:58:51Z"},{"title":"RACIC: Recent Advances in Computational Intelligence and Communications","description":"Sourced from predicthq.com","category":"conferences","start":"2024-05-16T05:00:00Z","geo":{"geometry":{"coordinates":[57.577928,23.743169],"type":"Point"},"placekey":"@8cf-bjs-mkz","address":{"country_code":"OM","formatted_address":"Muladdah, Al Batinah South Governorate, Oman","locality":"Muladdah","region":"Al Batinah South Governorate"}},"labels":["conference"],"duration":32400,"start_local":"2024-05-16T09:00:00","end":"2024-05-16T14:00:00Z","end_local":"2024-05-16T18:00:00","updated":"2024-05-28T01:19:51Z"},{"title":"Professional League - Oman Club vs Al Nahda","description":"Sourced from predicthq.com","category":"sports","start":"2024-05-15T14:00:00Z","geo":{"geometry":{"coordinates":[58.2165374,23.618716],"type":"Point"},"placekey":"@8c4-vfj-zxq","address":{"country_code":"OM","formatted_address":"Al Barakat Street, Sib, Muscat Governorate, Oman","locality":"Sib","region":"Muscat Governorate"}},"labels":["soccer","sport"],"duration":0,"start_local":"2024-05-15T18:00:00","end":"2024-05-15T14:00:00Z","end_local":"2024-05-15T18:00:00","updated":"2024-06-12T15:04:04Z"},{"title":"ACCESS MBA EVENT IN MUSCAT, 15 MAY","description":"Sourced from predicthq.com - The MBA degree is a truly transformational career and lifestyle experience. Are you ready?","category":"conferences","start":"2024-05-15T13:30:00Z","geo":{"geometry":{"coordinates":[58.4302244,23.5873008],"type":"Point"},"placekey":"@8c4-x2d-zxq","address":{"country_code":"OM","formatted_address":"Al Kuleiah Street, Muscat, Muscat Governorate, Oman","locality":"Muscat","region":"Muscat Governorate"}},"labels":["business","conference"],"duration":15300,"start_local":"2024-05-15T17:30:00","end":"2024-05-15T17:45:00Z","end_local":"2024-05-15T21:45:00","updated":"2024-06-05T00:45:06Z"},{"title":"How to save AND protect your money when buying an investment property","description":"Sourced from predicthq.com - Learn the right legalities to save  tens of thousands when buying and holding an Inv property in Australia (5:30pm IST, 7pm JKT, 8pm SIN/KL)","category":"conferences","start":"2024-05-14T12:00:00Z","geo":{"geometry":{"coordinates":[58.3828717,23.5880307],"type":"Point"},"placekey":"@8c4-wz5-zmk","address":{"country_code":"OM","formatted_address":"Muscat, Muscat Governorate, Oman","locality":"Muscat","region":"Muscat Governorate"}},"labels":["business","conference"],"duration":2700,"start_local":"2024-05-14T16:00:00","end":"2024-05-14T12:45:00Z","end_local":"2024-05-14T16:45:00","updated":"2024-06-05T00:30:42Z"},{"title":"International Conference on Innovative Engineering Sciences & Technological Research","description":"Sourced from predicthq.com","category":"conferences","start":"2024-05-14T05:00:00Z","geo":{"geometry":{"coordinates":[58.432846,23.580301],"type":"Point"},"placekey":"@8c4-x2d-8n5","address":{"country_code":"OM","formatted_address":"Al Khuwayral Al Janubyyah Street, Muscat, Muscat Governorate, Oman","locality":"Muscat","region":"Muscat Governorate"}},"labels":["conference"],"duration":118800,"start_local":"2024-05-14T09:00:00","end":"2024-05-15T14:00:00Z","end_local":"2024-05-15T18:00:00","updated":"2024-05-28T09:44:49Z"},{"title":"Raja Yoga Meditation Course - 5 days","description":"Sourced from predicthq.com - Meditation to experience inner peace and power, It gives concentration and Mental Peace.","category":"conferences","start":"2024-05-12T15:30:00Z","geo":{"geometry":{"coordinates":[58.4340332,23.5968007],"type":"Point"},"placekey":"@8c4-wzk-swk","address":{"country_code":"OM","formatted_address":"Al Khuwair Street, Muscat, Muscat Governorate, Oman","locality":"Muscat","region":"Muscat Governorate"}},"labels":["conference","health"],"duration":349200,"start_local":"2024-05-12T19:30:00","end":"2024-05-16T16:30:00Z","end_local":"2024-05-16T20:30:00","updated":"2024-06-05T02:37:40Z"},{"title":"District Toastmasters Annual Conference 2024 (DTAC 2024) of District 105, Region 11","description":"Sourced from predicthq.com","category":"conferences","start":"2024-05-10T04:30:00Z","geo":{"geometry":{"coordinates":[58.41283,23.59139],"type":"Point"},"placekey":"@8c4-x2m-7qz","address":{"country_code":"OM","formatted_address":"Muscat, Muscat Governorate, Oman","locality":"Muscat","region":"Muscat Governorate"}},"labels":["business","conference"],"duration":124200,"start_local":"2024-05-10T08:30:00","end":"2024-05-11T15:00:00Z","end_local":"2024-05-11T19:00:00","updated":"2024-06-05T10:31:38Z"},{"title":"Professional League - Sohar vs Al Shabab","description":"Sourced from predicthq.com","category":"sports","start":"2024-05-08T16:30:00Z","geo":{"geometry":{"coordinates":[56.7434311332,24.3347600522],"type":"Point"},"placekey":"@8cf-c5y-xdv","address":{"country_code":"OM","formatted_address":"8PMV+RH4, Sohar, Oman","locality":"Sohar","region":"Al Batinah North Governorate"}},"labels":["soccer","sport"],"duration":0,"start_local":"2024-05-08T20:30:00","end":"2024-05-08T16:30:00Z","end_local":"2024-05-08T20:30:00","updated":"2024-06-12T09:23:57Z"},{"title":"Professional League - Sur vs Ibri","description":"Sourced from predicthq.com","category":"sports","start":"2024-05-08T13:45:00Z","geo":{"geometry":{"coordinates":[59.4729140742,22.5277952931],"type":"Point"},"placekey":"@8c4-gqn-cqz","address":{"country_code":"OM","formatted_address":"Sur Sports Complex, Sur, Oman","locality":"Sur","region":"Ash Sharqiyah South Governorate"}},"labels":["soccer","sport"],"duration":0,"start_local":"2024-05-08T17:45:00","end":"2024-05-08T13:45:00Z","end_local":"2024-05-08T17:45:00","updated":"2024-06-11T23:26:12Z"},{"title":"Professional League - Bahla vs Al Seeb","description":"Sourced from predicthq.com","category":"sports","start":"2024-05-07T16:20:00Z","geo":{"geometry":{"coordinates":[57.5897687,22.9047176],"type":"Point"},"placekey":"@8bz-wmb-fxq","address":{"country_code":"OM","formatted_address":"حي التراث, Ad Dakhiliyah ‍Governorate, Oman","locality":"حي التراث","region":"Ad Dakhiliyah ‍Governorate"}},"labels":["soccer","sport"],"duration":0,"start_local":"2024-05-07T20:20:00","end":"2024-05-07T16:20:00Z","end_local":"2024-05-07T20:20:00","updated":"2024-06-11T21:22:44Z"},{"title":"Professional League - Al Nasr vs Al Wehda","description":"Sourced from predicthq.com","category":"sports","start":"2024-05-07T14:00:00Z","geo":{"geometry":{"coordinates":[54.1441612,17.08282],"type":"Point"},"placekey":"@c7q-p53-zfz","address":{"country_code":"OM","formatted_address":"Thumrayt St, Salalah, Oman","locality":"Salalah","region":"Dhofar Governorate"}},"labels":["soccer","sport"],"duration":0,"start_local":"2024-05-07T18:00:00","end":"2024-05-07T14:00:00Z","end_local":"2024-05-07T18:00:00","updated":"2024-06-12T15:38:39Z"},{"title":"Muscat Health Investment and Development Conference & Exhibition","description":"Sourced from predicthq.com","category":"expos","start":"2024-05-06T20:00:00Z","geo":{"geometry":{"coordinates":[58.3241268,23.5681653],"type":"Point"},"placekey":"@8c4-x3r-4d9","address":{"country_code":"OM","formatted_address":"Muscat, Oman","locality":"Muscat","region":"Muscat Governorate"}},"labels":["expo"],"duration":259199,"start_local":"2024-05-07T00:00:00","end":"2024-05-09T19:59:59Z","end_local":"2024-05-09T23:59:59","updated":"2024-06-05T07:44:28Z"},{"title":"Professional League - Al Nahda vs Al Rustaq","description":"Sourced from predicthq.com","category":"sports","start":"2024-05-05T14:05:00Z","geo":{"geometry":{"coordinates":[55.81183046569821,24.256118584820815],"type":"Point"},"placekey":"@8cg-f3w-cbk","address":{"country_code":"OM","formatted_address":"7R46+FP, Al Buraimi, Oman","locality":"Al Buraimi","region":"Al Buraymi Governorate"}},"labels":["soccer","sport"],"duration":0,"start_local":"2024-05-05T18:05:00","end":"2024-05-05T14:05:00Z","end_local":"2024-05-05T18:05:00","updated":"2024-06-12T13:49:00Z"},{"title":"Professional League - Oman Club vs Dhofar","description":"Sourced from predicthq.com","category":"sports","start":"2024-05-05T13:50:00Z","geo":{"geometry":{"coordinates":[58.2165374,23.618716],"type":"Point"},"placekey":"@8c4-vfj-zxq","address":{"country_code":"OM","formatted_address":"Al Barakat Street, Sib, Muscat Governorate, Oman","locality":"Sib","region":"Muscat Governorate"}},"labels":["soccer","sport"],"duration":0,"start_local":"2024-05-05T17:50:00","end":"2024-05-05T13:50:00Z","end_local":"2024-05-05T17:50:00","updated":"2024-06-12T18:00:34Z"},{"title":"Middle Eastern Alliance for Parenteral and Enteral Nutrition Congress","description":"Sourced from predicthq.com","category":"conferences","start":"2024-05-03T05:00:00Z","geo":{"geometry":{"coordinates":[58.272032,23.627423],"type":"Point"},"placekey":"@8c4-vfz-9pv","address":{"country_code":"OM","formatted_address":"335 Street 6, Muscat 138, Oman","postcode":"138","locality":"Muscat"}},"labels":["conference"],"duration":118800,"start_local":"2024-05-03T09:00:00","end":"2024-05-04T14:00:00Z","end_local":"2024-05-04T18:00:00","updated":"2024-06-30T11:55:39Z"},{"title":"Professional League - Sohar vs Al Nahda","description":"Sourced from predicthq.com","category":"sports","start":"2024-05-01T15:15:00Z","geo":{"geometry":{"coordinates":[56.7434311332,24.3347600522],"type":"Point"},"placekey":"@8cf-c5y-xdv","address":{"country_code":"OM","formatted_address":"8PMV+RH4, Sohar, Oman","locality":"Sohar","region":"Al Batinah North Governorate"}},"labels":["soccer","sport"],"duration":0,"start_local":"2024-05-01T19:15:00","end":"2024-05-01T15:15:00Z","end_local":"2024-05-01T19:15:00","updated":"2024-06-12T18:02:11Z"},{"title":"Wind Measurement & Analysis : Key To Successful Project Delivery","description":"Sourced from predicthq.com - CPD Event","category":"conferences","start":"2024-05-01T15:00:00Z","geo":{"geometry":{"coordinates":[58.483047,23.628633],"type":"Point"},"placekey":"@8c4-w9g-psq","address":{"country_code":"OM","formatted_address":"Muscat, Muscat Governorate, Oman","locality":"Muscat","region":"Muscat Governorate"}},"labels":["business","conference"],"duration":5400,"start_local":"2024-05-01T19:00:00","end":"2024-05-01T16:30:00Z","end_local":"2024-05-01T20:30:00","updated":"2024-06-04T22:30:22Z"},{"title":"International Conference on Soil, Plant and Water Science","description":"Sourced from predicthq.com","category":"conferences","start":"2024-05-01T05:00:00Z","geo":{"geometry":{"coordinates":[54.302784,17.031383],"type":"Point"},"placekey":"@c7q-jjx-c5z","address":{"country_code":"OM","formatted_address":"28J3+H4 Salalah, Oman","locality":"Salalah","region":"Dhofar Governorate"}},"labels":["conference"],"duration":118800,"start_local":"2024-05-01T09:00:00","end":"2024-05-02T14:00:00Z","end_local":"2024-05-02T18:00:00","updated":"2024-05-31T23:01:35Z"},{"title":"International Conference on Cell and Tissue Science","description":"Sourced from predicthq.com","category":"conferences","start":"2024-05-01T05:00:00Z","geo":{"geometry":{"coordinates":[56.712429,24.41072],"type":"Point"},"placekey":"@8cf-csq-fxq","address":{"country_code":"OM","formatted_address":"Beach front of Al-Zafaran Falaj al Qabail, Sohar 322, Oman","postcode":"322","locality":"Sohar"}},"labels":["conference"],"duration":118800,"start_local":"2024-05-01T09:00:00","end":"2024-05-02T14:00:00Z","end_local":"2024-05-02T18:00:00","updated":"2024-06-01T11:47:32Z"},{"title":"World Congress on Industrial Biotechnology","description":"Sourced from predicthq.com","category":"conferences","start":"2024-05-01T05:00:00Z","geo":{"geometry":{"coordinates":[54.302784,17.031383],"type":"Point"},"placekey":"@c7q-jjx-c5z","address":{"country_code":"OM","formatted_address":"28J3+H4 Salalah, Oman","locality":"Salalah","region":"Dhofar Governorate"}},"labels":["conference"],"duration":118800,"start_local":"2024-05-01T09:00:00","end":"2024-05-02T14:00:00Z","end_local":"2024-05-02T18:00:00","updated":"2024-05-31T23:22:20Z"},{"title":"International Conference on Nano Science and Nanotechnology","description":"Sourced from predicthq.com","category":"conferences","start":"2024-05-01T05:00:00Z","geo":{"geometry":{"coordinates":[56.712429,24.41072],"type":"Point"},"placekey":"@8cf-csq-fxq","address":{"country_code":"OM","formatted_address":"Beach front of Al-Zafaran Falaj al Qabail, Sohar 322, Oman","postcode":"322","locality":"Sohar"}},"labels":["conference"],"duration":118800,"start_local":"2024-05-01T09:00:00","end":"2024-05-02T14:00:00Z","end_local":"2024-05-02T18:00:00","updated":"2024-06-01T11:47:32Z"},{"title":"International Conference on Cell and Tissue Science","description":"Sourced from predicthq.com","category":"conferences","start":"2024-05-01T05:00:00Z","geo":{"geometry":{"coordinates":[54.302784,17.031383],"type":"Point"},"placekey":"@c7q-jjx-c5z","address":{"country_code":"OM","formatted_address":"28J3+H4 Salalah, Oman","locality":"Salalah","region":"Dhofar Governorate"}},"labels":["conference"],"duration":118800,"start_local":"2024-05-01T09:00:00","end":"2024-05-02T14:00:00Z","end_local":"2024-05-02T18:00:00","updated":"2024-05-31T22:52:30Z"},{"title":"ICWSAUD Conference","description":"Sourced from predicthq.com","category":"conferences","start":"2024-05-01T05:00:00Z","geo":{"geometry":{"coordinates":[54.1458476,17.0896277],"type":"Point"},"placekey":"@c7q-p53-fvf","address":{"country_code":"OM","formatted_address":"Salalah, Oman","locality":"Salalah","region":"Dhofar Governorate"}},"labels":["conference"],"duration":118800,"start_local":"2024-05-01T09:00:00","end":"2024-05-02T14:00:00Z","end_local":"2024-05-02T18:00:00","updated":"2024-06-01T16:17:54Z"},{"title":"SPE Gaia Summit","description":"Sourced from predicthq.com","category":"conferences","start":"2024-04-30T05:00:00Z","geo":{"geometry":{"coordinates":[58.3241268,23.5681653],"type":"Point"},"placekey":"@8c4-x3r-4d9","address":{"country_code":"OM","formatted_address":"Muscat, Oman","locality":"Muscat","region":"Muscat Governorate"}},"labels":["conference"],"duration":118800,"start_local":"2024-04-30T09:00:00","end":"2024-05-01T14:00:00Z","end_local":"2024-05-01T18:00:00","updated":"2024-06-04T22:31:19Z"},{"title":"International Conference on Advanced Technology","description":"Sourced from predicthq.com","category":"conferences","start":"2024-04-30T05:00:00Z","geo":{"geometry":{"coordinates":[58.29181,23.576895],"type":"Point"},"placekey":"@8c4-x3x-tgk","address":{"country_code":"OM","formatted_address":"111 Al Matar St, Muscat 128, Oman","postcode":"128","locality":"Muscat","region":"Muscat Governorate"}},"labels":["conference"],"duration":118800,"start_local":"2024-04-30T09:00:00","end":"2024-05-01T14:00:00Z","end_local":"2024-05-01T18:00:00","updated":"2024-05-31T23:11:48Z"},{"title":"Express Publishing Salalah PD sessions","description":"Sourced from predicthq.com - Don't miss Express Publishing's upcoming  Professional Development event, for Monolingual and Bilingual schools!","category":"conferences","start":"2024-04-30T04:30:00Z","geo":{"geometry":{"coordinates":[54.1449805,17.0580043],"type":"Point"},"placekey":"@c7q-jhv-r6k","address":{"country_code":"OM","formatted_address":"Salalah, Dhofar Governorate, Oman","locality":"Salalah","region":"Dhofar Governorate"}},"labels":["conference","education","family"],"duration":10800,"start_local":"2024-04-30T08:30:00","end":"2024-04-30T07:30:00Z","end_local":"2024-04-30T11:30:00","updated":"2024-06-12T13:58:32Z"},{"title":"RICS in Oman: A Comparison Between UNCITRAL Model Law and Oman Arbitration Law and RICS Update","description":"Sourced from predicthq.com","category":"expos","start":"2024-04-29T20:00:00Z","geo":{"geometry":{"coordinates":[58.43356,23.596052],"type":"Point"},"placekey":"@8c4-wzk-t35","address":{"country_code":"OM","formatted_address":"Muscat, Muscat Governorate, Oman","locality":"Muscat","region":"Muscat Governorate"}},"labels":["expo"],"duration":86399,"start_local":"2024-04-30T00:00:00","end":"2024-04-30T19:59:59Z","end_local":"2024-04-30T23:59:59","updated":"2024-05-28T16:39:07Z"},{"title":"International Sustainability Resources & Technology Conference","description":"Sourced from predicthq.com","category":"conferences","start":"2024-04-29T05:00:00Z","geo":{"geometry":{"coordinates":[58.325437,23.568933],"type":"Point"},"placekey":"@8c4-x3r-4gk","address":{"country_code":"OM","formatted_address":"Muscat, Muscat Governorate, Oman","locality":"Muscat","region":"Muscat Governorate"}},"labels":["conference"],"duration":118800,"start_local":"2024-04-29T09:00:00","end":"2024-04-30T14:00:00Z","end_local":"2024-04-30T18:00:00","updated":"2024-06-01T03:14:01Z"},{"title":"The BIG Show (within Oman Design & Build Week)","description":"Sourced from predicthq.com - International Exhibition of Building Materials, Construction Equipment and Interior Furnishings","category":"expos","start":"2024-04-28T20:00:00Z","geo":{"geometry":{"coordinates":[58.325437,23.5689328],"type":"Point"},"placekey":"@8c4-x3r-4gk","address":{"country_code":"OM","formatted_address":"Muscat, Muscat Governorate, Oman","locality":"Muscat","region":"Muscat Governorate"}},"labels":["construction","expo","technology"],"duration":259199,"start_local":"2024-04-29T00:00:00","end":"2024-05-01T19:59:59Z","end_local":"2024-05-01T23:59:59","updated":"2024-06-05T02:56:13Z"},{"title":"Oman Real Estate Expo","description":"Sourced from predicthq.com","category":"expos","start":"2024-04-28T20:00:00Z","geo":{"geometry":{"coordinates":[58.367412,23.586496],"type":"Point"},"placekey":"@8c4-wz6-yqf","address":{"country_code":"OM","formatted_address":"18 november al, Muscat, Oman","locality":"Muscat","region":"Muscat Governorate"}},"labels":["expo"],"duration":259199,"start_local":"2024-04-29T00:00:00","end":"2024-05-01T19:59:59Z","end_local":"2024-05-01T23:59:59","updated":"2024-05-31T23:30:04Z"},{"title":"Professional League - Dhofar vs Al Nasr","description":"Sourced from predicthq.com","category":"sports","start":"2024-04-28T16:30:00Z","geo":{"geometry":{"coordinates":[54.1441612,17.08282],"type":"Point"},"placekey":"@c7q-p53-zfz","address":{"country_code":"OM","formatted_address":"Thumrayt St, Salalah, Oman","locality":"Salalah","region":"Dhofar Governorate"}},"labels":["soccer","sport"],"duration":0,"start_local":"2024-04-28T20:30:00","end":"2024-04-28T16:30:00Z","end_local":"2024-04-28T20:30:00","updated":"2024-06-11T22:29:20Z"},{"title":"Professional League - Ibri vs Al Wehda","description":"Sourced from predicthq.com","category":"sports","start":"2024-04-28T13:55:00Z","geo":{"geometry":{"coordinates":[56.417938470840454,23.246413120866567],"type":"Point"},"placekey":"@8c2-zmv-xh5","address":{"country_code":"OM","formatted_address":"6CW9+XG, Ibri, Oman","locality":"Ibri","region":"Ad Dhahirah Governorate"}},"labels":["soccer","sport"],"duration":0,"start_local":"2024-04-28T17:55:00","end":"2024-04-28T13:55:00Z","end_local":"2024-04-28T17:55:00","updated":"2024-06-12T20:06:04Z"},{"title":"Professional League - Al Shabab vs Sur","description":"Sourced from predicthq.com","category":"sports","start":"2024-04-28T13:50:00Z","geo":{"geometry":{"coordinates":[57.479116129927206,23.5411717210642],"type":"Point"},"placekey":"@8c5-3qf-qfz","address":{"country_code":"OM","formatted_address":"Ash Shibika, Rustaq, Oman","locality":"Rustaq"}},"labels":["soccer","sport"],"duration":0,"start_local":"2024-04-28T17:50:00","end":"2024-04-28T13:50:00Z","end_local":"2024-04-28T17:50:00","updated":"2024-06-12T03:12:39Z"},{"title":"Oman Sustainability Week","description":"Sourced from predicthq.com","category":"expos","start":"2024-04-27T20:00:00Z","geo":{"geometry":{"coordinates":[58.3241268,23.5681653],"type":"Point"},"placekey":"@8c4-x3r-4d9","address":{"country_code":"OM","formatted_address":"Muscat, Oman","locality":"Muscat","region":"Muscat Governorate"}},"labels":["expo"],"duration":431999,"start_local":"2024-04-28T00:00:00","end":"2024-05-02T19:59:59Z","end_local":"2024-05-02T23:59:59","updated":"2024-06-04T21:54:48Z"},{"title":"Professional League - Al Seeb vs Sohar","description":"Sourced from predicthq.com","category":"sports","start":"2024-04-27T16:15:00Z","geo":{"geometry":{"coordinates":[58.2165374,23.618716],"type":"Point"},"placekey":"@8c4-vfj-zxq","address":{"country_code":"OM","formatted_address":"Al Barakat Street, Sib, Muscat Governorate, Oman","locality":"Sib","region":"Muscat Governorate"}},"labels":["soccer","sport"],"duration":0,"start_local":"2024-04-27T20:15:00","end":"2024-04-27T16:15:00Z","end_local":"2024-04-27T20:15:00","updated":"2024-06-12T00:07:40Z"},{"title":"Professional League - Al Rustaq vs Oman Club","description":"Sourced from predicthq.com","category":"sports","start":"2024-04-27T15:05:00Z","geo":{"geometry":{"coordinates":[57.479116129927206,23.5411717210642],"type":"Point"},"placekey":"@8c5-3qf-qfz","address":{"country_code":"OM","formatted_address":"Ash Shibika, Rustaq, Oman","locality":"Rustaq"}},"labels":["soccer","sport"],"duration":0,"start_local":"2024-04-27T19:05:00","end":"2024-04-27T15:05:00Z","end_local":"2024-04-27T19:05:00","updated":"2024-06-12T01:52:36Z"},{"title":"Creative Meditation","description":"Sourced from predicthq.com - Its a Creative Meditation session done in a unique way to empower the inner self.","category":"conferences","start":"2024-04-27T14:30:00Z","geo":{"geometry":{"coordinates":[58.418136,23.5958663],"type":"Point"},"placekey":"@8c4-x2n-2x5","address":{"country_code":"OM","formatted_address":"Muscat, Muscat Governorate, Oman","locality":"Muscat","region":"Muscat Governorate"}},"labels":["conference","health"],"duration":3600,"start_local":"2024-04-27T18:30:00","end":"2024-04-27T15:30:00Z","end_local":"2024-04-27T19:30:00","updated":"2024-06-04T23:27:01Z"},{"title":"Professional League - Al Nahda vs Bahla","description":"Sourced from predicthq.com","category":"sports","start":"2024-04-27T13:55:00Z","geo":{"geometry":{"coordinates":[55.81183046569821,24.256118584820815],"type":"Point"},"placekey":"@8cg-f3w-cbk","address":{"country_code":"OM","formatted_address":"7R46+FP, Al Buraimi, Oman","locality":"Al Buraimi","region":"Al Buraymi Governorate"}},"labels":["soccer","sport"],"duration":0,"start_local":"2024-04-27T17:55:00","end":"2024-04-27T13:55:00Z","end_local":"2024-04-27T17:55:00","updated":"2024-06-12T06:25:42Z"},{"title":"Professional League - Ibri vs Dhofar","description":"Sourced from predicthq.com","category":"sports","start":"2024-04-23T13:50:00Z","geo":{"geometry":{"coordinates":[56.417938470840454,23.246413120866567],"type":"Point"},"placekey":"@8c2-zmv-xh5","address":{"country_code":"OM","formatted_address":"6CW9+XG, Ibri, Oman","locality":"Ibri","region":"Ad Dhahirah Governorate"}},"labels":["soccer","sport"],"duration":0,"start_local":"2024-04-23T17:50:00","end":"2024-04-23T13:50:00Z","end_local":"2024-04-23T17:50:00","updated":"2024-06-12T13:32:16Z"},{"title":"Professional League - Al Wehda vs Al Shabab","description":"Sourced from predicthq.com","category":"sports","start":"2024-04-23T13:40:00Z","geo":{"geometry":{"coordinates":[59.4729140742,22.5277952931],"type":"Point"},"placekey":"@8c4-gqn-cqz","address":{"country_code":"OM","formatted_address":"Sur Sports Complex, Sur, Oman","locality":"Sur","region":"Ash Sharqiyah South Governorate"}},"labels":["soccer","sport"],"duration":0,"start_local":"2024-04-23T17:40:00","end":"2024-04-23T13:40:00Z","end_local":"2024-04-23T17:40:00","updated":"2024-06-11T22:12:46Z"},{"title":"Everything an  o/s buyer needs to know about financing an Aus Inv Property","description":"Sourced from predicthq.com - Finance is a critical aspect of property investment, it can make a significant impact on your investment journey (4pm GST, 8pm SIN/KUL)","category":"conferences","start":"2024-04-23T12:00:00Z","geo":{"geometry":{"coordinates":[58.3828717,23.5880307],"type":"Point"},"placekey":"@8c4-wz5-zmk","address":{"country_code":"OM","formatted_address":"Muscat, Muscat Governorate, Oman","locality":"Muscat","region":"Muscat Governorate"}},"labels":["business","conference"],"duration":2700,"start_local":"2024-04-23T16:00:00","end":"2024-04-23T12:45:00Z","end_local":"2024-04-23T16:45:00","updated":"2024-06-05T10:36:00Z"},{"title":"Huron at Western: Explore Top Programs and Career Opportunities in Oman","description":"Sourced from predicthq.com - Among the top 3 universities in Canada for employability, Huron University offers scholarships, paid internships, and high-level positions.","category":"conferences","start":"2024-04-23T11:00:00Z","geo":{"geometry":{"coordinates":[58.54960130000001,23.5998194],"type":"Point"},"placekey":"@8c4-wkm-cwk","address":{"country_code":"OM","formatted_address":"112, مسقط, محافظة مسقط, Oman","locality":"مسقط","postcode":"112","region":"محافظة مسقط"}},"labels":["conference"],"duration":10800,"start_local":"2024-04-23T15:00:00","end":"2024-04-23T14:00:00Z","end_local":"2024-04-23T18:00:00","updated":"2024-06-05T08:06:39Z"},{"title":"Professional League - Sur vs Al Seeb","description":"Sourced from predicthq.com","category":"sports","start":"2024-04-22T16:15:00Z","geo":{"geometry":{"coordinates":[59.4729140742,22.5277952931],"type":"Point"},"placekey":"@8c4-gqn-cqz","address":{"country_code":"OM","formatted_address":"Sur Sports Complex, Sur, Oman","locality":"Sur","region":"Ash Sharqiyah South Governorate"}},"labels":["soccer","sport"],"duration":0,"start_local":"2024-04-22T20:15:00","end":"2024-04-22T16:15:00Z","end_local":"2024-04-22T20:15:00","updated":"2024-06-12T13:30:09Z"},{"title":"Monday Talk","description":"Sourced from predicthq.com - This is a seminar for experiencing the silence and through silence to overcome the problems","category":"conferences","start":"2024-04-22T15:30:00Z","geo":{"geometry":{"coordinates":[58.54333299999996,23.600278],"type":"Point"},"placekey":"@8c4-wkk-dvz","address":{"country_code":"OM","formatted_address":"112, مسقط, محافظة مسقط, Oman","locality":"مسقط","postcode":"112","region":"محافظة مسقط"}},"labels":["conference","health"],"duration":3600,"start_local":"2024-04-22T19:30:00","end":"2024-04-22T16:30:00Z","end_local":"2024-04-22T20:30:00","updated":"2024-06-05T04:05:58Z"},{"title":"Professional League - Sohar vs Bahla","description":"Sourced from predicthq.com","category":"sports","start":"2024-04-22T13:55:00Z","geo":{"geometry":{"coordinates":[56.7434311332,24.3347600522],"type":"Point"},"placekey":"@8cf-c5y-xdv","address":{"country_code":"OM","formatted_address":"8PMV+RH4, Sohar, Oman","locality":"Sohar","region":"Al Batinah North Governorate"}},"labels":["soccer","sport"],"duration":0,"start_local":"2024-04-22T17:55:00","end":"2024-04-22T13:55:00Z","end_local":"2024-04-22T17:55:00","updated":"2024-06-11T23:06:59Z"},{"title":"Professional League - Al Nasr vs Al Rustaq","description":"Sourced from predicthq.com","category":"sports","start":"2024-04-22T13:55:00Z","geo":{"geometry":{"coordinates":[54.1441612,17.08282],"type":"Point"},"placekey":"@c7q-p53-zfz","address":{"country_code":"OM","formatted_address":"Thumrayt St, Salalah, Oman","locality":"Salalah","region":"Dhofar Governorate"}},"labels":["soccer","sport"],"duration":0,"start_local":"2024-04-22T17:55:00","end":"2024-04-22T13:55:00Z","end_local":"2024-04-22T17:55:00","updated":"2024-06-12T00:39:57Z"},{"title":"OPES - Oman Petroleum & Energy Show","description":"Sourced from predicthq.com - OPES - Oman Petroleum & Energy Show is a prominent expo event that brings together international and local experts from the petroleum and energy sectors, offering unparalleled knowledge-sharing and networking opportunities. With its diverse range of exhibitors and comprehensive conference program, OPES showcases the latest technologies, innovations, and solutions shaping the industry's future.","category":"expos","start":"2024-04-21T20:00:00Z","geo":{"geometry":{"coordinates":[58.325437,23.5689328],"type":"Point"},"placekey":"@8c4-x3r-4gk","address":{"country_code":"OM","formatted_address":"Muscat, Muscat Governorate, Oman","locality":"Muscat","region":"Muscat Governorate"}},"labels":["environment","expo","industrial"],"duration":259199,"start_local":"2024-04-22T00:00:00","end":"2024-04-24T19:59:59Z","end_local":"2024-04-24T23:59:59","updated":"2024-06-02T02:10:12Z"},{"title":"Sewing","description":"Sourced from predicthq.com","category":"community","start":"2024-04-21T12:00:00Z","geo":{"geometry":{"coordinates":[58.24177,23.62887],"type":"Point"},"placekey":"@8c4-vgb-gc5","address":{"country_code":"OM","formatted_address":"Sur Al Hail Street, Sib, Muscat Governorate, Oman","locality":"Sib","region":"Muscat Governorate"}},"labels":["community","workshop"],"duration":0,"start_local":"2024-04-21T16:00:00","end":"2024-04-21T12:00:00Z","end_local":"2024-04-21T16:00:00","updated":"2024-06-05T08:52:01Z"},{"title":"Cristina Branco","description":"Sourced from predicthq.com","category":"concerts","start":"2024-04-19T15:30:00Z","geo":{"geometry":{"coordinates":[58.4679953,23.6138315],"type":"Point"},"placekey":"@8c4-w9r-z9f","address":{"country_code":"OM","formatted_address":"Al Kharjiyah Street, 103, Muscat, Muscat Governorate, Oman","postcode":"103","locality":"Muscat","region":"Muscat Governorate"}},"labels":["concert","music"],"duration":0,"start_local":"2024-04-19T19:30:00","end":"2024-04-19T15:30:00Z","end_local":"2024-04-19T19:30:00","updated":"2024-06-12T08:44:20Z"},{"title":"Professional League - Al Shabab vs Dhofar","description":"Sourced from predicthq.com","category":"sports","start":"2024-04-19T13:45:00Z","geo":{"geometry":{"coordinates":[57.479116129927206,23.5411717210642],"type":"Point"},"placekey":"@8c5-3qf-qfz","address":{"country_code":"OM","formatted_address":"Ash Shibika, Rustaq, Oman","locality":"Rustaq"}},"labels":["soccer","sport"],"duration":0,"start_local":"2024-04-19T17:45:00","end":"2024-04-19T13:45:00Z","end_local":"2024-04-19T17:45:00","updated":"2024-06-12T04:15:10Z"},{"title":"Professional League - Al Rustaq vs Ibri","description":"Sourced from predicthq.com","category":"sports","start":"2024-04-18T16:10:00Z","geo":{"geometry":{"coordinates":[57.479116129927206,23.5411717210642],"type":"Point"},"placekey":"@8c5-3qf-qfz","address":{"country_code":"OM","formatted_address":"Ash Shibika, Rustaq, Oman","locality":"Rustaq"}},"labels":["soccer","sport"],"duration":0,"start_local":"2024-04-18T20:10:00","end":"2024-04-18T16:10:00Z","end_local":"2024-04-18T20:10:00","updated":"2024-06-12T11:48:57Z"},{"title":"Professional League - Al Nasr vs Oman Club","description":"Sourced from predicthq.com","category":"sports","start":"2024-04-18T13:55:00Z","geo":{"geometry":{"coordinates":[54.1441612,17.08282],"type":"Point"},"placekey":"@c7q-p53-zfz","address":{"country_code":"OM","formatted_address":"Thumrayt St, Salalah, Oman","locality":"Salalah","region":"Dhofar Governorate"}},"labels":["soccer","sport"],"duration":0,"start_local":"2024-04-18T17:55:00","end":"2024-04-18T13:55:00Z","end_local":"2024-04-18T17:55:00","updated":"2024-06-11T21:24:22Z"},{"title":"Professional League - Bahla vs Sur","description":"Sourced from predicthq.com","category":"sports","start":"2024-04-18T13:50:00Z","geo":{"geometry":{"coordinates":[57.5897687,22.9047176],"type":"Point"},"placekey":"@8bz-wmb-fxq","address":{"country_code":"OM","formatted_address":"حي التراث, Ad Dakhiliyah ‍Governorate, Oman","locality":"حي التراث","region":"Ad Dakhiliyah ‍Governorate"}},"labels":["soccer","sport"],"duration":0,"start_local":"2024-04-18T17:50:00","end":"2024-04-18T13:50:00Z","end_local":"2024-04-18T17:50:00","updated":"2024-06-11T23:06:00Z"},{"title":"Professional League - Al Seeb vs Al Wehda","description":"Sourced from predicthq.com","category":"sports","start":"2024-04-18T13:45:00Z","geo":{"geometry":{"coordinates":[58.2165374,23.618716],"type":"Point"},"placekey":"@8c4-vfj-zxq","address":{"country_code":"OM","formatted_address":"Al Barakat Street, Sib, Muscat Governorate, Oman","locality":"Sib","region":"Muscat Governorate"}},"labels":["soccer","sport"],"duration":0,"start_local":"2024-04-18T17:45:00","end":"2024-04-18T13:45:00Z","end_local":"2024-04-18T17:45:00","updated":"2024-06-11T21:32:10Z"},{"title":"International Conference on Science, Engineering & Technology","description":"Sourced from predicthq.com","category":"conferences","start":"2024-04-12T05:00:00Z","geo":{"geometry":{"coordinates":[58.564404,23.578373],"type":"Point"},"placekey":"@8c4-wkq-fxq","address":{"country_code":"OM","formatted_address":"Near Indian School, Al Wada Al Kabir St, Muscat 117, Oman","postcode":"117","locality":"Muscat","region":"Muscat Governorate"}},"labels":["conference"],"duration":118800,"start_local":"2024-04-12T09:00:00","end":"2024-04-13T14:00:00Z","end_local":"2024-04-13T18:00:00","updated":"2024-06-30T07:18:14Z"},{"title":"International Conference on Management, Economics & Social Science","description":"Sourced from predicthq.com","category":"conferences","start":"2024-04-12T05:00:00Z","geo":{"geometry":{"coordinates":[58.564404,23.578373],"type":"Point"},"placekey":"@8c4-wkq-fxq","address":{"country_code":"OM","formatted_address":"Near Indian School, Al Wada Al Kabir St, Muscat 117, Oman","postcode":"117","locality":"Muscat","region":"Muscat Governorate"}},"labels":["conference"],"duration":118800,"start_local":"2024-04-12T09:00:00","end":"2024-04-13T14:00:00Z","end_local":"2024-04-13T18:00:00","updated":"2024-06-30T07:18:19Z"},{"title":"International Conference on Medical & Health Science","description":"Sourced from predicthq.com","category":"conferences","start":"2024-04-12T05:00:00Z","geo":{"geometry":{"coordinates":[58.564404,23.578373],"type":"Point"},"placekey":"@8c4-wkq-fxq","address":{"country_code":"OM","formatted_address":"Near Indian School, Al Wada Al Kabir St, Muscat 117, Oman","postcode":"117","locality":"Muscat","region":"Muscat Governorate"}},"labels":["conference"],"duration":118800,"start_local":"2024-04-12T09:00:00","end":"2024-04-13T14:00:00Z","end_local":"2024-04-13T18:00:00","updated":"2024-06-30T07:18:24Z"},{"title":"Professional League - Sur vs Sohar","description":"Sourced from predicthq.com","category":"sports","start":"2024-04-08T18:00:00Z","geo":{"geometry":{"coordinates":[59.4729140742,22.5277952931],"type":"Point"},"placekey":"@8c4-gqn-cqz","address":{"country_code":"OM","formatted_address":"Sur Sports Complex, Sur, Oman","locality":"Sur","region":"Ash Sharqiyah South Governorate"}},"labels":["soccer","sport"],"duration":0,"start_local":"2024-04-08T22:00:00","end":"2024-04-08T18:00:00Z","end_local":"2024-04-08T22:00:00","updated":"2024-06-12T05:35:44Z"},{"title":"Professional League - Dhofar vs Al Seeb","description":"Sourced from predicthq.com","category":"sports","start":"2024-04-08T18:00:00Z","geo":{"geometry":{"coordinates":[54.1441612,17.08282],"type":"Point"},"placekey":"@c7q-p53-zfz","address":{"country_code":"OM","formatted_address":"Thumrayt St, Salalah, Oman","locality":"Salalah","region":"Dhofar Governorate"}},"labels":["soccer","sport"],"duration":0,"start_local":"2024-04-08T22:00:00","end":"2024-04-08T18:00:00Z","end_local":"2024-04-08T22:00:00","updated":"2024-06-12T08:12:38Z"},{"title":"Professional League - Al Shabab vs Al Rustaq","description":"Sourced from predicthq.com","category":"sports","start":"2024-04-08T18:00:00Z","geo":{"geometry":{"coordinates":[57.479116129927206,23.5411717210642],"type":"Point"},"placekey":"@8c5-3qf-qfz","address":{"country_code":"OM","formatted_address":"Ash Shibika, Rustaq, Oman","locality":"Rustaq"}},"labels":["soccer","sport"],"duration":0,"start_local":"2024-04-08T22:00:00","end":"2024-04-08T18:00:00Z","end_local":"2024-04-08T22:00:00","updated":"2024-06-12T17:19:28Z"},{"title":"Professional League - Al Nahda vs Al Nasr","description":"Sourced from predicthq.com","category":"sports","start":"2024-04-08T18:00:00Z","geo":{"geometry":{"coordinates":[55.81183046569821,24.256118584820815],"type":"Point"},"placekey":"@8cg-f3w-cbk","address":{"country_code":"OM","formatted_address":"7R46+FP, Al Buraimi, Oman","locality":"Al Buraimi","region":"Al Buraymi Governorate"}},"labels":["soccer","sport"],"duration":0,"start_local":"2024-04-08T22:00:00","end":"2024-04-08T18:00:00Z","end_local":"2024-04-08T22:00:00","updated":"2024-06-12T04:10:31Z"},{"title":"Professional League - Al Wehda vs Bahla","description":"Sourced from predicthq.com","category":"sports","start":"2024-04-08T18:00:00Z","geo":{"geometry":{"coordinates":[58.59423008,22.659119178],"type":"Point"},"placekey":"@8c5-fwd-x89","address":{"country_code":"OM","formatted_address":"Ibra, Oman","locality":"Ibra"}},"labels":["soccer","sport"],"duration":0,"start_local":"2024-04-08T22:00:00","end":"2024-04-08T18:00:00Z","end_local":"2024-04-08T22:00:00","updated":"2024-06-12T04:19:30Z"},{"title":"Professional League - Ibri vs Oman Club","description":"Sourced from predicthq.com","category":"sports","start":"2024-04-08T18:00:00Z","geo":{"geometry":{"coordinates":[56.417938470840454,23.246413120866567],"type":"Point"},"placekey":"@8c2-zmv-xh5","address":{"country_code":"OM","formatted_address":"6CW9+XG, Ibri, Oman","locality":"Ibri","region":"Ad Dhahirah Governorate"}},"labels":["soccer","sport"],"duration":0,"start_local":"2024-04-08T22:00:00","end":"2024-04-08T18:00:00Z","end_local":"2024-04-08T22:00:00","updated":"2024-06-12T06:23:00Z"},{"title":"Oman vs Namibia","description":"Sourced from predicthq.com","category":"sports","start":"2024-04-07T10:30:00Z","geo":{"geometry":{"coordinates":[58.49315549999999,23.487737],"type":"Point"},"placekey":"@8c4-wjm-ghq","address":{"country_code":"OM","formatted_address":"GG82+FCM, Al Amarat, Oman","locality":"Al Amarat","region":"Muscat Governorate"}},"labels":["cricket","sport"],"duration":0,"start_local":"2024-04-07T14:30:00","end":"2024-04-07T10:30:00Z","end_local":"2024-04-07T14:30:00","updated":"2024-06-05T11:01:54Z"},{"title":"INFINITE IT Event","description":"Sourced from predicthq.com - Get ready for a tech-filled day at IT Event - where you'll learn, network, and geek out with fellow IT enthusiasts!","category":"conferences","start":"2024-04-07T06:00:00Z","geo":{"geometry":{"coordinates":[58.28864979999999,23.6012525],"type":"Point"},"placekey":"@8c4-x3t-m6k","address":{"country_code":"OM","formatted_address":"Muscat, Muscat Governorate, Oman","locality":"Muscat","region":"Muscat Governorate"}},"labels":["conference","science","technology"],"duration":7200,"start_local":"2024-04-07T10:00:00","end":"2024-04-07T08:00:00Z","end_local":"2024-04-07T12:00:00","updated":"2024-06-13T18:46:28Z"}]