[{"title":"TOC Americas","description":"Sourced from predicthq.com","category":"conferences","start":"2024-10-01T14:00:00Z","geo":{"geometry":{"coordinates":[-79.548027,8.937888],"type":"Point"},"placekey":"@cjh-dc5-syv","address":{"country_code":"PA","formatted_address":"Calle Gral. Juan D. Peron\nPanamá\nPanama","locality":"Panama City"}},"labels":["conference"],"duration":205200,"start_local":"2024-10-01T09:00:00","end":"2024-10-03T23:00:00Z","end_local":"2024-10-03T18:00:00","updated":"2024-06-03T20:49:47Z"},{"title":"eCommerce Day Panamá 2024","description":"Sourced from predicthq.com - eCommerce Day® es el principal encuentro de la industria de los Negocios por Internet.","category":"conferences","start":"2024-09-26T13:00:00Z","geo":{"geometry":{"coordinates":[-79.5122659,8.9850095],"type":"Point"},"placekey":"@cjh-ddj-vs5","address":{"country_code":"PA","formatted_address":"Vía Israel, Panama City, Panamá Province, Panama","locality":"Panama City","region":"Panamá Province"}},"labels":["business","conference"],"duration":37800,"start_local":"2024-09-26T08:00:00","end":"2024-09-26T23:30:00Z","end_local":"2024-09-26T18:30:00","updated":"2024-06-03T23:53:26Z"},{"title":"Faith and Freedom Summit IV - Cumbre Fe y Libertad","description":"Sourced from predicthq.com - ¡Únete a nosotros en la Cumbre Fe y Libertad para celebrar la importancia de la fe y la libertad en nuestras vidas!","category":"conferences","start":"2024-09-24T13:30:00Z","geo":{"geometry":{"coordinates":[-79.553337,8.9440498],"type":"Point"},"placekey":"@cjh-dc5-mff","address":{"country_code":"PA","formatted_address":"Avenida Amador, Ciudad de Panamá, Provincia de Panamá, Panama","locality":"Panamá","region":"Provincia de Panamá"}},"labels":["conference","religion"],"duration":113400,"start_local":"2024-09-24T08:30:00","end":"2024-09-25T21:00:00Z","end_local":"2024-09-25T16:00:00","updated":"2024-06-20T03:40:16Z"},{"title":"FIATA World Congress","description":"Sourced from predicthq.com","category":"conferences","start":"2024-09-23T14:00:00Z","geo":{"geometry":{"coordinates":[-79.548027,8.937888],"type":"Point"},"placekey":"@cjh-dc5-syv","address":{"country_code":"PA","formatted_address":"Calle Gral. Juan D. Peron\nPanamá\nPanama","locality":"Panama City"}},"labels":["conference"],"duration":378000,"start_local":"2024-09-23T09:00:00","end":"2024-09-27T23:00:00Z","end_local":"2024-09-27T18:00:00","updated":"2024-06-04T11:33:01Z"},{"title":"World Financial Information Conference","description":"Sourced from predicthq.com","category":"conferences","start":"2024-09-15T14:00:00Z","geo":{"geometry":{"coordinates":[-79.501553,8.988922],"type":"Point"},"placekey":"@cjh-ddk-5fz","address":{"country_code":"PA","formatted_address":"Via israel and Calle 77\nSan Francisco\nPanama","locality":"Panama City"}},"labels":["conference"],"duration":291600,"start_local":"2024-09-15T09:00:00","end":"2024-09-18T23:00:00Z","end_local":"2024-09-18T18:00:00","updated":"2024-05-27T20:14:32Z"},{"title":"The Euromoney/ECBC Covered Bond Congress","description":"Sourced from predicthq.com","category":"conferences","start":"2024-09-12T14:00:00Z","geo":{"geometry":{"coordinates":[-79.501553,8.988922],"type":"Point"},"placekey":"@cjh-ddk-5fz","address":{"country_code":"PA","formatted_address":"Via israel and Calle 77\nSan Francisco\nPanama","locality":"Panama City"}},"labels":["conference"],"duration":32400,"start_local":"2024-09-12T09:00:00","end":"2024-09-12T23:00:00Z","end_local":"2024-09-12T18:00:00","updated":"2024-05-27T21:33:49Z"},{"title":"Invisso Covered Bond Congress","description":"Sourced from predicthq.com","category":"conferences","start":"2024-09-12T14:00:00Z","geo":{"geometry":{"coordinates":[-79.501553,8.988922],"type":"Point"},"placekey":"@cjh-ddk-5fz","address":{"country_code":"PA","formatted_address":"Via israel and Calle 77\nSan Francisco\nPanama","locality":"Panama City"}},"labels":["conference"],"duration":32400,"start_local":"2024-09-12T09:00:00","end":"2024-09-12T23:00:00Z","end_local":"2024-09-12T18:00:00","updated":"2024-06-30T09:16:55Z"},{"title":"Latin America Ports Forum","description":"Sourced from predicthq.com","category":"conferences","start":"2024-09-11T14:00:00Z","geo":{"geometry":{"coordinates":[-79.524701,8.979584],"type":"Point"},"placekey":"@cjh-ddp-66k","address":{"country_code":"PA","formatted_address":"Calle 50 and\nCalle Aquilino de la Guardia\nPanamá\nPanama","locality":"San Miguelito"}},"labels":["conference"],"duration":118800,"start_local":"2024-09-11T09:00:00","end":"2024-09-12T23:00:00Z","end_local":"2024-09-12T18:00:00","updated":"2024-06-03T20:28:13Z"},{"title":"Inside LatAm: Central America","description":"Sourced from predicthq.com","category":"expos","start":"2024-09-11T14:00:00Z","geo":{"geometry":{"coordinates":[-79.501553,8.988922],"type":"Point"},"placekey":"@cjh-ddk-5fz","address":{"country_code":"PA","formatted_address":"Via israel and Calle 77\nSan Francisco\nPanama","locality":"Panama City"}},"labels":["expo"],"duration":32400,"start_local":"2024-09-11T09:00:00","end":"2024-09-11T23:00:00Z","end_local":"2024-09-11T18:00:00","updated":"2024-05-28T04:14:22Z"},{"title":"Congreso Nacional de Gastroenterologia y Nutricion Pediatrica","description":"Sourced from predicthq.com","category":"conferences","start":"2024-09-06T14:00:00Z","geo":{"geometry":{"coordinates":[-79.501553,8.988922],"type":"Point"},"placekey":"@cjh-ddk-5fz","address":{"country_code":"PA","formatted_address":"Via israel and Calle 77\nSan Francisco\nPanama","locality":"Panama City"}},"labels":["conference"],"duration":118800,"start_local":"2024-09-06T09:00:00","end":"2024-09-07T23:00:00Z","end_local":"2024-09-07T18:00:00","updated":"2024-05-28T12:50:23Z"},{"title":"Congreso Nacional de Gastroenterologia y Endoscopia Digestiva","description":"Sourced from predicthq.com","category":"conferences","start":"2024-09-05T14:00:00Z","geo":{"geometry":{"coordinates":[-79.501553,8.988922],"type":"Point"},"placekey":"@cjh-ddk-5fz","address":{"country_code":"PA","formatted_address":"Via israel and Calle 77\nSan Francisco\nPanama","locality":"Panama City"}},"labels":["conference"],"duration":205200,"start_local":"2024-09-05T09:00:00","end":"2024-09-07T23:00:00Z","end_local":"2024-09-07T18:00:00","updated":"2024-05-28T12:28:31Z"},{"title":"Women Work Life Symposium","description":"Sourced from predicthq.com","category":"conferences","start":"2024-08-09T14:00:00Z","geo":{"geometry":{"coordinates":[-79.589371,9.005246],"type":"Point"},"placekey":"@cjh-df2-dy9","address":{"country_code":"PA","formatted_address":"Calle Ricardo Murgas, Ciudad de Panamá, Provincia de Panamá, Panama","locality":"Panamá","region":"Provincia de Panamá"}},"labels":["conference"],"duration":32400,"start_local":"2024-08-09T09:00:00","end":"2024-08-09T23:00:00Z","end_local":"2024-08-09T18:00:00","updated":"2024-05-28T21:35:33Z"},{"title":"Sin Límites","description":"Sourced from predicthq.com - Emprendedores y dueños de pequeñas empresas, esta es tu oportunidad para crecer.  Lleva tu negocio al siguiente nivel.","category":"concerts","start":"2024-08-03T13:30:00Z","geo":{"geometry":{"coordinates":[-79.8935334,9.3459738],"type":"Point"},"placekey":"@cjh-m39-ch5","address":{"country_code":"PA","formatted_address":"Colón, Provincia de Colón, Panama","locality":"Colón","region":"Provincia de Colón"}},"labels":["concert","health","music"],"duration":12600,"start_local":"2024-08-03T08:30:00","end":"2024-08-03T17:00:00Z","end_local":"2024-08-03T12:00:00","updated":"2024-06-20T22:46:48Z"},{"title":"Latin American & Caribbean Tyre Expo and Latin Auto Parts Expo 2024","description":"Sourced from predicthq.com","category":"expos","start":"2024-07-31T05:00:00Z","geo":{"geometry":{"coordinates":[-79.5453304,8.9367787],"type":"Point"},"placekey":"@cjh-dc5-tjv","address":{"country_code":"PA","formatted_address":"Avenida Amador, 135575, Provincia de Panamá, Panama","locality":"135575","region":"Provincia de Panamá"}},"labels":["expo","industrial","packaging","technology"],"duration":259199,"start_local":"2024-07-31T00:00:00","end":"2024-08-03T04:59:59Z","end_local":"2024-08-02T23:59:59","updated":"2024-06-16T02:05:49Z"},{"title":"Latin Tyre Expo","description":"Sourced from predicthq.com","category":"expos","start":"2024-07-31T05:00:00Z","geo":{"geometry":{"coordinates":[-79.548027,8.937888],"type":"Point"},"placekey":"@cjh-dc5-syv","address":{"country_code":"PA","formatted_address":"Calle Gral. Juan D. Peron\nPanamá\nPanama","locality":"Panama City"}},"labels":["expo"],"duration":259199,"start_local":"2024-07-31T00:00:00","end":"2024-08-03T04:59:59Z","end_local":"2024-08-02T23:59:59","updated":"2024-06-03T20:28:22Z"},{"title":"Panamá hacia un Futuro Turístico Sostenible","description":"Sourced from predicthq.com - ¡Descubre cómo Panamá está trabajando hacia un futuro turístico sostenible en este evento lleno de charlas, talleres y experiencias únicas!","category":"conferences","start":"2024-07-30T13:30:00Z","geo":{"geometry":{"coordinates":[-79.5513919,8.9721057],"type":"Point"},"placekey":"@cjh-dbh-9pv","address":{"country_code":"PA","formatted_address":"Ciudad de Panamá, Provincia de Panamá, Panama","locality":"Panamá","region":"Provincia de Panamá"}},"labels":["conference","outdoor"],"duration":14400,"start_local":"2024-07-30T08:30:00","end":"2024-07-30T17:30:00Z","end_local":"2024-07-30T12:30:00","updated":"2024-06-13T00:38:52Z"},{"title":"PANAMA MUSIC INFINITY","description":"Sourced from predicthq.com - Es un evento especial nacional que busca apoyar a el género panameño de la música y además divertir más a los miles de panameños.","category":"concerts","start":"2024-07-28T00:00:00Z","geo":{"geometry":{"coordinates":[-79.5194782,8.9830501],"type":"Point"},"placekey":"@cjh-ddj-syv","address":{"country_code":"PA","formatted_address":"Calle 50, Ciudad de Panamá, Provincia de Panamá, Panama","locality":"Panamá","region":"Provincia de Panamá"}},"labels":["concert","music"],"duration":25222,"start_local":"2024-07-27T19:00:00","end":"2024-07-28T07:00:22Z","end_local":"2024-07-28T02:00:22","updated":"2024-06-27T14:41:25Z"},{"title":"Governance Forum of Panama Internet","description":"Sourced from predicthq.com","category":"conferences","start":"2024-07-24T14:00:00Z","geo":{"geometry":{"coordinates":[-79.584428,8.999434],"type":"Point"},"placekey":"@cjh-dbr-f9f","address":{"country_code":"PA","formatted_address":"Calle Luis Bonilla, Ciudad de Panamá, Provincia de Panamá, Panama","locality":"Panamá","region":"Provincia de Panamá"}},"labels":["conference"],"duration":32400,"start_local":"2024-07-24T09:00:00","end":"2024-07-24T23:00:00Z","end_local":"2024-07-24T18:00:00","updated":"2024-06-30T06:10:30Z"},{"title":"Foro de Gobernanza de Internet Panamá 2024","description":"Sourced from predicthq.com - Evento organizado por IGF Panamá","category":"conferences","start":"2024-07-24T13:00:00Z","geo":{"geometry":{"coordinates":[-79.5812753,8.999340199999999],"type":"Point"},"placekey":"@cjh-dbr-cnq","address":{"country_code":"PA","formatted_address":"Calle Etanislao Orobio, Ciudad de Panamá, Provincia de Panamá, Panama","locality":"Panamá","region":"Provincia de Panamá"}},"labels":["conference","science","technology"],"duration":14400,"start_local":"2024-07-24T08:00:00","end":"2024-07-24T17:00:00Z","end_local":"2024-07-24T12:00:00","updated":"2024-06-27T10:21:23Z"},{"title":"Insurance Tech Summit Panamá","description":"Sourced from predicthq.com - Un evento presencial, que le permitirá al asistente actualizarse y hacer negocios con los principales referentes del sector.","category":"conferences","start":"2024-07-23T13:00:00Z","geo":{"geometry":{"coordinates":[-79.5210583,8.9811366],"type":"Point"},"placekey":"@cjh-ddp-4vz","address":{"country_code":"PA","formatted_address":"Calle 50, Ciudad de Panamá, Panamá, Panama","locality":"Panamá","region":"Panamá"}},"labels":["conference","science","technology"],"duration":32400,"start_local":"2024-07-23T08:00:00","end":"2024-07-23T22:00:00Z","end_local":"2024-07-23T17:00:00","updated":"2024-07-04T18:32:54Z"},{"title":"Intercesion Profetica","description":"Sourced from predicthq.com - Intercession profetica unidos en el Espiritu Santo, que la voluntad de Jehova se haga, herramientas en las manos de Jehova.  Jer 51:20","category":"conferences","start":"2024-07-19T00:00:00Z","geo":{"geometry":{"coordinates":[-79.4554899,9.0925582],"type":"Point"},"placekey":"@cjh-kdv-z9f","address":{"country_code":"PA","formatted_address":"Ciudad de Panamá, Provincia de Panamá, Panama","locality":"Panamá","region":"Provincia de Panamá"}},"labels":["conference","religion"],"duration":180000,"start_local":"2024-07-18T19:00:00","end":"2024-07-21T02:00:00Z","end_local":"2024-07-20T21:00:00","updated":"2024-06-20T01:42:26Z"},{"title":"Emprendedor, ¿sabes si estás en regla ante la DGI, Municipio, CSS y otros?","description":"Sourced from predicthq.com - Taller de Consultoría gratuito, Emprendedor, ¿sabes si estás en regla ante la DGI, Municipio, CSS y otros?","category":"conferences","start":"2024-07-17T23:30:00Z","geo":{"geometry":{"coordinates":[-79.5294821,8.9766132],"type":"Point"},"placekey":"@cjh-ddn-hbk","address":{"country_code":"PA","formatted_address":"Calle Venezuela, Ciudad de Panamá, Provincia de Panamá, Panama","locality":"Panamá","region":"Provincia de Panamá"}},"labels":["business","conference"],"duration":5400,"start_local":"2024-07-17T18:30:00","end":"2024-07-18T01:00:00Z","end_local":"2024-07-17T20:00:00","updated":"2024-06-26T05:59:29Z"},{"title":"Nightwalkers, Berserk, and Filtro Medusa","description":"Sourced from predicthq.com","category":"concerts","start":"2024-07-13T00:00:00Z","geo":{"geometry":{"coordinates":[-79.5269635,8.9761867],"type":"Point"},"placekey":"@cjh-ddn-cnq","address":{"country_code":"PA","formatted_address":"Avenida Federico Boyd, Ciudad de Panamá, Panamá, Panama","locality":"Panamá","region":"Panamá"}},"labels":["concert","music"],"duration":0,"start_local":"2024-07-12T19:00:00","end":"2024-07-13T00:00:00Z","end_local":"2024-07-12T19:00:00","updated":"2024-07-06T00:08:03Z"},{"title":"Calypso Golden Hour 'n Vibe Social | LIVE Calypso Band & Sunset Serenade","description":"Sourced from predicthq.com - Live Calypso Music at Sunset, Serenaded by El Maine Lion & Caribbean Connexion Band 507 at Canal House Panama. Welcome Drink Included!","category":"concerts","start":"2024-07-06T22:30:00Z","geo":{"geometry":{"coordinates":[-79.55462349999999,8.939868399999998],"type":"Point"},"placekey":"@cjh-dc6-7kf","address":{"country_code":"PA","formatted_address":"General Juan D Peron, Ciudad de Panamá, Provincia de Panamá, Panama","locality":"Panamá","region":"Provincia de Panamá"}},"labels":["concert","music"],"duration":12600,"start_local":"2024-07-06T17:30:00","end":"2024-07-07T02:00:00Z","end_local":"2024-07-06T21:00:00","updated":"2024-06-27T10:36:10Z"},{"title":"Negocios & Viajes: en un solo lugar","description":"Sourced from predicthq.com - Ven a descubrir cómo los viajes pueden impulsar tu negocio en nuestro evento \"Conoce el fascinante mundo de los Negocios con los Viajes\".","category":"conferences","start":"2024-07-06T20:00:00Z","geo":{"geometry":{"coordinates":[-79.5275644,8.9806694],"type":"Point"},"placekey":"@cjh-ddp-5s5","address":{"country_code":"PA","formatted_address":"Avenida Ricardo Arango, Panama City, Panamá Province, Panama","locality":"Panama City","region":"Panamá Province"}},"labels":["business","conference"],"duration":14400,"start_local":"2024-07-06T15:00:00","end":"2024-07-07T00:00:00Z","end_local":"2024-07-06T19:00:00","updated":"2024-06-28T05:27:48Z"},{"title":"AWS Community Day Panamá - Security & Data Edition","description":"Sourced from predicthq.com - AWS Community Day Panamá - Security & Data Edition\nAcompáñanos en un día lleno de aprendizaje y networking.","category":"conferences","start":"2024-07-06T13:30:00Z","geo":{"geometry":{"coordinates":[-79.58284669999999,9.0027452],"type":"Point"},"placekey":"@cjh-dbr-gff","address":{"country_code":"PA","formatted_address":"Calle Alberto Tejada, Ciudad de Panamá, Provincia de Panamá, Panama","locality":"Panamá","region":"Provincia de Panamá"}},"labels":["conference","science","technology"],"duration":21600,"start_local":"2024-07-06T08:30:00","end":"2024-07-06T19:30:00Z","end_local":"2024-07-06T14:30:00","updated":"2024-06-20T08:26:04Z"},{"title":"Lanzamiento de LifeWave en Panamá","description":"Sourced from predicthq.com - LifeWave, una empresa líder en salud y bienestar se enfoca en mejorar la calidad de vida a través de la innovadora tecnología de fototerapia","category":"conferences","start":"2024-07-05T23:00:00Z","geo":{"geometry":{"coordinates":[-79.5275644,8.9806694],"type":"Point"},"placekey":"@cjh-ddp-5s5","address":{"country_code":"PA","formatted_address":"Avenida Ricardo Arango, Panama City, Panamá Province, Panama","locality":"Panama City","region":"Panamá Province"}},"labels":["business","conference"],"duration":10800,"start_local":"2024-07-05T18:00:00","end":"2024-07-06T02:00:00Z","end_local":"2024-07-05T21:00:00","updated":"2024-06-27T06:26:34Z"},{"title":"Neurociencias en educacion","description":"Sourced from predicthq.com - Educacion","category":"conferences","start":"2024-07-05T13:00:00Z","geo":{"geometry":{"coordinates":[-79.5320034,8.9774716],"type":"Point"},"placekey":"@cjh-ddn-hdv","address":{"country_code":"PA","formatted_address":"Ciudad de Panamá, Panamá, Panama","locality":"Panamá","region":"Panamá"}},"labels":["conference","science","technology"],"duration":5400,"start_local":"2024-07-05T08:00:00","end":"2024-07-05T14:30:00Z","end_local":"2024-07-05T09:30:00","updated":"2024-07-04T12:06:30Z"},{"title":"YO ME LLAMO NATALIA JIMÉNEZ","description":"Sourced from predicthq.com - ¡Ven a disfrutar de una noche llena de música y diversión en el evento \"Yo me llamo Natalia Jiménez\"!","category":"performing-arts","start":"2024-06-30T00:00:00Z","geo":{"geometry":{"coordinates":[-79.5202735,8.987174699999999],"type":"Point"},"placekey":"@cjh-ddv-kpv","address":{"country_code":"PA","formatted_address":"Calle 57 Este, Ciudad de Panamá, Provincia de Panamá, Panama","locality":"Panamá","region":"Provincia de Panamá"}},"labels":["concert","music","performing-arts"],"duration":10800,"start_local":"2024-06-29T19:00:00","end":"2024-06-30T03:00:00Z","end_local":"2024-06-29T22:00:00","updated":"2024-06-04T07:48:08Z"},{"title":"BBQ Fest Market Plaza 2024","description":"Sourced from predicthq.com - El BBQ Fest es un evento que reúne a todos los aficionados de la parrilla con los mejores sabores y calidad.","category":"festivals","start":"2024-06-29T16:00:00Z","geo":{"geometry":{"coordinates":[-79.7492067,8.889177499999999],"type":"Point"},"placekey":"@cjh-dmq-y35","address":{"country_code":"PA","formatted_address":"Boulevard Costa Verde, La Chorrera, Provincia de Panamá Oeste, Panama","locality":"La Chorrera","region":"Provincia de Panamá Oeste"}},"labels":["festival","food"],"duration":43200,"start_local":"2024-06-29T11:00:00","end":"2024-06-30T04:00:00Z","end_local":"2024-06-29T23:00:00","updated":"2024-06-04T01:18:31Z"},{"title":"Shh! Open Mic - Pride Edition","description":"Sourced from predicthq.com - Únete a celebrar el orgullo en este mes de Junio con una sesión especial de Shh! Open Mic en el PAC","category":"performing-arts","start":"2024-06-26T23:30:00Z","geo":{"geometry":{"coordinates":[-79.5825424,9.0022821],"type":"Point"},"placekey":"@cjh-dbr-gff","address":{"country_code":"PA","formatted_address":"Calle Alberto Tejada, Ciudad de Panamá, Provincia de Panamá, Panama","locality":"Panamá","region":"Provincia de Panamá"}},"labels":["concert","music","performing-arts"],"duration":5400,"start_local":"2024-06-26T18:30:00","end":"2024-06-27T01:00:00Z","end_local":"2024-06-26T20:00:00","updated":"2024-06-21T08:22:24Z"},{"title":"Sesión Informativa: Diplomado internacional en Direccion de Proyectos","description":"Sourced from predicthq.com - Únete al exclusivo Diplomado internacional en Direccion de proyectos y metodos agiles. \nMiercoles 26 de junio, 2024 - 6:00 P.M.","category":"conferences","start":"2024-06-26T23:00:00Z","geo":{"geometry":{"coordinates":[-79.5294821,8.9766132],"type":"Point"},"placekey":"@cjh-ddn-hbk","address":{"country_code":"PA","formatted_address":"Calle Venezuela, Ciudad de Panamá, Provincia de Panamá, Panama","locality":"Panamá","region":"Provincia de Panamá"}},"labels":["business","conference"],"duration":5400,"start_local":"2024-06-26T18:00:00","end":"2024-06-27T00:30:00Z","end_local":"2024-06-26T19:30:00","updated":"2024-06-13T00:43:08Z"},{"title":"APRENDE COMO ELIMINAR EL 95% DE TUS ENFERMEDADES","description":"Sourced from predicthq.com - LA MEDICINA METABOLICA TE AYUDA A ELIMINAR LAS ENFERMEDADES DE TU  VIDA. COSTO USD 5.00 RESERVA 66766885. PRESENTAR  RECIBO PAGO AL ENTRAR.","category":"conferences","start":"2024-06-23T19:00:00Z","geo":{"geometry":{"coordinates":[-79.7758403,8.885092900000002],"type":"Point"},"placekey":"@cjh-hpy-3t9","address":{"country_code":"PA","formatted_address":"8a Norte, La Chorrera, Provincia de Panamá Oeste, Panama","locality":"La Chorrera","region":"Provincia de Panamá Oeste"}},"labels":["conference","health"],"duration":7200,"start_local":"2024-06-23T14:00:00","end":"2024-06-23T21:00:00Z","end_local":"2024-06-23T16:00:00","updated":"2024-06-09T19:08:47Z"},{"title":"Open House QLU - Programas de licenciatura","description":"Sourced from predicthq.com - Open House QLU - Programas de licenciatura \n¡Conviertete en el lider que deseas ser!\nSábado, 22 de junio - 10:00 a.m.","category":"festivals","start":"2024-06-22T15:00:00Z","geo":{"geometry":{"coordinates":[-79.53032580000001,8.9767487],"type":"Point"},"placekey":"@cjh-ddn-h89","address":{"country_code":"PA","formatted_address":"Calle 45 Este, Ciudad de Panamá, Provincia de Panamá, Panama","locality":"Panamá","region":"Provincia de Panamá"}},"labels":["education","family","festival"],"duration":14400,"start_local":"2024-06-22T10:00:00","end":"2024-06-22T19:00:00Z","end_local":"2024-06-22T14:00:00","updated":"2024-05-23T04:00:26Z"},{"title":"Día de Geogebra","description":"Sourced from predicthq.com - Celebra el Día de Geogebra y aprende sobre los proyectos educativos que utilizan este software gratuito.","category":"festivals","start":"2024-06-22T14:00:00Z","geo":{"geometry":{"coordinates":[-79.51986959999999,8.9823792],"type":"Point"},"placekey":"@cjh-ddp-7kf","address":{"country_code":"PA","formatted_address":"Ciudad de Panamá, Provincia de Panamá, Panama","locality":"Panamá","region":"Provincia de Panamá"}},"labels":["festival","science","technology"],"duration":14400,"start_local":"2024-06-22T09:00:00","end":"2024-06-22T18:00:00Z","end_local":"2024-06-22T13:00:00","updated":"2024-06-04T02:43:17Z"},{"title":"WoSEC Conference Panamá 2024","description":"Sourced from predicthq.com - WoSEC Conf busca visibilizar el rol de la mujer en la tecnología, en un espacio de colaboración y conocimiento para todo público interesado.","category":"conferences","start":"2024-06-22T13:00:00Z","geo":{"geometry":{"coordinates":[-79.58284669999999,9.0027452],"type":"Point"},"placekey":"@cjh-dbr-gff","address":{"country_code":"PA","formatted_address":"Calle Alberto Tejada, Ciudad de Panamá, Provincia de Panamá, Panama","locality":"Panamá","region":"Provincia de Panamá"}},"labels":["conference","science","technology"],"duration":27000,"start_local":"2024-06-22T08:00:00","end":"2024-06-22T20:30:00Z","end_local":"2024-06-22T15:30:00","updated":"2024-06-06T02:52:40Z"},{"title":"Sesión Informativa DBA - Doctorado en Administración de Empresas","description":"Sourced from predicthq.com - Conocerás las ventajas y beneficios y asesoría de como aplicar\n20 de junio 2024  - 6:30 p.m.","category":"conferences","start":"2024-06-20T23:30:00Z","geo":{"geometry":{"coordinates":[-79.5294821,8.9766132],"type":"Point"},"placekey":"@cjh-ddn-hbk","address":{"country_code":"PA","formatted_address":"Calle Venezuela, Ciudad de Panamá, Provincia de Panamá, Panama","locality":"Panamá","region":"Provincia de Panamá"}},"labels":["business","conference"],"duration":0,"start_local":"2024-06-20T18:30:00","end":"2024-06-20T23:30:00Z","end_local":"2024-06-20T18:30:00","updated":"2024-06-13T00:34:26Z"},{"title":"Friendlies - Friendlies 1 - Panama vs Paraguay","description":"Sourced from predicthq.com","category":"sports","start":"2024-06-16T22:30:00Z","geo":{"geometry":{"coordinates":[-79.4695099,9.0358079],"type":"Point"},"placekey":"@cjh-kc6-ghq","address":{"country_code":"PA","formatted_address":"Calle 121 Este, Ciudad de Panamá, Panamá, Panama","locality":"Panamá","region":"Panamá"}},"labels":["soccer","sport"],"duration":149947,"start_local":"2024-06-16T17:30:00","end":"2024-06-18T16:09:07Z","end_local":"2024-06-18T11:09:07","updated":"2024-06-19T04:06:16Z"},{"title":"Pride Market - A Space for Everyone en Ciudad del Saber","description":"Sourced from predicthq.com - Únete a nosotros en el Pride Market 2024","category":"festivals","start":"2024-06-15T18:00:00Z","geo":{"geometry":{"coordinates":[-79.5825424,9.0022821],"type":"Point"},"placekey":"@cjh-dbr-gff","address":{"country_code":"PA","formatted_address":"Calle Alberto Tejada, Ciudad de Panamá, Provincia de Panamá, Panama","locality":"Panamá","region":"Provincia de Panamá"}},"labels":["community","festival"],"duration":18000,"start_local":"2024-06-15T13:00:00","end":"2024-06-15T23:00:00Z","end_local":"2024-06-15T18:00:00","updated":"2024-06-13T00:43:08Z"},{"title":"Sesión Informativa: Programa de Alta Dirección Empresarial PADE","description":"Sourced from predicthq.com - Únete al exclusivo Programa de Alta Dirección Empresarial (PADE) y transforma tu visión estratégica y capacidad de gestión.","category":"conferences","start":"2024-06-12T23:00:00Z","geo":{"geometry":{"coordinates":[-79.5294821,8.9766132],"type":"Point"},"placekey":"@cjh-ddn-hbk","address":{"country_code":"PA","formatted_address":"Calle Venezuela, Ciudad de Panamá, Provincia de Panamá, Panama","locality":"Panamá","region":"Provincia de Panamá"}},"labels":["business","conference"],"duration":5400,"start_local":"2024-06-12T18:00:00","end":"2024-06-13T00:30:00Z","end_local":"2024-06-12T19:30:00","updated":"2024-06-06T02:38:48Z"},{"title":"¡Descubre tu destino de estudio en España con CEU Universities!","description":"Sourced from predicthq.com - Descubre tu futuro académico en España con CEU Universities en un evento único lleno de oportunidades educativas de la mano de Edu-Growth.","category":"conferences","start":"2024-06-12T22:30:00Z","geo":{"geometry":{"coordinates":[-79.4753016,9.0097572],"type":"Point"},"placekey":"@cjh-kcb-wtv","address":{"country_code":"PA","formatted_address":"La Rotonda Avenue, Panamá, Panama","locality":"Panamá"}},"labels":["conference"],"duration":3600,"start_local":"2024-06-12T17:30:00","end":"2024-06-12T23:30:00Z","end_local":"2024-06-12T18:30:00","updated":"2024-06-06T02:41:16Z"},{"title":"FIEXPO Latin America","description":"Sourced from predicthq.com","category":"conferences","start":"2024-06-12T14:00:00Z","geo":{"geometry":{"coordinates":[-79.548027,8.937888],"type":"Point"},"placekey":"@cjh-dc5-syv","address":{"country_code":"PA","formatted_address":"Calle Gral. Juan D. Peron\nPanamá\nPanama","locality":"Panama City"}},"labels":["conference"],"duration":118800,"start_local":"2024-06-12T09:00:00","end":"2024-06-13T23:00:00Z","end_local":"2024-06-13T18:00:00","updated":"2024-06-02T22:10:34Z"},{"title":"IBNS Annual Meeting","description":"Sourced from predicthq.com","category":"conferences","start":"2024-06-11T14:00:00Z","geo":{"geometry":{"coordinates":[-79.57221,8.898337],"type":"Point"},"placekey":"@cjh-fyt-5mk","address":{"country_code":"PA","formatted_address":"Panama City, Panama","locality":"Panama City","region":"Panama"}},"labels":["conference"],"duration":464400,"start_local":"2024-06-11T09:00:00","end":"2024-06-16T23:00:00Z","end_local":"2024-06-16T18:00:00","updated":"2024-06-04T02:52:43Z"},{"title":"International Rice Conference for Latin America and the Caribbean. International Conference on Pyricularia in Rice and Wheat","description":"Sourced from predicthq.com","category":"conferences","start":"2024-06-10T14:00:00Z","geo":{"geometry":{"coordinates":[-79.501553,8.988922],"type":"Point"},"placekey":"@cjh-ddk-5fz","address":{"country_code":"PA","formatted_address":"Via israel and Calle 77\nSan Francisco\nPanama","locality":"Panama City"}},"labels":["conference"],"duration":378000,"start_local":"2024-06-10T09:00:00","end":"2024-06-14T23:00:00Z","end_local":"2024-06-14T18:00:00","updated":"2024-05-31T23:01:53Z"},{"title":"LPF - Apertura - Final - Tauro vs Plaza Amador","description":"Sourced from predicthq.com","category":"sports","start":"2024-06-02T00:15:00Z","geo":{"geometry":{"coordinates":[-79.4695099,9.0358079],"type":"Point"},"placekey":"@cjh-kc6-ghq","address":{"country_code":"PA","formatted_address":"Calle 121 Este, Ciudad de Panamá, Panamá, Panama","locality":"Panamá","region":"Panamá"}},"labels":["soccer","sport"],"duration":0,"start_local":"2024-06-01T19:15:00","end":"2024-06-02T00:15:00Z","end_local":"2024-06-01T19:15:00","updated":"2024-06-12T03:16:42Z"},{"title":"Delitos Financieros en 2024:","description":"Sourced from predicthq.com - Cumplimiento normativo, estándares y la próxima era regulatoria.","category":"conferences","start":"2024-05-30T18:30:00Z","geo":{"geometry":{"coordinates":[-79.5202735,8.987174699999999],"type":"Point"},"placekey":"@cjh-ddv-kpv","address":{"country_code":"PA","formatted_address":"Calle 57 Este, Ciudad de Panamá, Provincia de Panamá, Panama","locality":"Panamá","region":"Provincia de Panamá"}},"labels":["business","conference"],"duration":18000,"start_local":"2024-05-30T13:30:00","end":"2024-05-30T23:30:00Z","end_local":"2024-05-30T18:30:00","updated":"2024-06-05T07:43:36Z"},{"title":"Taller de Consultoría Gratuita: Impuesto de inmueble","description":"Sourced from predicthq.com - Todo lo que debes conocer para hacer tu impuesto de inmueble","category":"conferences","start":"2024-05-29T23:30:00Z","geo":{"geometry":{"coordinates":[-79.5294821,8.9766132],"type":"Point"},"placekey":"@cjh-ddn-hbk","address":{"country_code":"PA","formatted_address":"Calle Venezuela, Ciudad de Panamá, Provincia de Panamá, Panama","locality":"Panamá","region":"Provincia de Panamá"}},"labels":["business","conference"],"duration":5400,"start_local":"2024-05-29T18:30:00","end":"2024-05-30T01:00:00Z","end_local":"2024-05-29T20:00:00","updated":"2024-06-04T23:14:03Z"},{"title":"LPF - Apertura - Semi-finals - Deportivo del Este vs Plaza Amador","description":"Sourced from predicthq.com","category":"sports","start":"2024-05-26T01:00:00Z","geo":{"geometry":{"coordinates":[-79.51142835207388,9.04916104850561],"type":"Point"},"placekey":"@cjh-kcg-w8v","address":{"country_code":"PA","formatted_address":"Av. Los Andes 23, San Miguelito, Panama","locality":"San Miguelito","region":"Provincia de Panamá"}},"labels":["soccer","sport"],"duration":0,"start_local":"2024-05-25T20:00:00","end":"2024-05-26T01:00:00Z","end_local":"2024-05-25T20:00:00","updated":"2024-06-11T21:42:29Z"},{"title":"Taller: Escritutra creativa para mujeres afrodesendientes","description":"Sourced from predicthq.com - Taller creativo donde explorarámos las diversas formas en que pueden usar su creatividad para abordar y desafiar las injusticias raciales.","category":"conferences","start":"2024-05-25T18:00:00Z","geo":{"geometry":{"coordinates":[-79.5825424,9.0022821],"type":"Point"},"placekey":"@cjh-dbr-gff","address":{"country_code":"PA","formatted_address":"Calle Alberto Tejada, Ciudad de Panamá, Provincia de Panamá, Panama","locality":"Panamá","region":"Provincia de Panamá"}},"labels":["community","conference"],"duration":7200,"start_local":"2024-05-25T13:00:00","end":"2024-05-25T20:00:00Z","end_local":"2024-05-25T15:00:00","updated":"2024-06-04T22:41:35Z"},{"title":"LPF - Apertura - Semi-finals - San Francisco vs Tauro","description":"Sourced from predicthq.com","category":"sports","start":"2024-05-25T01:30:00Z","geo":{"geometry":{"coordinates":[-79.7755577,8.8875396],"type":"Point"},"placekey":"@cjh-dm8-bp9","address":{"country_code":"PA","formatted_address":"Calle 4ta Norte, La Chorrera, Panama","locality":"La Chorrera","region":"Panama"}},"labels":["soccer","sport"],"duration":0,"start_local":"2024-05-24T20:30:00","end":"2024-05-25T01:30:00Z","end_local":"2024-05-24T20:30:00","updated":"2024-06-12T09:11:34Z"},{"title":"Conversatorio: Mujeres Negras en el imaginario Panamaño","description":"Sourced from predicthq.com - Acompañanos a  explorar la representación y el papel de las mujeres negras en la cultura y sociedad panameña.","category":"conferences","start":"2024-05-24T10:30:00Z","geo":{"geometry":{"coordinates":[-79.5825424,9.0022821],"type":"Point"},"placekey":"@cjh-dbr-gff","address":{"country_code":"PA","formatted_address":"Calle Alberto Tejada, Ciudad de Panamá, Provincia de Panamá, Panama","locality":"Panamá","region":"Provincia de Panamá"}},"labels":["community","conference"],"duration":50400,"start_local":"2024-05-24T05:30:00","end":"2024-05-25T00:30:00Z","end_local":"2024-05-24T19:30:00","updated":"2024-06-05T04:08:45Z"},{"title":"Charla Informativa Maestrías 2024","description":"Sourced from predicthq.com - EXPLORAREMOS las oportunidades para ESTUDIAR  y te brindaremos asesoría para financiar tu maestría","category":"conferences","start":"2024-05-23T23:30:00Z","geo":{"geometry":{"coordinates":[-79.5320034,8.9774716],"type":"Point"},"placekey":"@cjh-ddn-hdv","address":{"country_code":"PA","formatted_address":"Ciudad de Panamá, Panamá, Panama","locality":"Panamá","region":"Panamá"}},"labels":["conference","education","family"],"duration":5400,"start_local":"2024-05-23T18:30:00","end":"2024-05-24T01:00:00Z","end_local":"2024-05-23T20:00:00","updated":"2024-06-12T00:38:28Z"},{"title":"MRC Latin Summit","description":"Sourced from predicthq.com","category":"conferences","start":"2024-05-23T14:00:00Z","geo":{"geometry":{"coordinates":[-79.520424,8.987785],"type":"Point"},"placekey":"@cjh-ddv-kzz","address":{"country_code":"PA","formatted_address":"Ciudad de Panamá, Provincia de Panamá, Panama","locality":"Panamá","region":"Provincia de Panamá"}},"labels":["conference"],"duration":205200,"start_local":"2024-05-23T09:00:00","end":"2024-05-25T23:00:00Z","end_local":"2024-05-25T18:00:00","updated":"2024-06-05T04:18:36Z"},{"title":"Inauguración del Festival Centroamérica Cuenta","description":"Sourced from predicthq.com - Inauguración del Festival Centroamérica Cuenta en Ciudad de Panamá, en conmemoración del centenario de nacimiento de la es","category":"festivals","start":"2024-05-23T00:00:00Z","geo":{"geometry":{"coordinates":[-79.53312559999999,8.9528341],"type":"Point"},"placekey":"@cjh-dc2-mrk","address":{"country_code":"PA","formatted_address":"Avenida B, Ciudad de Panamá, Provincia de Panamá, Panama","locality":"Panamá","region":"Provincia de Panamá"}},"labels":["community","festival"],"duration":3600,"start_local":"2024-05-22T19:00:00","end":"2024-05-23T01:00:00Z","end_local":"2024-05-22T20:00:00","updated":"2024-06-05T21:35:51Z"},{"title":"Maritime Week Americas","description":"Sourced from predicthq.com","category":"conferences","start":"2024-05-21T14:00:00Z","geo":{"geometry":{"coordinates":[-79.52251,8.975859],"type":"Point"},"placekey":"@cjh-ddp-c89","address":{"country_code":"PA","formatted_address":"XFGH+92V, Panama City, Panamá Province, Panama","locality":"Panama City","region":"Panamá Province"}},"labels":["conference"],"duration":205200,"start_local":"2024-05-21T09:00:00","end":"2024-05-23T23:00:00Z","end_local":"2024-05-23T18:00:00","updated":"2024-06-05T20:43:22Z"},{"title":"LPF - Apertura - Semi-finals - Plaza Amador vs Deportivo del Este","description":"Sourced from predicthq.com","category":"sports","start":"2024-05-19T01:00:00Z","geo":{"geometry":{"coordinates":[-79.443056176,9.034323404],"type":"Point"},"placekey":"@cjh-kbf-p35","address":{"country_code":"PA","formatted_address":"Ciudad de Panamá, Panama","locality":"Ciudad de Panamá"}},"labels":["soccer","sport"],"duration":0,"start_local":"2024-05-18T20:00:00","end":"2024-05-19T01:00:00Z","end_local":"2024-05-18T20:00:00","updated":"2024-06-11T23:57:07Z"},{"title":"LPF - Apertura - Semi-finals - Tauro vs San Francisco","description":"Sourced from predicthq.com","category":"sports","start":"2024-05-18T21:00:00Z","geo":{"geometry":{"coordinates":[-79.53383266925812,8.987888671977004],"type":"Point"},"placekey":"@cjh-ddv-xnq","address":{"country_code":"PA","formatted_address":"Colegio del Artes y Oficios, Via Simon Bolivar, Ciudad de Panamá, Panama","locality":"Ciudad de Panamá"}},"labels":["soccer","sport"],"duration":0,"start_local":"2024-05-18T16:00:00","end":"2024-05-18T21:00:00Z","end_local":"2024-05-18T16:00:00","updated":"2024-06-12T14:31:22Z"},{"title":"AAANZ Regional Conference","description":"Sourced from predicthq.com","category":"conferences","start":"2024-05-16T14:00:00Z","geo":{"geometry":{"coordinates":[-79.506938,8.975119],"type":"Point"},"placekey":"@cjh-ddj-yd9","address":{"country_code":"PA","formatted_address":"Calle Punta Colon\nPanamá\nPanama","locality":"Panama City"}},"labels":["conference"],"duration":205200,"start_local":"2024-05-16T09:00:00","end":"2024-05-18T23:00:00Z","end_local":"2024-05-18T18:00:00","updated":"2024-06-30T12:56:46Z"},{"title":"LPF - Apertura - Play-offs - Herrera vs Plaza Amador","description":"Sourced from predicthq.com","category":"sports","start":"2024-05-12T22:00:00Z","geo":{"geometry":{"coordinates":[-80.93461177171399,8.048640587038857],"type":"Point"},"placekey":"@cjh-34x-mkz","address":{"country_code":"PA","formatted_address":"Unnamed Road, 23X8+F5M, Atalaya, Panama","locality":"Atalaya","region":"Provincia de Veraguas"}},"labels":["soccer","sport"],"duration":0,"start_local":"2024-05-12T17:00:00","end":"2024-05-12T22:00:00Z","end_local":"2024-05-12T17:00:00","updated":"2024-06-12T09:04:38Z"},{"title":"Novadiccion","description":"Sourced from predicthq.com","category":"concerts","start":"2024-05-12T01:30:00Z","geo":{"geometry":{"coordinates":[-79.50535,8.99128],"type":"Point"},"placekey":"@cjh-ddk-8n5","address":{"country_code":"PA","formatted_address":"Calle74 San Francisco, Edificio Midtown, Piso 16, Oficina 1605, Panama City, Panamá Province, Panama","locality":"Panama City","region":"Panamá Province"}},"labels":["concert","music"],"duration":0,"start_local":"2024-05-11T20:30:00","end":"2024-05-12T01:30:00Z","end_local":"2024-05-11T20:30:00","updated":"2024-06-12T02:09:55Z"},{"title":"LPF - Apertura - Play-offs - Tauro vs Independiente","description":"Sourced from predicthq.com","category":"sports","start":"2024-05-11T20:00:00Z","geo":{"geometry":{"coordinates":[-79.53383266925812,8.987888671977004],"type":"Point"},"placekey":"@cjh-ddv-xnq","address":{"country_code":"PA","formatted_address":"Colegio del Artes y Oficios, Via Simon Bolivar, Ciudad de Panamá, Panama","locality":"Ciudad de Panamá"}},"labels":["soccer","sport"],"duration":0,"start_local":"2024-05-11T15:00:00","end":"2024-05-11T20:00:00Z","end_local":"2024-05-11T15:00:00","updated":"2024-06-11T22:40:54Z"},{"title":"Digital Network Summit","description":"Sourced from predicthq.com","category":"conferences","start":"2024-05-08T00:00:41Z","geo":{"geometry":{"coordinates":[-79.5166259,8.984337799999999],"type":"Point"},"placekey":"@cjh-ddj-rp9","address":{"country_code":"PA","formatted_address":"Ciudad de Panamá, Provincia de Panamá, Panama","locality":"Panamá","region":"Provincia de Panamá"}},"labels":["business","conference"],"duration":7200,"start_local":"2024-05-07T19:00:41","end":"2024-05-08T02:00:41Z","end_local":"2024-05-07T21:00:41","updated":"2024-06-04T22:55:46Z"},{"title":"Election for Panamanian Presidency","description":"Sourced from predicthq.com - At Stake in this Election: \n\n\n\n\nPresidency of Panama \n\n\n\n\nThe National Assembly election, as well as subnational elections, will take place concurrently. \n\n\nGovernment Structure:  \n\n\n\n\nChief of State: President Laurentino “Nito” CORTIZO Cohen (since 1 July 2019) \n\n\nHead of Government: President Laurentino “Nito” CORTIZO Cohen (since 1 July 2019) \n\n\nAssembly: unicameral National Assembly (Asamblea Nacional) with 71 seats \n\n\n\n\nElectoral System:  \n\n\n\n\nThe President is directly elected by simple majority vote along with a vice president on the same ballot. The presidential term is 5 years. While there is no absolute term limit, the President may not serve consecutive terms.  \n\n\nIn the National Assembly, 45 members are directly elected by open-list proportional representation vote from multi-seat constituencies. The remaining 26 members are directly elected by plurality vote from single-seat districts. All 71 members serve 5-year terms, and there are no term limits. \n\n\n\n\nLast Election: \n\n\nIn the 2019 presidential election, Laurentino “Nito” CORTIZO (PRD) won with 33.35% of the vote. Voter turnout was 72.93%. \n\n\nInformation for Voters: \n\n\nVerify Your Information to Find Where to Vote / Verifícate para conocer dónde vas a votar (in Spanish) \n\n\nNew/Unique in this Election:  \n\n\n\n\nOn 22 October 2021, the National Assembly passed Law 247, modifying many components of the electoral code. The law recategorizes and expands electoral crimes. Additionally, the law prohibits parties and candidates from accepting donations from government contractors or concessionaires, religious organizations, or individuals convicted of certain crimes (drug/human trafficking, terrorism, etc.). The campaign period for general elections was increased from 60 to 90 days, and “campaigning” was redefined to include only paid activities. \n\n\nIn March 2024, the Supreme Electoral Tribunal (TSE) rejected former president Ricardo Martinelli’s presidential candidacy on the grounds that he had been sentenced to five years in prison on 17 July 2023 for crimes of corruption. José Raúl Molino, formerly Martinelli’s running mate, will become the presidential candidate for the Realizando Metas and Alianza parties in his stead. \n\n\nKey Deadlines: \n\n\n\n\nCandidate filing deadline: Varies by affiliation \n\n\n\n\n\n\nPolitical parties must submit their candidate lists by 31 December 2023. \n\n\nCandidates not affiliated with a political party must apply for pre-candidacy by 31 July 2022 and submit voter signatures by 31 July 2023. \n\n\n\n\n\n\nVoter registration deadline: N/A; All Panamanians who have a national ID card and who will be 18 by election day are automatically included on the voter roll. The voter roll will close on 5 January 2023. \n\n\n\n\n\n\nOverseas residents must register by 27 December 2023 to be included in the overseas voter roll. \n\n\n\n\nMain Candidates in this Election: \n\n\n\n\nJosé Gabriel CARRIZO \n\n\n\n\n\n\nPRD and MOLIRENA \n\n\n\n\n\n\nMartín TORRIJOS \n\n\n\n\n\n\nPartido Popular \n\n\n\n\n\n\nRómulo ROUX \n\n\n\n\n\n\nCambio Democrático and Partido Panameñista \n\n\n\n\n\n\nJosé Raúl MULINO \n\n\n\n\n\n\nRealizando Metas and Alianza \n\n\n\n\n\n\nRicardo LOMBANA \n\n\n\n\n\n\n\n\nMOCA \n\n\n\n\n\n\nZulay RODRÍGUEZ \n\n\n\n\n\n\nIndependent \n\n\n\n\n\n\nMaribel GORDÓN \n\n\n\n\n\n\nIndependent \n\n\n\n\n\n\nMeliton A. ARROCHA Ruíz \n\n\n\n\n\n\nIndependent \n\n\n\n\nPopulation and Registered Voters: \n\n\n\n\nPopulation: 4,408,580 (2022 est.) \n\n\nRegistered Voters: 3,004,083 (2024) \n\n\n\n\nGender Data: \n\n\n\n\nFemale Population: 2,204,170 (2022 est.) \n\n\nCEDAW Status: Signed 26 June 1980, Ratified 29 October 1981 \n\n\nGender Quota:  Yes, party lists for National Assembly, mayors, and local councils must alternate between male and female candidates. \n\n\nFemale Candidates in this election: Yes \n\n\nNumber of Female Legislators (pre-election): 16 out of 71 (22.5%) in the National Assembly \n\n\nHuman Development Index (HDI) Position: 0.820, Very High, Rank 57 (2022) \n\n\nSocial Institutions and Gender Index (SIGI) Categorization: 15.2 (2023) \n\n\n\n\n\n\nDisability Data: \n\n\n\n\nCRPD Status: Signed 30 March 2007, Ratified 7 August 2007 \n\n\nProjected population with a disability: 705,373 (2022 est.) \n\n\n\n\nIFES Resources: \n\n\n\n\nDoes IFES have a presence in Panama: No \n\n\nElection Access: Yes \n\n\nElection Judgements:  Yes, 4 judgements and 5 resources","category":"politics","start":"2024-05-05T00:00:00Z","geo":{"geometry":{"coordinates":[-80.782127,8.537981],"type":"Point"},"address":{"country_code":"PA","formatted_address":"Panama"}},"labels":["election","politics","president"],"duration":86399,"start_local":"2024-05-05T00:00:00","end":"2024-05-05T23:59:59Z","end_local":"2024-05-05T23:59:59","updated":"2024-06-12T06:47:14Z"},{"title":"Election for Asamblea Nacional (Panamanian National Assembly)","description":"Sourced from predicthq.com","category":"politics","start":"2024-05-05T00:00:00Z","geo":{"geometry":{"coordinates":[-80.782127,8.537981],"type":"Point"},"address":{"country_code":"PA","formatted_address":"Panama"}},"labels":["election","parliament","politics"],"duration":86399,"start_local":"2024-05-05T00:00:00","end":"2024-05-05T23:59:59Z","end_local":"2024-05-05T23:59:59","updated":"2024-06-12T02:55:58Z"},{"title":"Bitcoin Blockchain: Be your own Bank Testimonials & Politics.","description":"Sourced from predicthq.com - Descubre Bitcoin Blockchain en Bar Cryptos! Únete a nosotros para una noche de sabiduría, networking y empoderamiento financiero.","category":"conferences","start":"2024-05-03T01:00:00Z","geo":{"geometry":{"coordinates":[-79.53001689999999,9.0023745],"type":"Point"},"placekey":"@cjh-ddw-fxq","address":{"country_code":"PA","formatted_address":"Calle Harry Heno, Ciudad de Panamá, Provincia de Panamá, Panama","locality":"Panamá","region":"Provincia de Panamá"}},"labels":["conference","science","technology"],"duration":10800,"start_local":"2024-05-02T20:00:00","end":"2024-05-03T04:00:00Z","end_local":"2024-05-02T23:00:00","updated":"2024-06-12T07:02:42Z"},{"title":"LPF - Apertura - Veraguas United vs San Francisco","description":"Sourced from predicthq.com","category":"sports","start":"2024-05-03T01:00:00Z","geo":{"geometry":{"coordinates":[-80.93461177171399,8.048640587038857],"type":"Point"},"placekey":"@cjh-34x-mkz","address":{"country_code":"PA","formatted_address":"Unnamed Road, 23X8+F5M, Atalaya, Panama","locality":"Atalaya","region":"Provincia de Veraguas"}},"labels":["soccer","sport"],"duration":0,"start_local":"2024-05-02T20:00:00","end":"2024-05-03T01:00:00Z","end_local":"2024-05-02T20:00:00","updated":"2024-06-11T22:12:30Z"},{"title":"LPF - Apertura - Independiente vs Herrera","description":"Sourced from predicthq.com","category":"sports","start":"2024-05-03T01:00:00Z","geo":{"geometry":{"coordinates":[-79.7755577,8.8875396],"type":"Point"},"placekey":"@cjh-dm8-bp9","address":{"country_code":"PA","formatted_address":"Calle 4ta Norte, La Chorrera, Panama","locality":"La Chorrera","region":"Panama"}},"labels":["soccer","sport"],"duration":0,"start_local":"2024-05-02T20:00:00","end":"2024-05-03T01:00:00Z","end_local":"2024-05-02T20:00:00","updated":"2024-06-12T02:20:21Z"},{"title":"LPF - Apertura - UMECIT vs Universitario","description":"Sourced from predicthq.com","category":"sports","start":"2024-05-03T01:00:00Z","geo":{"geometry":{"coordinates":[-79.51142835207388,9.04916104850561],"type":"Point"},"placekey":"@cjh-kcg-w8v","address":{"country_code":"PA","formatted_address":"Av. Los Andes 23, San Miguelito, Panama","locality":"San Miguelito","region":"Provincia de Panamá"}},"labels":["soccer","sport"],"duration":0,"start_local":"2024-05-02T20:00:00","end":"2024-05-03T01:00:00Z","end_local":"2024-05-02T20:00:00","updated":"2024-06-12T03:25:31Z"},{"title":"LPF - Apertura - Plaza Amador vs Árabe Unido","description":"Sourced from predicthq.com","category":"sports","start":"2024-05-02T21:00:00Z","geo":{"geometry":{"coordinates":[-79.443056176,9.034323404],"type":"Point"},"placekey":"@cjh-kbf-p35","address":{"country_code":"PA","formatted_address":"Ciudad de Panamá, Panama","locality":"Ciudad de Panamá"}},"labels":["soccer","sport"],"duration":0,"start_local":"2024-05-02T16:00:00","end":"2024-05-02T21:00:00Z","end_local":"2024-05-02T16:00:00","updated":"2024-06-12T08:11:11Z"},{"title":"LPF - Apertura - Alianza vs Sporting San Miguelito","description":"Sourced from predicthq.com","category":"sports","start":"2024-05-02T21:00:00Z","geo":{"geometry":{"coordinates":[-79.53383266925812,8.987888671977004],"type":"Point"},"placekey":"@cjh-ddv-xnq","address":{"country_code":"PA","formatted_address":"Colegio del Artes y Oficios, Via Simon Bolivar, Ciudad de Panamá, Panama","locality":"Ciudad de Panamá"}},"labels":["soccer","sport"],"duration":0,"start_local":"2024-05-02T16:00:00","end":"2024-05-02T21:00:00Z","end_local":"2024-05-02T16:00:00","updated":"2024-06-11T21:32:22Z"},{"title":"LPF - Apertura - Tauro vs Deportivo del Este","description":"Sourced from predicthq.com","category":"sports","start":"2024-05-02T21:00:00Z","geo":{"geometry":{"coordinates":[-79.7755577,8.8875396],"type":"Point"},"placekey":"@cjh-dm8-bp9","address":{"country_code":"PA","formatted_address":"Calle 4ta Norte, La Chorrera, Panama","locality":"La Chorrera","region":"Panama"}},"labels":["soccer","sport"],"duration":0,"start_local":"2024-05-02T16:00:00","end":"2024-05-02T21:00:00Z","end_local":"2024-05-02T16:00:00","updated":"2024-06-12T14:55:54Z"},{"title":"Money-Fest 2024","description":"Sourced from predicthq.com - Get ready for Money-Fest 2024, where we'll be diving deep into all things money, from investing to budgeting and beyond!","category":"conferences","start":"2024-04-28T19:00:00Z","geo":{"geometry":{"coordinates":[-82.24291699999999,9.3433277],"type":"Point"},"placekey":"@cjh-rqb-snq","address":{"country_code":"PA","formatted_address":"Bocas del Toro, Panama","locality":"Bocas del Toro"}},"labels":["business","conference"],"duration":7200,"start_local":"2024-04-28T14:00:00","end":"2024-04-28T21:00:00Z","end_local":"2024-04-28T16:00:00","updated":"2024-06-05T07:38:41Z"},{"title":"LPF - Apertura - Deportivo del Este vs Plaza Amador","description":"Sourced from predicthq.com","category":"sports","start":"2024-04-28T01:00:00Z","geo":{"geometry":{"coordinates":[-79.51142835207388,9.04916104850561],"type":"Point"},"placekey":"@cjh-kcg-w8v","address":{"country_code":"PA","formatted_address":"Av. Los Andes 23, San Miguelito, Panama","locality":"San Miguelito","region":"Provincia de Panamá"}},"labels":["soccer","sport"],"duration":0,"start_local":"2024-04-27T20:00:00","end":"2024-04-28T01:00:00Z","end_local":"2024-04-27T20:00:00","updated":"2024-06-12T13:45:51Z"},{"title":"LPF - Apertura - Tauro vs Alianza","description":"Sourced from predicthq.com","category":"sports","start":"2024-04-28T01:00:00Z","geo":{"geometry":{"coordinates":[-79.7755577,8.8875396],"type":"Point"},"placekey":"@cjh-dm8-bp9","address":{"country_code":"PA","formatted_address":"Calle 4ta Norte, La Chorrera, Panama","locality":"La Chorrera","region":"Panama"}},"labels":["soccer","sport"],"duration":0,"start_local":"2024-04-27T20:00:00","end":"2024-04-28T01:00:00Z","end_local":"2024-04-27T20:00:00","updated":"2024-06-12T11:00:39Z"},{"title":"LPF - Apertura - Independiente vs Universitario","description":"Sourced from predicthq.com","category":"sports","start":"2024-04-27T21:00:00Z","geo":{"geometry":{"coordinates":[-79.7755577,8.8875396],"type":"Point"},"placekey":"@cjh-dm8-bp9","address":{"country_code":"PA","formatted_address":"Calle 4ta Norte, La Chorrera, Panama","locality":"La Chorrera","region":"Panama"}},"labels":["soccer","sport"],"duration":0,"start_local":"2024-04-27T16:00:00","end":"2024-04-27T21:00:00Z","end_local":"2024-04-27T16:00:00","updated":"2024-06-12T09:02:27Z"},{"title":"LPF - Apertura - Árabe Unido vs Sporting San Miguelito","description":"Sourced from predicthq.com","category":"sports","start":"2024-04-27T21:00:00Z","geo":{"geometry":{"coordinates":[-79.53383266925812,8.987888671977004],"type":"Point"},"placekey":"@cjh-ddv-xnq","address":{"country_code":"PA","formatted_address":"Colegio del Artes y Oficios, Via Simon Bolivar, Ciudad de Panamá, Panama","locality":"Ciudad de Panamá"}},"labels":["soccer","sport"],"duration":0,"start_local":"2024-04-27T16:00:00","end":"2024-04-27T21:00:00Z","end_local":"2024-04-27T16:00:00","updated":"2024-06-12T02:59:45Z"},{"title":"LPF - Apertura - UMECIT vs San Francisco","description":"Sourced from predicthq.com","category":"sports","start":"2024-04-27T21:00:00Z","geo":{"geometry":{"coordinates":[-80.93461177171399,8.048640587038857],"type":"Point"},"placekey":"@cjh-34x-mkz","address":{"country_code":"PA","formatted_address":"Unnamed Road, 23X8+F5M, Atalaya, Panama","locality":"Atalaya","region":"Provincia de Veraguas"}},"labels":["soccer","sport"],"duration":0,"start_local":"2024-04-27T16:00:00","end":"2024-04-27T21:00:00Z","end_local":"2024-04-27T16:00:00","updated":"2024-06-12T05:10:03Z"},{"title":"LPF - Apertura - Herrera vs Veraguas United","description":"Sourced from predicthq.com","category":"sports","start":"2024-04-27T21:00:00Z","geo":{"geometry":{"coordinates":[-80.3398666382,8.4931020737],"type":"Point"},"placekey":"@cjg-6h6-xbk","address":{"country_code":"PA","formatted_address":"FMV6+63 Llano Marín, Panama","locality":"Llano Marín","region":"Coclé Province"}},"labels":["soccer","sport"],"duration":0,"start_local":"2024-04-27T16:00:00","end":"2024-04-27T21:00:00Z","end_local":"2024-04-27T16:00:00","updated":"2024-06-12T04:51:49Z"},{"title":"Air Supply","description":"Sourced from predicthq.com","category":"concerts","start":"2024-04-26T00:00:00Z","geo":{"geometry":{"coordinates":[-79.49994,8.98932],"type":"Point"},"placekey":"@cjh-ddk-59f","address":{"country_code":"PA","formatted_address":"Atlapa, Panama City, Panama","locality":"Panama City"}},"labels":["concert","music"],"duration":0,"start_local":"2024-04-25T19:00:00","end":"2024-04-26T00:00:00Z","end_local":"2024-04-25T19:00:00","updated":"2024-06-12T19:08:46Z"},{"title":"Hablemos de la Adolescencia","description":"Sourced from predicthq.com - ¡Ven y hablemos de todos los temas relacionados con la adolescencia en un ambiente sin juicios!","category":"conferences","start":"2024-04-25T22:30:00Z","geo":{"geometry":{"coordinates":[-79.4772663,9.007891299999999],"type":"Point"},"placekey":"@cjh-kcb-75z","address":{"country_code":"PA","formatted_address":"Avenida Paseo del Mar, Ciudad de Panamá, Provincia de Panamá, Panama","locality":"Panamá","region":"Provincia de Panamá"}},"labels":["conference","education","family"],"duration":9000,"start_local":"2024-04-25T17:30:00","end":"2024-04-26T01:00:00Z","end_local":"2024-04-25T20:00:00","updated":"2024-06-05T12:40:25Z"},{"title":"Congreso Nacional de Ventas Panamá","description":"Sourced from predicthq.com - Descubre cómo maximizar tus resultados y eficiencia en el mundo de las ventas.","category":"conferences","start":"2024-04-25T13:00:00Z","geo":{"geometry":{"coordinates":[-79.5210583,8.9811366],"type":"Point"},"placekey":"@cjh-ddp-4vz","address":{"country_code":"PA","formatted_address":"Calle 50, Ciudad de Panamá, Panamá, Panama","locality":"Panamá","region":"Panamá"}},"labels":["business","conference"],"duration":36000,"start_local":"2024-04-25T08:00:00","end":"2024-04-25T23:00:00Z","end_local":"2024-04-25T18:00:00","updated":"2024-05-27T00:51:38Z"},{"title":"LPF - Apertura - Sporting San Miguelito vs Deportivo del Este","description":"Sourced from predicthq.com","category":"sports","start":"2024-04-21T23:15:00Z","geo":{"geometry":{"coordinates":[-79.51142835207388,9.04916104850561],"type":"Point"},"placekey":"@cjh-kcg-w8v","address":{"country_code":"PA","formatted_address":"Av. Los Andes 23, San Miguelito, Panama","locality":"San Miguelito","region":"Provincia de Panamá"}},"labels":["soccer","sport"],"duration":0,"start_local":"2024-04-21T18:15:00","end":"2024-04-21T23:15:00Z","end_local":"2024-04-21T18:15:00","updated":"2024-06-12T04:05:32Z"},{"title":"LPF - Apertura - UMECIT vs Independiente","description":"Sourced from predicthq.com","category":"sports","start":"2024-04-21T21:00:00Z","geo":{"geometry":{"coordinates":[-80.93461177171399,8.048640587038857],"type":"Point"},"placekey":"@cjh-34x-mkz","address":{"country_code":"PA","formatted_address":"Unnamed Road, 23X8+F5M, Atalaya, Panama","locality":"Atalaya","region":"Provincia de Veraguas"}},"labels":["soccer","sport"],"duration":0,"start_local":"2024-04-21T16:00:00","end":"2024-04-21T21:00:00Z","end_local":"2024-04-21T16:00:00","updated":"2024-06-12T02:57:20Z"},{"title":"LPF - Apertura - Plaza Amador vs Tauro","description":"Sourced from predicthq.com","category":"sports","start":"2024-04-21T01:30:00Z","geo":{"geometry":{"coordinates":[-79.443056176,9.034323404],"type":"Point"},"placekey":"@cjh-kbf-p35","address":{"country_code":"PA","formatted_address":"Ciudad de Panamá, Panama","locality":"Ciudad de Panamá"}},"labels":["soccer","sport"],"duration":0,"start_local":"2024-04-20T20:30:00","end":"2024-04-21T01:30:00Z","end_local":"2024-04-20T20:30:00","updated":"2024-06-12T07:59:57Z"},{"title":"LPF - Apertura - Universitario vs Veraguas United","description":"Sourced from predicthq.com","category":"sports","start":"2024-04-20T23:15:00Z","geo":{"geometry":{"coordinates":[-80.33176625350725,8.48558109852931],"type":"Point"},"placekey":"@cjg-6hg-85f","address":{"country_code":"PA","formatted_address":"Penonomé, Panama","locality":"Penonomé"}},"labels":["soccer","sport"],"duration":0,"start_local":"2024-04-20T18:15:00","end":"2024-04-20T23:15:00Z","end_local":"2024-04-20T18:15:00","updated":"2024-06-11T21:03:02Z"},{"title":"Silbidos en el bosque","description":"Sourced from predicthq.com - Un vecindario de altura recibe a una nueva inquilina que no se anda por las ramas. \nNo todas las melodías suenan igual.","category":"festivals","start":"2024-04-20T22:30:00Z","geo":{"geometry":{"coordinates":[-80.35285379999999,8.511114599999999],"type":"Point"},"placekey":"@cjg-6gs-xdv","address":{"country_code":"PA","formatted_address":"Penonome, Coclé Province, Panama","locality":"Penonome","region":"Coclé Province"}},"labels":["festival","performing-arts"],"duration":3600,"start_local":"2024-04-20T17:30:00","end":"2024-04-20T23:30:00Z","end_local":"2024-04-20T18:30:00","updated":"2024-06-04T23:23:46Z"},{"title":"LPF - Apertura - Herrera vs San Francisco","description":"Sourced from predicthq.com","category":"sports","start":"2024-04-20T21:00:00Z","geo":{"geometry":{"coordinates":[-80.93461177171399,8.048640587038857],"type":"Point"},"placekey":"@cjh-34x-mkz","address":{"country_code":"PA","formatted_address":"Unnamed Road, 23X8+F5M, Atalaya, Panama","locality":"Atalaya","region":"Provincia de Veraguas"}},"labels":["soccer","sport"],"duration":0,"start_local":"2024-04-20T16:00:00","end":"2024-04-20T21:00:00Z","end_local":"2024-04-20T16:00:00","updated":"2024-06-12T05:03:43Z"},{"title":"LPF - Apertura - Árabe Unido vs Alianza","description":"Sourced from predicthq.com","category":"sports","start":"2024-04-20T01:00:00Z","geo":{"geometry":{"coordinates":[-79.7755577,8.8875396],"type":"Point"},"placekey":"@cjh-dm8-bp9","address":{"country_code":"PA","formatted_address":"Calle 4ta Norte, La Chorrera, Panama","locality":"La Chorrera","region":"Panama"}},"labels":["soccer","sport"],"duration":0,"start_local":"2024-04-19T20:00:00","end":"2024-04-20T01:00:00Z","end_local":"2024-04-19T20:00:00","updated":"2024-06-12T05:28:31Z"},{"title":"La hermana más grande del mundo","description":"Sourced from predicthq.com - ¡Ven a celebrar a la hermana más grande del mundo con música, comida y diversión para toda la familia!","category":"festivals","start":"2024-04-19T22:30:00Z","geo":{"geometry":{"coordinates":[-80.35285379999999,8.511114599999999],"type":"Point"},"placekey":"@cjg-6gs-xdv","address":{"country_code":"PA","formatted_address":"Penonome, Coclé Province, Panama","locality":"Penonome","region":"Coclé Province"}},"labels":["education","family","festival"],"duration":3600,"start_local":"2024-04-19T17:30:00","end":"2024-04-19T23:30:00Z","end_local":"2024-04-19T18:30:00","updated":"2024-06-05T11:54:07Z"},{"title":"EXPO VIVIENDA CAPAC","description":"Sourced from predicthq.com","category":"expos","start":"2024-04-18T14:00:00Z","geo":{"geometry":{"coordinates":[-79.548027,8.937888],"type":"Point"},"placekey":"@cjh-dc5-syv","address":{"country_code":"PA","formatted_address":"Calle Gral. Juan D. Peron\nPanamá\nPanama","locality":"Panama City"}},"labels":["expo"],"duration":291600,"start_local":"2024-04-18T09:00:00","end":"2024-04-21T23:00:00Z","end_local":"2024-04-21T18:00:00","updated":"2024-06-05T15:45:49Z"},{"title":"Día Deportivo QLU","description":"Sourced from predicthq.com - Día Deportivo QLU\nFecha: jueves, 18 de abril\nHora: 1:00 p.m. - 5:00 p.m.\nLugar: Parque Ciudad del Saber","category":"community","start":"2024-04-18T06:00:00Z","geo":{"geometry":{"coordinates":[-79.5814145,9.0014031],"type":"Point"},"placekey":"@cjh-dbr-cwk","address":{"country_code":"PA","formatted_address":"Panama City, Panamá Province, Panama","locality":"Panama City","region":"Panamá Province"}},"labels":["community","sport"],"duration":14400,"start_local":"2024-04-18T01:00:00","end":"2024-04-18T10:00:00Z","end_local":"2024-04-18T05:00:00","updated":"2024-06-04T22:15:01Z"},{"title":"LPF - Apertura - Independiente vs Veraguas United","description":"Sourced from predicthq.com","category":"sports","start":"2024-04-18T01:30:00Z","geo":{"geometry":{"coordinates":[-79.7755577,8.8875396],"type":"Point"},"placekey":"@cjh-dm8-bp9","address":{"country_code":"PA","formatted_address":"Calle 4ta Norte, La Chorrera, Panama","locality":"La Chorrera","region":"Panama"}},"labels":["soccer","sport"],"duration":0,"start_local":"2024-04-17T20:30:00","end":"2024-04-18T01:30:00Z","end_local":"2024-04-17T20:30:00","updated":"2024-06-11T22:32:34Z"},{"title":"LPF - Apertura - Herrera vs UMECIT","description":"Sourced from predicthq.com","category":"sports","start":"2024-04-17T23:15:00Z","geo":{"geometry":{"coordinates":[-80.93461177171399,8.048640587038857],"type":"Point"},"placekey":"@cjh-34x-mkz","address":{"country_code":"PA","formatted_address":"Unnamed Road, 23X8+F5M, Atalaya, Panama","locality":"Atalaya","region":"Provincia de Veraguas"}},"labels":["soccer","sport"],"duration":0,"start_local":"2024-04-17T18:15:00","end":"2024-04-17T23:15:00Z","end_local":"2024-04-17T18:15:00","updated":"2024-06-12T02:57:11Z"},{"title":"LPF - Apertura - Alianza vs Deportivo del Este","description":"Sourced from predicthq.com","category":"sports","start":"2024-04-17T21:00:00Z","geo":{"geometry":{"coordinates":[-79.53383266925812,8.987888671977004],"type":"Point"},"placekey":"@cjh-ddv-xnq","address":{"country_code":"PA","formatted_address":"Colegio del Artes y Oficios, Via Simon Bolivar, Ciudad de Panamá, Panama","locality":"Ciudad de Panamá"}},"labels":["soccer","sport"],"duration":0,"start_local":"2024-04-17T16:00:00","end":"2024-04-17T21:00:00Z","end_local":"2024-04-17T16:00:00","updated":"2024-06-12T00:13:31Z"},{"title":"LPF - Apertura - Universitario vs San Francisco","description":"Sourced from predicthq.com","category":"sports","start":"2024-04-17T01:30:00Z","geo":{"geometry":{"coordinates":[-80.33176625350725,8.48558109852931],"type":"Point"},"placekey":"@cjg-6hg-85f","address":{"country_code":"PA","formatted_address":"Penonomé, Panama","locality":"Penonomé"}},"labels":["soccer","sport"],"duration":0,"start_local":"2024-04-16T20:30:00","end":"2024-04-17T01:30:00Z","end_local":"2024-04-16T20:30:00","updated":"2024-06-11T20:50:14Z"},{"title":"Taller de Consultoría Gratuita: Facturación electrónica","description":"Sourced from predicthq.com - Lo que debes saber sobre la facturación electrónica y el facturador gratuito de la DGI","category":"conferences","start":"2024-04-16T23:30:00Z","geo":{"geometry":{"coordinates":[-79.5294821,8.9766132],"type":"Point"},"placekey":"@cjh-ddn-hbk","address":{"country_code":"PA","formatted_address":"Calle Venezuela, Ciudad de Panamá, Provincia de Panamá, Panama","locality":"Panamá","region":"Provincia de Panamá"}},"labels":["business","conference"],"duration":5400,"start_local":"2024-04-16T18:30:00","end":"2024-04-17T01:00:00Z","end_local":"2024-04-16T20:00:00","updated":"2024-06-05T11:57:00Z"},{"title":"LPF - Apertura - Plaza Amador vs Sporting San Miguelito","description":"Sourced from predicthq.com","category":"sports","start":"2024-04-16T23:15:00Z","geo":{"geometry":{"coordinates":[-79.7755577,8.8875396],"type":"Point"},"placekey":"@cjh-dm8-bp9","address":{"country_code":"PA","formatted_address":"Calle 4ta Norte, La Chorrera, Panama","locality":"La Chorrera","region":"Panama"}},"labels":["soccer","sport"],"duration":0,"start_local":"2024-04-16T18:15:00","end":"2024-04-16T23:15:00Z","end_local":"2024-04-16T18:15:00","updated":"2024-06-12T11:55:43Z"},{"title":"LPF - Apertura - Tauro vs Árabe Unido","description":"Sourced from predicthq.com","category":"sports","start":"2024-04-16T21:00:00Z","geo":{"geometry":{"coordinates":[-79.53383266925812,8.987888671977004],"type":"Point"},"placekey":"@cjh-ddv-xnq","address":{"country_code":"PA","formatted_address":"Colegio del Artes y Oficios, Via Simon Bolivar, Ciudad de Panamá, Panama","locality":"Ciudad de Panamá"}},"labels":["soccer","sport"],"duration":0,"start_local":"2024-04-16T16:00:00","end":"2024-04-16T21:00:00Z","end_local":"2024-04-16T16:00:00","updated":"2024-06-12T07:47:09Z"},{"title":"LPF - Apertura - Universitario vs Herrera","description":"Sourced from predicthq.com","category":"sports","start":"2024-04-14T23:15:00Z","geo":{"geometry":{"coordinates":[-80.33176625350725,8.48558109852931],"type":"Point"},"placekey":"@cjg-6hg-85f","address":{"country_code":"PA","formatted_address":"Penonomé, Panama","locality":"Penonomé"}},"labels":["soccer","sport"],"duration":0,"start_local":"2024-04-14T18:15:00","end":"2024-04-14T23:15:00Z","end_local":"2024-04-14T18:15:00","updated":"2024-06-12T08:59:54Z"},{"title":"LPF - Apertura - Plaza Amador vs Alianza","description":"Sourced from predicthq.com","category":"sports","start":"2024-04-14T21:00:00Z","geo":{"geometry":{"coordinates":[-79.53383266925812,8.987888671977004],"type":"Point"},"placekey":"@cjh-ddv-xnq","address":{"country_code":"PA","formatted_address":"Colegio del Artes y Oficios, Via Simon Bolivar, Ciudad de Panamá, Panama","locality":"Ciudad de Panamá"}},"labels":["soccer","sport"],"duration":0,"start_local":"2024-04-14T16:00:00","end":"2024-04-14T21:00:00Z","end_local":"2024-04-14T16:00:00","updated":"2024-06-12T03:35:44Z"},{"title":"Gran Fondo Cerro de la Cruz","description":"Sourced from predicthq.com","category":"sports","start":"2024-04-14T11:00:00Z","geo":{"geometry":{"coordinates":[-80.365865,8.6266068],"type":"Point"},"placekey":"@cjg-6dp-rkz","address":{"country_code":"PA","formatted_address":"El Escobal, Provincia de Coclé, Panama","locality":"El Escobal","region":"Provincia de Coclé"}},"labels":["outdoor-sports","running","sport"],"duration":0,"start_local":"2024-04-14T06:00:00","end":"2024-04-14T11:00:00Z","end_local":"2024-04-14T06:00:00","updated":"2024-06-05T00:44:41Z"},{"title":"LPF - Apertura - Sporting San Miguelito vs Tauro","description":"Sourced from predicthq.com","category":"sports","start":"2024-04-14T01:30:00Z","geo":{"geometry":{"coordinates":[-79.51142835207388,9.04916104850561],"type":"Point"},"placekey":"@cjh-kcg-w8v","address":{"country_code":"PA","formatted_address":"Av. Los Andes 23, San Miguelito, Panama","locality":"San Miguelito","region":"Provincia de Panamá"}},"labels":["soccer","sport"],"duration":0,"start_local":"2024-04-13T20:30:00","end":"2024-04-14T01:30:00Z","end_local":"2024-04-13T20:30:00","updated":"2024-06-12T10:33:21Z"},{"title":"Saga","description":"Sourced from predicthq.com","category":"concerts","start":"2024-04-14T00:00:00Z","geo":{"geometry":{"coordinates":[-79.5198696,8.9823792],"type":"Point"},"placekey":"@cjh-ddp-7kf","address":{"country_code":"PA","formatted_address":"Panama, Panama City","locality":"Panama City"}},"labels":["concert","music"],"duration":0,"start_local":"2024-04-13T19:00:00","end":"2024-04-14T00:00:00Z","end_local":"2024-04-13T19:00:00","updated":"2024-06-28T14:23:02Z"},{"title":"LPF - Apertura - Veraguas United vs UMECIT","description":"Sourced from predicthq.com","category":"sports","start":"2024-04-13T23:15:00Z","geo":{"geometry":{"coordinates":[-80.93461177171399,8.048640587038857],"type":"Point"},"placekey":"@cjh-34x-mkz","address":{"country_code":"PA","formatted_address":"Unnamed Road, 23X8+F5M, Atalaya, Panama","locality":"Atalaya","region":"Provincia de Veraguas"}},"labels":["soccer","sport"],"duration":0,"start_local":"2024-04-13T18:15:00","end":"2024-04-13T23:15:00Z","end_local":"2024-04-13T18:15:00","updated":"2024-06-11T22:42:33Z"},{"title":"LPF - Apertura - Deportivo del Este vs Árabe Unido","description":"Sourced from predicthq.com","category":"sports","start":"2024-04-13T21:00:00Z","geo":{"geometry":{"coordinates":[-79.53383266925812,8.987888671977004],"type":"Point"},"placekey":"@cjh-ddv-xnq","address":{"country_code":"PA","formatted_address":"Colegio del Artes y Oficios, Via Simon Bolivar, Ciudad de Panamá, Panama","locality":"Ciudad de Panamá"}},"labels":["soccer","sport"],"duration":0,"start_local":"2024-04-13T16:00:00","end":"2024-04-13T21:00:00Z","end_local":"2024-04-13T16:00:00","updated":"2024-06-11T21:31:50Z"},{"title":"Panel \"Visibilizando las problemáticas de las personas trans en Panamá\"","description":"Sourced from predicthq.com - ¡Únete a nosotros en el Panel de Activistas, conmemorando El dia de la visibilidad trans.","category":"conferences","start":"2024-04-13T18:30:00Z","geo":{"geometry":{"coordinates":[-79.5825424,9.0022821],"type":"Point"},"placekey":"@cjh-dbr-gff","address":{"country_code":"PA","formatted_address":"Calle Alberto Tejada, Ciudad de Panamá, Provincia de Panamá, Panama","locality":"Panamá","region":"Provincia de Panamá"}},"labels":["community","conference"],"duration":9000,"start_local":"2024-04-13T13:30:00","end":"2024-04-13T21:00:00Z","end_local":"2024-04-13T16:00:00","updated":"2024-06-05T17:55:20Z"},{"title":"LPF - Apertura - San Francisco vs Independiente","description":"Sourced from predicthq.com","category":"sports","start":"2024-04-13T01:00:00Z","geo":{"geometry":{"coordinates":[-79.7755577,8.8875396],"type":"Point"},"placekey":"@cjh-dm8-bp9","address":{"country_code":"PA","formatted_address":"Calle 4ta Norte, La Chorrera, Panama","locality":"La Chorrera","region":"Panama"}},"labels":["soccer","sport"],"duration":0,"start_local":"2024-04-12T20:00:00","end":"2024-04-13T01:00:00Z","end_local":"2024-04-12T20:00:00","updated":"2024-06-12T14:45:41Z"},{"title":"Sepultura and Fear the Komodo","description":"Sourced from predicthq.com","category":"concerts","start":"2024-04-13T00:00:00Z","geo":{"geometry":{"coordinates":[-79.5288076,8.9835359],"type":"Point"},"placekey":"@cjh-ddp-mc5","address":{"country_code":"PA","formatted_address":"XFMC+CF8, Panama City, Panamá Province, Panama","locality":"Panama City","region":"Panamá Province"}},"labels":["concert","music"],"duration":0,"start_local":"2024-04-12T19:00:00","end":"2024-04-13T00:00:00Z","end_local":"2024-04-12T19:00:00","updated":"2024-06-12T12:05:14Z"},{"title":"Conversatorio Grado de Inversión y porque afecta Al ciudadano promedio","description":"Sourced from predicthq.com - Conversatorio\nGrado de Inversión y porque afecta Al ciudadano promedio","category":"conferences","start":"2024-04-11T17:00:00Z","geo":{"geometry":{"coordinates":[-79.5294821,8.9766132],"type":"Point"},"placekey":"@cjh-ddn-hbk","address":{"country_code":"PA","formatted_address":"Calle Venezuela, Ciudad de Panamá, Provincia de Panamá, Panama","locality":"Panamá","region":"Provincia de Panamá"}},"labels":["business","conference"],"duration":3600,"start_local":"2024-04-11T12:00:00","end":"2024-04-11T18:00:00Z","end_local":"2024-04-11T13:00:00","updated":"2024-06-05T02:21:55Z"},{"title":"WAD Midterm Meeting","description":"Sourced from predicthq.com","category":"conferences","start":"2024-04-11T14:00:00Z","geo":{"geometry":{"coordinates":[-79.524701,8.979584],"type":"Point"},"placekey":"@cjh-ddp-66k","address":{"country_code":"PA","formatted_address":"Calle 50 and\nCalle Aquilino de la Guardia\nPanamá\nPanama","locality":"San Miguelito"}},"labels":["conference"],"duration":291600,"start_local":"2024-04-11T09:00:00","end":"2024-04-14T23:00:00Z","end_local":"2024-04-14T18:00:00","updated":"2024-06-05T13:40:37Z"},{"title":"Conversatorio: Doctorado en Negocios","description":"Sourced from predicthq.com - Conversatorio: Doctorado en Negocios, Exponiendo horizontes y perspectivas en el mundo empresarial y la investigación","category":"conferences","start":"2024-04-10T23:30:00Z","geo":{"geometry":{"coordinates":[-79.5320034,8.9774716],"type":"Point"},"placekey":"@cjh-ddn-hdv","address":{"country_code":"PA","formatted_address":"Ciudad de Panamá, Panamá, Panama","locality":"Panamá","region":"Panamá"}},"labels":["conference","education","family"],"duration":3600,"start_local":"2024-04-10T18:30:00","end":"2024-04-11T00:30:00Z","end_local":"2024-04-10T19:30:00","updated":"2024-06-11T23:54:49Z"},{"title":"Carlos Rivera","description":"Sourced from predicthq.com","category":"concerts","start":"2024-04-10T02:00:00Z","geo":{"geometry":{"coordinates":[-79.49994,8.98932],"type":"Point"},"placekey":"@cjh-ddk-59f","address":{"country_code":"PA","formatted_address":"Atlapa, Panama City, Panama","locality":"Panama City"}},"labels":["concert","music"],"duration":0,"start_local":"2024-04-09T21:00:00","end":"2024-04-10T02:00:00Z","end_local":"2024-04-09T21:00:00","updated":"2024-06-26T15:07:28Z"},{"title":"Seminario anual ATDL 2024","description":"Sourced from predicthq.com - Conferencias, intercambio de experiencias y los mas destacados casos de éxito de la industria de medios de Latinoamérica.","category":"conferences","start":"2024-04-09T19:00:00Z","geo":{"geometry":{"coordinates":[-79.5203268211,8.9876443457],"type":"Point"},"placekey":"@cjh-ddv-kzz","address":{"country_code":"PA","formatted_address":"Obarrio\nCiudad de Panamá\nPanamá\nPanamá","locality":"Ciudad de Panamá","region":"Panamá"}},"labels":["business","conference"],"duration":104400,"start_local":"2024-04-09T14:00:00","end":"2024-04-11T00:00:00Z","end_local":"2024-04-10T19:00:00","updated":"2024-05-28T13:32:22Z"},{"title":"LPF - Apertura - Herrera vs Sporting San Miguelito","description":"Sourced from predicthq.com","category":"sports","start":"2024-04-07T23:15:00Z","geo":{"geometry":{"coordinates":[-80.93461177171399,8.048640587038857],"type":"Point"},"placekey":"@cjh-34x-mkz","address":{"country_code":"PA","formatted_address":"Unnamed Road, 23X8+F5M, Atalaya, Panama","locality":"Atalaya","region":"Provincia de Veraguas"}},"labels":["soccer","sport"],"duration":0,"start_local":"2024-04-07T18:15:00","end":"2024-04-07T23:15:00Z","end_local":"2024-04-07T18:15:00","updated":"2024-06-11T20:41:38Z"},{"title":"LPF - Apertura - Alianza vs Veraguas United","description":"Sourced from predicthq.com","category":"sports","start":"2024-04-07T21:00:00Z","geo":{"geometry":{"coordinates":[-79.53383266925812,8.987888671977004],"type":"Point"},"placekey":"@cjh-ddv-xnq","address":{"country_code":"PA","formatted_address":"Colegio del Artes y Oficios, Via Simon Bolivar, Ciudad de Panamá, Panama","locality":"Ciudad de Panamá"}},"labels":["soccer","sport"],"duration":0,"start_local":"2024-04-07T16:00:00","end":"2024-04-07T21:00:00Z","end_local":"2024-04-07T16:00:00","updated":"2024-06-12T00:17:49Z"},{"title":"AL AIRE LIBRE: SALUD Y ESTRATEGIAS DE NEGOCIOS.","description":"Sourced from predicthq.com - Disfruta de un Evento al Aire libre en medio de la Naturaleza con información importante en salud y estrategias de negocios.","category":"conferences","start":"2024-04-07T15:30:08Z","geo":{"geometry":{"coordinates":[-79.4028671,9.1559848],"type":"Point"},"placekey":"@cjh-kt4-dvz","address":{"country_code":"PA","formatted_address":"Manzana 080821, Ciudad de Panamá, Provincia de Panamá, Panama","locality":"Panamá","region":"Provincia de Panamá"}},"labels":["community","conference"],"duration":9000,"start_local":"2024-04-07T10:30:08","end":"2024-04-07T18:00:08Z","end_local":"2024-04-07T13:00:08","updated":"2024-06-05T09:38:33Z"},{"title":"Pan American Ceramics Congress and Ferroelectrics Meeting of the Americas","description":"Sourced from predicthq.com","category":"conferences","start":"2024-04-07T14:00:00Z","geo":{"geometry":{"coordinates":[-79.52251,8.975859],"type":"Point"},"placekey":"@cjh-ddp-c89","address":{"country_code":"PA","formatted_address":"XFGH+92V, Panama City, Panamá Province, Panama","locality":"Panama City","region":"Panamá Province"}},"labels":["conference"],"duration":378000,"start_local":"2024-04-07T09:00:00","end":"2024-04-11T23:00:00Z","end_local":"2024-04-11T18:00:00","updated":"2024-06-05T00:49:10Z"},{"title":"LPF - Apertura - UMECIT vs Tauro","description":"Sourced from predicthq.com","category":"sports","start":"2024-04-07T01:30:00Z","geo":{"geometry":{"coordinates":[-80.93461177171399,8.048640587038857],"type":"Point"},"placekey":"@cjh-34x-mkz","address":{"country_code":"PA","formatted_address":"Unnamed Road, 23X8+F5M, Atalaya, Panama","locality":"Atalaya","region":"Provincia de Veraguas"}},"labels":["soccer","sport"],"duration":0,"start_local":"2024-04-06T20:30:00","end":"2024-04-07T01:30:00Z","end_local":"2024-04-06T20:30:00","updated":"2024-06-12T08:14:46Z"},{"title":"Social Work & Social Development Conference","description":"Sourced from predicthq.com","category":"conferences","start":"2024-04-04T14:00:00Z","geo":{"geometry":{"coordinates":[-79.501553,8.988922],"type":"Point"},"placekey":"@cjh-ddk-5fz","address":{"country_code":"PA","formatted_address":"Via israel and Calle 77\nSan Francisco\nPanama","locality":"Panama City"}},"labels":["conference"],"duration":291600,"start_local":"2024-04-04T09:00:00","end":"2024-04-07T23:00:00Z","end_local":"2024-04-07T18:00:00","updated":"2024-06-05T08:03:38Z"}]