[{"title":"Paloma","description":"Sourced from predicthq.com","category":"concerts","start":"2024-09-08T06:00:00Z","geo":{"geometry":{"coordinates":[-149.5699,-17.54053],"type":"Point"},"placekey":"@gph-jn6-gx5","address":{"country_code":"PF","formatted_address":"646 Bd de la Reine Pomare IV, Papeete 98714, French Polynesia","postcode":"98714","locality":"Papeete","region":"Îles du Vent"}},"labels":["concert","music"],"duration":0,"start_local":"2024-09-07T20:00:00","end":"2024-09-08T06:00:00Z","end_local":"2024-09-07T20:00:00","updated":"2024-06-10T23:54:46Z"},{"title":"WONDERLAND FESTIVAL","description":"Sourced from predicthq.com - Plongez dans l'univers envoûtant de Wonderland, où la magie de la musique et de l'art vous transporte dans une expérience immersive unique!","category":"festivals","start":"2024-07-18T03:00:00Z","geo":{"geometry":{"coordinates":[-149.61631,-17.5755746],"type":"Point"},"placekey":"@gph-jf4-6tv","address":{"country_code":"PF","formatted_address":"Puna'auia, Îles du Vent, Polynésie française, France","locality":"Puna'auia","region":"Îles du Vent"}},"labels":["community","festival"],"duration":28800,"start_local":"2024-07-17T17:00:00","end":"2024-07-18T11:00:00Z","end_local":"2024-07-18T01:00:00","updated":"2024-06-03T19:27:31Z"},{"title":"Fast&Fest2000'","description":"Sourced from predicthq.com - Plongez dans l'énergie des années 2000 à la Fast&Fest 2000! Passion auto, musique et festivités le 06 juillet. Tuning, hits et ambiance fest","category":"festivals","start":"2024-07-07T04:00:00Z","geo":{"geometry":{"coordinates":[-149.6137794,-17.5790325],"type":"Point"},"placekey":"@gph-jf3-yvz","address":{"country_code":"PF","formatted_address":"Puna'auia, Windward Islands, Polynésie française, France","locality":"Puna'auia","region":"Windward Islands"}},"labels":["festival","music"],"duration":19800,"start_local":"2024-07-06T18:00:00","end":"2024-07-07T09:30:00Z","end_local":"2024-07-06T23:30:00","updated":"2024-06-10T23:51:54Z"},{"title":"Shipaa Fest","description":"Sourced from predicthq.com - Shipaa Fest, une nuit de folie! DJ, Plage, Bikini, Alcool sans au RDV! Achète ton billet et réserve ta journée pour une nuit de enflammée!","category":"festivals","start":"2024-06-11T02:00:00Z","geo":{"geometry":{"coordinates":[-149.61631,-17.5755746],"type":"Point"},"placekey":"@gph-jf4-6tv","address":{"country_code":"PF","formatted_address":"Puna'auia, Îles du Vent, Polynésie française, France","locality":"Puna'auia","region":"Îles du Vent"}},"labels":["community","festival"],"duration":28800,"start_local":"2024-06-10T16:00:00","end":"2024-06-11T10:00:00Z","end_local":"2024-06-11T00:00:00","updated":"2024-06-04T11:36:49Z"},{"title":"XTERRA Tahiti Trail","description":"Sourced from predicthq.com","category":"sports","start":"2024-05-24T10:00:00Z","geo":{"geometry":{"coordinates":[-149.8505789,-17.49161],"type":"Point"},"placekey":"@gph-j3w-f2k","address":{"country_code":"PF","formatted_address":"Moorea-Maiao, Windward Islands, Polynésie française, France","locality":"Moorea-Maiao","region":"Windward Islands"}},"labels":["outdoor-sports","running","sport"],"duration":259199,"start_local":"2024-05-24T00:00:00","end":"2024-05-27T09:59:59Z","end_local":"2024-05-26T23:59:59","updated":"2024-06-05T13:02:52Z"},{"title":"CYCLE DE CONFERENCES #2 - LE DROIT","description":"Sourced from predicthq.com - Venez découvrir l'état de l'art et les perspectives du droit en Polynésie avec l'avènement de l'intelligence artificielle !","category":"conferences","start":"2024-05-17T03:00:00Z","geo":{"geometry":{"coordinates":[-149.6079648,-17.5732521],"type":"Point"},"placekey":"@gph-hys-fpv","address":{"country_code":"PF","formatted_address":"Puna'auia, Îles du Vent, Polynésie française, France","locality":"Puna'auia","region":"Îles du Vent"}},"labels":["conference","science","technology"],"duration":7200,"start_local":"2024-05-16T17:00:00","end":"2024-05-17T05:00:00Z","end_local":"2024-05-16T19:00:00","updated":"2024-06-05T02:39:25Z"},{"title":"Ligue 1 - Championship Round - Dragon vs Punaruu","description":"Sourced from predicthq.com","category":"sports","start":"2024-05-05T03:30:00Z","geo":{"geometry":{"coordinates":[-149.55227941274643,-17.54220442681099],"type":"Point"},"placekey":"@gph-jn5-6ff","address":{"country_code":"PF","formatted_address":"850 Rue Paul Bernière, Pirae, French Polynesia","locality":"Pirae","region":"Îles du Vent"}},"labels":["soccer","sport"],"duration":0,"start_local":"2024-05-04T17:30:00","end":"2024-05-05T03:30:00Z","end_local":"2024-05-04T17:30:00","updated":"2024-06-12T13:02:26Z"},{"title":"Ligue 1 - Championship Round - Central vs Tefana","description":"Sourced from predicthq.com","category":"sports","start":"2024-05-05T03:30:00Z","geo":{"geometry":{"coordinates":[-149.59468245506287,-17.5575869763196],"type":"Point"},"placekey":"@gph-hys-4qf","address":{"country_code":"PF","formatted_address":"CCR4+X4F, Fa'a'ā, French Polynesia","locality":"Fa'a'ā","region":"Windward Islands"}},"labels":["soccer","sport"],"duration":0,"start_local":"2024-05-04T17:30:00","end":"2024-05-05T03:30:00Z","end_local":"2024-05-04T17:30:00","updated":"2024-06-12T18:25:03Z"},{"title":"Ligue 1 - Championship Round - Pirae vs Vénus","description":"Sourced from predicthq.com","category":"sports","start":"2024-05-05T03:30:00Z","geo":{"geometry":{"coordinates":[-149.48988318443298,-17.502950635731246],"type":"Point"},"placekey":"@gph-jnr-tgk","address":{"country_code":"PF","formatted_address":"FGW5+JWP, Māhina, French Polynesia","locality":"Māhina","region":"Windward Islands"}},"labels":["soccer","sport"],"duration":0,"start_local":"2024-05-04T17:30:00","end":"2024-05-05T03:30:00Z","end_local":"2024-05-04T17:30:00","updated":"2024-06-12T18:26:46Z"},{"title":"Ligue 1 - Relegation Round - Olympic Mahina vs Taiarapu","description":"Sourced from predicthq.com","category":"sports","start":"2024-05-05T01:00:00Z","geo":{"geometry":{"coordinates":[-149.48988318443298,-17.502950635731246],"type":"Point"},"placekey":"@gph-jnr-tgk","address":{"country_code":"PF","formatted_address":"FGW5+JWP, Māhina, French Polynesia","locality":"Māhina","region":"Windward Islands"}},"labels":["soccer","sport"],"duration":0,"start_local":"2024-05-04T15:00:00","end":"2024-05-05T01:00:00Z","end_local":"2024-05-04T15:00:00","updated":"2024-06-12T07:37:19Z"},{"title":"Ligue 1 - Relegation Round - Jeunes Tahitiens vs Papenoo","description":"Sourced from predicthq.com","category":"sports","start":"2024-05-05T01:00:00Z","geo":{"geometry":{"coordinates":[-149.59468245506287,-17.5575869763196],"type":"Point"},"placekey":"@gph-hys-4qf","address":{"country_code":"PF","formatted_address":"CCR4+X4F, Fa'a'ā, French Polynesia","locality":"Fa'a'ā","region":"Windward Islands"}},"labels":["soccer","sport"],"duration":0,"start_local":"2024-05-04T15:00:00","end":"2024-05-05T01:00:00Z","end_local":"2024-05-04T15:00:00","updated":"2024-06-11T23:30:14Z"},{"title":"Ligue 1 - Relegation Round - Pueu vs Temanava","description":"Sourced from predicthq.com","category":"sports","start":"2024-05-05T01:00:00Z","geo":{"geometry":{"coordinates":[-149.55227941274643,-17.54220442681099],"type":"Point"},"placekey":"@gph-jn5-6ff","address":{"country_code":"PF","formatted_address":"850 Rue Paul Bernière, Pirae, French Polynesia","locality":"Pirae","region":"Îles du Vent"}},"labels":["soccer","sport"],"duration":0,"start_local":"2024-05-04T15:00:00","end":"2024-05-05T01:00:00Z","end_local":"2024-05-04T15:00:00","updated":"2024-06-12T10:15:22Z"},{"title":"Ligue 1 - Championship Round - Tefana vs Pirae","description":"Sourced from predicthq.com","category":"sports","start":"2024-04-30T05:30:00Z","geo":{"geometry":{"coordinates":[-149.59468245506287,-17.5575869763196],"type":"Point"},"placekey":"@gph-hys-4qf","address":{"country_code":"PF","formatted_address":"CCR4+X4F, Fa'a'ā, French Polynesia","locality":"Fa'a'ā","region":"Windward Islands"}},"labels":["soccer","sport"],"duration":0,"start_local":"2024-04-29T19:30:00","end":"2024-04-30T05:30:00Z","end_local":"2024-04-29T19:30:00","updated":"2024-06-12T04:57:00Z"},{"title":"Ligue 1 - Championship Round - Vénus vs Dragon","description":"Sourced from predicthq.com","category":"sports","start":"2024-04-30T05:30:00Z","geo":{"geometry":{"coordinates":[-149.48988318443298,-17.502950635731246],"type":"Point"},"placekey":"@gph-jnr-tgk","address":{"country_code":"PF","formatted_address":"FGW5+JWP, Māhina, French Polynesia","locality":"Māhina","region":"Windward Islands"}},"labels":["soccer","sport"],"duration":0,"start_local":"2024-04-29T19:30:00","end":"2024-04-30T05:30:00Z","end_local":"2024-04-29T19:30:00","updated":"2024-06-12T01:56:43Z"},{"title":"Ligue 1 - Championship Round - Pirae vs Central","description":"Sourced from predicthq.com","category":"sports","start":"2024-04-25T07:15:00Z","geo":{"geometry":{"coordinates":[-149.5519655942917,-17.539869438561933],"type":"Point"},"placekey":"@gph-jn4-g49","address":{"country_code":"PF","formatted_address":"Pater, Papeete, Polynésie française, France","locality":"Papeete"}},"labels":["soccer","sport"],"duration":0,"start_local":"2024-04-24T21:15:00","end":"2024-04-25T07:15:00Z","end_local":"2024-04-24T21:15:00","updated":"2024-06-12T06:07:55Z"},{"title":"Ligue 1 - Championship Round - Dragon vs Tefana","description":"Sourced from predicthq.com","category":"sports","start":"2024-04-25T05:00:00Z","geo":{"geometry":{"coordinates":[-149.5519655942917,-17.539869438561933],"type":"Point"},"placekey":"@gph-jn4-g49","address":{"country_code":"PF","formatted_address":"Pater, Papeete, Polynésie française, France","locality":"Papeete"}},"labels":["soccer","sport"],"duration":0,"start_local":"2024-04-24T19:00:00","end":"2024-04-25T05:00:00Z","end_local":"2024-04-24T19:00:00","updated":"2024-06-11T20:33:46Z"},{"title":"Ligue 1 - Championship Round - Central vs Punaruu","description":"Sourced from predicthq.com","category":"sports","start":"2024-04-21T02:15:00Z","geo":{"geometry":{"coordinates":[-149.5519655942917,-17.539869438561933],"type":"Point"},"placekey":"@gph-jn4-g49","address":{"country_code":"PF","formatted_address":"Pater, Papeete, Polynésie française, France","locality":"Papeete"}},"labels":["soccer","sport"],"duration":0,"start_local":"2024-04-20T16:15:00","end":"2024-04-21T02:15:00Z","end_local":"2024-04-20T16:15:00","updated":"2024-06-12T10:21:14Z"},{"title":"Ligue 1 - Relegation Round - Olympic Mahina vs Temanava","description":"Sourced from predicthq.com","category":"sports","start":"2024-04-21T00:00:00Z","geo":{"geometry":{"coordinates":[-149.5519655942917,-17.539869438561933],"type":"Point"},"placekey":"@gph-jn4-g49","address":{"country_code":"PF","formatted_address":"Pater, Papeete, Polynésie française, France","locality":"Papeete"}},"labels":["soccer","sport"],"duration":0,"start_local":"2024-04-20T14:00:00","end":"2024-04-21T00:00:00Z","end_local":"2024-04-20T14:00:00","updated":"2024-06-12T09:43:41Z"},{"title":"Trail Aito Sport","description":"Sourced from predicthq.com","category":"sports","start":"2024-04-20T10:00:00Z","geo":{"geometry":{"coordinates":[-149.5584758,-17.5516251],"type":"Point"},"placekey":"@gph-jps-3yv","address":{"country_code":"PF","formatted_address":"98714 Papeete, Polynésie française, France","locality":"Papeete","postcode":"98714","region":"Windward Islands"}},"labels":["outdoor-sports","running","sport"],"duration":86399,"start_local":"2024-04-20T00:00:00","end":"2024-04-21T09:59:59Z","end_local":"2024-04-20T23:59:59","updated":"2024-06-05T06:17:42Z"},{"title":"Ligue 1 - Relegation Round - Papenoo vs Taiarapu","description":"Sourced from predicthq.com","category":"sports","start":"2024-04-20T07:15:00Z","geo":{"geometry":{"coordinates":[-149.5519655942917,-17.539869438561933],"type":"Point"},"placekey":"@gph-jn4-g49","address":{"country_code":"PF","formatted_address":"Pater, Papeete, Polynésie française, France","locality":"Papeete"}},"labels":["soccer","sport"],"duration":0,"start_local":"2024-04-19T21:15:00","end":"2024-04-20T07:15:00Z","end_local":"2024-04-19T21:15:00","updated":"2024-06-11T21:27:56Z"},{"title":"Ligue 1 - Championship Round - Dragon vs Vénus","description":"Sourced from predicthq.com","category":"sports","start":"2024-04-20T05:00:00Z","geo":{"geometry":{"coordinates":[-149.5519655942917,-17.539869438561933],"type":"Point"},"placekey":"@gph-jn4-g49","address":{"country_code":"PF","formatted_address":"Pater, Papeete, Polynésie française, France","locality":"Papeete"}},"labels":["soccer","sport"],"duration":0,"start_local":"2024-04-19T19:00:00","end":"2024-04-20T05:00:00Z","end_local":"2024-04-19T19:00:00","updated":"2024-06-12T06:19:08Z"},{"title":"Ligue 1 - Championship Round - Pirae vs Tefana","description":"Sourced from predicthq.com","category":"sports","start":"2024-04-19T07:30:00Z","geo":{"geometry":{"coordinates":[-149.5519655942917,-17.539869438561933],"type":"Point"},"placekey":"@gph-jn4-g49","address":{"country_code":"PF","formatted_address":"Pater, Papeete, Polynésie française, France","locality":"Papeete"}},"labels":["soccer","sport"],"duration":0,"start_local":"2024-04-18T21:30:00","end":"2024-04-19T07:30:00Z","end_local":"2024-04-18T21:30:00","updated":"2024-06-12T07:55:39Z"},{"title":"Ligue 1 - Relegation Round - Jeunes Tahitiens vs Pueu","description":"Sourced from predicthq.com","category":"sports","start":"2024-04-19T05:30:00Z","geo":{"geometry":{"coordinates":[-149.5519655942917,-17.539869438561933],"type":"Point"},"placekey":"@gph-jn4-g49","address":{"country_code":"PF","formatted_address":"Pater, Papeete, Polynésie française, France","locality":"Papeete"}},"labels":["soccer","sport"],"duration":0,"start_local":"2024-04-18T19:30:00","end":"2024-04-19T05:30:00Z","end_local":"2024-04-18T19:30:00","updated":"2024-06-11T21:26:38Z"},{"title":"Ligue 1 - Championship Round - Tefana vs Dragon","description":"Sourced from predicthq.com","category":"sports","start":"2024-04-14T05:30:00Z","geo":{"geometry":{"coordinates":[-149.59468245506287,-17.5575869763196],"type":"Point"},"placekey":"@gph-hys-4qf","address":{"country_code":"PF","formatted_address":"CCR4+X4F, Fa'a'ā, French Polynesia","locality":"Fa'a'ā","region":"Windward Islands"}},"labels":["soccer","sport"],"duration":0,"start_local":"2024-04-13T19:30:00","end":"2024-04-14T05:30:00Z","end_local":"2024-04-13T19:30:00","updated":"2024-06-11T23:13:47Z"},{"title":"Ligue 1 - Championship Round - Central vs Pirae","description":"Sourced from predicthq.com","category":"sports","start":"2024-04-14T04:30:00Z","geo":{"geometry":{"coordinates":[-149.5519655942917,-17.539869438561933],"type":"Point"},"placekey":"@gph-jn4-g49","address":{"country_code":"PF","formatted_address":"Pater, Papeete, Polynésie française, France","locality":"Papeete"}},"labels":["soccer","sport"],"duration":0,"start_local":"2024-04-13T18:30:00","end":"2024-04-14T04:30:00Z","end_local":"2024-04-13T18:30:00","updated":"2024-06-12T04:12:13Z"},{"title":"Ligue 1 - Relegation Round - Pueu vs Taiarapu","description":"Sourced from predicthq.com","category":"sports","start":"2024-04-14T02:15:00Z","geo":{"geometry":{"coordinates":[-149.5519655942917,-17.539869438561933],"type":"Point"},"placekey":"@gph-jn4-g49","address":{"country_code":"PF","formatted_address":"Pater, Papeete, Polynésie française, France","locality":"Papeete"}},"labels":["soccer","sport"],"duration":0,"start_local":"2024-04-13T16:15:00","end":"2024-04-14T02:15:00Z","end_local":"2024-04-13T16:15:00","updated":"2024-06-12T01:44:45Z"},{"title":"Ligue 1 - Relegation Round - Jeunes Tahitiens vs Temanava","description":"Sourced from predicthq.com","category":"sports","start":"2024-04-14T00:00:00Z","geo":{"geometry":{"coordinates":[-149.5519655942917,-17.539869438561933],"type":"Point"},"placekey":"@gph-jn4-g49","address":{"country_code":"PF","formatted_address":"Pater, Papeete, Polynésie française, France","locality":"Papeete"}},"labels":["soccer","sport"],"duration":0,"start_local":"2024-04-13T14:00:00","end":"2024-04-14T00:00:00Z","end_local":"2024-04-13T14:00:00","updated":"2024-06-11T22:35:56Z"},{"title":"Ligue 1 - Relegation Round - Olympic Mahina vs Papenoo","description":"Sourced from predicthq.com","category":"sports","start":"2024-04-13T07:30:00Z","geo":{"geometry":{"coordinates":[-149.48988318443298,-17.502950635731246],"type":"Point"},"placekey":"@gph-jnr-tgk","address":{"country_code":"PF","formatted_address":"FGW5+JWP, Māhina, French Polynesia","locality":"Māhina","region":"Windward Islands"}},"labels":["soccer","sport"],"duration":0,"start_local":"2024-04-12T21:30:00","end":"2024-04-13T07:30:00Z","end_local":"2024-04-12T21:30:00","updated":"2024-06-12T13:02:19Z"},{"title":"Ligue 1 - Championship Round - Vénus vs Punaruu","description":"Sourced from predicthq.com","category":"sports","start":"2024-04-13T05:30:00Z","geo":{"geometry":{"coordinates":[-149.48988318443298,-17.502950635731246],"type":"Point"},"placekey":"@gph-jnr-tgk","address":{"country_code":"PF","formatted_address":"FGW5+JWP, Māhina, French Polynesia","locality":"Māhina","region":"Windward Islands"}},"labels":["soccer","sport"],"duration":0,"start_local":"2024-04-12T19:30:00","end":"2024-04-13T05:30:00Z","end_local":"2024-04-12T19:30:00","updated":"2024-06-12T04:08:56Z"},{"title":"Ligue 1 - Championship Round - Pirae vs Dragon","description":"Sourced from predicthq.com","category":"sports","start":"2024-04-08T06:00:00Z","geo":{"geometry":{"coordinates":[-149.5519655942917,-17.539869438561933],"type":"Point"},"placekey":"@gph-jn4-g49","address":{"country_code":"PF","formatted_address":"Pater, Papeete, Polynésie française, France","locality":"Papeete"}},"labels":["soccer","sport"],"duration":0,"start_local":"2024-04-07T20:00:00","end":"2024-04-08T06:00:00Z","end_local":"2024-04-07T20:00:00","updated":"2024-06-12T08:44:59Z"}]