[{"title":"Queensland Cup - Group Stage - PNG Hunters vs Western Clydesdales","description":"Sourced from predicthq.com","category":"sports","start":"2024-08-24T05:00:00Z","geo":{"geometry":{"coordinates":[147.1844156,-9.438821],"type":"Point"},"placekey":"@jg4-bbg-8gk","address":{"country_code":"PG","formatted_address":"H56M+FQF, John Guise Dr, Port Moresby National Capital District, Papua New Guinea","locality":"Port Moresby","region":"National Capital District"}},"labels":["rugby","sport"],"duration":0,"start_local":"2024-08-24T15:00:00","end":"2024-08-24T05:00:00Z","end_local":"2024-08-24T15:00:00","updated":"2024-06-11T08:09:28Z"},{"title":"Queensland Cup - Group Stage - PNG Hunters vs Brisbane Tigers","description":"Sourced from predicthq.com","category":"sports","start":"2024-08-17T05:00:00Z","geo":{"geometry":{"coordinates":[147.1844156,-9.438821],"type":"Point"},"placekey":"@jg4-bbg-8gk","address":{"country_code":"PG","formatted_address":"H56M+FQF, John Guise Dr, Port Moresby National Capital District, Papua New Guinea","locality":"Port Moresby","region":"National Capital District"}},"labels":["rugby","sport"],"duration":0,"start_local":"2024-08-17T15:00:00","end":"2024-08-17T05:00:00Z","end_local":"2024-08-17T15:00:00","updated":"2024-06-11T08:06:56Z"},{"title":"Queensland Cup - Group Stage - PNG Hunters vs Tweed Heads Seagulls","description":"Sourced from predicthq.com","category":"sports","start":"2024-08-10T05:00:00Z","geo":{"geometry":{"coordinates":[147.1844156,-9.438821],"type":"Point"},"placekey":"@jg4-bbg-8gk","address":{"country_code":"PG","formatted_address":"H56M+FQF, John Guise Dr, Port Moresby National Capital District, Papua New Guinea","locality":"Port Moresby","region":"National Capital District"}},"labels":["rugby","sport"],"duration":0,"start_local":"2024-08-10T15:00:00","end":"2024-08-10T05:00:00Z","end_local":"2024-08-10T15:00:00","updated":"2024-06-10T23:48:07Z"},{"title":"Financial Literacy and MSME Day","description":"Sourced from predicthq.com - Join us on our mission to incubate and accellerate 1000 x 250k MSMEs in one year on a series of 12-month- One day only - in person days.","category":"expos","start":"2024-08-06T23:00:00Z","geo":{"geometry":{"coordinates":[147.1802671,-9.443800399999999],"type":"Point"},"placekey":"@jg4-bbf-xnq","address":{"country_code":"PG","formatted_address":"Port Moresby, National Capital District, Papua New Guinea","locality":"Port Moresby","region":"National Capital District"}},"labels":["business","expo"],"duration":21600,"start_local":"2024-08-07T09:00:00","end":"2024-08-07T05:00:00Z","end_local":"2024-08-07T15:00:00","updated":"2024-07-04T08:25:17Z"},{"title":"Kokoda Ultra Marathon","description":"Sourced from predicthq.com","category":"sports","start":"2024-07-25T19:45:00Z","geo":{"geometry":{"coordinates":[147.7397981,-8.8981546],"type":"Point"},"placekey":"@jfp-sqm-3qz","address":{"country_code":"PG","formatted_address":"Kokoda Track, Kokoda Northern Province, Papua New Guinea","locality":"Kokoda","region":"Northern Province"}},"labels":["marathon","outdoor-sports","running","sport"],"duration":0,"start_local":"2024-07-26T05:45:00","end":"2024-07-25T19:45:00Z","end_local":"2024-07-26T05:45:00","updated":"2024-06-25T20:56:42Z"},{"title":"Queensland Cup - Group Stage - PNG Hunters vs Central Capras","description":"Sourced from predicthq.com","category":"sports","start":"2024-07-14T04:00:00Z","geo":{"geometry":{"coordinates":[147.1844156,-9.438821],"type":"Point"},"placekey":"@jg4-bbg-8gk","address":{"country_code":"PG","formatted_address":"H56M+FQF, John Guise Dr, Port Moresby National Capital District, Papua New Guinea","locality":"Port Moresby","region":"National Capital District"}},"labels":["rugby","sport"],"duration":0,"start_local":"2024-07-14T14:00:00","end":"2024-07-14T04:00:00Z","end_local":"2024-07-14T14:00:00","updated":"2024-07-05T10:26:18Z"},{"title":"Port Moresby Prophetic Revival Conference","description":"Sourced from predicthq.com - Come and experience times of refreshing from the Lord, Jesus the Healer, Jesus the Deliverer, with Prophet Gerald Nyasulu, Ph.D.","category":"conferences","start":"2024-07-12T08:00:00Z","geo":{"geometry":{"coordinates":[147.1868174,-9.4360072],"type":"Point"},"placekey":"@jg3-b74-w6k","address":{"country_code":"PG","formatted_address":"Melanesian Way, Port Moresby National Capital District, Papua New Guinea","locality":"Port Moresby","region":"National Capital District"}},"labels":["conference","religion"],"duration":0,"start_local":"2024-07-12T18:00:00","end":"2024-07-12T08:00:00Z","end_local":"2024-07-12T18:00:00","updated":"2024-06-04T08:14:47Z"},{"title":"Alotau Prophetic Revival Conference","description":"Sourced from predicthq.com - Come and experience times of refreshing from the Lord, Jesus the Healer, Jesus the Deliverer, with Prophet Gerald Nyasulu, Ph.D.","category":"conferences","start":"2024-07-05T00:00:00Z","geo":{"geometry":{"coordinates":[150.4436168,-10.3061031],"type":"Point"},"placekey":"@jg2-38j-vj9","address":{"country_code":"PG","formatted_address":"Alotau, Milne Bay Province, Papua New Guinea","locality":"Alotau","region":"Milne Bay Province"}},"labels":["conference","religion"],"duration":0,"start_local":"2024-07-05T10:00:00","end":"2024-07-05T00:00:00Z","end_local":"2024-07-05T10:00:00","updated":"2024-06-04T00:39:02Z"},{"title":"Financial Literacy and MSME Day","description":"Sourced from predicthq.com - Join us on our mission to incubate and accellerate 1000 x 250k MSMEs in one year on a series of 12-month- One day only - in person days.","category":"expos","start":"2024-07-02T23:00:00Z","geo":{"geometry":{"coordinates":[147.1802671,-9.443800399999999],"type":"Point"},"placekey":"@jg4-bbf-xnq","address":{"country_code":"PG","formatted_address":"Port Moresby, National Capital District, Papua New Guinea","locality":"Port Moresby","region":"National Capital District"}},"labels":["business","expo"],"duration":21600,"start_local":"2024-07-03T09:00:00","end":"2024-07-03T05:00:00Z","end_local":"2024-07-03T15:00:00","updated":"2024-06-06T02:45:05Z"},{"title":"Financial Literacy and MSME Day","description":"Sourced from predicthq.com - Join us on our mission to incubate and accellerate 1000 x 250k MSMEs in one year on a series of 12-month- One day only - in person days.","category":"expos","start":"2024-06-04T23:00:00Z","geo":{"geometry":{"coordinates":[147.1802671,-9.443800399999999],"type":"Point"},"placekey":"@jg4-bbf-xnq","address":{"country_code":"PG","formatted_address":"Port Moresby, National Capital District, Papua New Guinea","locality":"Port Moresby","region":"National Capital District"}},"labels":["business","expo"],"duration":21600,"start_local":"2024-06-05T09:00:00","end":"2024-06-05T05:00:00Z","end_local":"2024-06-05T15:00:00","updated":"2024-06-04T01:46:12Z"},{"title":"Papua New Guinea Hunters vs Souths Logan Magpies","description":"Sourced from predicthq.com","category":"sports","start":"2024-06-01T05:00:00Z","geo":{"geometry":{"coordinates":[147.1985304,-9.4690597],"type":"Point"},"placekey":"@jg4-bbq-435","address":{"country_code":"PG","formatted_address":"H56M+FQF, John Guise Dr, Port Moresby National Capital District, Papua New Guinea","locality":"Port Moresby","region":"National Capital District"}},"labels":["rugby","sport"],"duration":0,"start_local":"2024-06-01T15:00:00","end":"2024-06-01T05:00:00Z","end_local":"2024-06-01T15:00:00","updated":"2024-06-12T15:10:06Z"},{"title":"Queensland Cup - Group Stage - PNG Hunters vs Souths Logan Magpies","description":"Sourced from predicthq.com","category":"sports","start":"2024-06-01T05:00:00Z","geo":{"geometry":{"coordinates":[147.1844156,-9.438821],"type":"Point"},"placekey":"@jg4-bbg-8gk","address":{"country_code":"PG","formatted_address":"H56M+FQF, John Guise Dr, Port Moresby National Capital District, Papua New Guinea","locality":"Port Moresby","region":"National Capital District"}},"labels":["rugby","sport"],"duration":0,"start_local":"2024-06-01T15:00:00","end":"2024-06-01T05:00:00Z","end_local":"2024-06-01T15:00:00","updated":"2024-06-12T15:11:05Z"},{"title":"Papua New Guinea Hunters vs Ipswich Jets","description":"Sourced from predicthq.com","category":"sports","start":"2024-05-18T05:00:00Z","geo":{"geometry":{"coordinates":[147.1985304,-9.4690597],"type":"Point"},"placekey":"@jg4-bbq-435","address":{"country_code":"PG","formatted_address":"H56M+FQF, John Guise Dr, Port Moresby National Capital District, Papua New Guinea","locality":"Port Moresby","region":"National Capital District"}},"labels":["rugby","sport"],"duration":0,"start_local":"2024-05-18T15:00:00","end":"2024-05-18T05:00:00Z","end_local":"2024-05-18T15:00:00","updated":"2024-06-12T00:20:39Z"},{"title":"Queensland Cup - Group Stage - PNG Hunters vs Ipswich Jets","description":"Sourced from predicthq.com","category":"sports","start":"2024-05-18T05:00:00Z","geo":{"geometry":{"coordinates":[147.1844156,-9.438821],"type":"Point"},"placekey":"@jg4-bbg-8gk","address":{"country_code":"PG","formatted_address":"H56M+FQF, John Guise Dr, Port Moresby National Capital District, Papua New Guinea","locality":"Port Moresby","region":"National Capital District"}},"labels":["rugby","sport"],"duration":0,"start_local":"2024-05-18T15:00:00","end":"2024-05-18T05:00:00Z","end_local":"2024-05-18T15:00:00","updated":"2024-06-11T23:07:10Z"},{"title":"Papua New Guinea Hunters vs Northern Pride","description":"Sourced from predicthq.com","category":"sports","start":"2024-05-11T05:00:00Z","geo":{"geometry":{"coordinates":[147.1985304,-9.4690597],"type":"Point"},"placekey":"@jg4-bbq-435","address":{"country_code":"PG","formatted_address":"H56M+FQF, John Guise Dr, Port Moresby National Capital District, Papua New Guinea","locality":"Port Moresby","region":"National Capital District"}},"labels":["rugby","sport"],"duration":0,"start_local":"2024-05-11T15:00:00","end":"2024-05-11T05:00:00Z","end_local":"2024-05-11T15:00:00","updated":"2024-06-11T21:34:35Z"},{"title":"Queensland Cup - Group Stage - PNG Hunters vs Northern Pride","description":"Sourced from predicthq.com","category":"sports","start":"2024-05-11T05:00:00Z","geo":{"geometry":{"coordinates":[147.1844156,-9.438821],"type":"Point"},"placekey":"@jg4-bbg-8gk","address":{"country_code":"PG","formatted_address":"H56M+FQF, John Guise Dr, Port Moresby National Capital District, Papua New Guinea","locality":"Port Moresby","region":"National Capital District"}},"labels":["rugby","sport"],"duration":0,"start_local":"2024-05-11T15:00:00","end":"2024-05-11T05:00:00Z","end_local":"2024-05-11T15:00:00","updated":"2024-06-12T06:28:39Z"},{"title":"Financial Literacy and MSME Day","description":"Sourced from predicthq.com - Join us on our mission to incubate and accellerate 1000 x 250k MSMEs in one year on a series of 12-month- One day only - in person days.","category":"expos","start":"2024-04-30T23:00:00Z","geo":{"geometry":{"coordinates":[147.1802671,-9.443800399999999],"type":"Point"},"placekey":"@jg4-bbf-xnq","address":{"country_code":"PG","formatted_address":"Port Moresby, National Capital District, Papua New Guinea","locality":"Port Moresby","region":"National Capital District"}},"labels":["business","expo"],"duration":21600,"start_local":"2024-05-01T09:00:00","end":"2024-05-01T05:00:00Z","end_local":"2024-05-01T15:00:00","updated":"2024-06-05T00:43:37Z"},{"title":"Papua New Guinea Hunters vs Redcliffe Dolphins","description":"Sourced from predicthq.com","category":"sports","start":"2024-04-20T05:00:00Z","geo":{"geometry":{"coordinates":[147.1985304,-9.4690597],"type":"Point"},"placekey":"@jg4-bbq-435","address":{"country_code":"PG","formatted_address":"H56M+FQF, John Guise Dr, Port Moresby National Capital District, Papua New Guinea","locality":"Port Moresby","region":"National Capital District"}},"labels":["rugby","sport"],"duration":0,"start_local":"2024-04-20T15:00:00","end":"2024-04-20T05:00:00Z","end_local":"2024-04-20T15:00:00","updated":"2024-06-12T09:30:13Z"},{"title":"Queensland Cup - Group Stage - PNG Hunters vs Redcliffe Dolphins","description":"Sourced from predicthq.com","category":"sports","start":"2024-04-20T05:00:00Z","geo":{"geometry":{"coordinates":[147.1844156,-9.438821],"type":"Point"},"placekey":"@jg4-bbg-8gk","address":{"country_code":"PG","formatted_address":"H56M+FQF, John Guise Dr, Port Moresby National Capital District, Papua New Guinea","locality":"Port Moresby","region":"National Capital District"}},"labels":["rugby","sport"],"duration":0,"start_local":"2024-04-20T15:00:00","end":"2024-04-20T05:00:00Z","end_local":"2024-04-20T15:00:00","updated":"2024-06-11T23:30:15Z"}]