[{"title":"I am in heavy machine business","description":"Sourced from predicthq.com - Join us at \"I am in heavy machine business\" event to connect with industry experts, explore cutting-edge technologies, and forge profitable","category":"expos","start":"2024-10-02T05:00:00Z","geo":{"geometry":{"coordinates":[73.04788479999999,33.6844202],"type":"Point"},"placekey":"@565-8rr-pjv","address":{"country_code":"PK","formatted_address":"Islamabad, Islamabad Capital Territory, Pakistan","locality":"Islamabad","region":"Islamabad Capital Territory"}},"labels":["business","expo"],"duration":7200,"start_local":"2024-10-02T10:00:00","end":"2024-10-02T07:00:00Z","end_local":"2024-10-02T12:00:00","updated":"2024-06-04T02:13:52Z"},{"title":"Flooring Pakistan","description":"Sourced from predicthq.com","category":"expos","start":"2024-09-26T04:00:00Z","geo":{"geometry":{"coordinates":[67.0758217,24.9015758],"type":"Point"},"placekey":"@89g-532-ghq","address":{"country_code":"PK","formatted_address":"Main Main University Rd, Block 15 Gulshan-e-Iqbal, Karachi, Karachi City, Sindh, Pakistan","locality":"Karachi","region":"Sindh"}},"labels":["expo"],"duration":205200,"start_local":"2024-09-26T09:00:00","end":"2024-09-28T13:00:00Z","end_local":"2024-09-28T18:00:00","updated":"2024-07-04T13:06:57Z"},{"title":"RAH Expo","description":"Sourced from predicthq.com","category":"expos","start":"2024-09-26T04:00:00Z","geo":{"geometry":{"coordinates":[67.0758217,24.9015758],"type":"Point"},"placekey":"@89g-532-ghq","address":{"country_code":"PK","formatted_address":"Main Main University Rd, Block 15 Gulshan-e-Iqbal, Karachi, Karachi City, Sindh, Pakistan","locality":"Karachi","region":"Sindh"}},"labels":["expo"],"duration":205200,"start_local":"2024-09-26T09:00:00","end":"2024-09-28T13:00:00Z","end_local":"2024-09-28T18:00:00","updated":"2024-06-04T06:26:15Z"},{"title":"Pakistan Sustainability Week","description":"Sourced from predicthq.com","category":"expos","start":"2024-09-26T04:00:00Z","geo":{"geometry":{"coordinates":[67.0758217,24.9015758],"type":"Point"},"placekey":"@89g-532-ghq","address":{"country_code":"PK","formatted_address":"Main Main University Rd, Block 15 Gulshan-e-Iqbal, Karachi, Karachi City, Sindh, Pakistan","locality":"Karachi","region":"Sindh"}},"labels":["expo"],"duration":205200,"start_local":"2024-09-26T09:00:00","end":"2024-09-28T13:00:00Z","end_local":"2024-09-28T18:00:00","updated":"2024-05-31T23:00:32Z"},{"title":"Light Pakistan","description":"Sourced from predicthq.com","category":"expos","start":"2024-09-25T19:00:00Z","geo":{"geometry":{"coordinates":[67.0758217,24.9015758],"type":"Point"},"placekey":"@89g-532-ghq","address":{"country_code":"PK","formatted_address":"Main Main University Rd, Block 15 Gulshan-e-Iqbal, Karachi, Karachi City, Sindh, Pakistan","locality":"Karachi","region":"Sindh"}},"labels":["expo"],"duration":259199,"start_local":"2024-09-26T00:00:00","end":"2024-09-28T18:59:59Z","end_local":"2024-09-28T23:59:59","updated":"2024-06-04T01:01:18Z"},{"title":"Safety & Security Pakistan","description":"Sourced from predicthq.com","category":"expos","start":"2024-09-25T19:00:00Z","geo":{"geometry":{"coordinates":[67.0758217,24.9015758],"type":"Point"},"placekey":"@89g-532-ghq","address":{"country_code":"PK","formatted_address":"Main Main University Rd, Block 15 Gulshan-e-Iqbal, Karachi, Karachi City, Sindh, Pakistan","locality":"Karachi","region":"Sindh"}},"labels":["expo"],"duration":259199,"start_local":"2024-09-26T00:00:00","end":"2024-09-28T18:59:59Z","end_local":"2024-09-28T23:59:59","updated":"2024-07-03T18:47:17Z"},{"title":"Logistics, Transports & Material Handling Pakistan","description":"Sourced from predicthq.com","category":"expos","start":"2024-09-25T19:00:00Z","geo":{"geometry":{"coordinates":[67.0758217,24.9015758],"type":"Point"},"placekey":"@89g-532-ghq","address":{"country_code":"PK","formatted_address":"Main Main University Rd, Block 15 Gulshan-e-Iqbal, Karachi, Karachi City, Sindh, Pakistan","locality":"Karachi","region":"Sindh"}},"labels":["expo"],"duration":259199,"start_local":"2024-09-26T00:00:00","end":"2024-09-28T18:59:59Z","end_local":"2024-09-28T23:59:59","updated":"2024-06-04T02:24:16Z"},{"title":"Build Pakistan","description":"Sourced from predicthq.com","category":"expos","start":"2024-09-25T19:00:00Z","geo":{"geometry":{"coordinates":[67.0758217,24.9015758],"type":"Point"},"placekey":"@89g-532-ghq","address":{"country_code":"PK","formatted_address":"Main Main University Rd, Block 15 Gulshan-e-Iqbal, Karachi, Karachi City, Sindh, Pakistan","locality":"Karachi","region":"Sindh"}},"labels":["expo"],"duration":259199,"start_local":"2024-09-26T00:00:00","end":"2024-09-28T18:59:59Z","end_local":"2024-09-28T23:59:59","updated":"2024-06-02T12:42:03Z"},{"title":"International Conference on E-Assessment in Mathematical Sciences","description":"Sourced from predicthq.com","category":"conferences","start":"2024-09-20T04:00:00Z","geo":{"geometry":{"coordinates":[73.056365,33.588516],"type":"Point"},"placekey":"@887-xx3-ty9","address":{"country_code":"PK","formatted_address":"H3Q4+9FV, Rawalpindi, Punjab 46000, Pakistan","postcode":"46000","locality":"Rawalpindi","region":"Punjab"}},"labels":["conference"],"duration":291600,"start_local":"2024-09-20T09:00:00","end":"2024-09-23T13:00:00Z","end_local":"2024-09-23T18:00:00","updated":"2024-06-02T07:40:56Z"},{"title":"International Conference on Advance Physics and Mathematics","description":"Sourced from predicthq.com - The International Conference on Advanced Physics and Mathematics brings together leading experts, researchers, and academicians from around the globe to discuss and present their latest findings in the fields of physics and mathematics. Held at the prestigious Pearl Continental Hotel, this conference offers an invaluable platform for knowledge exchange and collaboration in advancing these fundamental disciplines.","category":"conferences","start":"2024-09-19T04:00:00Z","geo":{"geometry":{"coordinates":[73.056365,33.588516],"type":"Point"},"placekey":"@887-xx3-ty9","address":{"country_code":"PK","formatted_address":"H3Q4+9FV, Rawalpindi, Punjab 46000, Pakistan","postcode":"46000","locality":"Rawalpindi","region":"Punjab"}},"labels":["conference"],"duration":205200,"start_local":"2024-09-19T09:00:00","end":"2024-09-21T13:00:00Z","end_local":"2024-09-21T18:00:00","updated":"2024-06-02T07:34:07Z"},{"title":"Fluid Pump Asia","description":"Sourced from predicthq.com","category":"expos","start":"2024-09-12T04:00:00Z","geo":{"geometry":{"coordinates":[74.25958,31.470813],"type":"Point"},"placekey":"@87x-zqs-28v","address":{"country_code":"PK","formatted_address":"Main Exhibition Halls, 1-A Abdul Haque Rd, Trade Centre Commercial Area Phase 2 Johar Town, Lahore, Punjab 54782, Pakistan","postcode":"54782","locality":"Lahore","region":"Punjab"}},"labels":["expo"],"duration":205200,"start_local":"2024-09-12T09:00:00","end":"2024-09-14T13:00:00Z","end_local":"2024-09-14T18:00:00","updated":"2024-06-01T03:33:30Z"},{"title":"Engineering Asia Lahore","description":"Sourced from predicthq.com","category":"expos","start":"2024-09-12T04:00:00Z","geo":{"geometry":{"coordinates":[74.25958,31.470813],"type":"Point"},"placekey":"@87x-zqs-28v","address":{"country_code":"PK","formatted_address":"Main Exhibition Halls, 1-A Abdul Haque Rd, Trade Centre Commercial Area Phase 2 Johar Town, Lahore, Punjab 54782, Pakistan","postcode":"54782","locality":"Lahore","region":"Punjab"}},"labels":["expo"],"duration":205200,"start_local":"2024-09-12T09:00:00","end":"2024-09-14T13:00:00Z","end_local":"2024-09-14T18:00:00","updated":"2024-05-31T23:29:59Z"},{"title":"Machine Tools & Hardware Asia","description":"Sourced from predicthq.com","category":"expos","start":"2024-09-12T04:00:00Z","geo":{"geometry":{"coordinates":[74.25958,31.470813],"type":"Point"},"placekey":"@87x-zqs-28v","address":{"country_code":"PK","formatted_address":"Main Exhibition Halls, 1-A Abdul Haque Rd, Trade Centre Commercial Area Phase 2 Johar Town, Lahore, Punjab 54782, Pakistan","postcode":"54782","locality":"Lahore","region":"Punjab"}},"labels":["expo"],"duration":205200,"start_local":"2024-09-12T09:00:00","end":"2024-09-14T13:00:00Z","end_local":"2024-09-14T18:00:00","updated":"2024-06-02T04:15:13Z"},{"title":"Power & Alternative Energy Asia","description":"Sourced from predicthq.com","category":"expos","start":"2024-09-11T19:00:00Z","geo":{"geometry":{"coordinates":[74.2594836,31.4644933],"type":"Point"},"placekey":"@87x-zqs-pn5","address":{"country_code":"PK","formatted_address":"Main Exhibition Halls, 1-A Abdul Haque Rd, Trade Centre Commercial Area Phase 2 Johar Town, Lahore, Punjab 54782, Pakistan","postcode":"54782","locality":"Lahore","region":"Punjab"}},"labels":["expo"],"duration":259199,"start_local":"2024-09-12T00:00:00","end":"2024-09-14T18:59:59Z","end_local":"2024-09-14T23:59:59","updated":"2024-06-04T03:59:20Z"},{"title":"Auto Transport & Logistic Asia","description":"Sourced from predicthq.com","category":"expos","start":"2024-09-11T19:00:00Z","geo":{"geometry":{"coordinates":[74.25958,31.470813],"type":"Point"},"placekey":"@87x-zqs-28v","address":{"country_code":"PK","formatted_address":"Main Exhibition Halls, 1-A Abdul Haque Rd, Trade Centre Commercial Area Phase 2 Johar Town, Lahore, Punjab 54782, Pakistan","postcode":"54782","locality":"Lahore","region":"Punjab"}},"labels":["expo"],"duration":259199,"start_local":"2024-09-12T00:00:00","end":"2024-09-14T18:59:59Z","end_local":"2024-09-14T23:59:59","updated":"2024-06-16T04:03:41Z"},{"title":"Oil & Gas Asia","description":"Sourced from predicthq.com","category":"conferences","start":"2024-09-11T19:00:00Z","geo":{"geometry":{"coordinates":[74.25958,31.470813],"type":"Point"},"placekey":"@87x-zqs-28v","address":{"country_code":"PK","formatted_address":"Main Exhibition Halls, 1-A Abdul Haque Rd, Trade Centre Commercial Area Phase 2 Johar Town, Lahore, Punjab 54782, Pakistan","postcode":"54782","locality":"Lahore","region":"Punjab"}},"labels":["conference"],"duration":259199,"start_local":"2024-09-12T00:00:00","end":"2024-09-14T18:59:59Z","end_local":"2024-09-14T23:59:59","updated":"2024-05-31T22:59:18Z"},{"title":"Solar Asia","description":"Sourced from predicthq.com","category":"expos","start":"2024-09-11T19:00:00Z","geo":{"geometry":{"coordinates":[74.25958,31.470813],"type":"Point"},"placekey":"@87x-zqs-28v","address":{"country_code":"PK","formatted_address":"Main Exhibition Halls, 1-A Abdul Haque Rd, Trade Centre Commercial Area Phase 2 Johar Town, Lahore, Punjab 54782, Pakistan","postcode":"54782","locality":"Lahore","region":"Punjab"}},"labels":["expo"],"duration":259199,"start_local":"2024-09-12T00:00:00","end":"2024-09-14T18:59:59Z","end_local":"2024-09-14T23:59:59","updated":"2024-05-31T23:05:06Z"},{"title":"Mines Mineral & Metal Asia","description":"Sourced from predicthq.com","category":"expos","start":"2024-09-11T19:00:00Z","geo":{"geometry":{"coordinates":[74.25958,31.470813],"type":"Point"},"placekey":"@87x-zqs-28v","address":{"country_code":"PK","formatted_address":"Main Exhibition Halls, 1-A Abdul Haque Rd, Trade Centre Commercial Area Phase 2 Johar Town, Lahore, Punjab 54782, Pakistan","postcode":"54782","locality":"Lahore","region":"Punjab"}},"labels":["expo"],"duration":259199,"start_local":"2024-09-12T00:00:00","end":"2024-09-14T18:59:59Z","end_local":"2024-09-14T23:59:59","updated":"2024-06-01T04:02:36Z"},{"title":"Institute of Electrical and Electronics Engineers of Pakistan Industrial Fair","description":"Sourced from predicthq.com","category":"expos","start":"2024-09-10T04:00:00Z","geo":{"geometry":{"coordinates":[67.0758217,24.9015758],"type":"Point"},"placekey":"@89g-532-ghq","address":{"country_code":"PK","formatted_address":"Main Main University Rd, Block 15 Gulshan-e-Iqbal, Karachi, Karachi City, Sindh, Pakistan","locality":"Karachi","region":"Sindh"}},"labels":["expo"],"duration":205200,"start_local":"2024-09-10T09:00:00","end":"2024-09-12T13:00:00Z","end_local":"2024-09-12T18:00:00","updated":"2024-06-02T11:10:25Z"},{"title":"3P Pakistan 2024 - Plastic, Printing and Packaging","description":"Sourced from predicthq.com","category":"expos","start":"2024-09-04T19:00:00Z","geo":{"geometry":{"coordinates":[74.2602068,31.465678],"type":"Point"},"placekey":"@87x-zqs-pgk","address":{"country_code":"PK","formatted_address":"Abdul Haque Road, Lahore 54782, Pakistan","locality":"Lahore","postcode":"54782","region":"Punjab"}},"labels":["environment","expo","health","industrial","medical","packaging","technology"],"duration":259199,"start_local":"2024-09-05T00:00:00","end":"2024-09-07T18:59:59Z","end_local":"2024-09-07T23:59:59","updated":"2024-06-04T01:08:46Z"},{"title":"Plasti&Pack Pakistan - 19th International Exhibition for Plastic & Packaging Industry","description":"Sourced from predicthq.com","category":"expos","start":"2024-09-02T19:00:00Z","geo":{"geometry":{"coordinates":[67.0767307,24.9018954],"type":"Point"},"placekey":"@89g-539-kj9","address":{"country_code":"PK","formatted_address":"Main University Road, Karachi, Pakistan","locality":"Karachi","region":"Sindh"}},"labels":["expo","industrial","packaging","print","product","technology"],"duration":259199,"start_local":"2024-09-03T00:00:00","end":"2024-09-05T18:59:59Z","end_local":"2024-09-05T23:59:59","updated":"2024-06-04T05:26:04Z"},{"title":"PAK-INDUSTRIA (Pakistan Industrial Trade Fair)","description":"Sourced from predicthq.com","category":"expos","start":"2024-09-02T19:00:00Z","geo":{"geometry":{"coordinates":[67.0758217,24.9015758],"type":"Point"},"placekey":"@89g-532-ghq","address":{"country_code":"PK","formatted_address":"Main Main University Rd, Block 15 Gulshan-e-Iqbal, Karachi, Karachi City, Sindh, Pakistan","locality":"Karachi","region":"Sindh"}},"labels":["expo"],"duration":259199,"start_local":"2024-09-03T00:00:00","end":"2024-09-05T18:59:59Z","end_local":"2024-09-05T23:59:59","updated":"2024-06-02T05:39:10Z"},{"title":"Pakistan Energy Exhibition & Conference","description":"Sourced from predicthq.com","category":"expos","start":"2024-08-28T19:00:00Z","geo":{"geometry":{"coordinates":[74.25958,31.470813],"type":"Point"},"placekey":"@87x-zqs-28v","address":{"country_code":"PK","formatted_address":"Main Exhibition Halls, 1-A Abdul Haque Rd, Trade Centre Commercial Area Phase 2 Johar Town, Lahore, Punjab 54782, Pakistan","postcode":"54782","locality":"Lahore","region":"Punjab"}},"labels":["expo"],"duration":259199,"start_local":"2024-08-29T00:00:00","end":"2024-08-31T18:59:59Z","end_local":"2024-08-31T23:59:59","updated":"2024-06-01T16:32:34Z"},{"title":"Security Asia","description":"Sourced from predicthq.com","category":"expos","start":"2024-08-26T19:00:00Z","geo":{"geometry":{"coordinates":[67.0758217,24.9015758],"type":"Point"},"placekey":"@89g-532-ghq","address":{"country_code":"PK","formatted_address":"Main Main University Rd, Block 15 Gulshan-e-Iqbal, Karachi, Karachi City, Sindh, Pakistan","locality":"Karachi","region":"Sindh"}},"labels":["expo"],"duration":259199,"start_local":"2024-08-27T00:00:00","end":"2024-08-29T18:59:59Z","end_local":"2024-08-29T23:59:59","updated":"2024-07-05T07:00:47Z"},{"title":"ITCN Asia 2024 Karachi - Information Technology & Telecom Show","description":"Sourced from predicthq.com","category":"expos","start":"2024-08-26T19:00:00Z","geo":{"geometry":{"coordinates":[67.0767307,24.9018954],"type":"Point"},"placekey":"@89g-539-kj9","address":{"country_code":"PK","formatted_address":"Main University Road, Karachi, Pakistan","locality":"Karachi","region":"Sindh"}},"labels":["community","digital","expo","product","science","technology"],"duration":259199,"start_local":"2024-08-27T00:00:00","end":"2024-08-29T18:59:59Z","end_local":"2024-08-29T23:59:59","updated":"2024-06-04T10:05:20Z"},{"title":"Color & Chem Expo","description":"Sourced from predicthq.com","category":"expos","start":"2024-08-24T04:00:00Z","geo":{"geometry":{"coordinates":[74.25958,31.470813],"type":"Point"},"placekey":"@87x-zqs-28v","address":{"country_code":"PK","formatted_address":"Main Exhibition Halls, 1-A Abdul Haque Rd, Trade Centre Commercial Area Phase 2 Johar Town, Lahore, Punjab 54782, Pakistan","postcode":"54782","locality":"Lahore","region":"Punjab"}},"labels":["expo"],"duration":118800,"start_local":"2024-08-24T09:00:00","end":"2024-08-25T13:00:00Z","end_local":"2024-08-25T18:00:00","updated":"2024-05-27T04:15:05Z"},{"title":"Digital Textile Printing Industry Expo","description":"Sourced from predicthq.com","category":"expos","start":"2024-08-23T19:00:00Z","geo":{"geometry":{"coordinates":[74.25958,31.470813],"type":"Point"},"placekey":"@87x-zqs-28v","address":{"country_code":"PK","formatted_address":"Main Exhibition Halls, 1-A Abdul Haque Rd, Trade Centre Commercial Area Phase 2 Johar Town, Lahore, Punjab 54782, Pakistan","postcode":"54782","locality":"Lahore","region":"Punjab"}},"labels":["expo"],"duration":172799,"start_local":"2024-08-24T00:00:00","end":"2024-08-25T18:59:59Z","end_local":"2024-08-25T23:59:59","updated":"2024-06-02T00:56:35Z"},{"title":"International Bhurban Conference on Applied Sciences & Technology","description":"Sourced from predicthq.com","category":"conferences","start":"2024-08-20T04:00:00Z","geo":{"geometry":{"coordinates":[73.459142,33.956994],"type":"Point"},"placekey":"@565-9jc-qfz","address":{"country_code":"PK","formatted_address":"Hotel Road, Bhurban, Pakistan","locality":"Bhurban","region":"Khyber Pakhtunkhwa"}},"labels":["conference"],"duration":291600,"start_local":"2024-08-20T09:00:00","end":"2024-08-23T13:00:00Z","end_local":"2024-08-23T18:00:00","updated":"2024-06-16T04:05:38Z"},{"title":"Pharma Asia International Exhibition","description":"Sourced from predicthq.com","category":"expos","start":"2024-08-19T19:00:00Z","geo":{"geometry":{"coordinates":[67.0758217,24.9015758],"type":"Point"},"placekey":"@89g-532-ghq","address":{"country_code":"PK","formatted_address":"Main Main University Rd, Block 15 Gulshan-e-Iqbal, Karachi, Karachi City, Sindh, Pakistan","locality":"Karachi","region":"Sindh"}},"labels":["expo"],"duration":259199,"start_local":"2024-08-20T00:00:00","end":"2024-08-22T18:59:59Z","end_local":"2024-08-22T23:59:59","updated":"2024-06-01T20:43:39Z"},{"title":"Build Pakistan","description":"Sourced from predicthq.com","category":"expos","start":"2024-08-15T19:00:00Z","geo":{"geometry":{"coordinates":[74.25958,31.470813],"type":"Point"},"placekey":"@87x-zqs-28v","address":{"country_code":"PK","formatted_address":"Main Exhibition Halls, 1-A Abdul Haque Rd, Trade Centre Commercial Area Phase 2 Johar Town, Lahore, Punjab 54782, Pakistan","postcode":"54782","locality":"Lahore","region":"Punjab"}},"labels":["expo"],"duration":259199,"start_local":"2024-08-16T00:00:00","end":"2024-08-18T18:59:59Z","end_local":"2024-08-18T23:59:59","updated":"2024-06-01T11:55:16Z"},{"title":"Digital Printing & Signage Industry Conference & Exhibition","description":"Sourced from predicthq.com","category":"expos","start":"2024-08-15T19:00:00Z","geo":{"geometry":{"coordinates":[74.2594836,31.4644933],"type":"Point"},"placekey":"@87x-zqs-pn5","address":{"country_code":"PK","formatted_address":"Main Exhibition Halls, 1-A Abdul Haque Rd, Trade Centre Commercial Area Phase 2 Johar Town, Lahore, Punjab 54782, Pakistan","postcode":"54782","locality":"Lahore","region":"Punjab"}},"labels":["expo"],"duration":259199,"start_local":"2024-08-16T00:00:00","end":"2024-08-18T18:59:59Z","end_local":"2024-08-18T23:59:59","updated":"2024-06-16T01:55:26Z"},{"title":"Sixth International Conference on Applied Development Economics","description":"Sourced from predicthq.com","category":"conferences","start":"2024-08-15T04:00:00Z","geo":{"geometry":{"coordinates":[74.474946,31.502498],"type":"Point"},"placekey":"@87y-2zh-kzz","address":{"country_code":"PK","formatted_address":"Barki Road, Lahore, Pakistan","locality":"Lahore","region":"Punjab"}},"labels":["conference"],"duration":205200,"start_local":"2024-08-15T09:00:00","end":"2024-08-17T13:00:00Z","end_local":"2024-08-17T18:00:00","updated":"2024-06-02T00:56:45Z"},{"title":"Flowers expo","description":"Sourced from predicthq.com - Lorem ipsum dolor sit amet, consectetur adipiscing elit, sed do eiusmod tempor incididunt ut labore et dolore magna aliqua.Lorem","category":"expos","start":"2024-08-11T05:00:00Z","geo":{"geometry":{"coordinates":[67.0228736,24.8616159],"type":"Point"},"placekey":"@89g-55p-8qf","address":{"country_code":"PK","formatted_address":"Karachi, Sindh, Pakistan","locality":"Karachi","region":"Sindh"}},"labels":["expo","household"],"duration":7200,"start_local":"2024-08-11T10:00:00","end":"2024-08-11T07:00:00Z","end_local":"2024-08-11T12:00:00","updated":"2024-07-05T04:53:36Z"},{"title":"International Food & Agriculture Exhibition","description":"Sourced from predicthq.com","category":"expos","start":"2024-08-09T04:00:00Z","geo":{"geometry":{"coordinates":[67.0758217,24.9015758],"type":"Point"},"placekey":"@89g-532-ghq","address":{"country_code":"PK","formatted_address":"Main Main University Rd, Block 15 Gulshan-e-Iqbal, Karachi, Karachi City, Sindh, Pakistan","locality":"Karachi","region":"Sindh"}},"labels":["expo"],"duration":205200,"start_local":"2024-08-09T09:00:00","end":"2024-08-11T13:00:00Z","end_local":"2024-08-11T18:00:00","updated":"2024-05-31T23:06:35Z"},{"title":"Live Stock Asia","description":"Sourced from predicthq.com","category":"expos","start":"2024-08-09T04:00:00Z","geo":{"geometry":{"coordinates":[74.25958,31.470813],"type":"Point"},"placekey":"@87x-zqs-28v","address":{"country_code":"PK","formatted_address":"Main Exhibition Halls, 1-A Abdul Haque Rd, Trade Centre Commercial Area Phase 2 Johar Town, Lahore, Punjab 54782, Pakistan","postcode":"54782","locality":"Lahore","region":"Punjab"}},"labels":["expo"],"duration":205200,"start_local":"2024-08-09T09:00:00","end":"2024-08-11T13:00:00Z","end_local":"2024-08-11T18:00:00","updated":"2024-05-27T07:18:41Z"},{"title":"Food Asia","description":"Sourced from predicthq.com","category":"expos","start":"2024-08-09T04:00:00Z","geo":{"geometry":{"coordinates":[74.25958,31.470813],"type":"Point"},"placekey":"@87x-zqs-28v","address":{"country_code":"PK","formatted_address":"Main Exhibition Halls, 1-A Abdul Haque Rd, Trade Centre Commercial Area Phase 2 Johar Town, Lahore, Punjab 54782, Pakistan","postcode":"54782","locality":"Lahore","region":"Punjab"}},"labels":["expo"],"duration":205200,"start_local":"2024-08-09T09:00:00","end":"2024-08-11T13:00:00Z","end_local":"2024-08-11T18:00:00","updated":"2024-06-01T20:43:59Z"},{"title":"Hospitality & Catering Expo","description":"Sourced from predicthq.com","category":"expos","start":"2024-08-09T04:00:00Z","geo":{"geometry":{"coordinates":[74.25958,31.470813],"type":"Point"},"placekey":"@87x-zqs-28v","address":{"country_code":"PK","formatted_address":"Main Exhibition Halls, 1-A Abdul Haque Rd, Trade Centre Commercial Area Phase 2 Johar Town, Lahore, Punjab 54782, Pakistan","postcode":"54782","locality":"Lahore","region":"Punjab"}},"labels":["expo"],"duration":205200,"start_local":"2024-08-09T09:00:00","end":"2024-08-11T13:00:00Z","end_local":"2024-08-11T18:00:00","updated":"2024-06-01T20:44:09Z"},{"title":"Agriculture and Livestock Asia Exhibition","description":"Sourced from predicthq.com","category":"expos","start":"2024-08-09T04:00:00Z","geo":{"geometry":{"coordinates":[74.260264,31.465701],"type":"Point"},"placekey":"@87x-zqs-pgk","address":{"country_code":"PK","formatted_address":"Main Exhibition Halls, 1-A Abdul Haque Rd, Trade Centre Commercial Area Phase 2 Johar Town, Lahore, Punjab 54782, Pakistan","postcode":"54782","locality":"Lahore","region":"Punjab"}},"labels":["expo"],"duration":205200,"start_local":"2024-08-09T09:00:00","end":"2024-08-11T13:00:00Z","end_local":"2024-08-11T18:00:00","updated":"2024-06-01T21:54:15Z"},{"title":"Paper & Tissue Asia","description":"Sourced from predicthq.com","category":"expos","start":"2024-08-08T19:00:00Z","geo":{"geometry":{"coordinates":[74.25958,31.470813],"type":"Point"},"placekey":"@87x-zqs-28v","address":{"country_code":"PK","formatted_address":"Main Exhibition Halls, 1-A Abdul Haque Rd, Trade Centre Commercial Area Phase 2 Johar Town, Lahore, Punjab 54782, Pakistan","postcode":"54782","locality":"Lahore","region":"Punjab"}},"labels":["expo"],"duration":259199,"start_local":"2024-08-09T00:00:00","end":"2024-08-11T18:59:59Z","end_local":"2024-08-11T23:59:59","updated":"2024-06-04T06:11:01Z"},{"title":"Plastic, Packaging & Print Asia","description":"Sourced from predicthq.com","category":"expos","start":"2024-08-03T04:00:00Z","geo":{"geometry":{"coordinates":[67.0758217,24.9015758],"type":"Point"},"placekey":"@89g-532-ghq","address":{"country_code":"PK","formatted_address":"Main Main University Rd, Block 15 Gulshan-e-Iqbal, Karachi, Karachi City, Sindh, Pakistan","locality":"Karachi","region":"Sindh"}},"labels":["expo"],"duration":205200,"start_local":"2024-08-03T09:00:00","end":"2024-08-05T13:00:00Z","end_local":"2024-08-05T18:00:00","updated":"2024-06-04T11:03:10Z"},{"title":"Paper & Tissue Asia","description":"Sourced from predicthq.com - Paper & Tissue Asia Exhibition is expected to serve an effective and efficient platform for all national/international stakeholders presenting a wide range of products from world-leading manufacturers of the Paper & Tissue Industry. The leading event in the Paper & Tissue Asia Expo is an ideal platform for volume business to be conducted enabling buyers from both the fine Paper & Tissue markets to source products and keep abreast of the latest trends. Paper & Tissue Asia is the only business event of its kind on tissue paper and the allied industry in the country. The event aims to be the International business platform which will cover the entire spectrum of products and services for this industry. This B2B exhibition is an ideal platform for business transactions, branding, and product showcasing in the field of tissue paper and allied industries. Paper & Tissue Asia provides you with a unique opportunity to meet key people and discuss your products and solutions with many of the decision-makers in the related industry.","category":"expos","start":"2024-08-02T19:00:00Z","geo":{"geometry":{"coordinates":[74.25958,31.470813],"type":"Point"},"placekey":"@87x-zqs-28v","address":{"country_code":"PK","formatted_address":"Main Exhibition Halls, 1-A Abdul Haque Rd, Trade Centre Commercial Area Phase 2 Johar Town, Lahore, Punjab 54782, Pakistan","postcode":"54782","locality":"Lahore","region":"Punjab"}},"labels":["expo","industrial","technology"],"duration":259199,"start_local":"2024-08-03T00:00:00","end":"2024-08-05T18:59:59Z","end_local":"2024-08-05T23:59:59","updated":"2024-06-16T01:51:36Z"},{"title":"Solar Pakistan","description":"Sourced from predicthq.com","category":"expos","start":"2024-07-25T19:00:00Z","geo":{"geometry":{"coordinates":[71.50701,30.293703],"type":"Point"},"placekey":"@87t-w5w-wzf","address":{"country_code":"PK","formatted_address":"Multan, Punjab, Pakistan","locality":"Multan","region":"Punjab"}},"labels":["expo"],"duration":259199,"start_local":"2024-07-26T00:00:00","end":"2024-07-28T18:59:59Z","end_local":"2024-07-28T23:59:59","updated":"2024-06-16T01:55:08Z"},{"title":"ISEM Pakistan Solar Energy Exhibition","description":"Sourced from predicthq.com","category":"expos","start":"2024-07-25T04:00:00Z","geo":{"geometry":{"coordinates":[67.0758217,24.9015758],"type":"Point"},"placekey":"@89g-532-ghq","address":{"country_code":"PK","formatted_address":"Main Main University Rd, Block 15 Gulshan-e-Iqbal, Karachi, Karachi City, Sindh, Pakistan","locality":"Karachi","region":"Sindh"}},"labels":["expo"],"duration":205200,"start_local":"2024-07-25T09:00:00","end":"2024-07-27T13:00:00Z","end_local":"2024-07-27T18:00:00","updated":"2024-06-16T01:53:59Z"},{"title":"Germany","description":"Sourced from predicthq.com - Willkommen zur Deutschland-Party! Feier mit uns die deutsche Kultur, Musik und Essen in einer unvergesslichen Nacht!","category":"festivals","start":"2024-07-14T05:00:00Z","geo":{"geometry":{"coordinates":[67.0302299,24.817611],"type":"Point"},"placekey":"@89g-546-pvz","address":{"country_code":"PK","formatted_address":"Shahrah-e-Iran, Karachi 75600, Pakistan","locality":"Karachi","postcode":"75600","region":"Sindh"}},"labels":["festival","outdoor"],"duration":7200,"start_local":"2024-07-14T10:00:00","end":"2024-07-14T07:00:00Z","end_local":"2024-07-14T12:00:00","updated":"2024-06-06T01:28:24Z"},{"title":"UAE International Education Expo, Karachi, Pakistan","description":"Sourced from predicthq.com - Come & get the on spot admission in the top UAE universities such as UOWD, MDX Hult etc. event is on 6-7 July, 2024 at Movenpick Hotel, Khi","category":"expos","start":"2024-07-06T07:00:00Z","geo":{"geometry":{"coordinates":[67.026457,24.846713],"type":"Point"},"placekey":"@89g-543-f4v","address":{"country_code":"PK","formatted_address":"Karachi 75530, Pakistan","postcode":"75530","locality":"Karachi","region":"Sindh"}},"labels":["education","expo","family"],"duration":21600,"start_local":"2024-07-06T12:00:00","end":"2024-07-06T13:00:00Z","end_local":"2024-07-06T18:00:00","updated":"2024-07-04T15:30:08Z"},{"title":"UK University Application Day @ AHZ DHA Office Lahore","description":"Sourced from predicthq.com - Join AHZ on a UK University Application Day on the 6th of July between 10 AM and 6 PM.","category":"conferences","start":"2024-07-06T05:00:00Z","geo":{"geometry":{"coordinates":[74.38358090000001,31.4624168],"type":"Point"},"placekey":"@87x-zpp-9pv","address":{"country_code":"PK","formatted_address":"Main Boulevard Phase IV, Lahore, Pakistan","locality":"Lahore","region":"Punjab"}},"labels":["conference","education","family"],"duration":28800,"start_local":"2024-07-06T10:00:00","end":"2024-07-06T13:00:00Z","end_local":"2024-07-06T18:00:00","updated":"2024-07-04T04:22:31Z"},{"title":"Kitchen+Bath Design & Architecture Expo","description":"Sourced from predicthq.com","category":"expos","start":"2024-07-02T19:00:00Z","geo":{"geometry":{"coordinates":[67.0758217,24.9015758],"type":"Point"},"placekey":"@89g-532-ghq","address":{"country_code":"PK","formatted_address":"Main Main University Rd, Block 15 Gulshan-e-Iqbal, Karachi, Karachi City, Sindh, Pakistan","locality":"Karachi","region":"Sindh"}},"labels":["expo"],"duration":172799,"start_local":"2024-07-03T00:00:00","end":"2024-07-04T18:59:59Z","end_local":"2024-07-04T23:59:59","updated":"2024-06-04T02:19:50Z"},{"title":"Pakistan Plumbing and Firefighting Expo & Conference","description":"Sourced from predicthq.com","category":"expos","start":"2024-07-02T19:00:00Z","geo":{"geometry":{"coordinates":[67.0758217,24.9015758],"type":"Point"},"placekey":"@89g-532-ghq","address":{"country_code":"PK","formatted_address":"Main Main University Rd, Block 15 Gulshan-e-Iqbal, Karachi, Karachi City, Sindh, Pakistan","locality":"Karachi","region":"Sindh"}},"labels":["expo"],"duration":172799,"start_local":"2024-07-03T00:00:00","end":"2024-07-04T18:59:59Z","end_local":"2024-07-04T23:59:59","updated":"2024-06-03T18:20:33Z"},{"title":"Foundations of University Teaching","description":"Sourced from predicthq.com","category":"expos","start":"2024-07-01T19:00:00Z","geo":{"geometry":{"coordinates":[73.000769,33.669279],"type":"Point"},"placekey":"@565-8r6-gp9","address":{"country_code":"PK","formatted_address":"Islamabad, Islamabad Capital Territory, Pakistan","locality":"Islamabad","region":"Islamabad Capital Territory"}},"labels":["expo"],"duration":86399,"start_local":"2024-07-02T00:00:00","end":"2024-07-02T18:59:59Z","end_local":"2024-07-02T23:59:59","updated":"2024-07-02T14:32:53Z"},{"title":"University of Gloucestershire Application Day @ AHZ Karachi Office","description":"Sourced from predicthq.com - Ready for your study in the UK? Join AHZ on our UK University Application Day on the 1st of July and find out the best opportunities.","category":"conferences","start":"2024-07-01T07:30:00Z","geo":{"geometry":{"coordinates":[67.0737735,24.8289144],"type":"Point"},"placekey":"@89g-53z-wc5","address":{"country_code":"PK","formatted_address":"Karachi 75500, Pakistan","locality":"Karachi","postcode":"75500","region":"Sindh"}},"labels":["conference","education","family"],"duration":5400,"start_local":"2024-07-01T12:30:00","end":"2024-07-01T09:00:00Z","end_local":"2024-07-01T14:00:00","updated":"2024-06-27T01:37:18Z"},{"title":"International Conference on Chemistry of Medicinal Plants","description":"Sourced from predicthq.com","category":"conferences","start":"2024-07-01T04:00:00Z","geo":{"geometry":{"coordinates":[74.365526,35.922501],"type":"Point"},"placekey":"@565-4q3-w6k","address":{"country_code":"PK","formatted_address":"Main KIU Road، Gilgit, 15100"}},"labels":["conference"],"duration":205200,"start_local":"2024-07-01T09:00:00","end":"2024-07-03T13:00:00Z","end_local":"2024-07-03T18:00:00","updated":"2024-05-22T01:37:26Z"},{"title":"ME RAQSAM | SUFI NIGHT","description":"Sourced from predicthq.com - Get ready to immerse yourself in the enchanting world of Sufi music and dance at ME RAQSAM | SUFI NIGHT - a night of soulful melodies and me","category":"performing-arts","start":"2024-06-29T15:00:00Z","geo":{"geometry":{"coordinates":[73.0908468,33.73091959999999],"type":"Point"},"placekey":"@565-8qp-kxq","address":{"country_code":"PK","formatted_address":"Islamabad, Islamabad Capital Territory, Pakistan","locality":"Islamabad","region":"Islamabad Capital Territory"}},"labels":["concert","music","performing-arts"],"duration":7200,"start_local":"2024-06-29T20:00:00","end":"2024-06-29T17:00:00Z","end_local":"2024-06-29T22:00:00","updated":"2024-06-13T01:05:57Z"},{"title":"Mega UK Education Expo 2024 @ Ramada Hotel, Islamabad","description":"Sourced from predicthq.com - The Ramada Hotel in Islamabad will host the Mega UK Education Expo 2024, which is being organized by AHZ, on June 29.","category":"expos","start":"2024-06-29T06:00:00Z","geo":{"geometry":{"coordinates":[73.1092942,33.6937011],"type":"Point"},"placekey":"@887-z9z-w6k","address":{"country_code":"PK","formatted_address":"Islamabad, Islamabad Capital Territory, Pakistan","locality":"Islamabad","region":"Islamabad Capital Territory"}},"labels":["education","expo","family"],"duration":25200,"start_local":"2024-06-29T11:00:00","end":"2024-06-29T13:00:00Z","end_local":"2024-06-29T18:00:00","updated":"2024-06-16T00:15:11Z"},{"title":"Hush Puppies Winter Collection","description":"Sourced from predicthq.com - Get ready to cozy up in style with the latest Hush Puppies Winter Collection - perfect for staying warm and fashionable all season long!","category":"expos","start":"2024-06-29T05:00:00Z","geo":{"geometry":{"coordinates":[74.35874729999999,31.5203696],"type":"Point"},"placekey":"@87x-zn6-xbk","address":{"country_code":"PK","formatted_address":"Lahore 56000, Pakistan","locality":"Lahore","postcode":"56000","region":"Punjab"}},"labels":["expo","fashion"],"duration":7200,"start_local":"2024-06-29T10:00:00","end":"2024-06-29T07:00:00Z","end_local":"2024-06-29T12:00:00","updated":"2024-05-23T02:24:18Z"},{"title":"Perfect Oracle 1do-1038-23-d for gureenteed success","description":"Sourced from predicthq.com - Join us for Perfect Oracle 1do-1038-23-d and unlock the secrets to guaranteed success in a fun and interactive in-person event!","category":"conferences","start":"2024-06-29T05:00:00Z","geo":{"geometry":{"coordinates":[74.1944529,31.4329663],"type":"Point"},"placekey":"@87x-zhr-yy9","address":{"country_code":"PK","formatted_address":"Lahore, Punjab, Pakistan","locality":"Lahore","region":"Punjab"}},"labels":["conference"],"duration":7200,"start_local":"2024-06-29T10:00:00","end":"2024-06-29T07:00:00Z","end_local":"2024-06-29T12:00:00","updated":"2024-05-23T02:10:58Z"},{"title":"Karachi SLUSH'D","description":"Sourced from predicthq.com","category":"conferences","start":"2024-06-29T04:00:00Z","geo":{"geometry":{"coordinates":[67.118813,24.885938],"type":"Point"},"placekey":"@89g-53r-yjv","address":{"country_code":"PK","formatted_address":"Karachi, Sindh, Pakistan","locality":"Karachi","region":"Sindh"}},"labels":["conference"],"duration":32400,"start_local":"2024-06-29T09:00:00","end":"2024-06-29T13:00:00Z","end_local":"2024-06-29T18:00:00","updated":"2024-06-16T00:22:13Z"},{"title":"London South Bank University's (LSBU) Application Day AHZ Islamabad RO","description":"Sourced from predicthq.com - Join us for London South Bank University's (LSBU) Application Day on June 27, 2024, from 11 am to 1:00 pm at the AHZ Islamabad.","category":"conferences","start":"2024-06-27T05:00:00Z","geo":{"geometry":{"coordinates":[73.0743397,33.6680452],"type":"Point"},"placekey":"@565-8rh-wc5","address":{"country_code":"PK","formatted_address":"Islamabad 44000, Pakistan","locality":"Islamabad","postcode":"44000","region":"Islamabad Capital Territory"}},"labels":["conference","education","family"],"duration":10800,"start_local":"2024-06-27T10:00:00","end":"2024-06-27T08:00:00Z","end_local":"2024-06-27T13:00:00","updated":"2024-06-28T04:51:04Z"},{"title":"Aspire Digital","description":"Sourced from predicthq.com","category":"concerts","start":"2024-06-25T15:00:00Z","geo":{"geometry":{"coordinates":[67.0643311,24.7936802],"type":"Point"},"placekey":"@89g-5d9-z4v","address":{"country_code":"PK","formatted_address":"20, D.H.A Phase 6 Bukhari Commercial Area Sector 31 KIA, Karachi, Karachi City, Sindh 75500, Pakistan","postcode":"75500","locality":"Karachi","region":"Sindh"}},"labels":["concert","music"],"duration":0,"start_local":"2024-06-25T20:00:00","end":"2024-06-25T15:00:00Z","end_local":"2024-06-25T20:00:00","updated":"2024-06-23T00:14:35Z"},{"title":"IEEE Workshop on Control and Modelling for Power Electronics","description":"Sourced from predicthq.com","category":"expos","start":"2024-06-24T04:00:00Z","geo":{"geometry":{"coordinates":[74.410753,31.470414],"type":"Point"},"placekey":"@87y-39f-bx5","address":{"country_code":"PK","formatted_address":"Department of Physics, Lahore University of Management Sciences, opposite Sector, Punjab Small Industries Housing Society, Lahore, U, Punjab 54792, Pakistan","postcode":"54792","locality":"Lahore","region":"Punjab"}},"labels":["expo"],"duration":291600,"start_local":"2024-06-24T09:00:00","end":"2024-06-27T13:00:00Z","end_local":"2024-06-27T18:00:00","updated":"2024-06-04T05:52:33Z"},{"title":"Aston University Pakistan Roadshow  - Lahore","description":"Sourced from predicthq.com - Discover Aston University's world-class education! Workshops, taster sessions, admissions advice and on-the-spot offers.","category":"conferences","start":"2024-06-23T12:00:00Z","geo":{"geometry":{"coordinates":[74.26481009999999,31.4672976],"type":"Point"},"placekey":"@87x-zqs-qj9","address":{"country_code":"PK","formatted_address":"Abdul Haque Road, Lahore, Pakistan","locality":"Lahore","region":"Punjab"}},"labels":["conference"],"duration":10800,"start_local":"2024-06-23T17:00:00","end":"2024-06-23T15:00:00Z","end_local":"2024-06-23T20:00:00","updated":"2024-06-20T03:42:38Z"},{"title":"Kickstart your career with Cloud Computing","description":"Sourced from predicthq.com - Get ready to supercharge your career by diving into the world of Cloud Computing at our event!","category":"conferences","start":"2024-06-22T05:30:00Z","geo":{"geometry":{"coordinates":[72.4930807,30.9584111],"type":"Point"},"placekey":"@87x-xn8-zfz","address":{"country_code":"PK","formatted_address":"Toba Tek Singh, Punjab, Pakistan","locality":"Toba Tek Singh","region":"Punjab"}},"labels":["conference","science","technology"],"duration":5400,"start_local":"2024-06-22T10:30:00","end":"2024-06-22T07:00:00Z","end_local":"2024-06-22T12:00:00","updated":"2024-06-21T16:46:47Z"},{"title":"Earn","description":"Sourced from predicthq.com - Get ready to hustle and learn how to earn more money at our event where we'll share tips, tricks, and strategies for financial success!","category":"conferences","start":"2024-06-20T05:00:00Z","geo":{"geometry":{"coordinates":[73.4960928,31.54712979999999],"type":"Point"},"placekey":"@87y-7xh-4vz","address":{"country_code":"PK","formatted_address":"Mir Pur, Punjab, Pakistan","locality":"Mir Pur","region":"Punjab"}},"labels":["business","conference"],"duration":7200,"start_local":"2024-06-20T10:00:00","end":"2024-06-20T07:00:00Z","end_local":"2024-06-20T12:00:00","updated":"2024-06-04T03:17:42Z"},{"title":"Fashion designer dress","description":"Sourced from predicthq.com - Get ready to witness the latest trends and styles in the fashion world at our Fashion Designer Dress event!","category":"expos","start":"2024-06-19T05:00:00Z","geo":{"geometry":{"coordinates":[73.13496049999999,30.6490124],"type":"Point"},"placekey":"@87x-v65-xyv","address":{"country_code":"PK","formatted_address":"Sahiwal, Punjab, Pakistan","locality":"Sahiwal","region":"Punjab"}},"labels":["expo","fashion"],"duration":7200,"start_local":"2024-06-19T10:00:00","end":"2024-06-19T07:00:00Z","end_local":"2024-06-19T12:00:00","updated":"2024-06-04T00:34:47Z"},{"title":"International Conference on Civil, Architectural and Environmental Sciences","description":"Sourced from predicthq.com - The International Conference on Civil, Architectural and Environmental Sciences is a prestigious event designed to bring together experts from various fields to exchange knowledge, explore cutting-edge research, and discuss the latest advancements in these important disciplines. Held at the renowned Pearl Continental Hotel, this conference promises an engaging platform for networking and fostering collaborations among professionals and practitioners in civil engineering, architecture, and environmental sciences.","category":"conferences","start":"2024-06-14T04:00:00Z","geo":{"geometry":{"coordinates":[73.056365,33.588516],"type":"Point"},"placekey":"@887-xx3-ty9","address":{"country_code":"PK","formatted_address":"H3Q4+9FV, Rawalpindi, Punjab 46000, Pakistan","postcode":"46000","locality":"Rawalpindi","region":"Punjab"}},"labels":["conference"],"duration":118800,"start_local":"2024-06-14T09:00:00","end":"2024-06-15T13:00:00Z","end_local":"2024-06-15T18:00:00","updated":"2024-06-02T07:34:26Z"},{"title":"UK Education Expo @ PC Hotel, Karachi","description":"Sourced from predicthq.com - Get ready for the UK Education Expo at PC Hotel Karachi on June 9th, from 11 am to 6 pm.","category":"expos","start":"2024-06-09T06:00:00Z","geo":{"geometry":{"coordinates":[67.0256,24.847342],"type":"Point"},"placekey":"@89g-544-dy9","address":{"country_code":"PK","formatted_address":"R2WG+X5R, Fatima Jinnah Rd, Karachi Cantonment, Karachi, Karachi City, Sindh, Pakistan","locality":"Karachi","region":"Sindh"}},"labels":["education","expo","family"],"duration":25200,"start_local":"2024-06-09T11:00:00","end":"2024-06-09T13:00:00Z","end_local":"2024-06-09T18:00:00","updated":"2024-06-04T05:47:23Z"},{"title":"Mega UK Education Expo 2024 @ Nishat Hotel Emporium Mall Lahore","description":"Sourced from predicthq.com - The Mega UK Education Expo 2024, organised by AHZ, will take place at the Nishat Hotel Emporium Mall in Lahore on June 8.","category":"expos","start":"2024-06-08T07:00:00Z","geo":{"geometry":{"coordinates":[74.26481009999999,31.4672976],"type":"Point"},"placekey":"@87x-zqs-qj9","address":{"country_code":"PK","formatted_address":"Abdul Haque Road, Lahore, Pakistan","locality":"Lahore","region":"Punjab"}},"labels":["education","expo","family"],"duration":28800,"start_local":"2024-06-08T12:00:00","end":"2024-06-08T15:00:00Z","end_local":"2024-06-08T20:00:00","updated":"2024-05-30T01:00:41Z"},{"title":"Mushal","description":"Sourced from predicthq.com - Mushal - un evento per celebrare la cultura e la diversità attraverso musica, cibo e arte!","category":"festivals","start":"2024-06-08T05:00:00Z","geo":{"geometry":{"coordinates":[67.16810269999999,24.9007815],"type":"Point"},"placekey":"@89g-53h-grk","address":{"country_code":"PK","formatted_address":"Karachi, Sindh, Pakistan","locality":"Karachi","region":"Sindh"}},"labels":["festival","religion"],"duration":7200,"start_local":"2024-06-08T10:00:00","end":"2024-06-08T07:00:00Z","end_local":"2024-06-08T12:00:00","updated":"2024-06-04T03:37:19Z"},{"title":"Mega UK Education Expo - Lahore","description":"Sourced from predicthq.com","category":"expos","start":"2024-06-07T19:00:00Z","geo":{"geometry":{"coordinates":[74.356055,31.506904],"type":"Point"},"placekey":"@87x-zn5-xt9","address":{"country_code":"PK","formatted_address":"9-A Mian Mehmood Ali Kasoori Rd, Block A3 Block A 3 Gulberg III, Lahore, Punjab 54660, Pakistan","postcode":"54660","locality":"Lahore","region":"Punjab"}},"labels":["expo"],"duration":86399,"start_local":"2024-06-08T00:00:00","end":"2024-06-08T18:59:59Z","end_local":"2024-06-08T23:59:59","updated":"2024-07-02T17:05:44Z"},{"title":"AFC World Cup Qualifiers - 2nd Round - Pakistan vs Saudi Arabia","description":"Sourced from predicthq.com","category":"sports","start":"2024-06-06T15:30:00Z","geo":{"geometry":{"coordinates":[73.09280276298523,33.700417236664954],"type":"Point"},"placekey":"@565-8rg-7dv","address":{"country_code":"PK","formatted_address":"Islāmābād (Islamabad), Pakistan","locality":"Islāmābād (Islamabad)"}},"labels":["soccer","sport"],"duration":6956,"start_local":"2024-06-06T20:30:00","end":"2024-06-06T17:25:56Z","end_local":"2024-06-06T22:25:56","updated":"2024-06-06T23:54:58Z"},{"title":"Health and Pharma Expo, 2024: International Exhibition & Conference","description":"Sourced from predicthq.com - Join us at the Health and Pharma Expo, 2024, where leading pharmaceutical and healthcare industry professionals come together","category":"expos","start":"2024-06-06T06:00:00Z","geo":{"geometry":{"coordinates":[74.26020679999999,31.465678],"type":"Point"},"placekey":"@87x-zqs-pgk","address":{"country_code":"PK","formatted_address":"Abdul Haque Road, Lahore, Pakistan","locality":"Lahore","region":"Punjab"}},"labels":["expo","health"],"duration":25200,"start_local":"2024-06-06T11:00:00","end":"2024-06-06T13:00:00Z","end_local":"2024-06-06T18:00:00","updated":"2024-06-04T11:36:19Z"},{"title":"Annual Mobile Commerce & Digital Banking Summit & Exhibition","description":"Sourced from predicthq.com","category":"expos","start":"2024-06-06T04:00:00Z","geo":{"geometry":{"coordinates":[67.026457,24.846713],"type":"Point"},"placekey":"@89g-543-f4v","address":{"country_code":"PK","formatted_address":"Karachi 75530, Pakistan","postcode":"75530","locality":"Karachi","region":"Sindh"}},"labels":["expo"],"duration":32400,"start_local":"2024-06-06T09:00:00","end":"2024-06-06T13:00:00Z","end_local":"2024-06-06T18:00:00","updated":"2024-06-12T03:21:51Z"},{"title":"UK Education Expo 2024 @ University of Peshawar","description":"Sourced from predicthq.com - We are excited to announce that the Mega UK Education Expo 2024, organized by AHZ, will be held at the University of Peshawar's PUTA Hall.","category":"expos","start":"2024-06-05T06:00:00Z","geo":{"geometry":{"coordinates":[71.48615219999999,33.9981965],"type":"Point"},"placekey":"@889-3qv-k4v","address":{"country_code":"PK","formatted_address":"Road No. 2, Peshawar, Pakistan","locality":"Peshawar","region":"Khyber Pakhtunkhwa"}},"labels":["education","expo","family"],"duration":25200,"start_local":"2024-06-05T11:00:00","end":"2024-06-05T13:00:00Z","end_local":"2024-06-05T18:00:00","updated":"2024-05-30T01:32:41Z"},{"title":"Dumps4it","description":"Sourced from predicthq.com - Get ready to ace your IT certification with Dumps4it - the ultimate exam preparation event where you'll dump those doubts and conquer your e","category":"expos","start":"2024-06-04T05:00:00Z","geo":{"geometry":{"coordinates":[74.1944529,31.4329663],"type":"Point"},"placekey":"@87x-zhr-yy9","address":{"country_code":"PK","formatted_address":"Lahore, Punjab, Pakistan","locality":"Lahore","region":"Punjab"}},"labels":["expo","science","technology"],"duration":7200,"start_local":"2024-06-04T10:00:00","end":"2024-06-04T07:00:00Z","end_local":"2024-06-04T12:00:00","updated":"2024-06-04T10:43:27Z"},{"title":"cheaptowtruck","description":"Sourced from predicthq.com","category":"concerts","start":"2024-05-31T15:00:00Z","geo":{"geometry":{"coordinates":[67.0500031,24.8666668],"type":"Point"},"placekey":"@89g-545-j5f","address":{"country_code":"PK","formatted_address":"Karachi, Sindh, Pakistan","locality":"Karachi","region":"Sindh"}},"labels":["concert","music"],"duration":0,"start_local":"2024-05-31T20:00:00","end":"2024-05-31T15:00:00Z","end_local":"2024-05-31T20:00:00","updated":"2024-06-17T15:41:26Z"},{"title":"IBA-SBS International Conference : Innovation and Disruption: Business Success Through AI","description":"Sourced from predicthq.com","category":"conferences","start":"2024-05-30T04:00:00Z","geo":{"geometry":{"coordinates":[67.114298,24.941869],"type":"Point"},"placekey":"@89g-557-28v","address":{"country_code":"PK","formatted_address":"Karachi, Sindh, Pakistan","locality":"Karachi","region":"Sindh"}},"labels":["conference"],"duration":118800,"start_local":"2024-05-30T09:00:00","end":"2024-05-31T13:00:00Z","end_local":"2024-05-31T18:00:00","updated":"2024-05-27T06:23:03Z"},{"title":"Trade Mission to Pakistan","description":"Sourced from predicthq.com - Pakistan Travel and Tourism Symposium","category":"expos","start":"2024-05-27T04:00:00Z","geo":{"geometry":{"coordinates":[67.06312100000002,24.864277],"type":"Point"},"placekey":"@89g-535-kj9","address":{"country_code":"PK","formatted_address":"Karachi, Sindh, Pakistan","locality":"Karachi","region":"Sindh"}},"labels":["expo","outdoor"],"duration":547200,"start_local":"2024-05-27T09:00:00","end":"2024-06-02T12:00:00Z","end_local":"2024-06-02T17:00:00","updated":"2024-06-05T08:47:41Z"},{"title":"Aman Golf View Sales Event","description":"Sourced from predicthq.com - Aman Golf View Karachi invites all investors and genuine buyers to its hi-tea","category":"expos","start":"2024-05-25T06:00:00Z","geo":{"geometry":{"coordinates":[67.03430759999999,24.8095037],"type":"Point"},"placekey":"@89g-5cs-r6k","address":{"country_code":"PK","formatted_address":"Karachi 75500, Pakistan","locality":"Karachi","postcode":"75500","region":"Sindh"}},"labels":["business","expo"],"duration":25200,"start_local":"2024-05-25T11:00:00","end":"2024-05-25T13:00:00Z","end_local":"2024-05-25T18:00:00","updated":"2024-05-23T03:34:02Z"},{"title":"Nexon Gaming Studio","description":"Sourced from predicthq.com - test","category":"conferences","start":"2024-05-25T05:00:00Z","geo":{"geometry":{"coordinates":[74.35874729999999,31.5203696],"type":"Point"},"placekey":"@87x-zn6-xbk","address":{"country_code":"PK","formatted_address":"Lahore 56000, Pakistan","locality":"Lahore","postcode":"56000","region":"Punjab"}},"labels":["conference","science","technology"],"duration":7200,"start_local":"2024-05-25T10:00:00","end":"2024-05-25T07:00:00Z","end_local":"2024-05-25T12:00:00","updated":"2024-06-05T14:47:50Z"},{"title":"UK Education Expo 2024 @Charminar Event Complex Sargodha","description":"Sourced from predicthq.com - Get ready for the UK Education Expo at Charminar Event Complex in Sargodha on May 23rd from 11 am to 6 pm.","category":"expos","start":"2024-05-23T06:00:00Z","geo":{"geometry":{"coordinates":[72.7244104,32.0516777],"type":"Point"},"placekey":"@888-kfv-pd9","address":{"country_code":"PK","formatted_address":"Lahore - Sargodha Road, Sargodha, Pakistan","locality":"Sargodha","region":"Punjab"}},"labels":["education","expo","family"],"duration":25200,"start_local":"2024-05-23T11:00:00","end":"2024-05-23T13:00:00Z","end_local":"2024-05-23T18:00:00","updated":"2024-05-23T02:12:03Z"},{"title":"Mobile Commerce Conference","description":"Sourced from predicthq.com","category":"conferences","start":"2024-05-23T04:00:00Z","geo":{"geometry":{"coordinates":[67.024376,24.8474],"type":"Point"},"placekey":"@89g-544-dvz","address":{"country_code":"PK","formatted_address":"Doctor Ziauddin Ahmed Road, Karachi, Pakistan","locality":"Karachi","region":"Sindh"}},"labels":["conference"],"duration":32400,"start_local":"2024-05-23T09:00:00","end":"2024-05-23T13:00:00Z","end_local":"2024-05-23T18:00:00","updated":"2024-06-03T21:02:31Z"},{"title":"Pakistan HVACR International Expo & Conference","description":"Sourced from predicthq.com","category":"expos","start":"2024-05-23T04:00:00Z","geo":{"geometry":{"coordinates":[74.260264,31.465701],"type":"Point"},"placekey":"@87x-zqs-pgk","address":{"country_code":"PK","formatted_address":"Main Exhibition Halls, 1-A Abdul Haque Rd, Trade Centre Commercial Area Phase 2 Johar Town, Lahore, Punjab 54782, Pakistan","postcode":"54782","locality":"Lahore","region":"Punjab"}},"labels":["expo"],"duration":205200,"start_local":"2024-05-23T09:00:00","end":"2024-05-25T13:00:00Z","end_local":"2024-05-25T18:00:00","updated":"2024-06-05T05:42:41Z"},{"title":"National Conference on Engineering & Computing Technologies","description":"Sourced from predicthq.com","category":"conferences","start":"2024-05-23T04:00:00Z","geo":{"geometry":{"coordinates":[73.051578,33.666544],"type":"Point"},"placekey":"@565-8rj-wrk","address":{"country_code":"PK","formatted_address":"4 Khayaban-e-Johar, H 9/4 H-9, Islamabad, Islamabad Capital Territory 44000, Pakistan","postcode":"44000","locality":"Islamabad","region":"Islamabad Capital Territory"}},"labels":["conference"],"duration":32400,"start_local":"2024-05-23T09:00:00","end":"2024-05-23T13:00:00Z","end_local":"2024-05-23T18:00:00","updated":"2024-05-31T22:55:20Z"},{"title":"Healthcare Expo","description":"Sourced from predicthq.com - Come check out the latest in healthcare technology, services, and innovations at our Healthcare Expo - don't miss out!","category":"expos","start":"2024-05-21T05:00:00Z","geo":{"geometry":{"coordinates":[67.0767307,24.9018954],"type":"Point"},"placekey":"@89g-539-kj9","address":{"country_code":"PK","formatted_address":"Main University Road, Karachi, Pakistan","locality":"Karachi","region":"Sindh"}},"labels":["expo","health"],"duration":201600,"start_local":"2024-05-21T10:00:00","end":"2024-05-23T13:00:00Z","end_local":"2024-05-23T18:00:00","updated":"2024-06-05T09:34:37Z"},{"title":"Aman Golf View Sales Event","description":"Sourced from predicthq.com - Aman Golf View Karachi invites all investors and genuine buyers to its hi-tea","category":"expos","start":"2024-05-18T06:00:00Z","geo":{"geometry":{"coordinates":[67.03430759999999,24.8095037],"type":"Point"},"placekey":"@89g-5cs-r6k","address":{"country_code":"PK","formatted_address":"Karachi 75500, Pakistan","locality":"Karachi","postcode":"75500","region":"Sindh"}},"labels":["business","expo"],"duration":25200,"start_local":"2024-05-18T11:00:00","end":"2024-05-18T13:00:00Z","end_local":"2024-05-18T18:00:00","updated":"2024-06-05T02:17:27Z"},{"title":"Karachi SLUSH'D","description":"Sourced from predicthq.com","category":"conferences","start":"2024-05-18T04:00:00Z","geo":{"geometry":{"coordinates":[67.118813,24.885938],"type":"Point"},"placekey":"@89g-53r-yjv","address":{"country_code":"PK","formatted_address":"Karachi, Sindh, Pakistan","locality":"Karachi","region":"Sindh"}},"labels":["conference"],"duration":32400,"start_local":"2024-05-18T09:00:00","end":"2024-05-18T13:00:00Z","end_local":"2024-05-18T18:00:00","updated":"2024-05-31T23:05:53Z"},{"title":"International Conference on Computing Research","description":"Sourced from predicthq.com","category":"conferences","start":"2024-05-18T04:00:00Z","geo":{"geometry":{"coordinates":[73.183988,33.546757],"type":"Point"},"placekey":"@887-zk5-s89","address":{"country_code":"PK","formatted_address":"Islamabad, Islamabad Capital Territory, Pakistan","locality":"Islamabad","region":"Islamabad Capital Territory"}},"labels":["conference"],"duration":32400,"start_local":"2024-05-18T09:00:00","end":"2024-05-18T13:00:00Z","end_local":"2024-05-18T18:00:00","updated":"2024-05-28T15:00:47Z"},{"title":"International Solar Energy Meet Pakistan","description":"Sourced from predicthq.com","category":"expos","start":"2024-05-16T19:00:00Z","geo":{"geometry":{"coordinates":[74.25958,31.470813],"type":"Point"},"placekey":"@87x-zqs-28v","address":{"country_code":"PK","formatted_address":"Main Exhibition Halls, 1-A Abdul Haque Rd, Trade Centre Commercial Area Phase 2 Johar Town, Lahore, Punjab 54782, Pakistan","postcode":"54782","locality":"Lahore","region":"Punjab"}},"labels":["expo"],"duration":259199,"start_local":"2024-05-17T00:00:00","end":"2024-05-19T18:59:59Z","end_local":"2024-05-19T23:59:59","updated":"2024-05-27T22:58:22Z"},{"title":"UK Education Application Day @ AHZ F-7 Islamabad Office","description":"Sourced from predicthq.com - Get ready for the largest UK Education Expo, which takes place on May 16 from 11 a.m. to 6 p.m. at the AHZ F-7 Islamabad Office.","category":"expos","start":"2024-05-16T06:00:00Z","geo":{"geometry":{"coordinates":[73.06043749999999,33.7225625],"type":"Point"},"placekey":"@565-8q9-mx5","address":{"country_code":"PK","formatted_address":"Islamabad, Islamabad Capital Territory, Pakistan","locality":"Islamabad","region":"Islamabad Capital Territory"}},"labels":["education","expo","family"],"duration":25200,"start_local":"2024-05-16T11:00:00","end":"2024-05-16T13:00:00Z","end_local":"2024-05-16T18:00:00","updated":"2024-06-11T23:57:47Z"},{"title":"Pakistan Networking Event (Lahore)","description":"Sourced from predicthq.com","category":"expos","start":"2024-05-15T19:00:00Z","geo":{"geometry":{"coordinates":[74.338696,31.552882],"type":"Point"},"placekey":"@87x-zqm-3yv","address":{"country_code":"PK","formatted_address":"Shahrah-e-Quaid-e-Azam, Lahore, Pakistan","locality":"Lahore","region":"Punjab"}},"labels":["expo"],"duration":86399,"start_local":"2024-05-16T00:00:00","end":"2024-05-16T18:59:59Z","end_local":"2024-05-16T23:59:59","updated":"2024-05-27T06:12:10Z"},{"title":"Pakistan Baking Summit","description":"Sourced from predicthq.com","category":"conferences","start":"2024-05-15T04:00:00Z","geo":{"geometry":{"coordinates":[67.026457,24.846713],"type":"Point"},"placekey":"@89g-543-f4v","address":{"country_code":"PK","formatted_address":"Karachi 75530, Pakistan","postcode":"75530","locality":"Karachi","region":"Sindh"}},"labels":["conference"],"duration":32400,"start_local":"2024-05-15T09:00:00","end":"2024-05-15T13:00:00Z","end_local":"2024-05-15T18:00:00","updated":"2024-05-25T10:15:45Z"},{"title":"UK Education Application Day @ AHZ Gujranwala Office","description":"Sourced from predicthq.com - Get ready for the biggest UK Education Application Day happening from May 13th to 17th, 12 p.m. to 5 p.m. at AHZ Gujranwala Office.","category":"conferences","start":"2024-05-13T07:00:00Z","geo":{"geometry":{"coordinates":[74.181938,32.181938],"type":"Point"},"placekey":"@7rz-5yn-ndv","address":{"country_code":"PK","formatted_address":"Jinnah Road, Gujranwala, Pakistan","locality":"Gujranwala","region":"Punjab"}},"labels":["conference","education","family"],"duration":363600,"start_local":"2024-05-13T12:00:00","end":"2024-05-17T12:00:00Z","end_local":"2024-05-17T17:00:00","updated":"2024-06-05T05:11:06Z"},{"title":"Aman Golf View Sales Event","description":"Sourced from predicthq.com - Aman Golf View Karachi invites all investors and genuine buyers to its hi-tea","category":"expos","start":"2024-05-11T06:00:00Z","geo":{"geometry":{"coordinates":[67.03430759999999,24.8095037],"type":"Point"},"placekey":"@89g-5cs-r6k","address":{"country_code":"PK","formatted_address":"Karachi 75500, Pakistan","locality":"Karachi","postcode":"75500","region":"Sindh"}},"labels":["business","expo"],"duration":25200,"start_local":"2024-05-11T11:00:00","end":"2024-05-11T13:00:00Z","end_local":"2024-05-11T18:00:00","updated":"2024-06-05T16:53:30Z"},{"title":"Pakistan Sustainability Week","description":"Sourced from predicthq.com","category":"expos","start":"2024-05-09T04:00:00Z","geo":{"geometry":{"coordinates":[73.085167,33.697262],"type":"Point"},"placekey":"@565-8rh-dqf","address":{"country_code":"PK","formatted_address":"Garden Avenue، Shakarparian Rd, Islamabad, Islamabad Capital Territory, Pakistan","locality":"Islamabad","region":"Islamabad Capital Territory"}},"labels":["expo"],"duration":205200,"start_local":"2024-05-09T09:00:00","end":"2024-05-11T13:00:00Z","end_local":"2024-05-11T18:00:00","updated":"2024-05-31T23:11:07Z"},{"title":"Electricity Pakistan 2024 - International Exhibition for Energy, Storage and Power Industry","description":"Sourced from predicthq.com","category":"expos","start":"2024-05-08T19:00:00Z","geo":{"geometry":{"coordinates":[73.0852466,33.6972334],"type":"Point"},"placekey":"@565-8rh-dqf","address":{"country_code":"PK","formatted_address":"Shakarparian Road, Islamabad, Pakistan","locality":"Islamabad","region":"Islamabad Capital Territory"}},"labels":["expo","industrial","technology"],"duration":259199,"start_local":"2024-05-09T00:00:00","end":"2024-05-11T18:59:59Z","end_local":"2024-05-11T23:59:59","updated":"2024-06-05T06:41:45Z"},{"title":"Solar Pakistan 2024","description":"Sourced from predicthq.com","category":"expos","start":"2024-05-08T19:00:00Z","geo":{"geometry":{"coordinates":[73.0852466,33.6972334],"type":"Point"},"placekey":"@565-8rh-dqf","address":{"country_code":"PK","formatted_address":"Shakarparian Road, Islamabad, Pakistan","locality":"Islamabad","region":"Islamabad Capital Territory"}},"labels":["expo","industrial","technology"],"duration":259199,"start_local":"2024-05-09T00:00:00","end":"2024-05-11T18:59:59Z","end_local":"2024-05-11T23:59:59","updated":"2024-06-05T08:42:58Z"},{"title":"Best dentist in lahore","description":"Sourced from predicthq.com","category":"concerts","start":"2024-05-08T14:30:00Z","geo":{"geometry":{"coordinates":[74.3889847,31.4627132],"type":"Point"},"placekey":"@87x-zpg-y35","address":{"country_code":"PK","formatted_address":"Street 6, Lahore, Pakistan","locality":"Lahore","region":"Punjab"}},"labels":["concert","music"],"duration":0,"start_local":"2024-05-08T19:30:00","end":"2024-05-08T14:30:00Z","end_local":"2024-05-08T19:30:00","updated":"2024-06-12T19:39:06Z"},{"title":"N300 Weight Loss Gummies Best For Weight Loss And Fat Burn","description":"Sourced from predicthq.com - N300 Weight Loss Gummies are supplements elevated to help people on a ketogenic diet, an incredibly low-starch, high-fat eating routine","category":"expos","start":"2024-05-08T05:00:00Z","geo":{"geometry":{"coordinates":[74.2971543,31.4931868],"type":"Point"},"placekey":"@87x-zng-m49","address":{"country_code":"PK","formatted_address":"Lahore, Punjab, Pakistan","locality":"Lahore","region":"Punjab"}},"labels":["expo","health"],"duration":7200,"start_local":"2024-05-08T10:00:00","end":"2024-05-08T07:00:00Z","end_local":"2024-05-08T12:00:00","updated":"2024-06-04T22:54:07Z"},{"title":"Power Technology Pakistan","description":"Sourced from predicthq.com","category":"conferences","start":"2024-05-08T04:00:00Z","geo":{"geometry":{"coordinates":[74.25958,31.470813],"type":"Point"},"placekey":"@87x-zqs-28v","address":{"country_code":"PK","formatted_address":"Main Exhibition Halls, 1-A Abdul Haque Rd, Trade Centre Commercial Area Phase 2 Johar Town, Lahore, Punjab 54782, Pakistan","postcode":"54782","locality":"Lahore","region":"Punjab"}},"labels":["conference"],"duration":205200,"start_local":"2024-05-08T09:00:00","end":"2024-05-10T13:00:00Z","end_local":"2024-05-10T18:00:00","updated":"2024-05-31T22:59:47Z"},{"title":"POGEE PAKISTAN","description":"Sourced from predicthq.com - POGEE is a must – attend event for professionals related or interested in Oil, Gas and Energy sector. It serves all areas of the oil and gas industry; including petroleum geosciences, exploration & production and refining & petrochemical products and services .","category":"expos","start":"2024-05-07T19:00:00Z","geo":{"geometry":{"coordinates":[74.260264,31.465701],"type":"Point"},"placekey":"@87x-zqs-pgk","address":{"country_code":"PK","formatted_address":"Main Exhibition Halls, 1-A Abdul Haque Rd, Trade Centre Commercial Area Phase 2 Johar Town, Lahore, Punjab 54782, Pakistan","postcode":"54782","locality":"Lahore","region":"Punjab"}},"labels":["expo","industrial","technology"],"duration":259199,"start_local":"2024-05-08T00:00:00","end":"2024-05-10T18:59:59Z","end_local":"2024-05-10T23:59:59","updated":"2024-06-05T15:15:31Z"},{"title":"POGEE PAKISTAN","description":"Sourced from predicthq.com","category":"expos","start":"2024-05-07T19:00:00Z","geo":{"geometry":{"coordinates":[67.064704,25.011419],"type":"Point"},"placekey":"@89g-5p7-7t9","address":{"country_code":"PK","formatted_address":"Karachi, Sindh, Pakistan","locality":"Karachi","region":"Sindh"}},"labels":["expo"],"duration":259199,"start_local":"2024-05-08T00:00:00","end":"2024-05-10T18:59:59Z","end_local":"2024-05-10T23:59:59","updated":"2024-06-05T06:26:52Z"},{"title":"Safe Secure Pakistan","description":"Sourced from predicthq.com","category":"expos","start":"2024-05-07T19:00:00Z","geo":{"geometry":{"coordinates":[74.25958,31.470813],"type":"Point"},"placekey":"@87x-zqs-28v","address":{"country_code":"PK","formatted_address":"Main Exhibition Halls, 1-A Abdul Haque Rd, Trade Centre Commercial Area Phase 2 Johar Town, Lahore, Punjab 54782, Pakistan","postcode":"54782","locality":"Lahore","region":"Punjab"}},"labels":["expo"],"duration":259199,"start_local":"2024-05-08T00:00:00","end":"2024-05-10T18:59:59Z","end_local":"2024-05-10T23:59:59","updated":"2024-06-02T04:59:44Z"},{"title":"Commercialisation of Sesame and Explore its Export Potential- Pakistan","description":"Sourced from predicthq.com - Commercialisation of Sesame and Explore its Export Potential- Pakistan is a hybrid event for farmers organised at AARI Faisalabad, Pakistan","category":"conferences","start":"2024-05-06T01:00:00Z","geo":{"geometry":{"coordinates":[73.048723,31.4040892],"type":"Point"},"placekey":"@87x-x52-fxq","address":{"country_code":"PK","formatted_address":"Faisalabad, Punjab, Pakistan","locality":"Faisalabad","region":"Punjab"}},"labels":["business","conference"],"duration":14400,"start_local":"2024-05-06T06:00:00","end":"2024-05-06T05:00:00Z","end_local":"2024-05-06T10:00:00","updated":"2024-06-05T00:53:39Z"},{"title":"UK Education Expo 2024 at Meridien Hotel in Gujranwala","description":"Sourced from predicthq.com - Get ready for the biggest UK Education Expo at Meridien Hotel, Gujranwala on May 4 from 11 am to 6 pm.","category":"expos","start":"2024-05-04T06:00:00Z","geo":{"geometry":{"coordinates":[74.19439849999999,32.1281691],"type":"Point"},"placekey":"@7rz-68c-vs5","address":{"country_code":"PK","formatted_address":"Grand Trunk Road, Gujranwala, Pakistan","locality":"Gujranwala","region":"Punjab"}},"labels":["education","expo","family"],"duration":25200,"start_local":"2024-05-04T11:00:00","end":"2024-05-04T13:00:00Z","end_local":"2024-05-04T18:00:00","updated":"2024-06-05T14:53:54Z"},{"title":"Aman Golf View Sales Event","description":"Sourced from predicthq.com - Aman Golf View Karachi invites all investors and genuine buyers to its hi-tea","category":"expos","start":"2024-05-04T06:00:00Z","geo":{"geometry":{"coordinates":[67.03430759999999,24.8095037],"type":"Point"},"placekey":"@89g-5cs-r6k","address":{"country_code":"PK","formatted_address":"Karachi 75500, Pakistan","locality":"Karachi","postcode":"75500","region":"Sindh"}},"labels":["business","expo"],"duration":25200,"start_local":"2024-05-04T11:00:00","end":"2024-05-04T13:00:00Z","end_local":"2024-05-04T18:00:00","updated":"2024-06-05T16:56:02Z"},{"title":"Pakistan vs West Indies","description":"Sourced from predicthq.com","category":"sports","start":"2024-05-03T14:30:00Z","geo":{"geometry":{"coordinates":[67.08145,24.8960659],"type":"Point"},"placekey":"@89g-532-dy9","address":{"country_code":"PK","formatted_address":"V3WJ+CHG, National Stadium Colony Gulshan-e-Iqbal, Karachi, Karachi City, Sindh, Pakistan","locality":"Karachi","region":"Sindh"}},"labels":["cricket","sport"],"duration":11346,"start_local":"2024-05-03T19:30:00","end":"2024-05-03T17:39:06Z","end_local":"2024-05-03T22:39:06","updated":"2024-06-05T01:03:57Z"},{"title":"Kasur Biggest Furniture Expo on 03-04-05 May 2024 at Aiwan-e-Shah Jahan Mai","description":"Sourced from predicthq.com - Kasur International Furniture and Crafts Fair Pakistan on -   at Aiwan-e-Shah Jahan Main Ferozepur Road","category":"expos","start":"2024-05-03T05:00:00Z","geo":{"geometry":{"coordinates":[74.456295,31.1420303],"type":"Point"},"placekey":"@87y-4j2-fcq","address":{"country_code":"PK","formatted_address":"Kasur, Punjab, Pakistan","locality":"Kasur","region":"Punjab"}},"labels":["expo","household"],"duration":43200,"start_local":"2024-05-03T10:00:00","end":"2024-05-03T17:00:00Z","end_local":"2024-05-03T22:00:00","updated":"2024-06-05T15:21:42Z"},{"title":"Pakistan vs West Indies","description":"Sourced from predicthq.com","category":"sports","start":"2024-05-02T14:30:00Z","geo":{"geometry":{"coordinates":[67.08145,24.8960659],"type":"Point"},"placekey":"@89g-532-dy9","address":{"country_code":"PK","formatted_address":"V3WJ+CHG, National Stadium Colony Gulshan-e-Iqbal, Karachi, Karachi City, Sindh, Pakistan","locality":"Karachi","region":"Sindh"}},"labels":["cricket","sport"],"duration":10767,"start_local":"2024-05-02T19:30:00","end":"2024-05-02T17:29:27Z","end_local":"2024-05-02T22:29:27","updated":"2024-06-05T12:23:51Z"},{"title":"animeunity","description":"Sourced from predicthq.com","category":"concerts","start":"2024-05-01T15:00:00Z","geo":{"geometry":{"coordinates":[70.6573715,30.7046032],"type":"Point"},"placekey":"@87v-v8b-cwk","address":{"country_code":"PK","formatted_address":"New College Road, Taunsa 32100, Pakistan","locality":"Taunsa","postcode":"32100","region":"Punjab"}},"labels":["concert","music"],"duration":0,"start_local":"2024-05-01T20:00:00","end":"2024-05-01T15:00:00Z","end_local":"2024-05-01T20:00:00","updated":"2024-06-12T08:57:35Z"},{"title":"conceptcleaning","description":"Sourced from predicthq.com","category":"concerts","start":"2024-05-01T15:00:00Z","geo":{"geometry":{"coordinates":[67.0500031,24.8666668],"type":"Point"},"placekey":"@89g-545-j5f","address":{"country_code":"PK","formatted_address":"Karachi, Sindh, Pakistan","locality":"Karachi","region":"Sindh"}},"labels":["concert","music"],"duration":0,"start_local":"2024-05-01T20:00:00","end":"2024-05-01T15:00:00Z","end_local":"2024-05-01T20:00:00","updated":"2024-06-12T03:45:08Z"},{"title":"ICADEX PAKISTAN","description":"Sourced from predicthq.com - ICADEX Pakistan is a highly anticipated expo event that showcases the latest innovations and advancements in various industries, bringing together experts, businesses, and enthusiasts under one roof. With an aim to foster collaboration and provide a platform for networking, ICADEX Pakistan promises an immersive experience that highlights cutting-edge products, services, and technologies.","category":"expos","start":"2024-04-30T19:00:00Z","geo":{"geometry":{"coordinates":[74.2602068,31.465678],"type":"Point"},"placekey":"@87x-zqs-pgk","address":{"country_code":"PK","formatted_address":"Abdul Haque Road, Lahore 54782, Pakistan","locality":"Lahore","postcode":"54782","region":"Punjab"}},"labels":["expo","industrial","product"],"duration":345599,"start_local":"2024-05-01T00:00:00","end":"2024-05-04T18:59:59Z","end_local":"2024-05-04T23:59:59","updated":"2024-06-05T11:51:35Z"},{"title":"IGATEX PAKISTAN","description":"Sourced from predicthq.com - IGATEX Pakistan is an esteemed expo event held at the Expo Centre Lahore, showcasing the latest advancements and trends in the textile and garment industry. It provides a platform for industry professionals to network, collaborate, and explore innovative solutions to revolutionize the textile sector.","category":"expos","start":"2024-04-30T19:00:00Z","geo":{"geometry":{"coordinates":[74.2602068,31.465678],"type":"Point"},"placekey":"@87x-zqs-pgk","address":{"country_code":"PK","formatted_address":"Abdul Haque Road, Lahore 54782, Pakistan","locality":"Lahore","postcode":"54782","region":"Punjab"}},"labels":["expo","industrial"],"duration":345599,"start_local":"2024-05-01T00:00:00","end":"2024-05-04T18:59:59Z","end_local":"2024-05-04T23:59:59","updated":"2024-06-11T00:16:30Z"},{"title":"Pakistan vs West Indies","description":"Sourced from predicthq.com","category":"sports","start":"2024-04-30T14:30:00Z","geo":{"geometry":{"coordinates":[67.08145,24.8960659],"type":"Point"},"placekey":"@89g-532-dy9","address":{"country_code":"PK","formatted_address":"V3WJ+CHG, National Stadium Colony Gulshan-e-Iqbal, Karachi, Karachi City, Sindh, Pakistan","locality":"Karachi","region":"Sindh"}},"labels":["cricket","sport"],"duration":12133,"start_local":"2024-04-30T19:30:00","end":"2024-04-30T17:52:13Z","end_local":"2024-04-30T22:52:13","updated":"2024-06-05T09:27:45Z"},{"title":"Pakistan CIO Summit & Expo","description":"Sourced from predicthq.com","category":"expos","start":"2024-04-29T04:00:00Z","geo":{"geometry":{"coordinates":[67.0311814,24.8462988],"type":"Point"},"placekey":"@89g-543-bff","address":{"country_code":"PK","formatted_address":"9 Abdullah Haroon Road, Karachi 10444, Pakistan","postcode":"10444","locality":"Karachi","region":"Sindh"}},"labels":["expo"],"duration":32400,"start_local":"2024-04-29T09:00:00","end":"2024-04-29T13:00:00Z","end_local":"2024-04-29T18:00:00","updated":"2024-06-04T22:44:06Z"},{"title":"Pakistan vs West Indies","description":"Sourced from predicthq.com","category":"sports","start":"2024-04-28T14:30:00Z","geo":{"geometry":{"coordinates":[67.08145,24.8960659],"type":"Point"},"placekey":"@89g-532-dy9","address":{"country_code":"PK","formatted_address":"V3WJ+CHG, National Stadium Colony Gulshan-e-Iqbal, Karachi, Karachi City, Sindh, Pakistan","locality":"Karachi","region":"Sindh"}},"labels":["cricket","sport"],"duration":11712,"start_local":"2024-04-28T19:30:00","end":"2024-04-28T17:45:12Z","end_local":"2024-04-28T22:45:12","updated":"2024-06-05T06:42:57Z"},{"title":"DEV OP's Conference Agile larks Islamabad","description":"Sourced from predicthq.com - Welcome to our online event dev op's engineer will deliver importance of dev op's and future of AI","category":"conferences","start":"2024-04-27T21:30:00Z","geo":{"geometry":{"coordinates":[73.0445551,33.6532125],"type":"Point"},"placekey":"@887-xyt-sqz","address":{"country_code":"PK","formatted_address":"Islamabad, Islamabad Capital Territory, Pakistan","locality":"Islamabad","region":"Islamabad Capital Territory"}},"labels":["conference","science","technology"],"duration":12600,"start_local":"2024-04-28T02:30:00","end":"2024-04-28T01:00:00Z","end_local":"2024-04-28T06:00:00","updated":"2024-06-12T17:27:53Z"},{"title":"Pakistan vs New Zealand","description":"Sourced from predicthq.com","category":"sports","start":"2024-04-27T14:30:00Z","geo":{"geometry":{"coordinates":[74.3334012,31.5134869],"type":"Point"},"placekey":"@87x-znd-b6k","address":{"country_code":"PK","formatted_address":"Gaddafi Stadium, Block E 2 Gulberg III, Lahore, Punjab 54000, Pakistan","postcode":"54000","locality":"Lahore","region":"Punjab"}},"labels":["cricket","sport"],"duration":12556,"start_local":"2024-04-27T19:30:00","end":"2024-04-27T17:59:16Z","end_local":"2024-04-27T22:59:16","updated":"2024-06-05T19:03:06Z"},{"title":"UK University Education Seminar @ Faletti's Grand Hotel Bahawalpur","description":"Sourced from predicthq.com - Are you aiming to pursue your higher education in the UK? Here's your opportunity to make it happen!","category":"conferences","start":"2024-04-27T07:00:00Z","geo":{"geometry":{"coordinates":[71.6234102,29.3407049],"type":"Point"},"placekey":"@87v-7mr-sh5","address":{"country_code":"PK","formatted_address":"Bahawalpur, Punjab, Pakistan","locality":"Bahawalpur","region":"Punjab"}},"labels":["conference","education","family"],"duration":21600,"start_local":"2024-04-27T12:00:00","end":"2024-04-27T13:00:00Z","end_local":"2024-04-27T18:00:00","updated":"2024-06-05T03:04:44Z"},{"title":"UK Education Expo @ Indus Hotel, Hyderabad","description":"Sourced from predicthq.com - Get ready for the biggest UK Education Expo at indus Hotel, Hyderabad on April 27 from 12 am to 6 pm.","category":"festivals","start":"2024-04-27T07:00:00Z","geo":{"geometry":{"coordinates":[68.3376617,25.3802493],"type":"Point"},"placekey":"@89g-gnx-v4v","address":{"country_code":"PK","formatted_address":"Thandi Sarak, Hyderabad 71000, Pakistan","locality":"Hyderabad","postcode":"71000","region":"Sindh"}},"labels":["education","family","festival"],"duration":21600,"start_local":"2024-04-27T12:00:00","end":"2024-04-27T13:00:00Z","end_local":"2024-04-27T18:00:00","updated":"2024-06-05T07:24:36Z"},{"title":"Aman Golf View Sales Event","description":"Sourced from predicthq.com - Aman Golf View Karachi invites all investors and genuine buyers to its hi-tea","category":"expos","start":"2024-04-27T06:00:00Z","geo":{"geometry":{"coordinates":[67.03430759999999,24.8095037],"type":"Point"},"placekey":"@89g-5cs-r6k","address":{"country_code":"PK","formatted_address":"Karachi 75500, Pakistan","locality":"Karachi","postcode":"75500","region":"Sindh"}},"labels":["business","expo"],"duration":25200,"start_local":"2024-04-27T11:00:00","end":"2024-04-27T13:00:00Z","end_local":"2024-04-27T18:00:00","updated":"2024-06-05T04:55:42Z"},{"title":"TechXperience: Navigating the Future of Innovation","description":"Sourced from predicthq.com - TechXperience is a dynamic summit designed to chart the course of innovation in tomorrow's world. Join us as industry leaders, visionaries,","category":"conferences","start":"2024-04-27T05:00:00Z","geo":{"geometry":{"coordinates":[67.0228736,24.8616159],"type":"Point"},"placekey":"@89g-55p-8qf","address":{"country_code":"PK","formatted_address":"Karachi, Sindh, Pakistan","locality":"Karachi","region":"Sindh"}},"labels":["conference","science","technology"],"duration":7200,"start_local":"2024-04-27T10:00:00","end":"2024-04-27T07:00:00Z","end_local":"2024-04-27T12:00:00","updated":"2024-06-05T21:41:38Z"},{"title":"Pakistan vs West Indies","description":"Sourced from predicthq.com","category":"sports","start":"2024-04-26T14:30:00Z","geo":{"geometry":{"coordinates":[67.08145,24.8960659],"type":"Point"},"placekey":"@89g-532-dy9","address":{"country_code":"PK","formatted_address":"V3WJ+CHG, National Stadium Colony Gulshan-e-Iqbal, Karachi, Karachi City, Sindh, Pakistan","locality":"Karachi","region":"Sindh"}},"labels":["cricket","sport"],"duration":12962,"start_local":"2024-04-26T19:30:00","end":"2024-04-26T18:06:02Z","end_local":"2024-04-26T23:06:02","updated":"2024-06-05T07:32:05Z"},{"title":"International Conference on Anatomy","description":"Sourced from predicthq.com","category":"conferences","start":"2024-04-25T19:00:00Z","geo":{"geometry":{"coordinates":[67.115959,24.889246],"type":"Point"},"placekey":"@89g-53r-9xq","address":{"country_code":"PK","formatted_address":"Karachi, Sindh, Pakistan","locality":"Karachi","region":"Sindh"}},"labels":["conference"],"duration":172799,"start_local":"2024-04-26T00:00:00","end":"2024-04-27T18:59:59Z","end_local":"2024-04-27T23:59:59","updated":"2024-05-28T00:33:32Z"},{"title":"Pakistan vs New Zealand","description":"Sourced from predicthq.com","category":"sports","start":"2024-04-25T14:30:00Z","geo":{"geometry":{"coordinates":[74.3334012,31.5134869],"type":"Point"},"placekey":"@87x-znd-b6k","address":{"country_code":"PK","formatted_address":"Gaddafi Stadium, Block E 2 Gulberg III, Lahore, Punjab 54000, Pakistan","postcode":"54000","locality":"Lahore","region":"Punjab"}},"labels":["cricket","sport"],"duration":12597,"start_local":"2024-04-25T19:30:00","end":"2024-04-25T17:59:57Z","end_local":"2024-04-25T22:59:57","updated":"2024-06-05T09:05:43Z"},{"title":"WHAT IS BFIVE?","description":"Sourced from predicthq.com - Join us to discover the true essence of BFIVE through interactive activities and engaging discussions with like-minded individuals!","category":"conferences","start":"2024-04-25T05:00:00Z","geo":{"geometry":{"coordinates":[73.08039,31.4557119],"type":"Point"},"placekey":"@87x-x9k-mx5","address":{"country_code":"PK","formatted_address":"Faisalabad 38000, Pakistan","locality":"Faisalabad","postcode":"38000","region":"Punjab"}},"labels":["conference"],"duration":7200,"start_local":"2024-04-25T10:00:00","end":"2024-04-25T07:00:00Z","end_local":"2024-04-25T12:00:00","updated":"2024-06-05T09:33:06Z"},{"title":"UK University Education Seminar @ Charminar Event Complex Sargodha","description":"Sourced from predicthq.com - Are you aiming to pursue your higher education in the UK? Here's your opportunity to make it happen! AHZ is proud to present an engaging UK","category":"conferences","start":"2024-04-25T05:00:00Z","geo":{"geometry":{"coordinates":[72.7244104,32.0516777],"type":"Point"},"placekey":"@888-kfv-pd9","address":{"country_code":"PK","formatted_address":"Lahore - Sargodha Road, Sargodha, Pakistan","locality":"Sargodha","region":"Punjab"}},"labels":["conference","education","family"],"duration":7200,"start_local":"2024-04-25T10:00:00","end":"2024-04-25T07:00:00Z","end_local":"2024-04-25T12:00:00","updated":"2024-06-05T12:55:33Z"},{"title":"International Conference on Contemporary Issues in Business Management","description":"Sourced from predicthq.com","category":"conferences","start":"2024-04-25T04:00:00Z","geo":{"geometry":{"coordinates":[74.268263,31.448068],"type":"Point"},"placekey":"@87x-zj6-k4v","address":{"country_code":"PK","formatted_address":"Lahore, Punjab, Pakistan","locality":"Lahore","region":"Punjab"}},"labels":["conference"],"duration":118800,"start_local":"2024-04-25T09:00:00","end":"2024-04-26T13:00:00Z","end_local":"2024-04-26T18:00:00","updated":"2024-05-27T18:57:37Z"},{"title":"PAC Agri Connections","description":"Sourced from predicthq.com","category":"expos","start":"2024-04-24T04:00:00Z","geo":{"geometry":{"coordinates":[74.260264,31.465701],"type":"Point"},"placekey":"@87x-zqs-pgk","address":{"country_code":"PK","formatted_address":"Main Exhibition Halls, 1-A Abdul Haque Rd, Trade Centre Commercial Area Phase 2 Johar Town, Lahore, Punjab 54782, Pakistan","postcode":"54782","locality":"Lahore","region":"Punjab"}},"labels":["expo"],"duration":118800,"start_local":"2024-04-24T09:00:00","end":"2024-04-25T13:00:00Z","end_local":"2024-04-25T18:00:00","updated":"2024-06-04T14:14:57Z"},{"title":"Pakistan vs West Indies","description":"Sourced from predicthq.com","category":"sports","start":"2024-04-23T10:30:00Z","geo":{"geometry":{"coordinates":[67.08145,24.8960659],"type":"Point"},"placekey":"@89g-532-dy9","address":{"country_code":"PK","formatted_address":"V3WJ+CHG, National Stadium Colony Gulshan-e-Iqbal, Karachi, Karachi City, Sindh, Pakistan","locality":"Karachi","region":"Sindh"}},"labels":["cricket","sport"],"duration":26708,"start_local":"2024-04-23T15:30:00","end":"2024-04-23T17:55:08Z","end_local":"2024-04-23T22:55:08","updated":"2024-06-05T04:30:13Z"},{"title":"Ramzan","description":"Sourced from predicthq.com - let us eat","category":"festivals","start":"2024-04-23T05:00:00Z","geo":{"geometry":{"coordinates":[74.35874729999999,31.5203696],"type":"Point"},"placekey":"@87x-zn6-xbk","address":{"country_code":"PK","formatted_address":"Lahore 56000, Pakistan","locality":"Lahore","postcode":"56000","region":"Punjab"}},"labels":["festival","religion"],"duration":7200,"start_local":"2024-04-23T10:00:00","end":"2024-04-23T07:00:00Z","end_local":"2024-04-23T12:00:00","updated":"2024-06-04T22:55:58Z"},{"title":"Pakistan vs New Zealand","description":"Sourced from predicthq.com","category":"sports","start":"2024-04-21T14:30:00Z","geo":{"geometry":{"coordinates":[73.0760641,33.6515516],"type":"Point"},"placekey":"@887-zbs-68v","address":{"country_code":"PK","formatted_address":"M32G+JCG, Stadium Rd, Shamsabad, Rawalpindi, Punjab, Pakistan","locality":"Rawalpindi","region":"Punjab"}},"labels":["cricket","sport"],"duration":11185,"start_local":"2024-04-21T19:30:00","end":"2024-04-21T17:36:25Z","end_local":"2024-04-21T22:36:25","updated":"2024-06-05T06:51:48Z"},{"title":"World health organization","description":"Sourced from predicthq.com - Let's come together to discuss global health issues and promote well-being at the World Health Organization event!","category":"conferences","start":"2024-04-21T05:00:00Z","geo":{"geometry":{"coordinates":[67.031087,24.9106894],"type":"Point"},"placekey":"@89g-54t-649","address":{"country_code":"PK","formatted_address":"Green Line BRT Corridor, Karachi 74600, Pakistan","locality":"Karachi","postcode":"74600","region":"Sindh"}},"labels":["conference","fundraiser"],"duration":7200,"start_local":"2024-04-21T10:00:00","end":"2024-04-21T07:00:00Z","end_local":"2024-04-21T12:00:00","updated":"2024-06-05T03:40:25Z"},{"title":"Pakistan vs West Indies","description":"Sourced from predicthq.com","category":"sports","start":"2024-04-21T04:30:00Z","geo":{"geometry":{"coordinates":[67.08145,24.8960659],"type":"Point"},"placekey":"@89g-532-dy9","address":{"country_code":"PK","formatted_address":"V3WJ+CHG, National Stadium Colony Gulshan-e-Iqbal, Karachi, Karachi City, Sindh, Pakistan","locality":"Karachi","region":"Sindh"}},"labels":["cricket","sport"],"duration":28531,"start_local":"2024-04-21T09:30:00","end":"2024-04-21T12:25:31Z","end_local":"2024-04-21T17:25:31","updated":"2024-06-05T04:04:51Z"},{"title":"Pakistan vs New Zealand","description":"Sourced from predicthq.com","category":"sports","start":"2024-04-20T14:30:00Z","geo":{"geometry":{"coordinates":[73.0760641,33.6515516],"type":"Point"},"placekey":"@887-zbs-68v","address":{"country_code":"PK","formatted_address":"M32G+JCG, Stadium Rd, Shamsabad, Rawalpindi, Punjab, Pakistan","locality":"Rawalpindi","region":"Punjab"}},"labels":["cricket","sport"],"duration":9537,"start_local":"2024-04-20T19:30:00","end":"2024-04-20T17:08:57Z","end_local":"2024-04-20T22:08:57","updated":"2024-06-05T13:03:32Z"},{"title":"International Conference on Modern Technologies in Mechanical & Material Engineering","description":"Sourced from predicthq.com","category":"conferences","start":"2024-04-20T04:00:00Z","geo":{"geometry":{"coordinates":[72.6441351,34.0691452],"type":"Point"},"placekey":"@565-dpv-vj9","address":{"country_code":"PK","formatted_address":"Topi 23640, Pakistan","postcode":"23640","locality":"Topi","region":"Khyber Pakhtunkhwa"}},"labels":["conference"],"duration":32400,"start_local":"2024-04-20T09:00:00","end":"2024-04-20T13:00:00Z","end_local":"2024-04-20T18:00:00","updated":"2024-05-25T07:53:56Z"},{"title":"UK University Education Seminar","description":"Sourced from predicthq.com","category":"conferences","start":"2024-04-19T19:00:00Z","geo":{"geometry":{"coordinates":[73.730681,32.907382],"type":"Point"},"placekey":"@887-wxn-ffz","address":{"country_code":"PK","formatted_address":"Sarai Alamgir, Punjab, Pakistan","locality":"Sarai Alamgir","region":"Punjab"}},"labels":["conference"],"duration":86399,"start_local":"2024-04-20T00:00:00","end":"2024-04-20T18:59:59Z","end_local":"2024-04-20T23:59:59","updated":"2024-05-28T04:51:56Z"},{"title":"Pakistan Society of Gastroenterology & GI Endoscopy Summit","description":"Sourced from predicthq.com","category":"conferences","start":"2024-04-19T04:00:00Z","geo":{"geometry":{"coordinates":[67.012214,30.204303],"type":"Point"},"placekey":"@88c-7dz-yjv","address":{"country_code":"PK","formatted_address":"Quetta, Balochistan, Pakistan","locality":"Quetta","region":"Balochistan"}},"labels":["conference"],"duration":205200,"start_local":"2024-04-19T09:00:00","end":"2024-04-21T13:00:00Z","end_local":"2024-04-21T18:00:00","updated":"2024-05-31T23:03:29Z"},{"title":"Pakistan vs West Indies","description":"Sourced from predicthq.com","category":"sports","start":"2024-04-18T04:30:00Z","geo":{"geometry":{"coordinates":[67.08145,24.8960659],"type":"Point"},"placekey":"@89g-532-dy9","address":{"country_code":"PK","formatted_address":"V3WJ+CHG, National Stadium Colony Gulshan-e-Iqbal, Karachi, Karachi City, Sindh, Pakistan","locality":"Karachi","region":"Sindh"}},"labels":["cricket","sport"],"duration":25305,"start_local":"2024-04-18T09:30:00","end":"2024-04-18T11:31:45Z","end_local":"2024-04-18T16:31:45","updated":"2024-06-05T17:58:26Z"},{"title":"Digital Signage & Printing Asia","description":"Sourced from predicthq.com","category":"expos","start":"2024-04-18T04:00:00Z","geo":{"geometry":{"coordinates":[74.380769,31.487547],"type":"Point"},"placekey":"@87x-znv-z9f","address":{"country_code":"PK","formatted_address":"Lahore, Punjab, Pakistan","locality":"Lahore","region":"Punjab"}},"labels":["expo"],"duration":205200,"start_local":"2024-04-18T09:00:00","end":"2024-04-20T13:00:00Z","end_local":"2024-04-20T18:00:00","updated":"2024-06-12T06:36:43Z"},{"title":"Pakistan Semiconductor Summit","description":"Sourced from predicthq.com","category":"conferences","start":"2024-04-18T04:00:00Z","geo":{"geometry":{"coordinates":[73.101882,33.715434],"type":"Point"},"placekey":"@565-8qp-ct9","address":{"country_code":"PK","formatted_address":"Khayaban-e-Suhrwardy Rd, opposite Convention Centre, G-5/1 G-5, Islamabad, Islamabad Capital Territory 44000, Pakistan","postcode":"44000","locality":"Islamabad","region":"Islamabad Capital Territory"}},"labels":["conference"],"duration":32400,"start_local":"2024-04-18T09:00:00","end":"2024-04-18T13:00:00Z","end_local":"2024-04-18T18:00:00","updated":"2024-06-05T04:57:25Z"},{"title":"ITCN Asia 2024 Lahore - Information Technology & Telecom Show","description":"Sourced from predicthq.com","category":"expos","start":"2024-04-17T19:00:00Z","geo":{"geometry":{"coordinates":[74.2602068,31.465678],"type":"Point"},"placekey":"@87x-zqs-pgk","address":{"country_code":"PK","formatted_address":"Abdul Haque Road, Lahore 54782, Pakistan","locality":"Lahore","postcode":"54782","region":"Punjab"}},"labels":["community","digital","expo","product","science","technology"],"duration":259199,"start_local":"2024-04-18T00:00:00","end":"2024-04-20T18:59:59Z","end_local":"2024-04-20T23:59:59","updated":"2024-06-05T17:21:06Z"}]