[{"title":"How The Top 1% Of Leaders Manage Their Time Like Clockwork Using T5 System","description":"Sourced from predicthq.com - You will learn essential skills that will increase your productivity so you have more margin in your life and business.","category":"conferences","start":"2024-07-07T11:00:00Z","geo":{"geometry":{"coordinates":[134.6336896,7.4951158],"type":"Point"},"placekey":"@dp7-zy4-28v","address":{"country_code":"PW","formatted_address":"Melekeok, Palau","locality":"Melekeok","region":"Melekeok"}},"labels":["business","conference"],"duration":3600,"start_local":"2024-07-07T20:00:00","end":"2024-07-07T12:00:00Z","end_local":"2024-07-07T21:00:00","updated":"2024-06-27T03:26:46Z"},{"title":"How The Top 1% Of Leaders Manage Their Time Like Clockwork Using T5 System","description":"Sourced from predicthq.com - You will learn essential skills that will increase your productivity so you have more margin in your life and business.","category":"conferences","start":"2024-06-19T10:00:00Z","geo":{"geometry":{"coordinates":[134.6336896,7.4951158],"type":"Point"},"placekey":"@dp7-zy4-28v","address":{"country_code":"PW","formatted_address":"Melekeok, Palau","locality":"Melekeok","region":"Melekeok"}},"labels":["business","conference"],"duration":3600,"start_local":"2024-06-19T19:00:00","end":"2024-06-19T11:00:00Z","end_local":"2024-06-19T20:00:00","updated":"2024-06-13T00:50:44Z"},{"title":"How The Top 1% Of Leaders Manage Their Time Like Clockwork Using T5 System","description":"Sourced from predicthq.com - You will learn essential skills that will increase your productivity so you have more margin in your life and business.","category":"conferences","start":"2024-06-11T09:00:00Z","geo":{"geometry":{"coordinates":[134.6336896,7.4951158],"type":"Point"},"placekey":"@dp7-zy4-28v","address":{"country_code":"PW","formatted_address":"Melekeok, Palau","locality":"Melekeok","region":"Melekeok"}},"labels":["business","conference"],"duration":3600,"start_local":"2024-06-11T18:00:00","end":"2024-06-11T10:00:00Z","end_local":"2024-06-11T19:00:00","updated":"2024-06-06T00:48:32Z"},{"title":"How The Top 1% Of Leaders Manage Their Time Like Clockwork Using T5 System","description":"Sourced from predicthq.com - You will learn essential skills that will increase your productivity so you have more margin in your life and business.","category":"conferences","start":"2024-06-02T11:00:00Z","geo":{"geometry":{"coordinates":[134.6336896,7.4951158],"type":"Point"},"placekey":"@dp7-zy4-28v","address":{"country_code":"PW","formatted_address":"Melekeok, Palau","locality":"Melekeok","region":"Melekeok"}},"labels":["business","conference"],"duration":3600,"start_local":"2024-06-02T20:00:00","end":"2024-06-02T12:00:00Z","end_local":"2024-06-02T21:00:00","updated":"2024-05-23T05:46:40Z"},{"title":"How The Top 1% Of Leaders Manage Their Time Like Clockwork Using T5 System","description":"Sourced from predicthq.com - You will learn essential skills that will increase your productivity so you have more margin in your life and business.","category":"conferences","start":"2024-05-15T10:00:00Z","geo":{"geometry":{"coordinates":[134.6336896,7.4951158],"type":"Point"},"placekey":"@dp7-zy4-28v","address":{"country_code":"PW","formatted_address":"Melekeok, Palau","locality":"Melekeok","region":"Melekeok"}},"labels":["business","conference"],"duration":3600,"start_local":"2024-05-15T19:00:00","end":"2024-05-15T11:00:00Z","end_local":"2024-05-15T20:00:00","updated":"2024-06-05T07:34:32Z"},{"title":"How The Top 1% Of Leaders Manage Their Time Like Clockwork Using T5 System","description":"Sourced from predicthq.com - You will learn essential skills that will increase your productivity so you have more margin in your life and business.","category":"conferences","start":"2024-05-14T09:00:00Z","geo":{"geometry":{"coordinates":[134.6336896,7.4951158],"type":"Point"},"placekey":"@dp7-zy4-28v","address":{"country_code":"PW","formatted_address":"Melekeok, Palau","locality":"Melekeok","region":"Melekeok"}},"labels":["business","conference"],"duration":3600,"start_local":"2024-05-14T18:00:00","end":"2024-05-14T10:00:00Z","end_local":"2024-05-14T19:00:00","updated":"2024-06-05T03:07:34Z"},{"title":"How The Top 1% Of Leaders Manage Their Time Like Clockwork Using T5 System","description":"Sourced from predicthq.com - You will learn essential skills that will increase your productivity so you have more margin in your life and business.","category":"conferences","start":"2024-05-05T11:00:00Z","geo":{"geometry":{"coordinates":[134.6336896,7.4951158],"type":"Point"},"placekey":"@dp7-zy4-28v","address":{"country_code":"PW","formatted_address":"Melekeok, Palau","locality":"Melekeok","region":"Melekeok"}},"labels":["business","conference"],"duration":3600,"start_local":"2024-05-05T20:00:00","end":"2024-05-05T12:00:00Z","end_local":"2024-05-05T21:00:00","updated":"2024-06-05T04:14:56Z"},{"title":"How The Top 1% Of Leaders Manage Their Time Like Clockwork Using T5 System","description":"Sourced from predicthq.com - You will learn essential skills that will increase your productivity so you have more margin in your life and business.","category":"conferences","start":"2024-04-17T10:00:00Z","geo":{"geometry":{"coordinates":[134.6336896,7.4951158],"type":"Point"},"placekey":"@dp7-zy4-28v","address":{"country_code":"PW","formatted_address":"Melekeok, Palau","locality":"Melekeok","region":"Melekeok"}},"labels":["business","conference"],"duration":3600,"start_local":"2024-04-17T19:00:00","end":"2024-04-17T11:00:00Z","end_local":"2024-04-17T20:00:00","updated":"2024-06-05T21:44:19Z"},{"title":"How The Top 1% Of Leaders Manage Their Time Like Clockwork Using T5 System","description":"Sourced from predicthq.com - You will learn essential skills that will increase your productivity so you have more margin in your life and business.","category":"conferences","start":"2024-04-07T11:00:00Z","geo":{"geometry":{"coordinates":[134.6336896,7.4951158],"type":"Point"},"placekey":"@dp7-zy4-28v","address":{"country_code":"PW","formatted_address":"Melekeok, Palau","locality":"Melekeok","region":"Melekeok"}},"labels":["business","conference"],"duration":3600,"start_local":"2024-04-07T20:00:00","end":"2024-04-07T12:00:00Z","end_local":"2024-04-07T21:00:00","updated":"2024-06-05T13:05:50Z"}]