[{"title":"FESTIVAL RECICLARTE","description":"Sourced from predicthq.com","category":"festivals","start":"2024-09-28T04:00:00Z","geo":{"geometry":{"coordinates":[-57.6185266,-25.3264718],"type":"Point"},"placekey":"@km8-gtz-3yv","address":{"country_code":"PY","formatted_address":"San Bernardino, Asunción, Paraguay","locality":"Asunción"}},"labels":["festival","music"],"duration":172799,"start_local":"2024-09-28T00:00:00","end":"2024-09-30T03:59:59Z","end_local":"2024-09-29T23:59:59","updated":"2024-06-13T01:50:54Z"},{"title":"Feria EducationUSA 2024 | Asunción","description":"Sourced from predicthq.com - Bienvenidos a la feria de EducationUSA en Asunción. ¡Su sueño de estudiar en Estados Unidos comienza aquí!","category":"expos","start":"2024-08-31T20:00:00Z","geo":{"geometry":{"coordinates":[-57.51463140000001,-25.2613226],"type":"Point"},"placekey":"@km8-g8k-ty9","address":{"country_code":"PY","formatted_address":"Avenida Sudamericana, 0000 Asunción, Paraguay","locality":"Asunción","postcode":"0000","region":"Central"}},"labels":["education","expo","family"],"duration":10800,"start_local":"2024-08-31T16:00:00","end":"2024-08-31T23:00:00Z","end_local":"2024-08-31T19:00:00","updated":"2024-07-05T01:03:40Z"},{"title":"Evento Genexus Paraguay 2024","description":"Sourced from predicthq.com - Nos reencontramos con la comunidad Genexus para conocer lo último en desarrollo de software,  Inteligencia Artificial y Super Apps","category":"conferences","start":"2024-08-12T18:30:00Z","geo":{"geometry":{"coordinates":[-57.5646901,-25.2839672],"type":"Point"},"placekey":"@km8-g9c-649","address":{"country_code":"PY","formatted_address":"001410 Asunción, Paraguay","locality":"Asunción","postcode":"001410","region":"Asunción"}},"labels":["conference","science","technology"],"duration":27000,"start_local":"2024-08-12T14:30:00","end":"2024-08-13T02:00:00Z","end_local":"2024-08-12T22:00:00","updated":"2024-06-20T16:37:37Z"},{"title":"RETIRO MEGAPHONE 2K24","description":"Sourced from predicthq.com - Tenha a melhor experiência da sua vida!","category":"conferences","start":"2024-07-30T14:00:00Z","geo":{"geometry":{"coordinates":[-55.59716340000001,-25.1516457],"type":"Point"},"placekey":"@kmd-dng-gx5","address":{"country_code":"PY","formatted_address":"051406 Lucero, Paraguay","locality":"Lucero","postcode":"051406","region":"Caaguazú Department"}},"labels":["conference","religion"],"duration":7200,"start_local":"2024-07-30T10:00:00","end":"2024-07-30T16:00:00Z","end_local":"2024-07-30T12:00:00","updated":"2024-06-27T04:57:26Z"},{"title":"Rugby Union Internationals - Friendlies 3 - Paraguay vs Belgium","description":"Sourced from predicthq.com","category":"sports","start":"2024-07-21T00:00:00Z","geo":{"geometry":{"coordinates":[-57.53065,-25.256794],"type":"Point"},"placekey":"@km8-g77-yy9","address":{"country_code":"PY","formatted_address":"PFV9+8GH, Luque, Paraguay","locality":"Luque","region":"Central Department"}},"labels":["rugby","sport"],"duration":0,"start_local":"2024-07-20T20:00:00","end":"2024-07-21T00:00:00Z","end_local":"2024-07-20T20:00:00","updated":"2024-07-01T12:14:35Z"},{"title":"CONMEBOL Sudamericana - 16th Finals - Cerro Porteño vs Athletico Paranaense","description":"Sourced from predicthq.com","category":"sports","start":"2024-07-19T00:30:00Z","geo":{"geometry":{"coordinates":[-57.637399435,-25.299875903],"type":"Point"},"placekey":"@km8-gvq-zs5","address":{"country_code":"PY","formatted_address":"P927+22W, Av. Acuña de Figueroa, Asunción 001105, Paraguay","postcode":"001105","locality":"Asunción","region":"Asunción"}},"labels":["soccer","sport"],"duration":0,"start_local":"2024-07-18T20:30:00","end":"2024-07-19T00:30:00Z","end_local":"2024-07-18T20:30:00","updated":"2024-06-13T00:36:30Z"},{"title":"Copa Paraguay - 2nd Round - Cristóbal Colón JAS vs Rubio Ñú","description":"Sourced from predicthq.com","category":"sports","start":"2024-07-18T22:30:00Z","geo":{"geometry":{"coordinates":[-57.52556559644711,-25.092164276584892],"type":"Point"},"placekey":"@km8-gmv-f9f","address":{"country_code":"PY","formatted_address":"WF5F+6M8, Villa Hayes, Paraguay","locality":"Villa Hayes","region":"Presidente Hayes Department"}},"labels":["soccer","sport"],"duration":0,"start_local":"2024-07-18T18:30:00","end":"2024-07-18T22:30:00Z","end_local":"2024-07-18T18:30:00","updated":"2024-07-01T03:11:11Z"},{"title":"Copa Paraguay - 2nd Round - Atlético 16 de Julio vs Fernando de la Mora","description":"Sourced from predicthq.com","category":"sports","start":"2024-07-18T20:15:00Z","geo":{"geometry":{"coordinates":[-57.52556559644711,-25.092164276584892],"type":"Point"},"placekey":"@km8-gmv-f9f","address":{"country_code":"PY","formatted_address":"WF5F+6M8, Villa Hayes, Paraguay","locality":"Villa Hayes","region":"Presidente Hayes Department"}},"labels":["soccer","sport"],"duration":0,"start_local":"2024-07-18T16:15:00","end":"2024-07-18T20:15:00Z","end_local":"2024-07-18T16:15:00","updated":"2024-07-01T04:30:18Z"},{"title":"Copa Paraguay - 2nd Round - Sportivo Limpeño vs Resistencia","description":"Sourced from predicthq.com","category":"sports","start":"2024-07-17T22:30:00Z","geo":{"geometry":{"coordinates":[-57.62552261352539,-25.279674463219955],"type":"Point"},"placekey":"@km8-gvj-5xq","address":{"country_code":"PY","formatted_address":"Fernando de Mompox y Zayas, Asunción 001212, Paraguay","postcode":"001212","locality":"Asunción","region":"Asunción"}},"labels":["soccer","sport"],"duration":0,"start_local":"2024-07-17T18:30:00","end":"2024-07-17T22:30:00Z","end_local":"2024-07-17T18:30:00","updated":"2024-06-26T11:46:43Z"},{"title":"CONMEBOL Sudamericana - 16th Finals - Libertad vs Universidad Católica","description":"Sourced from predicthq.com","category":"sports","start":"2024-07-17T22:00:00Z","geo":{"geometry":{"coordinates":[-57.6574033,-25.2920837],"type":"Point"},"placekey":"@km8-gvf-v9f","address":{"country_code":"PY","formatted_address":"Mayor Martinez, Asunción, Paraguay","locality":"Asunción","region":"Departamento Central"}},"labels":["soccer","sport"],"duration":0,"start_local":"2024-07-17T18:00:00","end":"2024-07-17T22:00:00Z","end_local":"2024-07-17T18:00:00","updated":"2024-06-13T00:17:04Z"},{"title":"Copa Paraguay - 2nd Round - Atlántida vs Independiente FBC","description":"Sourced from predicthq.com","category":"sports","start":"2024-07-17T20:15:00Z","geo":{"geometry":{"coordinates":[-57.5521067744,-25.2759688287],"type":"Point"},"placekey":"@km8-g75-kpv","address":{"country_code":"PY","formatted_address":"Salvador Del Mundo (Santisima Trinidad)\nCampo Grande, Asunción\nParaguay","locality":"Campo Grande, Asunción"}},"labels":["soccer","sport"],"duration":0,"start_local":"2024-07-17T16:15:00","end":"2024-07-17T20:15:00Z","end_local":"2024-07-17T16:15:00","updated":"2024-07-01T03:32:06Z"},{"title":"Copa Paraguay - 2nd Round - 12 de Octubre SD vs Capitán Figari","description":"Sourced from predicthq.com","category":"sports","start":"2024-07-17T18:00:00Z","geo":{"geometry":{"coordinates":[-57.5521067744,-25.2759688287],"type":"Point"},"placekey":"@km8-g75-kpv","address":{"country_code":"PY","formatted_address":"Salvador Del Mundo (Santisima Trinidad)\nCampo Grande, Asunción\nParaguay","locality":"Campo Grande, Asunción"}},"labels":["soccer","sport"],"duration":0,"start_local":"2024-07-17T14:00:00","end":"2024-07-17T18:00:00Z","end_local":"2024-07-17T14:00:00","updated":"2024-07-01T03:45:42Z"},{"title":"Copa Paraguay - 2nd Round - Nacional de Yby Yaú vs Sportivo Carapeguá","description":"Sourced from predicthq.com","category":"sports","start":"2024-07-16T22:30:00Z","geo":{"geometry":{"coordinates":[-56.4399934245,-25.7634830406],"type":"Point"},"placekey":"@kmd-gvm-8gk","address":{"country_code":"PY","formatted_address":"6HP6+G5V, PY08, Villarrica 040115, Paraguay","postcode":"040115","locality":"Villarrica","region":"Guairá"}},"labels":["soccer","sport"],"duration":0,"start_local":"2024-07-16T18:30:00","end":"2024-07-16T22:30:00Z","end_local":"2024-07-16T18:30:00","updated":"2024-07-01T04:26:23Z"},{"title":"Copa Paraguay - 2nd Round - 1 de Marzo Pilar vs Benjamín Aceval","description":"Sourced from predicthq.com","category":"sports","start":"2024-07-16T20:00:00Z","geo":{"geometry":{"coordinates":[-56.4399934245,-25.7634830406],"type":"Point"},"placekey":"@kmd-gvm-8gk","address":{"country_code":"PY","formatted_address":"6HP6+G5V, PY08, Villarrica 040115, Paraguay","postcode":"040115","locality":"Villarrica","region":"Guairá"}},"labels":["soccer","sport"],"duration":0,"start_local":"2024-07-16T16:00:00","end":"2024-07-16T20:00:00Z","end_local":"2024-07-16T16:00:00","updated":"2024-07-01T03:13:34Z"},{"title":"Friendlies Women - Friendlies 1 - Paraguay vs Chile","description":"Sourced from predicthq.com","category":"sports","start":"2024-07-15T14:00:00Z","geo":{"geometry":{"coordinates":[-57.499845027923584,-25.47151257127083],"type":"Point"},"placekey":"@km8-gs9-45f","address":{"country_code":"PY","formatted_address":"GGH2+93 Ypané, Paraguay","locality":"Ypané","region":"Central Department"}},"labels":["soccer","sport"],"duration":0,"start_local":"2024-07-15T10:00:00","end":"2024-07-15T14:00:00Z","end_local":"2024-07-15T10:00:00","updated":"2024-06-28T06:27:29Z"},{"title":"Rugby Union Internationals - Friendlies 3 - Paraguay vs Hong Kong, China","description":"Sourced from predicthq.com","category":"sports","start":"2024-07-14T00:00:00Z","geo":{"geometry":{"coordinates":[-57.53065,-25.256794],"type":"Point"},"placekey":"@km8-g77-yy9","address":{"country_code":"PY","formatted_address":"PFV9+8GH, Luque, Paraguay","locality":"Luque","region":"Central Department"}},"labels":["rugby","sport"],"duration":0,"start_local":"2024-07-13T20:00:00","end":"2024-07-14T00:00:00Z","end_local":"2024-07-13T20:00:00","updated":"2024-07-01T12:37:11Z"},{"title":"Friendlies Women - Friendlies 1 - Paraguay vs Chile","description":"Sourced from predicthq.com","category":"sports","start":"2024-07-12T22:00:00Z","geo":{"geometry":{"coordinates":[-57.499845027923584,-25.47151257127083],"type":"Point"},"placekey":"@km8-gs9-45f","address":{"country_code":"PY","formatted_address":"GGH2+93 Ypané, Paraguay","locality":"Ypané","region":"Central Department"}},"labels":["soccer","sport"],"duration":0,"start_local":"2024-07-12T18:00:00","end":"2024-07-12T22:00:00Z","end_local":"2024-07-12T18:00:00","updated":"2024-06-28T08:52:09Z"},{"title":"Copa Paraguay - 2nd Round - Fulgencio Yegros vs Atlético Tembetary","description":"Sourced from predicthq.com","category":"sports","start":"2024-07-11T22:30:00Z","geo":{"geometry":{"coordinates":[-57.4375366,-25.360506],"type":"Point"},"placekey":"@km8-gzs-ckf","address":{"country_code":"PY","formatted_address":"La Candelaria, Capiatá, Paraguay","locality":"Capiatá","region":"Departamento Central"}},"labels":["soccer","sport"],"duration":0,"start_local":"2024-07-11T18:30:00","end":"2024-07-11T22:30:00Z","end_local":"2024-07-11T18:30:00","updated":"2024-07-01T03:30:51Z"},{"title":"Copa Paraguay - 2nd Round - Olimpia Itá vs Martín Ledesma","description":"Sourced from predicthq.com","category":"sports","start":"2024-07-11T20:15:00Z","geo":{"geometry":{"coordinates":[-57.4375366,-25.360506],"type":"Point"},"placekey":"@km8-gzs-ckf","address":{"country_code":"PY","formatted_address":"La Candelaria, Capiatá, Paraguay","locality":"Capiatá","region":"Departamento Central"}},"labels":["soccer","sport"],"duration":0,"start_local":"2024-07-11T16:15:00","end":"2024-07-11T20:15:00Z","end_local":"2024-07-11T16:15:00","updated":"2024-07-01T04:31:26Z"},{"title":"Copa Paraguay - 2nd Round - 24 de Setiembre vs 12 de Junio VH","description":"Sourced from predicthq.com","category":"sports","start":"2024-07-11T18:00:00Z","geo":{"geometry":{"coordinates":[-57.436535572,-25.287251102],"type":"Point"},"placekey":"@km8-ghw-hnq","address":{"country_code":"PY","formatted_address":"PH77+774, Areguá, Paraguay","locality":"Areguá","region":"Central Department"}},"labels":["soccer","sport"],"duration":0,"start_local":"2024-07-11T14:00:00","end":"2024-07-11T18:00:00Z","end_local":"2024-07-11T14:00:00","updated":"2024-06-26T12:30:57Z"},{"title":"Copa Paraguay - 2nd Round - San Miguel vs Deportivo Recoleta","description":"Sourced from predicthq.com","category":"sports","start":"2024-07-10T20:15:00Z","geo":{"geometry":{"coordinates":[-57.52556559644711,-25.092164276584892],"type":"Point"},"placekey":"@km8-gmv-f9f","address":{"country_code":"PY","formatted_address":"WF5F+6M8, Villa Hayes, Paraguay","locality":"Villa Hayes","region":"Presidente Hayes Department"}},"labels":["soccer","sport"],"duration":0,"start_local":"2024-07-10T16:15:00","end":"2024-07-10T20:15:00Z","end_local":"2024-07-10T16:15:00","updated":"2024-06-26T15:38:36Z"},{"title":"Copa Paraguay - 2nd Round - Humaitá vs Sport Unión","description":"Sourced from predicthq.com","category":"sports","start":"2024-07-10T18:00:00Z","geo":{"geometry":{"coordinates":[-57.52556559644711,-25.092164276584892],"type":"Point"},"placekey":"@km8-gmv-f9f","address":{"country_code":"PY","formatted_address":"WF5F+6M8, Villa Hayes, Paraguay","locality":"Villa Hayes","region":"Presidente Hayes Department"}},"labels":["soccer","sport"],"duration":0,"start_local":"2024-07-10T14:00:00","end":"2024-07-10T18:00:00Z","end_local":"2024-07-10T14:00:00","updated":"2024-06-27T16:20:50Z"},{"title":"Copa Paraguay - 2nd Round - Cristóbal Colón de Ñemby vs Guaireña","description":"Sourced from predicthq.com","category":"sports","start":"2024-07-09T20:15:00Z","geo":{"geometry":{"coordinates":[-56.4399934245,-25.7634830406],"type":"Point"},"placekey":"@kmd-gvm-8gk","address":{"country_code":"PY","formatted_address":"6HP6+G5V, PY08, Villarrica 040115, Paraguay","postcode":"040115","locality":"Villarrica","region":"Guairá"}},"labels":["soccer","sport"],"duration":0,"start_local":"2024-07-09T16:15:00","end":"2024-07-09T20:15:00Z","end_local":"2024-07-09T16:15:00","updated":"2024-07-01T03:13:34Z"},{"title":"Copa Paraguay - 2nd Round - Salto del Guairá vs Deportivo Capiatá","description":"Sourced from predicthq.com","category":"sports","start":"2024-07-09T18:00:00Z","geo":{"geometry":{"coordinates":[-56.4399934245,-25.7634830406],"type":"Point"},"placekey":"@kmd-gvm-8gk","address":{"country_code":"PY","formatted_address":"6HP6+G5V, PY08, Villarrica 040115, Paraguay","postcode":"040115","locality":"Villarrica","region":"Guairá"}},"labels":["soccer","sport"],"duration":0,"start_local":"2024-07-09T14:00:00","end":"2024-07-09T18:00:00Z","end_local":"2024-07-09T14:00:00","updated":"2024-07-01T03:13:39Z"},{"title":"Division Intermedia - Encarnación vs Sportivo San Lorenzo","description":"Sourced from predicthq.com","category":"sports","start":"2024-07-08T21:30:00Z","geo":{"geometry":{"coordinates":[-55.84311557,-27.321969947],"type":"Point"},"placekey":"@km6-99z-nyv","address":{"country_code":"PY","formatted_address":"M5H4+6PP, Encarnacion, Paraguay","locality":"Encarnacion","region":"Itapúa Department"}},"labels":["soccer","sport"],"duration":0,"start_local":"2024-07-08T17:30:00","end":"2024-07-08T21:30:00Z","end_local":"2024-07-08T17:30:00","updated":"2024-06-25T18:02:42Z"},{"title":"Division Intermedia - 3 de Febrero vs Atlético Colegiales","description":"Sourced from predicthq.com","category":"sports","start":"2024-07-08T19:00:00Z","geo":{"geometry":{"coordinates":[-54.6120507,-25.526998],"type":"Point"},"placekey":"@kmf-2yy-gp9","address":{"country_code":"PY","formatted_address":"General Bernardino Caballero, Ciudad del Este, Paraguay","locality":"Ciudad del Este","region":"Departamento de Alto Paraná"}},"labels":["soccer","sport"],"duration":0,"start_local":"2024-07-08T15:00:00","end":"2024-07-08T19:00:00Z","end_local":"2024-07-08T15:00:00","updated":"2024-06-25T21:43:42Z"},{"title":"Division Intermedia - Martín Ledesma vs Independiente FBC","description":"Sourced from predicthq.com","category":"sports","start":"2024-07-07T14:00:00Z","geo":{"geometry":{"coordinates":[-57.4453891805,-25.3533817438],"type":"Point"},"placekey":"@km8-gzv-35z","address":{"country_code":"PY","formatted_address":"Martín Ledesma y, Kapi'atã 110217, Paraguay","postcode":"110217","locality":"Kapi'atã","region":"Tetãvore Central"}},"labels":["soccer","sport"],"duration":0,"start_local":"2024-07-07T10:00:00","end":"2024-07-07T14:00:00Z","end_local":"2024-07-07T10:00:00","updated":"2024-06-25T21:45:56Z"},{"title":"Division Intermedia - Fernando de la Mora vs Deportivo Recoleta","description":"Sourced from predicthq.com","category":"sports","start":"2024-07-07T14:00:00Z","geo":{"geometry":{"coordinates":[-57.6118004322052,-25.31564184305993],"type":"Point"},"placekey":"@km8-gv5-9vf","address":{"country_code":"PY","formatted_address":"Avenida Bruno Guggiari y Sajonia, Vista Alegre, Fernando de la Mora, Paraguay","locality":"Fernando de la Mora"}},"labels":["soccer","sport"],"duration":0,"start_local":"2024-07-07T10:00:00","end":"2024-07-07T14:00:00Z","end_local":"2024-07-07T10:00:00","updated":"2024-06-25T18:14:28Z"},{"title":"Division Intermedia - Pastoreo vs Rubio Ñú","description":"Sourced from predicthq.com","category":"sports","start":"2024-07-06T14:00:00Z","geo":{"geometry":{"coordinates":[-56.017418064,-25.443301964],"type":"Point"},"placekey":"@kmd-9vk-hwk","address":{"country_code":"PY","formatted_address":"HX4J+MWR, Caaguazú 050203, Paraguay","postcode":"050203","locality":"Caaguazú","region":"Caaguazú Department"}},"labels":["soccer","sport"],"duration":0,"start_local":"2024-07-06T10:00:00","end":"2024-07-06T14:00:00Z","end_local":"2024-07-06T10:00:00","updated":"2024-06-25T18:16:42Z"},{"title":"Division Intermedia - 12 de Junio VH vs Deportivo Santaní","description":"Sourced from predicthq.com","category":"sports","start":"2024-07-06T14:00:00Z","geo":{"geometry":{"coordinates":[-57.52556559644711,-25.092164276584892],"type":"Point"},"placekey":"@km8-gmv-f9f","address":{"country_code":"PY","formatted_address":"WF5F+6M8, Villa Hayes, Paraguay","locality":"Villa Hayes","region":"Presidente Hayes Department"}},"labels":["soccer","sport"],"duration":0,"start_local":"2024-07-06T10:00:00","end":"2024-07-06T14:00:00Z","end_local":"2024-07-06T10:00:00","updated":"2024-07-03T19:25:50Z"},{"title":"Division Intermedia - Atlético Tembetary vs Sportivo Carapeguá","description":"Sourced from predicthq.com","category":"sports","start":"2024-07-05T21:30:00Z","geo":{"geometry":{"coordinates":[-57.58488178253174,-25.36726565310002],"type":"Point"},"placekey":"@km8-gq7-7nq","address":{"country_code":"PY","formatted_address":"Avenida Enrique Von Poleski, Bairro Villa Elisa, Asunción, Paraguay","locality":"Asunción"}},"labels":["soccer","sport"],"duration":0,"start_local":"2024-07-05T17:30:00","end":"2024-07-05T21:30:00Z","end_local":"2024-07-05T17:30:00","updated":"2024-06-25T19:21:26Z"},{"title":"Division Intermedia - Guaireña vs Resistencia","description":"Sourced from predicthq.com","category":"sports","start":"2024-07-05T19:00:00Z","geo":{"geometry":{"coordinates":[-56.4399934245,-25.7634830406],"type":"Point"},"placekey":"@kmd-gvm-8gk","address":{"country_code":"PY","formatted_address":"6HP6+G5V, PY08, Villarrica 040115, Paraguay","postcode":"040115","locality":"Villarrica","region":"Guairá"}},"labels":["soccer","sport"],"duration":0,"start_local":"2024-07-05T15:00:00","end":"2024-07-05T19:00:00Z","end_local":"2024-07-05T15:00:00","updated":"2024-06-25T18:48:55Z"},{"title":"Copa Paraguay - 2nd Round - Sportivo Iteño vs Sportivo San Lorenzo","description":"Sourced from predicthq.com","category":"sports","start":"2024-07-04T22:30:00Z","geo":{"geometry":{"coordinates":[-57.5008106,-25.3427558],"type":"Point"},"placekey":"@km8-g9v-4n5","address":{"country_code":"PY","formatted_address":"MF4X+VMW, San Lorenzo 111429, Paraguay","postcode":"111429","locality":"San Lorenzo","region":"Central Department"}},"labels":["soccer","sport"],"duration":0,"start_local":"2024-07-04T18:30:00","end":"2024-07-04T22:30:00Z","end_local":"2024-07-04T18:30:00","updated":"2024-06-26T11:43:34Z"},{"title":"Copa Paraguay - 2nd Round - Pilcomayo vs Atlético Colegiales","description":"Sourced from predicthq.com","category":"sports","start":"2024-07-04T20:15:00Z","geo":{"geometry":{"coordinates":[-57.5008106,-25.3427558],"type":"Point"},"placekey":"@km8-g9v-4n5","address":{"country_code":"PY","formatted_address":"MF4X+VMW, San Lorenzo 111429, Paraguay","postcode":"111429","locality":"San Lorenzo","region":"Central Department"}},"labels":["soccer","sport"],"duration":0,"start_local":"2024-07-04T16:15:00","end":"2024-07-04T20:15:00Z","end_local":"2024-07-04T16:15:00","updated":"2024-06-28T05:13:42Z"},{"title":"Copa Paraguay - 2nd Round - Deportivo Pinozá vs Encarnación","description":"Sourced from predicthq.com","category":"sports","start":"2024-07-04T18:00:00Z","geo":{"geometry":{"coordinates":[-55.84311557,-27.321969947],"type":"Point"},"placekey":"@km6-99z-nyv","address":{"country_code":"PY","formatted_address":"M5H4+6PP, Encarnacion, Paraguay","locality":"Encarnacion","region":"Itapúa Department"}},"labels":["soccer","sport"],"duration":0,"start_local":"2024-07-04T14:00:00","end":"2024-07-04T18:00:00Z","end_local":"2024-07-04T14:00:00","updated":"2024-06-27T01:31:11Z"},{"title":"Copa Paraguay - 2nd Round - Atlético Enramadita vs 3 de Febrero","description":"Sourced from predicthq.com","category":"sports","start":"2024-07-03T22:30:00Z","geo":{"geometry":{"coordinates":[-54.6120507,-25.526998],"type":"Point"},"placekey":"@kmf-2yy-gp9","address":{"country_code":"PY","formatted_address":"General Bernardino Caballero, Ciudad del Este, Paraguay","locality":"Ciudad del Este","region":"Departamento de Alto Paraná"}},"labels":["soccer","sport"],"duration":0,"start_local":"2024-07-03T18:30:00","end":"2024-07-03T22:30:00Z","end_local":"2024-07-03T18:30:00","updated":"2024-07-01T03:25:18Z"},{"title":"Copa Paraguay - 2nd Round - Patriotas vs Deportivo Santaní","description":"Sourced from predicthq.com","category":"sports","start":"2024-07-03T20:15:00Z","geo":{"geometry":{"coordinates":[-54.6120507,-25.526998],"type":"Point"},"placekey":"@kmf-2yy-gp9","address":{"country_code":"PY","formatted_address":"General Bernardino Caballero, Ciudad del Este, Paraguay","locality":"Ciudad del Este","region":"Departamento de Alto Paraná"}},"labels":["soccer","sport"],"duration":0,"start_local":"2024-07-03T16:15:00","end":"2024-07-03T20:15:00Z","end_local":"2024-07-03T16:15:00","updated":"2024-07-01T03:25:18Z"},{"title":"Copa Paraguay - 2nd Round - Guaraní La Colmena vs Pastoreo","description":"Sourced from predicthq.com","category":"sports","start":"2024-07-03T18:00:00Z","geo":{"geometry":{"coordinates":[-56.017418064,-25.443301964],"type":"Point"},"placekey":"@kmd-9vk-hwk","address":{"country_code":"PY","formatted_address":"HX4J+MWR, Caaguazú 050203, Paraguay","postcode":"050203","locality":"Caaguazú","region":"Caaguazú Department"}},"labels":["soccer","sport"],"duration":0,"start_local":"2024-07-03T14:00:00","end":"2024-07-03T18:00:00Z","end_local":"2024-07-03T14:00:00","updated":"2024-06-26T21:34:06Z"},{"title":"CX Innovation Day","description":"Sourced from predicthq.com - “La revolución de la innovación y la CX digital” - Tendrá lugar en el  Centro de Convenciones del Paseo La Galería en Asunción.","category":"conferences","start":"2024-07-02T12:00:00Z","geo":{"geometry":{"coordinates":[-57.5633369,-25.2846953],"type":"Point"},"placekey":"@km8-g9c-68v","address":{"country_code":"PY","formatted_address":"Avenida Santa Teresa, 001410 Asunción, Paraguay","locality":"Asunción","postcode":"001410","region":"Asunción"}},"labels":["business","conference"],"duration":36000,"start_local":"2024-07-02T08:00:00","end":"2024-07-02T22:00:00Z","end_local":"2024-07-02T18:00:00","updated":"2024-06-27T11:44:59Z"},{"title":"Division Intermedia - Independiente FBC vs Encarnación","description":"Sourced from predicthq.com","category":"sports","start":"2024-07-01T20:45:00Z","geo":{"geometry":{"coordinates":[-57.5521067744,-25.2759688287],"type":"Point"},"placekey":"@km8-g75-kpv","address":{"country_code":"PY","formatted_address":"Salvador Del Mundo (Santisima Trinidad)\nCampo Grande, Asunción\nParaguay","locality":"Campo Grande, Asunción"}},"labels":["soccer","sport"],"duration":0,"start_local":"2024-07-01T16:45:00","end":"2024-07-01T20:45:00Z","end_local":"2024-07-01T16:45:00","updated":"2024-06-25T18:00:15Z"},{"title":"Division Intermedia - Atlético Colegiales vs Fernando de la Mora","description":"Sourced from predicthq.com","category":"sports","start":"2024-07-01T18:30:00Z","geo":{"geometry":{"coordinates":[-57.59255290031433,-25.34813715970821],"type":"Point"},"placekey":"@km8-gv9-s89","address":{"country_code":"PY","formatted_address":"Avenida Defensores del Chaco y 8 de Diciembre, Bairro Cuatro Mojones, Asunción, Paraguay","locality":"Asunción"}},"labels":["soccer","sport"],"duration":0,"start_local":"2024-07-01T14:30:00","end":"2024-07-01T18:30:00Z","end_local":"2024-07-01T14:30:00","updated":"2024-06-25T19:55:04Z"},{"title":"Division Intermedia - Sportivo Carapeguá vs 12 de Junio VH","description":"Sourced from predicthq.com","category":"sports","start":"2024-06-30T14:00:00Z","geo":{"geometry":{"coordinates":[-57.2348213,-25.7652089],"type":"Point"},"placekey":"@km5-d25-xt9","address":{"country_code":"PY","formatted_address":"6QQ7+PWR, Mariscal Francisco Solano López, Carapeguá 090506, Paraguay","postcode":"090506","locality":"Carapeguá","region":"Paraguarí"}},"labels":["soccer","sport"],"duration":0,"start_local":"2024-06-30T10:00:00","end":"2024-06-30T14:00:00Z","end_local":"2024-06-30T10:00:00","updated":"2024-06-25T18:09:41Z"},{"title":"Division Intermedia - Sportivo San Lorenzo vs 3 de Febrero","description":"Sourced from predicthq.com","category":"sports","start":"2024-06-30T14:00:00Z","geo":{"geometry":{"coordinates":[-57.5008106,-25.3427558],"type":"Point"},"placekey":"@km8-g9v-4n5","address":{"country_code":"PY","formatted_address":"MF4X+VMW, San Lorenzo 111429, Paraguay","postcode":"111429","locality":"San Lorenzo","region":"Central Department"}},"labels":["soccer","sport"],"duration":0,"start_local":"2024-06-30T10:00:00","end":"2024-06-30T14:00:00Z","end_local":"2024-06-30T10:00:00","updated":"2024-06-25T21:46:12Z"},{"title":"Rugby Union Women's Internationals - Friendlies 3 - Colombia vs Brazil","description":"Sourced from predicthq.com","category":"sports","start":"2024-06-29T19:30:00Z","geo":{"geometry":{"coordinates":[-57.53065,-25.256794],"type":"Point"},"placekey":"@km8-g77-yy9","address":{"country_code":"PY","formatted_address":"PFV9+8GH, Luque, Paraguay","locality":"Luque","region":"Central Department"}},"labels":["rugby","sport"],"duration":0,"start_local":"2024-06-29T15:30:00","end":"2024-06-29T19:30:00Z","end_local":"2024-06-29T15:30:00","updated":"2024-06-11T16:06:52Z"},{"title":"Division Intermedia - Deportivo Recoleta vs Atlético Tembetary","description":"Sourced from predicthq.com","category":"sports","start":"2024-06-29T14:00:00Z","geo":{"geometry":{"coordinates":[-57.527764838,-25.252263018],"type":"Point"},"placekey":"@km8-g8n-g6k","address":{"country_code":"PY","formatted_address":"PFXC+2M, Luque, Paraguay","locality":"Luque","region":"Central Department"}},"labels":["soccer","sport"],"duration":0,"start_local":"2024-06-29T10:00:00","end":"2024-06-29T14:00:00Z","end_local":"2024-06-29T10:00:00","updated":"2024-06-25T18:14:29Z"},{"title":"Division Intermedia - Deportivo Santaní vs Pastoreo","description":"Sourced from predicthq.com","category":"sports","start":"2024-06-29T14:00:00Z","geo":{"geometry":{"coordinates":[-56.4415526,-24.656756],"type":"Point"},"placekey":"@kmc-ctc-28v","address":{"country_code":"PY","formatted_address":"8HV5+79W, Coronel Z. González, San Estanislao 020801, Paraguay","postcode":"020801","locality":"San Estanislao","region":"San Pedro"}},"labels":["soccer","sport"],"duration":0,"start_local":"2024-06-29T10:00:00","end":"2024-06-29T14:00:00Z","end_local":"2024-06-29T10:00:00","updated":"2024-06-25T20:23:11Z"},{"title":"Division Intermedia - Rubio Ñú vs Guaireña","description":"Sourced from predicthq.com","category":"sports","start":"2024-06-27T21:15:00Z","geo":{"geometry":{"coordinates":[-57.57512927055359,-25.25754359913714],"type":"Point"},"placekey":"@km8-g7r-649","address":{"country_code":"PY","formatted_address":"Tte. Fernando Delvalle, Asunción 001519, Paraguay","postcode":"001519","locality":"Asunción","region":"Asunción"}},"labels":["soccer","sport"],"duration":0,"start_local":"2024-06-27T17:15:00","end":"2024-06-27T21:15:00Z","end_local":"2024-06-27T17:15:00","updated":"2024-06-25T21:45:56Z"},{"title":"Division Intermedia - Resistencia vs Martín Ledesma","description":"Sourced from predicthq.com","category":"sports","start":"2024-06-27T19:00:00Z","geo":{"geometry":{"coordinates":[-57.62552261352539,-25.279674463219955],"type":"Point"},"placekey":"@km8-gvj-5xq","address":{"country_code":"PY","formatted_address":"Fernando de Mompox y Zayas, Asunción 001212, Paraguay","postcode":"001212","locality":"Asunción","region":"Asunción"}},"labels":["soccer","sport"],"duration":0,"start_local":"2024-06-27T15:00:00","end":"2024-06-27T19:00:00Z","end_local":"2024-06-27T15:00:00","updated":"2024-06-25T19:46:01Z"},{"title":"#ContarelArte | Tekoha, Mínimo Común , Arq. José Cubilla","description":"Sourced from predicthq.com - ¡Te esperamos el próximo miercoles 26 de junio a las 19:00H! Llegá el primer “Contar el Arte” de 2024","category":"performing-arts","start":"2024-06-26T23:00:00Z","geo":{"geometry":{"coordinates":[-57.633,-25.289],"type":"Point"},"placekey":"@km8-gvj-hbk","address":{"country_code":"PY","formatted_address":"Paraguari, 001101 Asunción, Paraguay","locality":"Asunción","postcode":"001101","region":"Asunción"}},"labels":["concert","music","performing-arts"],"duration":7200,"start_local":"2024-06-26T19:00:00","end":"2024-06-27T01:00:00Z","end_local":"2024-06-26T21:00:00","updated":"2024-06-20T07:26:14Z"},{"title":"Division Intermedia - Fernando de la Mora vs Atlético Tembetary","description":"Sourced from predicthq.com","category":"sports","start":"2024-06-25T18:30:00Z","geo":{"geometry":{"coordinates":[-57.6118004322052,-25.31564184305993],"type":"Point"},"placekey":"@km8-gv5-9vf","address":{"country_code":"PY","formatted_address":"Avenida Bruno Guggiari y Sajonia, Vista Alegre, Fernando de la Mora, Paraguay","locality":"Fernando de la Mora"}},"labels":["soccer","sport"],"duration":0,"start_local":"2024-06-25T14:30:00","end":"2024-06-25T18:30:00Z","end_local":"2024-06-25T14:30:00","updated":"2024-06-11T00:50:16Z"},{"title":"Division Intermedia - 3 de Febrero vs Independiente FBC","description":"Sourced from predicthq.com","category":"sports","start":"2024-06-25T18:30:00Z","geo":{"geometry":{"coordinates":[-54.6120507,-25.526998],"type":"Point"},"placekey":"@kmf-2yy-gp9","address":{"country_code":"PY","formatted_address":"General Bernardino Caballero, Ciudad del Este, Paraguay","locality":"Ciudad del Este","region":"Departamento de Alto Paraná"}},"labels":["soccer","sport"],"duration":0,"start_local":"2024-06-25T14:30:00","end":"2024-06-25T18:30:00Z","end_local":"2024-06-25T14:30:00","updated":"2024-06-11T06:44:27Z"},{"title":"Division Intermedia - Atlético Colegiales vs Sportivo San Lorenzo","description":"Sourced from predicthq.com","category":"sports","start":"2024-06-23T14:00:00Z","geo":{"geometry":{"coordinates":[-57.59255290031433,-25.34813715970821],"type":"Point"},"placekey":"@km8-gv9-s89","address":{"country_code":"PY","formatted_address":"Avenida Defensores del Chaco y 8 de Diciembre, Bairro Cuatro Mojones, Asunción, Paraguay","locality":"Asunción"}},"labels":["soccer","sport"],"duration":0,"start_local":"2024-06-23T10:00:00","end":"2024-06-23T14:00:00Z","end_local":"2024-06-23T10:00:00","updated":"2024-06-11T06:30:16Z"},{"title":"Division Intermedia - Encarnación vs Resistencia","description":"Sourced from predicthq.com","category":"sports","start":"2024-06-23T14:00:00Z","geo":{"geometry":{"coordinates":[-55.84311557,-27.321969947],"type":"Point"},"placekey":"@km6-99z-nyv","address":{"country_code":"PY","formatted_address":"M5H4+6PP, Encarnacion, Paraguay","locality":"Encarnacion","region":"Itapúa Department"}},"labels":["soccer","sport"],"duration":0,"start_local":"2024-06-23T10:00:00","end":"2024-06-23T14:00:00Z","end_local":"2024-06-23T10:00:00","updated":"2024-06-10T23:56:08Z"},{"title":"Division Intermedia - 12 de Junio VH vs Deportivo Recoleta","description":"Sourced from predicthq.com","category":"sports","start":"2024-06-22T14:00:00Z","geo":{"geometry":{"coordinates":[-57.528516034,-25.092782477],"type":"Point"},"placekey":"@km8-gmv-d35","address":{"country_code":"PY","formatted_address":"WF4C+VM2, Villa Hayes 150403, Paraguay","postcode":"150403","locality":"Villa Hayes","region":"Presidente Hayes Department"}},"labels":["soccer","sport"],"duration":0,"start_local":"2024-06-22T10:00:00","end":"2024-06-22T14:00:00Z","end_local":"2024-06-22T10:00:00","updated":"2024-06-11T06:46:55Z"},{"title":"Division Intermedia - Pastoreo vs Sportivo Carapeguá","description":"Sourced from predicthq.com","category":"sports","start":"2024-06-22T14:00:00Z","geo":{"geometry":{"coordinates":[-56.017418064,-25.443301964],"type":"Point"},"placekey":"@kmd-9vk-hwk","address":{"country_code":"PY","formatted_address":"HX4J+MWR, Caaguazú 050203, Paraguay","postcode":"050203","locality":"Caaguazú","region":"Caaguazú Department"}},"labels":["soccer","sport"],"duration":0,"start_local":"2024-06-22T10:00:00","end":"2024-06-22T14:00:00Z","end_local":"2024-06-22T10:00:00","updated":"2024-06-11T08:07:42Z"},{"title":"Locos x el Asado","description":"Sourced from predicthq.com - Te invitamos a disfrutar de una experiencia única junto a al reconocido parrillero argentino Laucha:\n- Viernes 21 de Junio","category":"conferences","start":"2024-06-21T23:00:00Z","geo":{"geometry":{"coordinates":[-57.57149260000001,-25.2724141],"type":"Point"},"placekey":"@km8-g9b-7h5","address":{"country_code":"PY","formatted_address":"Julián Alarcon, 001528 Asunción, Paraguay","locality":"Asunción","postcode":"001528","region":"Asunción"}},"labels":["conference","food"],"duration":12600,"start_local":"2024-06-21T19:00:00","end":"2024-06-22T02:30:00Z","end_local":"2024-06-21T22:30:00","updated":"2024-06-20T03:39:34Z"},{"title":"Division Intermedia - Guaireña vs Deportivo Santaní","description":"Sourced from predicthq.com","category":"sports","start":"2024-06-21T21:00:00Z","geo":{"geometry":{"coordinates":[-56.4399934245,-25.7634830406],"type":"Point"},"placekey":"@kmd-gvm-8gk","address":{"country_code":"PY","formatted_address":"6HP6+G5V, PY08, Villarrica 040115, Paraguay","postcode":"040115","locality":"Villarrica","region":"Guairá"}},"labels":["soccer","sport"],"duration":0,"start_local":"2024-06-21T17:00:00","end":"2024-06-21T21:00:00Z","end_local":"2024-06-21T17:00:00","updated":"2024-06-10T23:51:14Z"},{"title":"Division Intermedia - Martín Ledesma vs Rubio Ñú","description":"Sourced from predicthq.com","category":"sports","start":"2024-06-21T18:30:00Z","geo":{"geometry":{"coordinates":[-57.4453891805,-25.3533817438],"type":"Point"},"placekey":"@km8-gzv-35z","address":{"country_code":"PY","formatted_address":"Martín Ledesma y, Kapi'atã 110217, Paraguay","postcode":"110217","locality":"Kapi'atã","region":"Tetãvore Central"}},"labels":["soccer","sport"],"duration":0,"start_local":"2024-06-21T14:30:00","end":"2024-06-21T18:30:00Z","end_local":"2024-06-21T14:30:00","updated":"2024-06-11T08:46:22Z"},{"title":"Conferencia \"El liderazgo empieza por uno mismo\" | Xn - WTC Asunción","description":"Sourced from predicthq.com - Te invitamos a la Conferencia \"El liderazgo empieza por uno mismo\", en WTC Asunción - Ximena Pardiñas, Socia Xn","category":"conferences","start":"2024-06-18T21:00:00Z","geo":{"geometry":{"coordinates":[-57.5670634,-25.2848678],"type":"Point"},"placekey":"@km8-g9c-4gk","address":{"country_code":"PY","formatted_address":"001410 Asunción, Paraguay","locality":"Asunción","postcode":"001410","region":"Asunción"}},"labels":["business","conference"],"duration":7200,"start_local":"2024-06-18T17:00:00","end":"2024-06-18T23:00:00Z","end_local":"2024-06-18T19:00:00","updated":"2024-06-06T01:35:12Z"},{"title":"Division Intermedia - Rubio Ñú vs Encarnación","description":"Sourced from predicthq.com","category":"sports","start":"2024-06-17T23:30:00Z","geo":{"geometry":{"coordinates":[-57.57512927055359,-25.25754359913714],"type":"Point"},"placekey":"@km8-g7r-649","address":{"country_code":"PY","formatted_address":"Tte. Fernando Delvalle, Asunción 001519, Paraguay","postcode":"001519","locality":"Asunción","region":"Asunción"}},"labels":["soccer","sport"],"duration":0,"start_local":"2024-06-17T19:30:00","end":"2024-06-17T23:30:00Z","end_local":"2024-06-17T19:30:00","updated":"2024-06-11T03:05:17Z"},{"title":"Division Intermedia - Independiente FBC vs Atlético Colegiales","description":"Sourced from predicthq.com","category":"sports","start":"2024-06-17T21:00:00Z","geo":{"geometry":{"coordinates":[-57.5521067744,-25.2759688287],"type":"Point"},"placekey":"@km8-g75-kpv","address":{"country_code":"PY","formatted_address":"Salvador Del Mundo (Santisima Trinidad)\nCampo Grande, Asunción\nParaguay","locality":"Campo Grande, Asunción"}},"labels":["soccer","sport"],"duration":0,"start_local":"2024-06-17T17:00:00","end":"2024-06-17T21:00:00Z","end_local":"2024-06-17T17:00:00","updated":"2024-06-11T04:29:52Z"},{"title":"Liga Sudamericana Femenina - Final - Aguada vs Araraquara","description":"Sourced from predicthq.com","category":"sports","start":"2024-06-16T23:00:00Z","geo":{"geometry":{"coordinates":[-57.5293072561343,-25.25345675244551],"type":"Point"},"placekey":"@km8-g8n-dsq","address":{"country_code":"PY","formatted_address":"110901 Luque, Paraguay","locality":"Luque","postcode":"110901","region":"Central"}},"labels":["basketball","sport"],"duration":0,"start_local":"2024-06-16T19:00:00","end":"2024-06-16T23:00:00Z","end_local":"2024-06-16T19:00:00","updated":"2024-06-16T08:18:31Z"},{"title":"Liga Sudamericana Femenina - 3rd Place Final - Félix Pérez vs Obras Sanitarias","description":"Sourced from predicthq.com","category":"sports","start":"2024-06-16T20:00:00Z","geo":{"geometry":{"coordinates":[-57.5293072561343,-25.25345675244551],"type":"Point"},"placekey":"@km8-g8n-dsq","address":{"country_code":"PY","formatted_address":"110901 Luque, Paraguay","locality":"Luque","postcode":"110901","region":"Central"}},"labels":["basketball","sport"],"duration":0,"start_local":"2024-06-16T16:00:00","end":"2024-06-16T20:00:00Z","end_local":"2024-06-16T16:00:00","updated":"2024-06-16T08:18:41Z"},{"title":"Division Intermedia - Sportivo San Lorenzo vs Fernando de la Mora","description":"Sourced from predicthq.com","category":"sports","start":"2024-06-16T14:00:00Z","geo":{"geometry":{"coordinates":[-57.5008106,-25.3427558],"type":"Point"},"placekey":"@km8-g9v-4n5","address":{"country_code":"PY","formatted_address":"MF4X+VMW, San Lorenzo 111429, Paraguay","postcode":"111429","locality":"San Lorenzo","region":"Central Department"}},"labels":["soccer","sport"],"duration":0,"start_local":"2024-06-16T10:00:00","end":"2024-06-16T14:00:00Z","end_local":"2024-06-16T10:00:00","updated":"2024-06-11T07:07:03Z"},{"title":"Division Intermedia - Deportivo Santaní vs Martín Ledesma","description":"Sourced from predicthq.com","category":"sports","start":"2024-06-16T14:00:00Z","geo":{"geometry":{"coordinates":[-56.4415526,-24.656756],"type":"Point"},"placekey":"@kmc-ctc-28v","address":{"country_code":"PY","formatted_address":"8HV5+79W, Coronel Z. González, San Estanislao 020801, Paraguay","postcode":"020801","locality":"San Estanislao","region":"San Pedro"}},"labels":["soccer","sport"],"duration":0,"start_local":"2024-06-16T10:00:00","end":"2024-06-16T14:00:00Z","end_local":"2024-06-16T10:00:00","updated":"2024-06-10T23:54:34Z"},{"title":"Liga Sudamericana Femenina - Semi-finals - Félix Pérez vs Aguada","description":"Sourced from predicthq.com","category":"sports","start":"2024-06-16T00:00:00Z","geo":{"geometry":{"coordinates":[-57.5293072561343,-25.25345675244551],"type":"Point"},"placekey":"@km8-g8n-dsq","address":{"country_code":"PY","formatted_address":"110901 Luque, Paraguay","locality":"Luque","postcode":"110901","region":"Central"}},"labels":["basketball","sport"],"duration":0,"start_local":"2024-06-15T20:00:00","end":"2024-06-16T00:00:00Z","end_local":"2024-06-15T20:00:00","updated":"2024-06-11T02:30:28Z"},{"title":"Liga Sudamericana Femenina - Semi-finals - Obras Sanitarias vs Araraquara","description":"Sourced from predicthq.com","category":"sports","start":"2024-06-15T21:00:00Z","geo":{"geometry":{"coordinates":[-57.5293072561343,-25.25345675244551],"type":"Point"},"placekey":"@km8-g8n-dsq","address":{"country_code":"PY","formatted_address":"110901 Luque, Paraguay","locality":"Luque","postcode":"110901","region":"Central"}},"labels":["basketball","sport"],"duration":0,"start_local":"2024-06-15T17:00:00","end":"2024-06-15T21:00:00Z","end_local":"2024-06-15T17:00:00","updated":"2024-06-11T04:00:29Z"},{"title":"Division Intermedia - Sportivo Carapeguá vs Guaireña","description":"Sourced from predicthq.com","category":"sports","start":"2024-06-15T14:00:00Z","geo":{"geometry":{"coordinates":[-57.2348213,-25.7652089],"type":"Point"},"placekey":"@km5-d25-xt9","address":{"country_code":"PY","formatted_address":"6QQ7+PWR, Mariscal Francisco Solano López, Carapeguá 090506, Paraguay","postcode":"090506","locality":"Carapeguá","region":"Paraguarí"}},"labels":["soccer","sport"],"duration":0,"start_local":"2024-06-15T10:00:00","end":"2024-06-15T14:00:00Z","end_local":"2024-06-15T10:00:00","updated":"2024-06-11T03:41:27Z"},{"title":"Division Intermedia - Deportivo Recoleta vs Pastoreo","description":"Sourced from predicthq.com","category":"sports","start":"2024-06-15T14:00:00Z","geo":{"geometry":{"coordinates":[-57.527764838,-25.252263018],"type":"Point"},"placekey":"@km8-g8n-g6k","address":{"country_code":"PY","formatted_address":"PFXC+2M, Luque, Paraguay","locality":"Luque","region":"Central Department"}},"labels":["soccer","sport"],"duration":0,"start_local":"2024-06-15T10:00:00","end":"2024-06-15T14:00:00Z","end_local":"2024-06-15T10:00:00","updated":"2024-06-11T02:58:21Z"},{"title":"Division Intermedia - Atlético Tembetary vs 12 de Junio VH","description":"Sourced from predicthq.com","category":"sports","start":"2024-06-14T23:30:00Z","geo":{"geometry":{"coordinates":[-57.5521067744,-25.2759688287],"type":"Point"},"placekey":"@km8-g75-kpv","address":{"country_code":"PY","formatted_address":"Salvador Del Mundo (Santisima Trinidad)\nCampo Grande, Asunción\nParaguay","locality":"Campo Grande, Asunción"}},"labels":["soccer","sport"],"duration":0,"start_local":"2024-06-14T19:30:00","end":"2024-06-14T23:30:00Z","end_local":"2024-06-14T19:30:00","updated":"2024-06-14T18:11:12Z"},{"title":"Division Intermedia - Resistencia vs 3 de Febrero","description":"Sourced from predicthq.com","category":"sports","start":"2024-06-14T21:00:00Z","geo":{"geometry":{"coordinates":[-57.62552261352539,-25.279674463219955],"type":"Point"},"placekey":"@km8-gvj-5xq","address":{"country_code":"PY","formatted_address":"Fernando de Mompox y Zayas, Asunción 001212, Paraguay","postcode":"001212","locality":"Asunción","region":"Asunción"}},"labels":["soccer","sport"],"duration":0,"start_local":"2024-06-14T17:00:00","end":"2024-06-14T21:00:00Z","end_local":"2024-06-14T17:00:00","updated":"2024-06-11T02:14:37Z"},{"title":"passiflorx","description":"Sourced from predicthq.com","category":"concerts","start":"2024-06-14T02:00:00Z","geo":{"geometry":{"coordinates":[-57.6295835,-25.29174],"type":"Point"},"placekey":"@km8-gvj-uqz","address":{"country_code":"PY","formatted_address":"Dr. Manuel Domínguez, Asunción 001219, Paraguay","postcode":"001219","locality":"Asunción","region":"Asunción"}},"labels":["concert","music"],"duration":0,"start_local":"2024-06-13T22:00:00","end":"2024-06-14T02:00:00Z","end_local":"2024-06-13T22:00:00","updated":"2024-06-28T04:40:54Z"},{"title":"Division Intermedia - Guaireña vs Deportivo Recoleta","description":"Sourced from predicthq.com","category":"sports","start":"2024-06-10T23:30:00Z","geo":{"geometry":{"coordinates":[-56.4399934245,-25.7634830406],"type":"Point"},"placekey":"@kmd-gvm-8gk","address":{"country_code":"PY","formatted_address":"6HP6+G5V, PY08, Villarrica 040115, Paraguay","postcode":"040115","locality":"Villarrica","region":"Guairá"}},"labels":["soccer","sport"],"duration":0,"start_local":"2024-06-10T19:30:00","end":"2024-06-10T23:30:00Z","end_local":"2024-06-10T19:30:00","updated":"2024-06-11T22:03:10Z"},{"title":"Division Intermedia - Sportivo San Lorenzo vs Independiente FBC","description":"Sourced from predicthq.com","category":"sports","start":"2024-06-10T21:00:00Z","geo":{"geometry":{"coordinates":[-57.5008106,-25.3427558],"type":"Point"},"placekey":"@km8-g9v-4n5","address":{"country_code":"PY","formatted_address":"MF4X+VMW, San Lorenzo 111429, Paraguay","postcode":"111429","locality":"San Lorenzo","region":"Central Department"}},"labels":["soccer","sport"],"duration":0,"start_local":"2024-06-10T17:00:00","end":"2024-06-10T21:00:00Z","end_local":"2024-06-10T17:00:00","updated":"2024-06-12T04:41:11Z"},{"title":"Billordo","description":"Sourced from predicthq.com","category":"community","start":"2024-06-09T23:00:00Z","geo":{"geometry":{"coordinates":[-57.6351,-25.282197],"type":"Point"},"placekey":"@km8-gvj-rc5","address":{"country_code":"PY","formatted_address":"Estrella, Asunción 001012, Paraguay","postcode":"001012","locality":"Asunción","region":"Asunción"}},"labels":["concert","music"],"duration":0,"start_local":"2024-06-09T19:00:00","end":"2024-06-09T23:00:00Z","end_local":"2024-06-09T19:00:00","updated":"2024-06-04T00:13:47Z"},{"title":"Division Intermedia - Martín Ledesma vs Sportivo Carapeguá","description":"Sourced from predicthq.com","category":"sports","start":"2024-06-09T14:00:00Z","geo":{"geometry":{"coordinates":[-57.4453891805,-25.3533817438],"type":"Point"},"placekey":"@km8-gzv-35z","address":{"country_code":"PY","formatted_address":"Martín Ledesma y, Kapi'atã 110217, Paraguay","postcode":"110217","locality":"Kapi'atã","region":"Tetãvore Central"}},"labels":["soccer","sport"],"duration":0,"start_local":"2024-06-09T10:00:00","end":"2024-06-09T14:00:00Z","end_local":"2024-06-09T10:00:00","updated":"2024-06-12T07:25:11Z"},{"title":"Division Intermedia - Pastoreo vs Atlético Tembetary","description":"Sourced from predicthq.com","category":"sports","start":"2024-06-09T14:00:00Z","geo":{"geometry":{"coordinates":[-56.017418064,-25.443301964],"type":"Point"},"placekey":"@kmd-9vk-hwk","address":{"country_code":"PY","formatted_address":"HX4J+MWR, Caaguazú 050203, Paraguay","postcode":"050203","locality":"Caaguazú","region":"Caaguazú Department"}},"labels":["soccer","sport"],"duration":0,"start_local":"2024-06-09T10:00:00","end":"2024-06-09T14:00:00Z","end_local":"2024-06-09T10:00:00","updated":"2024-06-11T21:23:37Z"},{"title":"Division Intermedia - Atlético Colegiales vs Resistencia","description":"Sourced from predicthq.com","category":"sports","start":"2024-06-08T14:00:00Z","geo":{"geometry":{"coordinates":[-57.4453891805,-25.3533817438],"type":"Point"},"placekey":"@km8-gzv-35z","address":{"country_code":"PY","formatted_address":"Martín Ledesma y, Kapi'atã 110217, Paraguay","postcode":"110217","locality":"Kapi'atã","region":"Tetãvore Central"}},"labels":["soccer","sport"],"duration":0,"start_local":"2024-06-08T10:00:00","end":"2024-06-08T14:00:00Z","end_local":"2024-06-08T10:00:00","updated":"2024-06-12T15:56:32Z"},{"title":"Division Intermedia - Fernando de la Mora vs 12 de Junio VH","description":"Sourced from predicthq.com","category":"sports","start":"2024-06-08T14:00:00Z","geo":{"geometry":{"coordinates":[-57.6118004322052,-25.31564184305993],"type":"Point"},"placekey":"@km8-gv5-9vf","address":{"country_code":"PY","formatted_address":"Avenida Bruno Guggiari y Sajonia, Vista Alegre, Fernando de la Mora, Paraguay","locality":"Fernando de la Mora"}},"labels":["soccer","sport"],"duration":0,"start_local":"2024-06-08T10:00:00","end":"2024-06-08T14:00:00Z","end_local":"2024-06-08T10:00:00","updated":"2024-06-12T01:16:24Z"},{"title":"Division Intermedia - Encarnación vs Deportivo Santaní","description":"Sourced from predicthq.com","category":"sports","start":"2024-06-07T22:30:00Z","geo":{"geometry":{"coordinates":[-55.84311557,-27.321969947],"type":"Point"},"placekey":"@km6-99z-nyv","address":{"country_code":"PY","formatted_address":"M5H4+6PP, Encarnacion, Paraguay","locality":"Encarnacion","region":"Itapúa Department"}},"labels":["soccer","sport"],"duration":0,"start_local":"2024-06-07T18:30:00","end":"2024-06-07T22:30:00Z","end_local":"2024-06-07T18:30:00","updated":"2024-06-12T06:58:58Z"},{"title":"Division Intermedia - 3 de Febrero vs Rubio Ñú","description":"Sourced from predicthq.com","category":"sports","start":"2024-06-07T20:00:00Z","geo":{"geometry":{"coordinates":[-54.6120507,-25.526998],"type":"Point"},"placekey":"@kmf-2yy-gp9","address":{"country_code":"PY","formatted_address":"General Bernardino Caballero, Ciudad del Este, Paraguay","locality":"Ciudad del Este","region":"Departamento de Alto Paraná"}},"labels":["soccer","sport"],"duration":0,"start_local":"2024-06-07T16:00:00","end":"2024-06-07T20:00:00Z","end_local":"2024-06-07T16:00:00","updated":"2024-06-12T00:38:35Z"},{"title":"Emergentes Académico: Miradas del Arte (Conversatorio)","description":"Sourced from predicthq.com - Referentes de la cultura visual dialogan en torno a la mirada de un modo crítico y reflexionan sobre qué implica construirla desde Paraguay.","category":"conferences","start":"2024-06-06T23:00:00Z","geo":{"geometry":{"coordinates":[-57.6355946,-25.28240359999999],"type":"Point"},"placekey":"@km8-gvj-rc5","address":{"country_code":"PY","formatted_address":"Chile, 001101 Asunción, Paraguay","locality":"Asunción","postcode":"001101","region":"Asunción"}},"labels":["conference","performing-arts"],"duration":7200,"start_local":"2024-06-06T19:00:00","end":"2024-06-07T01:00:00Z","end_local":"2024-06-06T21:00:00","updated":"2024-05-23T02:20:27Z"},{"title":"Division Profesional - Apertura - General Caballero JLM vs Sol de América","description":"Sourced from predicthq.com","category":"sports","start":"2024-06-06T22:00:00Z","geo":{"geometry":{"coordinates":[-55.25653222211986,-25.432281086792358],"type":"Point"},"placekey":"@kmd-z34-dgk","address":{"country_code":"PY","formatted_address":"HP9V+39R, Doctor Juan León Mallorquín, Paraguay","locality":"Doctor Juan León Mallorquín","region":"Alto Paraná Department"}},"labels":["soccer","sport"],"duration":7268,"start_local":"2024-06-06T18:00:00","end":"2024-06-07T00:01:08Z","end_local":"2024-06-06T20:01:08","updated":"2024-06-07T05:32:25Z"},{"title":"Division Profesional - Apertura - Sportivo Ameliano vs Tacuary","description":"Sourced from predicthq.com","category":"sports","start":"2024-06-06T19:30:00Z","geo":{"geometry":{"coordinates":[-57.58392155170441,-25.25984807500201],"type":"Point"},"placekey":"@km8-g9d-3kf","address":{"country_code":"PY","formatted_address":"PCR8+4C6, Asunción 001532, Paraguay","postcode":"001532","locality":"Asunción","region":"Asunción"}},"labels":["soccer","sport"],"duration":7149,"start_local":"2024-06-06T15:30:00","end":"2024-06-06T21:29:09Z","end_local":"2024-06-06T17:29:09","updated":"2024-06-06T23:59:49Z"},{"title":"Division Profesional - Apertura - Olimpia vs Libertad","description":"Sourced from predicthq.com","category":"sports","start":"2024-06-05T22:00:00Z","geo":{"geometry":{"coordinates":[-57.6574033,-25.2920837],"type":"Point"},"placekey":"@km8-gvf-v9f","address":{"country_code":"PY","formatted_address":"Mayor Martinez, Asunción, Paraguay","locality":"Asunción","region":"Departamento Central"}},"labels":["soccer","sport"],"duration":6843,"start_local":"2024-06-05T18:00:00","end":"2024-06-05T23:54:03Z","end_local":"2024-06-05T19:54:03","updated":"2024-06-06T00:17:52Z"},{"title":"Division Profesional - Apertura - Nacional Asunción vs Cerro Porteño","description":"Sourced from predicthq.com","category":"sports","start":"2024-06-05T22:00:00Z","geo":{"geometry":{"coordinates":[-54.6120507,-25.526998],"type":"Point"},"placekey":"@kmf-2yy-gp9","address":{"country_code":"PY","formatted_address":"General Bernardino Caballero, Ciudad del Este, Paraguay","locality":"Ciudad del Este","region":"Departamento de Alto Paraná"}},"labels":["soccer","sport"],"duration":6730,"start_local":"2024-06-05T18:00:00","end":"2024-06-05T23:52:10Z","end_local":"2024-06-05T19:52:10","updated":"2024-06-06T00:18:49Z"},{"title":"Division Profesional - Apertura - Sportivo Luqueño vs Sportivo Trinidense","description":"Sourced from predicthq.com","category":"sports","start":"2024-06-05T19:30:00Z","geo":{"geometry":{"coordinates":[-57.4930308,-25.2722702],"type":"Point"},"placekey":"@km8-g7z-r49","address":{"country_code":"PY","formatted_address":"Doctor José Gaspar Rodríguez de Francia, Luque, Paraguay","locality":"Luque","region":"Departamento Central"}},"labels":["soccer","sport"],"duration":6798,"start_local":"2024-06-05T15:30:00","end":"2024-06-05T21:23:18Z","end_local":"2024-06-05T17:23:18","updated":"2024-06-06T00:15:06Z"},{"title":"Division Profesional - Apertura - Club Guaraní vs 2 de Mayo","description":"Sourced from predicthq.com","category":"sports","start":"2024-06-04T22:00:00Z","geo":{"geometry":{"coordinates":[-57.6160314097,-25.3033127117],"type":"Point"},"placekey":"@km8-g9h-bhq","address":{"country_code":"PY","formatted_address":"M9WM+MHH, Av. Eusebio Ayala, Asunción 001236, Paraguay","postcode":"001236","locality":"Asunción","region":"Asunción"}},"labels":["soccer","sport"],"duration":6918,"start_local":"2024-06-04T18:00:00","end":"2024-06-04T23:55:18Z","end_local":"2024-06-04T19:55:18","updated":"2024-06-05T14:26:43Z"},{"title":"Division Intermedia - Rubio Ñú vs Atlético Colegiales","description":"Sourced from predicthq.com","category":"sports","start":"2024-06-03T23:30:00Z","geo":{"geometry":{"coordinates":[-57.57512927055359,-25.25754359913714],"type":"Point"},"placekey":"@km8-g7r-649","address":{"country_code":"PY","formatted_address":"Tte. Fernando Delvalle, Asunción 001519, Paraguay","postcode":"001519","locality":"Asunción","region":"Asunción"}},"labels":["soccer","sport"],"duration":0,"start_local":"2024-06-03T19:30:00","end":"2024-06-03T23:30:00Z","end_local":"2024-06-03T19:30:00","updated":"2024-06-12T04:44:06Z"},{"title":"Division Profesional - Apertura - Sol de América vs Sportivo Ameliano","description":"Sourced from predicthq.com","category":"sports","start":"2024-06-03T22:00:00Z","geo":{"geometry":{"coordinates":[-57.58488178253174,-25.36726565310002],"type":"Point"},"placekey":"@km8-gq7-7nq","address":{"country_code":"PY","formatted_address":"Avenida Enrique Von Poleski, Bairro Villa Elisa, Asunción, Paraguay","locality":"Asunción"}},"labels":["soccer","sport"],"duration":6841,"start_local":"2024-06-03T18:00:00","end":"2024-06-03T23:54:01Z","end_local":"2024-06-03T19:54:01","updated":"2024-06-12T07:37:36Z"},{"title":"Division Intermedia - Resistencia vs Sportivo San Lorenzo","description":"Sourced from predicthq.com","category":"sports","start":"2024-06-03T21:00:00Z","geo":{"geometry":{"coordinates":[-57.62552261352539,-25.279674463219955],"type":"Point"},"placekey":"@km8-gvj-5xq","address":{"country_code":"PY","formatted_address":"Fernando de Mompox y Zayas, Asunción 001212, Paraguay","postcode":"001212","locality":"Asunción","region":"Asunción"}},"labels":["soccer","sport"],"duration":0,"start_local":"2024-06-03T17:00:00","end":"2024-06-03T21:00:00Z","end_local":"2024-06-03T17:00:00","updated":"2024-06-11T21:38:19Z"},{"title":"Division Profesional - Apertura - Libertad vs General Caballero JLM","description":"Sourced from predicthq.com","category":"sports","start":"2024-06-02T20:30:00Z","geo":{"geometry":{"coordinates":[-57.611006498,-25.277772978],"type":"Point"},"placekey":"@km8-g98-kpv","address":{"country_code":"PY","formatted_address":"P9CQ+VHQ, Av. Gral. José Gervasio Artigas, Asunción, Paraguay","locality":"Asunción","region":"Asunción"}},"labels":["soccer","sport"],"duration":6710,"start_local":"2024-06-02T16:30:00","end":"2024-06-02T22:21:50Z","end_local":"2024-06-02T18:21:50","updated":"2024-06-12T03:41:47Z"},{"title":"Division Profesional - Apertura - Cerro Porteño vs Sportivo Luqueño","description":"Sourced from predicthq.com","category":"sports","start":"2024-06-02T20:30:00Z","geo":{"geometry":{"coordinates":[-57.637399435,-25.299875903],"type":"Point"},"placekey":"@km8-gvq-zs5","address":{"country_code":"PY","formatted_address":"P927+22W, Av. Acuña de Figueroa, Asunción 001105, Paraguay","postcode":"001105","locality":"Asunción","region":"Asunción"}},"labels":["soccer","sport"],"duration":6894,"start_local":"2024-06-02T16:30:00","end":"2024-06-02T22:24:54Z","end_local":"2024-06-02T18:24:54","updated":"2024-06-12T06:08:27Z"},{"title":"Division Intermedia - 12 de Junio VH vs Pastoreo","description":"Sourced from predicthq.com","category":"sports","start":"2024-06-02T14:00:00Z","geo":{"geometry":{"coordinates":[-57.528516034,-25.092782477],"type":"Point"},"placekey":"@km8-gmv-d35","address":{"country_code":"PY","formatted_address":"WF4C+VM2, Villa Hayes 150403, Paraguay","postcode":"150403","locality":"Villa Hayes","region":"Presidente Hayes Department"}},"labels":["soccer","sport"],"duration":0,"start_local":"2024-06-02T10:00:00","end":"2024-06-02T14:00:00Z","end_local":"2024-06-02T10:00:00","updated":"2024-06-11T21:50:01Z"},{"title":"Division Intermedia - Deportivo Recoleta vs Martín Ledesma","description":"Sourced from predicthq.com","category":"sports","start":"2024-06-02T14:00:00Z","geo":{"geometry":{"coordinates":[-57.527764838,-25.252263018],"type":"Point"},"placekey":"@km8-g8n-g6k","address":{"country_code":"PY","formatted_address":"PFXC+2M, Luque, Paraguay","locality":"Luque","region":"Central Department"}},"labels":["soccer","sport"],"duration":0,"start_local":"2024-06-02T10:00:00","end":"2024-06-02T14:00:00Z","end_local":"2024-06-02T10:00:00","updated":"2024-06-12T17:47:43Z"},{"title":"expo","description":"Sourced from predicthq.com - Get ready to experience a one-of-a-kind expo showcasing the latest trends, innovations, and products in a lively and interactive setting!","category":"expos","start":"2024-06-02T14:00:00Z","geo":{"geometry":{"coordinates":[-57.57592599999999,-25.2637399],"type":"Point"},"placekey":"@km8-g7q-y7q","address":{"country_code":"PY","formatted_address":"001520 Asunción, Paraguay","locality":"Asunción","postcode":"001520","region":"Asunción"}},"labels":["business","expo"],"duration":7200,"start_local":"2024-06-02T10:00:00","end":"2024-06-02T16:00:00Z","end_local":"2024-06-02T12:00:00","updated":"2024-06-04T06:48:56Z"},{"title":"Division Profesional - Apertura - 2 de Mayo vs Olimpia","description":"Sourced from predicthq.com","category":"sports","start":"2024-06-01T21:30:00Z","geo":{"geometry":{"coordinates":[-55.745889544487,-22.539423746076203],"type":"Point"},"placekey":"@kj3-ypr-z75","address":{"country_code":"PY","formatted_address":"F763+6MQ, Gral. Díaz 861, Pedro Juan Caballero 130106, Paraguay","postcode":"130106","locality":"Pedro Juan Caballero","region":"Amambay"}},"labels":["soccer","sport"],"duration":6956,"start_local":"2024-06-01T17:30:00","end":"2024-06-01T23:25:56Z","end_local":"2024-06-01T19:25:56","updated":"2024-06-02T00:33:26Z"},{"title":"Division Profesional - Apertura - Tacuary vs Nacional Asunción","description":"Sourced from predicthq.com","category":"sports","start":"2024-06-01T19:00:00Z","geo":{"geometry":{"coordinates":[-57.6160314097,-25.3033127117],"type":"Point"},"placekey":"@km8-g9h-bhq","address":{"country_code":"PY","formatted_address":"M9WM+MHH, Av. Eusebio Ayala, Asunción 001236, Paraguay","postcode":"001236","locality":"Asunción","region":"Asunción"}},"labels":["soccer","sport"],"duration":7067,"start_local":"2024-06-01T15:00:00","end":"2024-06-01T20:57:47Z","end_local":"2024-06-01T16:57:47","updated":"2024-06-12T09:52:48Z"},{"title":"Division Profesional - Apertura - Sportivo Trinidense vs Club Guaraní","description":"Sourced from predicthq.com","category":"sports","start":"2024-06-01T19:00:00Z","geo":{"geometry":{"coordinates":[-57.58392155170441,-25.25984807500201],"type":"Point"},"placekey":"@km8-g9d-3kf","address":{"country_code":"PY","formatted_address":"PCR8+4C6, Asunción 001532, Paraguay","postcode":"001532","locality":"Asunción","region":"Asunción"}},"labels":["soccer","sport"],"duration":7237,"start_local":"2024-06-01T15:00:00","end":"2024-06-01T21:00:37Z","end_local":"2024-06-01T17:00:37","updated":"2024-06-12T15:41:15Z"},{"title":"Division Intermedia - Sportivo Carapeguá vs Encarnación","description":"Sourced from predicthq.com","category":"sports","start":"2024-06-01T14:00:00Z","geo":{"geometry":{"coordinates":[-57.2348213,-25.7652089],"type":"Point"},"placekey":"@km5-d25-xt9","address":{"country_code":"PY","formatted_address":"6QQ7+PWR, Mariscal Francisco Solano López, Carapeguá 090506, Paraguay","postcode":"090506","locality":"Carapeguá","region":"Paraguarí"}},"labels":["soccer","sport"],"duration":0,"start_local":"2024-06-01T10:00:00","end":"2024-06-01T14:00:00Z","end_local":"2024-06-01T10:00:00","updated":"2024-06-12T12:37:46Z"},{"title":"Division Intermedia - Atlético Tembetary vs Guaireña","description":"Sourced from predicthq.com","category":"sports","start":"2024-06-01T14:00:00Z","geo":{"geometry":{"coordinates":[-57.58488178253174,-25.36726565310002],"type":"Point"},"placekey":"@km8-gq7-7nq","address":{"country_code":"PY","formatted_address":"Avenida Enrique Von Poleski, Bairro Villa Elisa, Asunción, Paraguay","locality":"Asunción"}},"labels":["soccer","sport"],"duration":0,"start_local":"2024-06-01T10:00:00","end":"2024-06-01T14:00:00Z","end_local":"2024-06-01T10:00:00","updated":"2024-06-12T00:14:13Z"},{"title":"Anfitrionas: Hablemos de Tecnología by DataLatina","description":"Sourced from predicthq.com - Nos sumamos al compromiso de W4TT de potenciar las capacidades de mujeres en carreras STEAM, para dar mayor visibilidad al talento femenino.","category":"conferences","start":"2024-06-01T12:30:00Z","geo":{"geometry":{"coordinates":[-57.59946600000001,-25.278563],"type":"Point"},"placekey":"@km8-g97-6tv","address":{"country_code":"PY","formatted_address":"Luis Morales, 001206 Asunción, Paraguay","locality":"Asunción","postcode":"001206","region":"Asunción"}},"labels":["conference","science","technology"],"duration":16200,"start_local":"2024-06-01T08:30:00","end":"2024-06-01T17:00:00Z","end_local":"2024-06-01T13:00:00","updated":"2024-06-04T04:21:10Z"},{"title":"Division Intermedia - Deportivo Santaní vs 3 de Febrero","description":"Sourced from predicthq.com","category":"sports","start":"2024-05-31T23:30:00Z","geo":{"geometry":{"coordinates":[-56.4415526,-24.656756],"type":"Point"},"placekey":"@kmc-ctc-28v","address":{"country_code":"PY","formatted_address":"8HV5+79W, Coronel Z. González, San Estanislao 020801, Paraguay","postcode":"020801","locality":"San Estanislao","region":"San Pedro"}},"labels":["soccer","sport"],"duration":0,"start_local":"2024-05-31T19:30:00","end":"2024-05-31T23:30:00Z","end_local":"2024-05-31T19:30:00","updated":"2024-06-12T00:02:46Z"},{"title":"Division Intermedia - Independiente FBC vs Fernando de la Mora","description":"Sourced from predicthq.com","category":"sports","start":"2024-05-31T21:00:00Z","geo":{"geometry":{"coordinates":[-57.5521067744,-25.2759688287],"type":"Point"},"placekey":"@km8-g75-kpv","address":{"country_code":"PY","formatted_address":"Salvador Del Mundo (Santisima Trinidad)\nCampo Grande, Asunción\nParaguay","locality":"Campo Grande, Asunción"}},"labels":["soccer","sport"],"duration":0,"start_local":"2024-05-31T17:00:00","end":"2024-05-31T21:00:00Z","end_local":"2024-05-31T17:00:00","updated":"2024-06-12T07:02:35Z"},{"title":"Garage 21","description":"Sourced from predicthq.com","category":"concerts","start":"2024-05-31T02:00:00Z","geo":{"geometry":{"coordinates":[-57.6295835,-25.29174],"type":"Point"},"placekey":"@km8-gvj-uqz","address":{"country_code":"PY","formatted_address":"Dr. Manuel Domínguez, Asunción 001219, Paraguay","postcode":"001219","locality":"Asunción","region":"Asunción"}},"labels":["concert","music"],"duration":0,"start_local":"2024-05-30T22:00:00","end":"2024-05-31T02:00:00Z","end_local":"2024-05-30T22:00:00","updated":"2024-06-14T02:16:15Z"},{"title":"CONMEBOL Libertadores - Group Stage - Libertad vs Nacional","description":"Sourced from predicthq.com","category":"sports","start":"2024-05-31T00:00:00Z","geo":{"geometry":{"coordinates":[-57.611006498,-25.277772978],"type":"Point"},"placekey":"@km8-g98-kpv","address":{"country_code":"PY","formatted_address":"P9CQ+VHQ, Av. Gral. José Gervasio Artigas, Asunción, Paraguay","locality":"Asunción","region":"Asunción"}},"labels":["soccer","sport"],"duration":6742,"start_local":"2024-05-30T20:00:00","end":"2024-05-31T01:52:22Z","end_local":"2024-05-30T21:52:22","updated":"2024-05-31T23:32:59Z"},{"title":"CONMEBOL Libertadores - Group Stage - Cerro Porteño vs Colo Colo","description":"Sourced from predicthq.com","category":"sports","start":"2024-05-30T00:30:00Z","geo":{"geometry":{"coordinates":[-57.637399435,-25.299875903],"type":"Point"},"placekey":"@km8-gvq-zs5","address":{"country_code":"PY","formatted_address":"P927+22W, Av. Acuña de Figueroa, Asunción 001105, Paraguay","postcode":"001105","locality":"Asunción","region":"Asunción"}},"labels":["soccer","sport"],"duration":7145,"start_local":"2024-05-29T20:30:00","end":"2024-05-30T02:29:05Z","end_local":"2024-05-29T22:29:05","updated":"2024-05-31T22:35:26Z"},{"title":"6to Congreso Paraguayo de Refrigeración, Climatización y Ventilación","description":"Sourced from predicthq.com - Charlas sobre refrigeracion, Climatizacion y Ventilacion dadas por Oradores distinguidos de ASHRAE y Oradores Nacionales e Internacionales","category":"conferences","start":"2024-05-29T18:00:00Z","geo":{"geometry":{"coordinates":[-57.5879395,-25.28315439999999],"type":"Point"},"placekey":"@km8-g97-nkf","address":{"country_code":"PY","formatted_address":"Santisimo Sacramento, 001534 Asunción, Paraguay","locality":"Asunción","postcode":"001534","region":"Asunción"}},"labels":["conference","science","technology"],"duration":108000,"start_local":"2024-05-29T14:00:00","end":"2024-05-31T00:00:00Z","end_local":"2024-05-30T20:00:00","updated":"2024-06-12T02:25:35Z"},{"title":"Division Intermedia - Sportivo San Lorenzo vs Rubio Ñú","description":"Sourced from predicthq.com","category":"sports","start":"2024-05-28T23:30:00Z","geo":{"geometry":{"coordinates":[-57.5008106,-25.3427558],"type":"Point"},"placekey":"@km8-g9v-4n5","address":{"country_code":"PY","formatted_address":"MF4X+VMW, San Lorenzo 111429, Paraguay","postcode":"111429","locality":"San Lorenzo","region":"Central Department"}},"labels":["soccer","sport"],"duration":0,"start_local":"2024-05-28T19:30:00","end":"2024-05-28T23:30:00Z","end_local":"2024-05-28T19:30:00","updated":"2024-06-12T10:14:13Z"},{"title":"Division Intermedia - Atlético Colegiales vs Deportivo Santaní","description":"Sourced from predicthq.com","category":"sports","start":"2024-05-28T18:30:00Z","geo":{"geometry":{"coordinates":[-57.4453891805,-25.3533817438],"type":"Point"},"placekey":"@km8-gzv-35z","address":{"country_code":"PY","formatted_address":"Martín Ledesma y, Kapi'atã 110217, Paraguay","postcode":"110217","locality":"Kapi'atã","region":"Tetãvore Central"}},"labels":["soccer","sport"],"duration":0,"start_local":"2024-05-28T14:30:00","end":"2024-05-28T18:30:00Z","end_local":"2024-05-28T14:30:00","updated":"2024-06-12T00:43:49Z"},{"title":"Division Profesional - Apertura - General Caballero JLM vs 2 de Mayo","description":"Sourced from predicthq.com","category":"sports","start":"2024-05-27T23:30:00Z","geo":{"geometry":{"coordinates":[-55.25653222211986,-25.432281086792358],"type":"Point"},"placekey":"@kmd-z34-dgk","address":{"country_code":"PY","formatted_address":"HP9V+39R, Doctor Juan León Mallorquín, Paraguay","locality":"Doctor Juan León Mallorquín","region":"Alto Paraná Department"}},"labels":["soccer","sport"],"duration":7037,"start_local":"2024-05-27T19:30:00","end":"2024-05-28T01:27:17Z","end_local":"2024-05-27T21:27:17","updated":"2024-06-05T15:24:17Z"},{"title":"Division Intermedia - Independiente FBC vs Resistencia","description":"Sourced from predicthq.com","category":"sports","start":"2024-05-27T21:00:00Z","geo":{"geometry":{"coordinates":[-57.5521067744,-25.2759688287],"type":"Point"},"placekey":"@km8-g75-kpv","address":{"country_code":"PY","formatted_address":"Salvador Del Mundo (Santisima Trinidad)\nCampo Grande, Asunción\nParaguay","locality":"Campo Grande, Asunción"}},"labels":["soccer","sport"],"duration":0,"start_local":"2024-05-27T17:00:00","end":"2024-05-27T21:00:00Z","end_local":"2024-05-27T17:00:00","updated":"2024-06-12T02:06:47Z"},{"title":"Division Intermedia - Fernando de la Mora vs Pastoreo","description":"Sourced from predicthq.com","category":"sports","start":"2024-05-27T18:30:00Z","geo":{"geometry":{"coordinates":[-57.6118004322052,-25.31564184305993],"type":"Point"},"placekey":"@km8-gv5-9vf","address":{"country_code":"PY","formatted_address":"Avenida Bruno Guggiari y Sajonia, Vista Alegre, Fernando de la Mora, Paraguay","locality":"Fernando de la Mora"}},"labels":["soccer","sport"],"duration":0,"start_local":"2024-05-27T14:30:00","end":"2024-05-27T18:30:00Z","end_local":"2024-05-27T14:30:00","updated":"2024-06-12T00:13:47Z"},{"title":"Division Profesional - Apertura - Olimpia vs Sportivo Trinidense","description":"Sourced from predicthq.com","category":"sports","start":"2024-05-26T21:00:00Z","geo":{"geometry":{"coordinates":[-57.6574033,-25.2920837],"type":"Point"},"placekey":"@km8-gvf-v9f","address":{"country_code":"PY","formatted_address":"Mayor Martinez, Asunción, Paraguay","locality":"Asunción","region":"Departamento Central"}},"labels":["soccer","sport"],"duration":6847,"start_local":"2024-05-26T17:00:00","end":"2024-05-26T22:54:07Z","end_local":"2024-05-26T18:54:07","updated":"2024-05-27T12:32:38Z"},{"title":"Division Profesional - Apertura - Sportivo Ameliano vs Libertad","description":"Sourced from predicthq.com","category":"sports","start":"2024-05-26T18:30:00Z","geo":{"geometry":{"coordinates":[-57.58488178253174,-25.36726565310002],"type":"Point"},"placekey":"@km8-gq7-7nq","address":{"country_code":"PY","formatted_address":"Avenida Enrique Von Poleski, Bairro Villa Elisa, Asunción, Paraguay","locality":"Asunción"}},"labels":["soccer","sport"],"duration":6813,"start_local":"2024-05-26T14:30:00","end":"2024-05-26T20:23:33Z","end_local":"2024-05-26T16:23:33","updated":"2024-06-12T03:18:56Z"},{"title":"Division Intermedia - Martín Ledesma vs Atlético Tembetary","description":"Sourced from predicthq.com","category":"sports","start":"2024-05-26T14:00:00Z","geo":{"geometry":{"coordinates":[-57.4453891805,-25.3533817438],"type":"Point"},"placekey":"@km8-gzv-35z","address":{"country_code":"PY","formatted_address":"Martín Ledesma y, Kapi'atã 110217, Paraguay","postcode":"110217","locality":"Kapi'atã","region":"Tetãvore Central"}},"labels":["soccer","sport"],"duration":0,"start_local":"2024-05-26T10:00:00","end":"2024-05-26T14:00:00Z","end_local":"2024-05-26T10:00:00","updated":"2024-06-12T11:43:09Z"},{"title":"Division Intermedia - Guaireña vs 12 de Junio VH","description":"Sourced from predicthq.com","category":"sports","start":"2024-05-26T14:00:00Z","geo":{"geometry":{"coordinates":[-56.4399934245,-25.7634830406],"type":"Point"},"placekey":"@kmd-gvm-8gk","address":{"country_code":"PY","formatted_address":"6HP6+G5V, PY08, Villarrica 040115, Paraguay","postcode":"040115","locality":"Villarrica","region":"Guairá"}},"labels":["soccer","sport"],"duration":0,"start_local":"2024-05-26T10:00:00","end":"2024-05-26T14:00:00Z","end_local":"2024-05-26T10:00:00","updated":"2024-06-12T09:23:35Z"},{"title":"Media Maratón de la Ciudad de Asunción","description":"Sourced from predicthq.com","category":"sports","start":"2024-05-26T04:00:00Z","geo":{"geometry":{"coordinates":[-57.6252228,-25.2762007],"type":"Point"},"placekey":"@km8-gvj-g49","address":{"country_code":"PY","formatted_address":"José Asunción Flores, 001212 Asunción, Paraguay","locality":"Asunción","postcode":"001212","region":"Asunción"}},"labels":["outdoor-sports","running","sport"],"duration":86399,"start_local":"2024-05-26T00:00:00","end":"2024-05-27T03:59:59Z","end_local":"2024-05-26T23:59:59","updated":"2024-06-12T16:13:59Z"},{"title":"Division Profesional - Apertura - Club Guaraní vs Sportivo Luqueño","description":"Sourced from predicthq.com","category":"sports","start":"2024-05-25T23:30:00Z","geo":{"geometry":{"coordinates":[-57.6160314097,-25.3033127117],"type":"Point"},"placekey":"@km8-g9h-bhq","address":{"country_code":"PY","formatted_address":"M9WM+MHH, Av. Eusebio Ayala, Asunción 001236, Paraguay","postcode":"001236","locality":"Asunción","region":"Asunción"}},"labels":["soccer","sport"],"duration":6812,"start_local":"2024-05-25T19:30:00","end":"2024-05-26T01:23:32Z","end_local":"2024-05-25T21:23:32","updated":"2024-06-12T08:47:35Z"},{"title":"Division Profesional - Apertura - Tacuary vs Cerro Porteño","description":"Sourced from predicthq.com","category":"sports","start":"2024-05-25T21:00:00Z","geo":{"geometry":{"coordinates":[-54.6120507,-25.526998],"type":"Point"},"placekey":"@kmf-2yy-gp9","address":{"country_code":"PY","formatted_address":"General Bernardino Caballero, Ciudad del Este, Paraguay","locality":"Ciudad del Este","region":"Departamento de Alto Paraná"}},"labels":["soccer","sport"],"duration":6722,"start_local":"2024-05-25T17:00:00","end":"2024-05-25T22:52:02Z","end_local":"2024-05-25T18:52:02","updated":"2024-06-12T04:03:12Z"},{"title":"Division Profesional - Apertura - Nacional Asunción vs Sol de América","description":"Sourced from predicthq.com","category":"sports","start":"2024-05-25T21:00:00Z","geo":{"geometry":{"coordinates":[-57.58392155170441,-25.25984807500201],"type":"Point"},"placekey":"@km8-g9d-3kf","address":{"country_code":"PY","formatted_address":"PCR8+4C6, Asunción 001532, Paraguay","postcode":"001532","locality":"Asunción","region":"Asunción"}},"labels":["soccer","sport"],"duration":6830,"start_local":"2024-05-25T17:00:00","end":"2024-05-25T22:53:50Z","end_local":"2024-05-25T18:53:50","updated":"2024-06-12T07:58:21Z"},{"title":"Division Intermedia - 3 de Febrero vs Sportivo Carapeguá","description":"Sourced from predicthq.com","category":"sports","start":"2024-05-25T14:00:00Z","geo":{"geometry":{"coordinates":[-54.9057396906212,-25.494836609062386],"type":"Point"},"placekey":"@kmd-z95-tjv","address":{"country_code":"PY","formatted_address":"CDE - Km 30, Minga Guazú, Paraguay","locality":"Minga Guazú","region":"Alto Paraná"}},"labels":["soccer","sport"],"duration":0,"start_local":"2024-05-25T10:00:00","end":"2024-05-25T14:00:00Z","end_local":"2024-05-25T10:00:00","updated":"2024-06-11T21:26:06Z"},{"title":"Division Intermedia - Encarnación vs Deportivo Recoleta","description":"Sourced from predicthq.com","category":"sports","start":"2024-05-25T14:00:00Z","geo":{"geometry":{"coordinates":[-55.84311557,-27.321969947],"type":"Point"},"placekey":"@km6-99z-nyv","address":{"country_code":"PY","formatted_address":"M5H4+6PP, Encarnacion, Paraguay","locality":"Encarnacion","region":"Itapúa Department"}},"labels":["soccer","sport"],"duration":0,"start_local":"2024-05-25T10:00:00","end":"2024-05-25T14:00:00Z","end_local":"2024-05-25T10:00:00","updated":"2024-06-12T19:36:59Z"},{"title":"Division Intermedia - Rubio Ñú vs Independiente FBC","description":"Sourced from predicthq.com","category":"sports","start":"2024-05-24T23:30:00Z","geo":{"geometry":{"coordinates":[-57.57512927055359,-25.25754359913714],"type":"Point"},"placekey":"@km8-g7r-649","address":{"country_code":"PY","formatted_address":"Tte. Fernando Delvalle, Asunción 001519, Paraguay","postcode":"001519","locality":"Asunción","region":"Asunción"}},"labels":["soccer","sport"],"duration":0,"start_local":"2024-05-24T19:30:00","end":"2024-05-24T23:30:00Z","end_local":"2024-05-24T19:30:00","updated":"2024-06-12T19:04:16Z"},{"title":"Division Intermedia - Resistencia vs Fernando de la Mora","description":"Sourced from predicthq.com","category":"sports","start":"2024-05-24T21:00:00Z","geo":{"geometry":{"coordinates":[-57.62552261352539,-25.279674463219955],"type":"Point"},"placekey":"@km8-gvj-5xq","address":{"country_code":"PY","formatted_address":"Fernando de Mompox y Zayas, Asunción 001212, Paraguay","postcode":"001212","locality":"Asunción","region":"Asunción"}},"labels":["soccer","sport"],"duration":0,"start_local":"2024-05-24T17:00:00","end":"2024-05-24T21:00:00Z","end_local":"2024-05-24T17:00:00","updated":"2024-06-12T02:36:58Z"},{"title":"Division Intermedia - Deportivo Santaní vs Sportivo San Lorenzo","description":"Sourced from predicthq.com","category":"sports","start":"2024-05-23T23:30:00Z","geo":{"geometry":{"coordinates":[-56.4415526,-24.656756],"type":"Point"},"placekey":"@kmc-ctc-28v","address":{"country_code":"PY","formatted_address":"8HV5+79W, Coronel Z. González, San Estanislao 020801, Paraguay","postcode":"020801","locality":"San Estanislao","region":"San Pedro"}},"labels":["soccer","sport"],"duration":0,"start_local":"2024-05-23T19:30:00","end":"2024-05-23T23:30:00Z","end_local":"2024-05-23T19:30:00","updated":"2024-06-11T23:01:59Z"},{"title":"Division Profesional - Apertura - Sportivo Trinidense vs General Caballero JLM","description":"Sourced from predicthq.com","category":"sports","start":"2024-05-23T23:30:00Z","geo":{"geometry":{"coordinates":[-57.58392155170441,-25.25984807500201],"type":"Point"},"placekey":"@km8-g9d-3kf","address":{"country_code":"PY","formatted_address":"PCR8+4C6, Asunción 001532, Paraguay","postcode":"001532","locality":"Asunción","region":"Asunción"}},"labels":["soccer","sport"],"duration":6904,"start_local":"2024-05-23T19:30:00","end":"2024-05-24T01:25:04Z","end_local":"2024-05-23T21:25:04","updated":"2024-06-05T03:26:37Z"},{"title":"Division Intermedia - Pastoreo vs Guaireña","description":"Sourced from predicthq.com","category":"sports","start":"2024-05-23T18:30:00Z","geo":{"geometry":{"coordinates":[-56.017418064,-25.443301964],"type":"Point"},"placekey":"@kmd-9vk-hwk","address":{"country_code":"PY","formatted_address":"HX4J+MWR, Caaguazú 050203, Paraguay","postcode":"050203","locality":"Caaguazú","region":"Caaguazú Department"}},"labels":["soccer","sport"],"duration":0,"start_local":"2024-05-23T14:30:00","end":"2024-05-23T18:30:00Z","end_local":"2024-05-23T14:30:00","updated":"2024-06-12T02:08:37Z"},{"title":"Division Profesional - Apertura - Cerro Porteño vs Club Guaraní","description":"Sourced from predicthq.com","category":"sports","start":"2024-05-23T00:00:00Z","geo":{"geometry":{"coordinates":[-57.637399435,-25.299875903],"type":"Point"},"placekey":"@km8-gvq-zs5","address":{"country_code":"PY","formatted_address":"P927+22W, Av. Acuña de Figueroa, Asunción 001105, Paraguay","postcode":"001105","locality":"Asunción","region":"Asunción"}},"labels":["soccer","sport"],"duration":6909,"start_local":"2024-05-22T20:00:00","end":"2024-05-23T01:55:09Z","end_local":"2024-05-22T21:55:09","updated":"2024-06-04T23:10:05Z"},{"title":"Division Profesional - Apertura - Sportivo Luqueño vs Olimpia","description":"Sourced from predicthq.com","category":"sports","start":"2024-05-22T21:30:00Z","geo":{"geometry":{"coordinates":[-57.6574033,-25.2920837],"type":"Point"},"placekey":"@km8-gvf-v9f","address":{"country_code":"PY","formatted_address":"Mayor Martinez, Asunción, Paraguay","locality":"Asunción","region":"Departamento Central"}},"labels":["soccer","sport"],"duration":6943,"start_local":"2024-05-22T17:30:00","end":"2024-05-22T23:25:43Z","end_local":"2024-05-22T19:25:43","updated":"2024-05-27T16:10:34Z"},{"title":"Division Intermedia - Sportivo Carapeguá vs Atlético Colegiales","description":"Sourced from predicthq.com","category":"sports","start":"2024-05-22T18:30:00Z","geo":{"geometry":{"coordinates":[-57.2348213,-25.7652089],"type":"Point"},"placekey":"@km5-d25-xt9","address":{"country_code":"PY","formatted_address":"6QQ7+PWR, Mariscal Francisco Solano López, Carapeguá 090506, Paraguay","postcode":"090506","locality":"Carapeguá","region":"Paraguarí"}},"labels":["soccer","sport"],"duration":0,"start_local":"2024-05-22T14:30:00","end":"2024-05-22T18:30:00Z","end_local":"2024-05-22T14:30:00","updated":"2024-06-12T10:07:35Z"},{"title":"Division Profesional - Apertura - Sol de América vs Tacuary","description":"Sourced from predicthq.com","category":"sports","start":"2024-05-22T18:30:00Z","geo":{"geometry":{"coordinates":[-57.58488178253174,-25.36726565310002],"type":"Point"},"placekey":"@km8-gq7-7nq","address":{"country_code":"PY","formatted_address":"Avenida Enrique Von Poleski, Bairro Villa Elisa, Asunción, Paraguay","locality":"Asunción"}},"labels":["soccer","sport"],"duration":6783,"start_local":"2024-05-22T14:30:00","end":"2024-05-22T20:23:03Z","end_local":"2024-05-22T16:23:03","updated":"2024-06-05T19:27:58Z"},{"title":"Division Intermedia - 12 de Junio VH vs Martín Ledesma","description":"Sourced from predicthq.com","category":"sports","start":"2024-05-22T18:30:00Z","geo":{"geometry":{"coordinates":[-57.528516034,-25.092782477],"type":"Point"},"placekey":"@km8-gmv-d35","address":{"country_code":"PY","formatted_address":"WF4C+VM2, Villa Hayes 150403, Paraguay","postcode":"150403","locality":"Villa Hayes","region":"Presidente Hayes Department"}},"labels":["soccer","sport"],"duration":0,"start_local":"2024-05-22T14:30:00","end":"2024-05-22T18:30:00Z","end_local":"2024-05-22T14:30:00","updated":"2024-06-12T08:40:55Z"},{"title":"Division Profesional - Apertura - Libertad vs Nacional Asunción","description":"Sourced from predicthq.com","category":"sports","start":"2024-05-22T00:00:00Z","geo":{"geometry":{"coordinates":[-57.611006498,-25.277772978],"type":"Point"},"placekey":"@km8-g98-kpv","address":{"country_code":"PY","formatted_address":"P9CQ+VHQ, Av. Gral. José Gervasio Artigas, Asunción, Paraguay","locality":"Asunción","region":"Asunción"}},"labels":["soccer","sport"],"duration":6543,"start_local":"2024-05-21T20:00:00","end":"2024-05-22T01:49:03Z","end_local":"2024-05-21T21:49:03","updated":"2024-06-05T01:41:49Z"},{"title":"Division Profesional - Apertura - 2 de Mayo vs Sportivo Ameliano","description":"Sourced from predicthq.com","category":"sports","start":"2024-05-21T21:30:00Z","geo":{"geometry":{"coordinates":[-55.745889544487,-22.539423746076203],"type":"Point"},"placekey":"@kj3-ypr-z75","address":{"country_code":"PY","formatted_address":"F763+6MQ, Gral. Díaz 861, Pedro Juan Caballero 130106, Paraguay","postcode":"130106","locality":"Pedro Juan Caballero","region":"Amambay"}},"labels":["soccer","sport"],"duration":6837,"start_local":"2024-05-21T17:30:00","end":"2024-05-21T23:23:57Z","end_local":"2024-05-21T19:23:57","updated":"2024-06-05T03:48:29Z"},{"title":"Division Intermedia - Atlético Tembetary vs Encarnación","description":"Sourced from predicthq.com","category":"sports","start":"2024-05-21T18:30:00Z","geo":{"geometry":{"coordinates":[-57.58488178253174,-25.36726565310002],"type":"Point"},"placekey":"@km8-gq7-7nq","address":{"country_code":"PY","formatted_address":"Avenida Enrique Von Poleski, Bairro Villa Elisa, Asunción, Paraguay","locality":"Asunción"}},"labels":["soccer","sport"],"duration":0,"start_local":"2024-05-21T14:30:00","end":"2024-05-21T18:30:00Z","end_local":"2024-05-21T14:30:00","updated":"2024-06-12T09:17:42Z"},{"title":"Division Intermedia - Deportivo Recoleta vs 3 de Febrero","description":"Sourced from predicthq.com","category":"sports","start":"2024-05-21T18:30:00Z","geo":{"geometry":{"coordinates":[-57.527764838,-25.252263018],"type":"Point"},"placekey":"@km8-g8n-g6k","address":{"country_code":"PY","formatted_address":"PFXC+2M, Luque, Paraguay","locality":"Luque","region":"Central Department"}},"labels":["soccer","sport"],"duration":0,"start_local":"2024-05-21T14:30:00","end":"2024-05-21T18:30:00Z","end_local":"2024-05-21T14:30:00","updated":"2024-06-12T09:04:38Z"},{"title":"Division Intermedia - Independiente FBC vs Deportivo Santaní","description":"Sourced from predicthq.com","category":"sports","start":"2024-05-20T23:30:00Z","geo":{"geometry":{"coordinates":[-57.5521067744,-25.2759688287],"type":"Point"},"placekey":"@km8-g75-kpv","address":{"country_code":"PY","formatted_address":"Salvador Del Mundo (Santisima Trinidad)\nCampo Grande, Asunción\nParaguay","locality":"Campo Grande, Asunción"}},"labels":["soccer","sport"],"duration":0,"start_local":"2024-05-20T19:30:00","end":"2024-05-20T23:30:00Z","end_local":"2024-05-20T19:30:00","updated":"2024-06-12T06:17:59Z"},{"title":"Division Intermedia - Resistencia vs Rubio Ñú","description":"Sourced from predicthq.com","category":"sports","start":"2024-05-20T21:00:00Z","geo":{"geometry":{"coordinates":[-57.62552261352539,-25.279674463219955],"type":"Point"},"placekey":"@km8-gvj-5xq","address":{"country_code":"PY","formatted_address":"Fernando de Mompox y Zayas, Asunción 001212, Paraguay","postcode":"001212","locality":"Asunción","region":"Asunción"}},"labels":["soccer","sport"],"duration":0,"start_local":"2024-05-20T17:00:00","end":"2024-05-20T21:00:00Z","end_local":"2024-05-20T17:00:00","updated":"2024-06-11T20:53:51Z"},{"title":"Division Profesional - Apertura - General Caballero JLM vs Sportivo Luqueño","description":"Sourced from predicthq.com","category":"sports","start":"2024-05-19T21:30:00Z","geo":{"geometry":{"coordinates":[-55.25653222211986,-25.432281086792358],"type":"Point"},"placekey":"@kmd-z34-dgk","address":{"country_code":"PY","formatted_address":"HP9V+39R, Doctor Juan León Mallorquín, Paraguay","locality":"Doctor Juan León Mallorquín","region":"Alto Paraná Department"}},"labels":["soccer","sport"],"duration":7076,"start_local":"2024-05-19T17:30:00","end":"2024-05-19T23:27:56Z","end_local":"2024-05-19T19:27:56","updated":"2024-06-05T08:05:05Z"},{"title":"Division Profesional - Apertura - Sol de América vs Cerro Porteño","description":"Sourced from predicthq.com","category":"sports","start":"2024-05-19T19:15:00Z","geo":{"geometry":{"coordinates":[-57.6574033,-25.2920837],"type":"Point"},"placekey":"@km8-gvf-v9f","address":{"country_code":"PY","formatted_address":"Mayor Martinez, Asunción, Paraguay","locality":"Asunción","region":"Departamento Central"}},"labels":["soccer","sport"],"duration":7010,"start_local":"2024-05-19T15:15:00","end":"2024-05-19T21:11:50Z","end_local":"2024-05-19T17:11:50","updated":"2024-05-27T17:04:56Z"},{"title":"Division Intermedia - Martín Ledesma vs Pastoreo","description":"Sourced from predicthq.com","category":"sports","start":"2024-05-19T14:00:00Z","geo":{"geometry":{"coordinates":[-57.4453891805,-25.3533817438],"type":"Point"},"placekey":"@km8-gzv-35z","address":{"country_code":"PY","formatted_address":"Martín Ledesma y, Kapi'atã 110217, Paraguay","postcode":"110217","locality":"Kapi'atã","region":"Tetãvore Central"}},"labels":["soccer","sport"],"duration":0,"start_local":"2024-05-19T10:00:00","end":"2024-05-19T14:00:00Z","end_local":"2024-05-19T10:00:00","updated":"2024-06-12T01:01:26Z"},{"title":"Division Intermedia - Sportivo San Lorenzo vs Sportivo Carapeguá","description":"Sourced from predicthq.com","category":"sports","start":"2024-05-19T14:00:00Z","geo":{"geometry":{"coordinates":[-57.5008106,-25.3427558],"type":"Point"},"placekey":"@km8-g9v-4n5","address":{"country_code":"PY","formatted_address":"MF4X+VMW, San Lorenzo 111429, Paraguay","postcode":"111429","locality":"San Lorenzo","region":"Central Department"}},"labels":["soccer","sport"],"duration":0,"start_local":"2024-05-19T10:00:00","end":"2024-05-19T14:00:00Z","end_local":"2024-05-19T10:00:00","updated":"2024-06-12T07:21:55Z"},{"title":"Súper Rugby Américas - Yacare XV vs American Raptors","description":"Sourced from predicthq.com","category":"sports","start":"2024-05-18T23:00:00Z","geo":{"geometry":{"coordinates":[-57.53065,-25.256794],"type":"Point"},"placekey":"@km8-g77-yy9","address":{"country_code":"PY","formatted_address":"PFV9+8GH, Luque, Paraguay","locality":"Luque","region":"Central Department"}},"labels":["rugby","sport"],"duration":0,"start_local":"2024-05-18T19:00:00","end":"2024-05-18T23:00:00Z","end_local":"2024-05-18T19:00:00","updated":"2024-06-12T05:44:10Z"},{"title":"Yacare Xv vs American Raptors","description":"Sourced from predicthq.com","category":"sports","start":"2024-05-18T21:54:00Z","geo":{"geometry":{"coordinates":[-57.53065,-25.256794],"type":"Point"},"placekey":"@km8-g77-yy9","address":{"country_code":"PY","formatted_address":"PFV9+8GH, Luque, Paraguay","locality":"Luque","region":"Central Department"}},"labels":["rugby","sport"],"duration":0,"start_local":"2024-05-18T17:54:00","end":"2024-05-18T21:54:00Z","end_local":"2024-05-18T17:54:00","updated":"2024-06-12T11:45:17Z"},{"title":"Division Profesional - Apertura - Tacuary vs Libertad","description":"Sourced from predicthq.com","category":"sports","start":"2024-05-18T21:30:00Z","geo":{"geometry":{"coordinates":[-57.59810507297516,-25.30487117850329],"type":"Point"},"placekey":"@km8-g9f-y9z","address":{"country_code":"PY","formatted_address":"MCW2+2QW, Herminio Giménez, Asunción 001230, Paraguay","postcode":"001230","locality":"Asunción","region":"Asunción"}},"labels":["soccer","sport"],"duration":6955,"start_local":"2024-05-18T17:30:00","end":"2024-05-18T23:25:55Z","end_local":"2024-05-18T19:25:55","updated":"2024-06-05T03:26:41Z"},{"title":"Division Profesional - Apertura - Olimpia vs Club Guaraní","description":"Sourced from predicthq.com","category":"sports","start":"2024-05-18T19:00:00Z","geo":{"geometry":{"coordinates":[-57.6574033,-25.2920837],"type":"Point"},"placekey":"@km8-gvf-v9f","address":{"country_code":"PY","formatted_address":"Mayor Martinez, Asunción, Paraguay","locality":"Asunción","region":"Departamento Central"}},"labels":["soccer","sport"],"duration":6898,"start_local":"2024-05-18T15:00:00","end":"2024-05-18T20:54:58Z","end_local":"2024-05-18T16:54:58","updated":"2024-05-27T14:36:59Z"},{"title":"Division Intermedia - Fernando de la Mora vs Guaireña","description":"Sourced from predicthq.com","category":"sports","start":"2024-05-18T14:00:00Z","geo":{"geometry":{"coordinates":[-57.6118004322052,-25.31564184305993],"type":"Point"},"placekey":"@km8-gv5-9vf","address":{"country_code":"PY","formatted_address":"Avenida Bruno Guggiari y Sajonia, Vista Alegre, Fernando de la Mora, Paraguay","locality":"Fernando de la Mora"}},"labels":["soccer","sport"],"duration":0,"start_local":"2024-05-18T10:00:00","end":"2024-05-18T14:00:00Z","end_local":"2024-05-18T10:00:00","updated":"2024-06-11T22:12:37Z"},{"title":"Division Intermedia - 3 de Febrero vs Atlético Tembetary","description":"Sourced from predicthq.com","category":"sports","start":"2024-05-18T14:00:00Z","geo":{"geometry":{"coordinates":[-54.6120507,-25.526998],"type":"Point"},"placekey":"@kmf-2yy-gp9","address":{"country_code":"PY","formatted_address":"General Bernardino Caballero, Ciudad del Este, Paraguay","locality":"Ciudad del Este","region":"Departamento de Alto Paraná"}},"labels":["soccer","sport"],"duration":0,"start_local":"2024-05-18T10:00:00","end":"2024-05-18T14:00:00Z","end_local":"2024-05-18T10:00:00","updated":"2024-06-12T14:03:55Z"},{"title":"Division Profesional - Apertura - Nacional Asunción vs 2 de Mayo","description":"Sourced from predicthq.com","category":"sports","start":"2024-05-18T00:00:00Z","geo":{"geometry":{"coordinates":[-57.6399185,-25.2983351],"type":"Point"},"placekey":"@km8-gvr-2ff","address":{"country_code":"PY","formatted_address":"Asuncion, Asunción Capital District, Paraguay","locality":"Asuncion","region":"Asunción Capital District"}},"labels":["soccer","sport"],"duration":6906,"start_local":"2024-05-17T20:00:00","end":"2024-05-18T01:55:06Z","end_local":"2024-05-17T21:55:06","updated":"2024-06-12T09:45:45Z"},{"title":"Division Intermedia - Encarnación vs 12 de Junio VH","description":"Sourced from predicthq.com","category":"sports","start":"2024-05-17T23:30:00Z","geo":{"geometry":{"coordinates":[-55.84311557,-27.321969947],"type":"Point"},"placekey":"@km6-99z-nyv","address":{"country_code":"PY","formatted_address":"M5H4+6PP, Encarnacion, Paraguay","locality":"Encarnacion","region":"Itapúa Department"}},"labels":["soccer","sport"],"duration":0,"start_local":"2024-05-17T19:30:00","end":"2024-05-17T23:30:00Z","end_local":"2024-05-17T19:30:00","updated":"2024-06-12T09:25:05Z"},{"title":"ESCOLA LUCAS SCHOOL","description":"Sourced from predicthq.com - Uma escola para médicos e universitários que desejam se capacitar para cumprir a grande comissão ordenada em Mateus 28:19-20.","category":"conferences","start":"2024-05-17T23:00:00Z","geo":{"geometry":{"coordinates":[-54.6718015,-25.5046502],"type":"Point"},"placekey":"@kmf-2xv-tqf","address":{"country_code":"PY","formatted_address":"100168 Ciudad del Este, Paraguay","locality":"Ciudad del Este","postcode":"100168","region":"Alto Paraná Department"}},"labels":["conference"],"duration":10800,"start_local":"2024-05-17T19:00:00","end":"2024-05-18T02:00:00Z","end_local":"2024-05-17T22:00:00","updated":"2024-06-05T04:38:24Z"},{"title":"Division Profesional - Apertura - Sportivo Ameliano vs Sportivo Trinidense","description":"Sourced from predicthq.com","category":"sports","start":"2024-05-17T21:30:00Z","geo":{"geometry":{"coordinates":[-57.4930308,-25.2722702],"type":"Point"},"placekey":"@km8-g7z-r49","address":{"country_code":"PY","formatted_address":"Doctor José Gaspar Rodríguez de Francia, Luque, Paraguay","locality":"Luque","region":"Departamento Central"}},"labels":["soccer","sport"],"duration":6751,"start_local":"2024-05-17T17:30:00","end":"2024-05-17T23:22:31Z","end_local":"2024-05-17T19:22:31","updated":"2024-05-27T00:46:03Z"},{"title":"Division Intermedia - Atlético Colegiales vs Deportivo Recoleta","description":"Sourced from predicthq.com","category":"sports","start":"2024-05-17T18:30:00Z","geo":{"geometry":{"coordinates":[-57.5008106,-25.3427558],"type":"Point"},"placekey":"@km8-g9v-4n5","address":{"country_code":"PY","formatted_address":"MF4X+VMW, San Lorenzo 111429, Paraguay","postcode":"111429","locality":"San Lorenzo","region":"Central Department"}},"labels":["soccer","sport"],"duration":0,"start_local":"2024-05-17T14:30:00","end":"2024-05-17T18:30:00Z","end_local":"2024-05-17T14:30:00","updated":"2024-06-11T22:28:07Z"},{"title":"CONMEBOL Sudamericana - Group Stage - Sportivo Luqueño vs RB Bragantino","description":"Sourced from predicthq.com","category":"sports","start":"2024-05-17T00:00:00Z","geo":{"geometry":{"coordinates":[-57.6574033,-25.2920837],"type":"Point"},"placekey":"@km8-gvf-v9f","address":{"country_code":"PY","formatted_address":"Mayor Martinez, Asunción, Paraguay","locality":"Asunción","region":"Departamento Central"}},"labels":["soccer","sport"],"duration":6905,"start_local":"2024-05-16T20:00:00","end":"2024-05-17T01:55:05Z","end_local":"2024-05-16T21:55:05","updated":"2024-05-27T22:31:54Z"},{"title":"CONMEBOL Sudamericana - Group Stage - Sportivo Ameliano vs Rayo Zuliano","description":"Sourced from predicthq.com","category":"sports","start":"2024-05-15T00:00:00Z","geo":{"geometry":{"coordinates":[-57.6574033,-25.2920837],"type":"Point"},"placekey":"@km8-gvf-v9f","address":{"country_code":"PY","formatted_address":"Mayor Martinez, Asunción, Paraguay","locality":"Asunción","region":"Departamento Central"}},"labels":["soccer","sport"],"duration":6655,"start_local":"2024-05-14T20:00:00","end":"2024-05-15T01:50:55Z","end_local":"2024-05-14T21:50:55","updated":"2024-05-27T15:00:18Z"},{"title":"Division Profesional - Apertura - Club Guaraní vs General Caballero JLM","description":"Sourced from predicthq.com","category":"sports","start":"2024-05-13T23:30:00Z","geo":{"geometry":{"coordinates":[-57.6160314097,-25.3033127117],"type":"Point"},"placekey":"@km8-g9h-bhq","address":{"country_code":"PY","formatted_address":"M9WM+MHH, Av. Eusebio Ayala, Asunción 001236, Paraguay","postcode":"001236","locality":"Asunción","region":"Asunción"}},"labels":["soccer","sport"],"duration":6889,"start_local":"2024-05-13T19:30:00","end":"2024-05-14T01:24:49Z","end_local":"2024-05-13T21:24:49","updated":"2024-06-05T13:41:57Z"},{"title":"Division Intermedia - Deportivo Santaní vs Resistencia","description":"Sourced from predicthq.com","category":"sports","start":"2024-05-13T21:15:00Z","geo":{"geometry":{"coordinates":[-56.4415526,-24.656756],"type":"Point"},"placekey":"@kmc-ctc-28v","address":{"country_code":"PY","formatted_address":"8HV5+79W, Coronel Z. González, San Estanislao 020801, Paraguay","postcode":"020801","locality":"San Estanislao","region":"San Pedro"}},"labels":["soccer","sport"],"duration":0,"start_local":"2024-05-13T17:15:00","end":"2024-05-13T21:15:00Z","end_local":"2024-05-13T17:15:00","updated":"2024-06-12T15:09:23Z"},{"title":"Division Intermedia - Atlético Tembetary vs Atlético Colegiales","description":"Sourced from predicthq.com","category":"sports","start":"2024-05-13T14:00:00Z","geo":{"geometry":{"coordinates":[-57.58488178253174,-25.36726565310002],"type":"Point"},"placekey":"@km8-gq7-7nq","address":{"country_code":"PY","formatted_address":"Avenida Enrique Von Poleski, Bairro Villa Elisa, Asunción, Paraguay","locality":"Asunción"}},"labels":["soccer","sport"],"duration":0,"start_local":"2024-05-13T10:00:00","end":"2024-05-13T14:00:00Z","end_local":"2024-05-13T10:00:00","updated":"2024-06-12T07:20:19Z"},{"title":"Division Profesional - Apertura - Cerro Porteño vs Olimpia","description":"Sourced from predicthq.com","category":"sports","start":"2024-05-12T20:30:00Z","geo":{"geometry":{"coordinates":[-57.637399435,-25.299875903],"type":"Point"},"placekey":"@km8-gvq-zs5","address":{"country_code":"PY","formatted_address":"P927+22W, Av. Acuña de Figueroa, Asunción 001105, Paraguay","postcode":"001105","locality":"Asunción","region":"Asunción"}},"labels":["soccer","sport"],"duration":7291,"start_local":"2024-05-12T16:30:00","end":"2024-05-12T22:31:31Z","end_local":"2024-05-12T18:31:31","updated":"2024-06-05T03:34:51Z"},{"title":"Division Intermedia - 12 de Junio VH vs 3 de Febrero","description":"Sourced from predicthq.com","category":"sports","start":"2024-05-12T14:00:00Z","geo":{"geometry":{"coordinates":[-57.528516034,-25.092782477],"type":"Point"},"placekey":"@km8-gmv-d35","address":{"country_code":"PY","formatted_address":"WF4C+VM2, Villa Hayes 150403, Paraguay","postcode":"150403","locality":"Villa Hayes","region":"Presidente Hayes Department"}},"labels":["soccer","sport"],"duration":0,"start_local":"2024-05-12T10:00:00","end":"2024-05-12T14:00:00Z","end_local":"2024-05-12T10:00:00","updated":"2024-06-12T02:58:29Z"},{"title":"Division Intermedia - Sportivo Carapeguá vs Independiente FBC","description":"Sourced from predicthq.com","category":"sports","start":"2024-05-12T14:00:00Z","geo":{"geometry":{"coordinates":[-57.2348213,-25.7652089],"type":"Point"},"placekey":"@km5-d25-xt9","address":{"country_code":"PY","formatted_address":"6QQ7+PWR, Mariscal Francisco Solano López, Carapeguá 090506, Paraguay","postcode":"090506","locality":"Carapeguá","region":"Paraguarí"}},"labels":["soccer","sport"],"duration":0,"start_local":"2024-05-12T10:00:00","end":"2024-05-12T14:00:00Z","end_local":"2024-05-12T10:00:00","updated":"2024-06-12T11:09:56Z"},{"title":"Division Profesional - Apertura - Sportivo Luqueño vs Sportivo Ameliano","description":"Sourced from predicthq.com","category":"sports","start":"2024-05-11T23:30:00Z","geo":{"geometry":{"coordinates":[-57.4930308,-25.2722702],"type":"Point"},"placekey":"@km8-g7z-r49","address":{"country_code":"PY","formatted_address":"Doctor José Gaspar Rodríguez de Francia, Luque, Paraguay","locality":"Luque","region":"Departamento Central"}},"labels":["soccer","sport"],"duration":7152,"start_local":"2024-05-11T19:30:00","end":"2024-05-12T01:29:12Z","end_local":"2024-05-11T21:29:12","updated":"2024-05-27T00:28:06Z"},{"title":"Súper Rugby Américas - Yacare XV vs Peñarol","description":"Sourced from predicthq.com","category":"sports","start":"2024-05-11T23:00:00Z","geo":{"geometry":{"coordinates":[-57.53065,-25.256794],"type":"Point"},"placekey":"@km8-g77-yy9","address":{"country_code":"PY","formatted_address":"PFV9+8GH, Luque, Paraguay","locality":"Luque","region":"Central Department"}},"labels":["rugby","sport"],"duration":0,"start_local":"2024-05-11T19:00:00","end":"2024-05-11T23:00:00Z","end_local":"2024-05-11T19:00:00","updated":"2024-06-12T00:34:16Z"},{"title":"Yacare Xv vs Penarol Rugby","description":"Sourced from predicthq.com","category":"sports","start":"2024-05-11T21:54:00Z","geo":{"geometry":{"coordinates":[-57.53065,-25.256794],"type":"Point"},"placekey":"@km8-g77-yy9","address":{"country_code":"PY","formatted_address":"PFV9+8GH, Luque, Paraguay","locality":"Luque","region":"Central Department"}},"labels":["rugby","sport"],"duration":0,"start_local":"2024-05-11T17:54:00","end":"2024-05-11T21:54:00Z","end_local":"2024-05-11T17:54:00","updated":"2024-06-12T13:59:51Z"},{"title":"Division Profesional - Apertura - Sportivo Trinidense vs Nacional Asunción","description":"Sourced from predicthq.com","category":"sports","start":"2024-05-11T21:00:00Z","geo":{"geometry":{"coordinates":[-57.58392155170441,-25.25984807500201],"type":"Point"},"placekey":"@km8-g9d-3kf","address":{"country_code":"PY","formatted_address":"PCR8+4C6, Asunción 001532, Paraguay","postcode":"001532","locality":"Asunción","region":"Asunción"}},"labels":["soccer","sport"],"duration":6981,"start_local":"2024-05-11T17:00:00","end":"2024-05-11T22:56:21Z","end_local":"2024-05-11T18:56:21","updated":"2024-06-05T02:47:02Z"},{"title":"Division Intermedia - Deportivo Recoleta vs Sportivo San Lorenzo","description":"Sourced from predicthq.com","category":"sports","start":"2024-05-11T14:00:00Z","geo":{"geometry":{"coordinates":[-57.527764838,-25.252263018],"type":"Point"},"placekey":"@km8-g8n-g6k","address":{"country_code":"PY","formatted_address":"PFXC+2M, Luque, Paraguay","locality":"Luque","region":"Central Department"}},"labels":["soccer","sport"],"duration":0,"start_local":"2024-05-11T10:00:00","end":"2024-05-11T14:00:00Z","end_local":"2024-05-11T10:00:00","updated":"2024-06-12T07:10:19Z"},{"title":"Division Intermedia - Pastoreo vs Encarnación","description":"Sourced from predicthq.com","category":"sports","start":"2024-05-11T14:00:00Z","geo":{"geometry":{"coordinates":[-56.017418064,-25.443301964],"type":"Point"},"placekey":"@kmd-9vk-hwk","address":{"country_code":"PY","formatted_address":"HX4J+MWR, Caaguazú 050203, Paraguay","postcode":"050203","locality":"Caaguazú","region":"Caaguazú Department"}},"labels":["soccer","sport"],"duration":0,"start_local":"2024-05-11T10:00:00","end":"2024-05-11T14:00:00Z","end_local":"2024-05-11T10:00:00","updated":"2024-06-12T11:20:50Z"},{"title":"Division Profesional - Apertura - Libertad vs Sol de América","description":"Sourced from predicthq.com","category":"sports","start":"2024-05-11T00:30:00Z","geo":{"geometry":{"coordinates":[-57.611006498,-25.277772978],"type":"Point"},"placekey":"@km8-g98-kpv","address":{"country_code":"PY","formatted_address":"P9CQ+VHQ, Av. Gral. José Gervasio Artigas, Asunción, Paraguay","locality":"Asunción","region":"Asunción"}},"labels":["soccer","sport"],"duration":6800,"start_local":"2024-05-10T20:30:00","end":"2024-05-11T02:23:20Z","end_local":"2024-05-10T22:23:20","updated":"2024-06-04T21:42:49Z"},{"title":"Division Intermedia - Rubio Ñú vs Fernando de la Mora","description":"Sourced from predicthq.com","category":"sports","start":"2024-05-10T23:30:00Z","geo":{"geometry":{"coordinates":[-57.57512927055359,-25.25754359913714],"type":"Point"},"placekey":"@km8-g7r-649","address":{"country_code":"PY","formatted_address":"Tte. Fernando Delvalle, Asunción 001519, Paraguay","postcode":"001519","locality":"Asunción","region":"Asunción"}},"labels":["soccer","sport"],"duration":0,"start_local":"2024-05-10T19:30:00","end":"2024-05-10T23:30:00Z","end_local":"2024-05-10T19:30:00","updated":"2024-06-11T21:02:06Z"},{"title":"Division Profesional - Apertura - 2 de Mayo vs Tacuary","description":"Sourced from predicthq.com","category":"sports","start":"2024-05-10T22:00:00Z","geo":{"geometry":{"coordinates":[-55.745889544487,-22.539423746076203],"type":"Point"},"placekey":"@kj3-ypr-z75","address":{"country_code":"PY","formatted_address":"F763+6MQ, Gral. Díaz 861, Pedro Juan Caballero 130106, Paraguay","postcode":"130106","locality":"Pedro Juan Caballero","region":"Amambay"}},"labels":["soccer","sport"],"duration":6868,"start_local":"2024-05-10T18:00:00","end":"2024-05-10T23:54:28Z","end_local":"2024-05-10T19:54:28","updated":"2024-06-05T21:48:32Z"},{"title":"Division Intermedia - Guaireña vs Martín Ledesma","description":"Sourced from predicthq.com","category":"sports","start":"2024-05-10T21:15:00Z","geo":{"geometry":{"coordinates":[-56.4399934245,-25.7634830406],"type":"Point"},"placekey":"@kmd-gvm-8gk","address":{"country_code":"PY","formatted_address":"6HP6+G5V, PY08, Villarrica 040115, Paraguay","postcode":"040115","locality":"Villarrica","region":"Guairá"}},"labels":["soccer","sport"],"duration":0,"start_local":"2024-05-10T17:15:00","end":"2024-05-10T21:15:00Z","end_local":"2024-05-10T17:15:00","updated":"2024-06-12T20:04:13Z"},{"title":"CONMEBOL Sudamericana - Group Stage - Sportivo Trinidense vs Boca Juniors","description":"Sourced from predicthq.com","category":"sports","start":"2024-05-09T00:30:00Z","geo":{"geometry":{"coordinates":[-57.637399435,-25.299875903],"type":"Point"},"placekey":"@km8-gvq-zs5","address":{"country_code":"PY","formatted_address":"P927+22W, Av. Acuña de Figueroa, Asunción 001105, Paraguay","postcode":"001105","locality":"Asunción","region":"Asunción"}},"labels":["soccer","sport"],"duration":6792,"start_local":"2024-05-08T20:30:00","end":"2024-05-09T02:23:12Z","end_local":"2024-05-08T22:23:12","updated":"2024-06-04T23:11:28Z"},{"title":"CONMEBOL Sudamericana - Group Stage - Sportivo Luqueño vs Coquimbo Unido","description":"Sourced from predicthq.com","category":"sports","start":"2024-05-08T22:00:00Z","geo":{"geometry":{"coordinates":[-57.6574033,-25.2920837],"type":"Point"},"placekey":"@km8-gvf-v9f","address":{"country_code":"PY","formatted_address":"Mayor Martinez, Asunción, Paraguay","locality":"Asunción","region":"Departamento Central"}},"labels":["soccer","sport"],"duration":6755,"start_local":"2024-05-08T18:00:00","end":"2024-05-08T23:52:35Z","end_local":"2024-05-08T19:52:35","updated":"2024-05-27T14:57:19Z"},{"title":"CONMEBOL Sudamericana - Group Stage - Sportivo Ameliano vs Danubio","description":"Sourced from predicthq.com","category":"sports","start":"2024-05-08T00:30:00Z","geo":{"geometry":{"coordinates":[-57.611006498,-25.277772978],"type":"Point"},"placekey":"@km8-g98-kpv","address":{"country_code":"PY","formatted_address":"P9CQ+VHQ, Av. Gral. José Gervasio Artigas, Asunción, Paraguay","locality":"Asunción","region":"Asunción"}},"labels":["soccer","sport"],"duration":6918,"start_local":"2024-05-07T20:30:00","end":"2024-05-08T02:25:18Z","end_local":"2024-05-07T22:25:18","updated":"2024-06-05T03:48:13Z"},{"title":"CONMEBOL Sudamericana - Group Stage - Nacional Asunción vs Corinthians","description":"Sourced from predicthq.com","category":"sports","start":"2024-05-07T22:00:00Z","geo":{"geometry":{"coordinates":[-57.6574033,-25.2920837],"type":"Point"},"placekey":"@km8-gvf-v9f","address":{"country_code":"PY","formatted_address":"Mayor Martinez, Asunción, Paraguay","locality":"Asunción","region":"Departamento Central"}},"labels":["soccer","sport"],"duration":6864,"start_local":"2024-05-07T18:00:00","end":"2024-05-07T23:54:24Z","end_local":"2024-05-07T19:54:24","updated":"2024-05-27T11:18:51Z"},{"title":"Division Intermedia - Encarnación vs Guaireña","description":"Sourced from predicthq.com","category":"sports","start":"2024-05-06T23:30:00Z","geo":{"geometry":{"coordinates":[-55.84311557,-27.321969947],"type":"Point"},"placekey":"@km6-99z-nyv","address":{"country_code":"PY","formatted_address":"M5H4+6PP, Encarnacion, Paraguay","locality":"Encarnacion","region":"Itapúa Department"}},"labels":["soccer","sport"],"duration":0,"start_local":"2024-05-06T19:30:00","end":"2024-05-06T23:30:00Z","end_local":"2024-05-06T19:30:00","updated":"2024-06-11T22:56:42Z"},{"title":"Division Intermedia - Resistencia vs Sportivo Carapeguá","description":"Sourced from predicthq.com","category":"sports","start":"2024-05-06T21:15:00Z","geo":{"geometry":{"coordinates":[-57.62552261352539,-25.279674463219955],"type":"Point"},"placekey":"@km8-gvj-5xq","address":{"country_code":"PY","formatted_address":"Fernando de Mompox y Zayas, Asunción 001212, Paraguay","postcode":"001212","locality":"Asunción","region":"Asunción"}},"labels":["soccer","sport"],"duration":0,"start_local":"2024-05-06T17:15:00","end":"2024-05-06T21:15:00Z","end_local":"2024-05-06T17:15:00","updated":"2024-06-12T06:00:02Z"},{"title":"Liga Sudamericana Femenina - Group Stage - Félix Pérez vs Araraquara","description":"Sourced from predicthq.com","category":"sports","start":"2024-05-06T00:00:00Z","geo":{"geometry":{"coordinates":[-57.5293072561343,-25.25345675244551],"type":"Point"},"placekey":"@km8-g8n-dsq","address":{"country_code":"PY","formatted_address":"110901 Luque, Paraguay","locality":"Luque","postcode":"110901","region":"Central"}},"labels":["basketball","sport"],"duration":0,"start_local":"2024-05-05T20:00:00","end":"2024-05-06T00:00:00Z","end_local":"2024-05-05T20:00:00","updated":"2024-06-12T06:22:47Z"},{"title":"Division Profesional - Apertura - Sol de América vs 2 de Mayo","description":"Sourced from predicthq.com","category":"sports","start":"2024-05-05T23:30:00Z","geo":{"geometry":{"coordinates":[-57.58488178253174,-25.36726565310002],"type":"Point"},"placekey":"@km8-gq7-7nq","address":{"country_code":"PY","formatted_address":"Avenida Enrique Von Poleski, Bairro Villa Elisa, Asunción, Paraguay","locality":"Asunción"}},"labels":["soccer","sport"],"duration":7059,"start_local":"2024-05-05T19:30:00","end":"2024-05-06T01:27:39Z","end_local":"2024-05-05T21:27:39","updated":"2024-06-05T06:00:15Z"},{"title":"Division Profesional - Apertura - General Caballero JLM vs Olimpia","description":"Sourced from predicthq.com","category":"sports","start":"2024-05-05T21:00:00Z","geo":{"geometry":{"coordinates":[-55.25653222211986,-25.432281086792358],"type":"Point"},"placekey":"@kmd-z34-dgk","address":{"country_code":"PY","formatted_address":"HP9V+39R, Doctor Juan León Mallorquín, Paraguay","locality":"Doctor Juan León Mallorquín","region":"Alto Paraná Department"}},"labels":["soccer","sport"],"duration":6914,"start_local":"2024-05-05T17:00:00","end":"2024-05-05T22:55:14Z","end_local":"2024-05-05T18:55:14","updated":"2024-06-12T05:06:47Z"},{"title":"Liga Sudamericana Femenina - Group Stage - Universidad de Chile vs Ambato Soldiers","description":"Sourced from predicthq.com","category":"sports","start":"2024-05-05T21:00:00Z","geo":{"geometry":{"coordinates":[-57.5293072561343,-25.25345675244551],"type":"Point"},"placekey":"@km8-g8n-dsq","address":{"country_code":"PY","formatted_address":"110901 Luque, Paraguay","locality":"Luque","postcode":"110901","region":"Central"}},"labels":["basketball","sport"],"duration":0,"start_local":"2024-05-05T17:00:00","end":"2024-05-05T21:00:00Z","end_local":"2024-05-05T17:00:00","updated":"2024-06-11T20:37:13Z"},{"title":"Division Intermedia - Atlético Colegiales vs 12 de Junio VH","description":"Sourced from predicthq.com","category":"sports","start":"2024-05-05T14:00:00Z","geo":{"geometry":{"coordinates":[-57.59255290031433,-25.34813715970821],"type":"Point"},"placekey":"@km8-gv9-s89","address":{"country_code":"PY","formatted_address":"Avenida Defensores del Chaco y 8 de Diciembre, Bairro Cuatro Mojones, Asunción, Paraguay","locality":"Asunción"}},"labels":["soccer","sport"],"duration":0,"start_local":"2024-05-05T10:00:00","end":"2024-05-05T14:00:00Z","end_local":"2024-05-05T10:00:00","updated":"2024-06-12T06:54:50Z"},{"title":"Division Intermedia - Independiente FBC vs Deportivo Recoleta","description":"Sourced from predicthq.com","category":"sports","start":"2024-05-05T14:00:00Z","geo":{"geometry":{"coordinates":[-57.5521067744,-25.2759688287],"type":"Point"},"placekey":"@km8-g75-kpv","address":{"country_code":"PY","formatted_address":"Salvador Del Mundo (Santisima Trinidad)\nCampo Grande, Asunción\nParaguay","locality":"Campo Grande, Asunción"}},"labels":["soccer","sport"],"duration":0,"start_local":"2024-05-05T10:00:00","end":"2024-05-05T14:00:00Z","end_local":"2024-05-05T10:00:00","updated":"2024-06-12T11:54:55Z"},{"title":"OS TROTA | EXPO SANTA RITA","description":"Sourced from predicthq.com - ¡Te esperamos en el evento OS TROTA | EXPO SANTA RITA para vivir una experiencia inolvidable en Santa Rita, Paraguay!","category":"community","start":"2024-05-05T11:00:00Z","geo":{"geometry":{"coordinates":[-55.07896040000001,-25.7950516],"type":"Point"},"placekey":"@km9-8yf-8n5","address":{"country_code":"PY","formatted_address":"Calle Colonias Unidad, 101304 Santa Rita, Paraguay","locality":"Santa Rita","postcode":"101304","region":"Alto Paraná"}},"labels":["community","sport"],"duration":0,"start_local":"2024-05-05T07:00:00","end":"2024-05-05T11:00:00Z","end_local":"2024-05-05T07:00:00","updated":"2024-06-05T06:16:37Z"},{"title":"Liga Sudamericana Femenina - Group Stage - Félix Pérez vs Ambato Soldiers","description":"Sourced from predicthq.com","category":"sports","start":"2024-05-05T00:00:00Z","geo":{"geometry":{"coordinates":[-57.5293072561343,-25.25345675244551],"type":"Point"},"placekey":"@km8-g8n-dsq","address":{"country_code":"PY","formatted_address":"110901 Luque, Paraguay","locality":"Luque","postcode":"110901","region":"Central"}},"labels":["basketball","sport"],"duration":0,"start_local":"2024-05-04T20:00:00","end":"2024-05-05T00:00:00Z","end_local":"2024-05-04T20:00:00","updated":"2024-06-12T07:55:45Z"},{"title":"Division Profesional - Apertura - Tacuary vs Sportivo Trinidense","description":"Sourced from predicthq.com","category":"sports","start":"2024-05-04T23:30:00Z","geo":{"geometry":{"coordinates":[-57.59810507297516,-25.30487117850329],"type":"Point"},"placekey":"@km8-g9f-y9z","address":{"country_code":"PY","formatted_address":"MCW2+2QW, Herminio Giménez, Asunción 001230, Paraguay","postcode":"001230","locality":"Asunción","region":"Asunción"}},"labels":["soccer","sport"],"duration":6735,"start_local":"2024-05-04T19:30:00","end":"2024-05-05T01:22:15Z","end_local":"2024-05-04T21:22:15","updated":"2024-06-05T10:08:15Z"},{"title":"Liga Sudamericana Femenina - Group Stage - Araraquara vs Universidad de Chile","description":"Sourced from predicthq.com","category":"sports","start":"2024-05-04T21:00:00Z","geo":{"geometry":{"coordinates":[-57.5293072561343,-25.25345675244551],"type":"Point"},"placekey":"@km8-g8n-dsq","address":{"country_code":"PY","formatted_address":"110901 Luque, Paraguay","locality":"Luque","postcode":"110901","region":"Central"}},"labels":["basketball","sport"],"duration":0,"start_local":"2024-05-04T17:00:00","end":"2024-05-04T21:00:00Z","end_local":"2024-05-04T17:00:00","updated":"2024-06-12T07:14:13Z"},{"title":"Division Intermedia - Fernando de la Mora vs Martín Ledesma","description":"Sourced from predicthq.com","category":"sports","start":"2024-05-04T14:00:00Z","geo":{"geometry":{"coordinates":[-57.6118004322052,-25.31564184305993],"type":"Point"},"placekey":"@km8-gv5-9vf","address":{"country_code":"PY","formatted_address":"Avenida Bruno Guggiari y Sajonia, Vista Alegre, Fernando de la Mora, Paraguay","locality":"Fernando de la Mora"}},"labels":["soccer","sport"],"duration":0,"start_local":"2024-05-04T10:00:00","end":"2024-05-04T14:00:00Z","end_local":"2024-05-04T10:00:00","updated":"2024-06-12T05:28:55Z"},{"title":"Division Intermedia - Rubio Ñú vs Deportivo Santaní","description":"Sourced from predicthq.com","category":"sports","start":"2024-05-04T14:00:00Z","geo":{"geometry":{"coordinates":[-57.57512927055359,-25.25754359913714],"type":"Point"},"placekey":"@km8-g7r-649","address":{"country_code":"PY","formatted_address":"Tte. Fernando Delvalle, Asunción 001519, Paraguay","postcode":"001519","locality":"Asunción","region":"Asunción"}},"labels":["soccer","sport"],"duration":0,"start_local":"2024-05-04T10:00:00","end":"2024-05-04T14:00:00Z","end_local":"2024-05-04T10:00:00","updated":"2024-06-12T02:55:23Z"},{"title":"Liga Sudamericana Femenina - Group Stage - Félix Pérez vs Universidad de Chile","description":"Sourced from predicthq.com","category":"sports","start":"2024-05-04T01:00:00Z","geo":{"geometry":{"coordinates":[-57.5293072561343,-25.25345675244551],"type":"Point"},"placekey":"@km8-g8n-dsq","address":{"country_code":"PY","formatted_address":"110901 Luque, Paraguay","locality":"Luque","postcode":"110901","region":"Central"}},"labels":["basketball","sport"],"duration":0,"start_local":"2024-05-03T21:00:00","end":"2024-05-04T01:00:00Z","end_local":"2024-05-03T21:00:00","updated":"2024-06-12T04:07:46Z"},{"title":"Division Profesional - Apertura - Nacional Asunción vs Sportivo Luqueño","description":"Sourced from predicthq.com","category":"sports","start":"2024-05-04T00:00:00Z","geo":{"geometry":{"coordinates":[-57.6399185,-25.2983351],"type":"Point"},"placekey":"@km8-gvr-2ff","address":{"country_code":"PY","formatted_address":"Asuncion, Asunción Capital District, Paraguay","locality":"Asuncion","region":"Asunción Capital District"}},"labels":["closed-doors","soccer","sport"],"duration":6869,"start_local":"2024-05-03T20:00:00","end":"2024-05-04T01:54:29Z","end_local":"2024-05-03T21:54:29","updated":"2024-06-12T07:15:07Z"},{"title":"Division Profesional - Apertura - Libertad vs Cerro Porteño","description":"Sourced from predicthq.com","category":"sports","start":"2024-05-04T00:00:00Z","geo":{"geometry":{"coordinates":[-57.611006498,-25.277772978],"type":"Point"},"placekey":"@km8-g98-kpv","address":{"country_code":"PY","formatted_address":"P9CQ+VHQ, Av. Gral. José Gervasio Artigas, Asunción, Paraguay","locality":"Asunción","region":"Asunción"}},"labels":["soccer","sport"],"duration":6900,"start_local":"2024-05-03T20:00:00","end":"2024-05-04T01:55:00Z","end_local":"2024-05-03T21:55:00","updated":"2024-06-05T09:34:59Z"},{"title":"DEEPER 2.0","description":"Sourced from predicthq.com - Com a imersão do Home de 2024 queremos te aprofundar (deeper no inglês) na real missão desse projeto Home Church!","category":"conferences","start":"2024-05-03T23:30:00Z","geo":{"geometry":{"coordinates":[-54.6214993,-25.52039],"type":"Point"},"placekey":"@kmf-2yx-kcq","address":{"country_code":"PY","formatted_address":"100151 Ciudad del Este, Paraguay","locality":"Ciudad del Este","postcode":"100151","region":"Alto Paraná Department"}},"labels":["conference","religion"],"duration":9780,"start_local":"2024-05-03T19:30:00","end":"2024-05-04T02:13:00Z","end_local":"2024-05-03T22:13:00","updated":"2024-06-05T02:59:32Z"},{"title":"Division Intermedia - 3 de Febrero vs Pastoreo","description":"Sourced from predicthq.com","category":"sports","start":"2024-05-03T23:30:00Z","geo":{"geometry":{"coordinates":[-54.6120507,-25.526998],"type":"Point"},"placekey":"@kmf-2yy-gp9","address":{"country_code":"PY","formatted_address":"General Bernardino Caballero, Ciudad del Este, Paraguay","locality":"Ciudad del Este","region":"Departamento de Alto Paraná"}},"labels":["soccer","sport"],"duration":0,"start_local":"2024-05-03T19:30:00","end":"2024-05-03T23:30:00Z","end_local":"2024-05-03T19:30:00","updated":"2024-06-12T11:14:09Z"},{"title":"Liga Sudamericana Femenina - Group Stage - Ambato Soldiers vs Araraquara","description":"Sourced from predicthq.com","category":"sports","start":"2024-05-03T22:30:00Z","geo":{"geometry":{"coordinates":[-57.5293072561343,-25.25345675244551],"type":"Point"},"placekey":"@km8-g8n-dsq","address":{"country_code":"PY","formatted_address":"110901 Luque, Paraguay","locality":"Luque","postcode":"110901","region":"Central"}},"labels":["basketball","sport"],"duration":0,"start_local":"2024-05-03T18:30:00","end":"2024-05-03T22:30:00Z","end_local":"2024-05-03T18:30:00","updated":"2024-06-12T15:46:37Z"},{"title":"Division Profesional - Apertura - Sportivo Ameliano vs Club Guaraní","description":"Sourced from predicthq.com","category":"sports","start":"2024-05-03T21:30:00Z","geo":{"geometry":{"coordinates":[-57.58488178253174,-25.36726565310002],"type":"Point"},"placekey":"@km8-gq7-7nq","address":{"country_code":"PY","formatted_address":"Avenida Enrique Von Poleski, Bairro Villa Elisa, Asunción, Paraguay","locality":"Asunción"}},"labels":["soccer","sport"],"duration":7064,"start_local":"2024-05-03T17:30:00","end":"2024-05-03T23:27:44Z","end_local":"2024-05-03T19:27:44","updated":"2024-06-05T05:09:37Z"},{"title":"Division Intermedia - Sportivo San Lorenzo vs Atlético Tembetary","description":"Sourced from predicthq.com","category":"sports","start":"2024-05-03T21:15:00Z","geo":{"geometry":{"coordinates":[-57.5008106,-25.3427558],"type":"Point"},"placekey":"@km8-g9v-4n5","address":{"country_code":"PY","formatted_address":"MF4X+VMW, San Lorenzo 111429, Paraguay","postcode":"111429","locality":"San Lorenzo","region":"Central Department"}},"labels":["soccer","sport"],"duration":0,"start_local":"2024-05-03T17:15:00","end":"2024-05-03T21:15:00Z","end_local":"2024-05-03T17:15:00","updated":"2024-06-12T13:01:18Z"},{"title":"Karol G","description":"Sourced from predicthq.com","category":"concerts","start":"2024-05-02T22:00:00Z","geo":{"geometry":{"coordinates":[-57.63691,-25.29748],"type":"Point"},"placekey":"@km8-gvq-x5z","address":{"country_code":"PY","formatted_address":"P927+22W, Av. Acuña de Figueroa, Asunción 001105, Paraguay","postcode":"001105","locality":"Asunción","region":"Asunción"}},"labels":["concert","music"],"duration":0,"start_local":"2024-05-02T18:00:00","end":"2024-05-02T22:00:00Z","end_local":"2024-05-02T18:00:00","updated":"2024-06-28T13:56:58Z"},{"title":"Division Profesional - Apertura - Olimpia vs Sportivo Ameliano","description":"Sourced from predicthq.com","category":"sports","start":"2024-04-29T23:30:00Z","geo":{"geometry":{"coordinates":[-57.6086588,-25.2916461],"type":"Point"},"placekey":"@km8-g9h-4gk","address":{"country_code":"PY","formatted_address":"Av. Mariscal López, Asunción 001208, Paraguay","postcode":"001208","locality":"Asunción","region":"Asunción"}},"labels":["soccer","sport"],"duration":7076,"start_local":"2024-04-29T19:30:00","end":"2024-04-30T01:27:56Z","end_local":"2024-04-29T21:27:56","updated":"2024-06-05T07:46:34Z"},{"title":"Division Intermedia - Atlético Tembetary vs Independiente FBC","description":"Sourced from predicthq.com","category":"sports","start":"2024-04-29T23:30:00Z","geo":{"geometry":{"coordinates":[-57.58488178253174,-25.36726565310002],"type":"Point"},"placekey":"@km8-gq7-7nq","address":{"country_code":"PY","formatted_address":"Avenida Enrique Von Poleski, Bairro Villa Elisa, Asunción, Paraguay","locality":"Asunción"}},"labels":["soccer","sport"],"duration":0,"start_local":"2024-04-29T19:30:00","end":"2024-04-29T23:30:00Z","end_local":"2024-04-29T19:30:00","updated":"2024-06-12T04:27:25Z"},{"title":"Division Intermedia - Guaireña vs 3 de Febrero","description":"Sourced from predicthq.com","category":"sports","start":"2024-04-29T21:15:00Z","geo":{"geometry":{"coordinates":[-56.4399934245,-25.7634830406],"type":"Point"},"placekey":"@kmd-gvm-8gk","address":{"country_code":"PY","formatted_address":"6HP6+G5V, PY08, Villarrica 040115, Paraguay","postcode":"040115","locality":"Villarrica","region":"Guairá"}},"labels":["soccer","sport"],"duration":0,"start_local":"2024-04-29T17:15:00","end":"2024-04-29T21:15:00Z","end_local":"2024-04-29T17:15:00","updated":"2024-06-12T08:07:23Z"},{"title":"Division Profesional - Apertura - Cerro Porteño vs General Caballero JLM","description":"Sourced from predicthq.com","category":"sports","start":"2024-04-29T00:00:00Z","geo":{"geometry":{"coordinates":[-57.6574033,-25.2920837],"type":"Point"},"placekey":"@km8-gvf-v9f","address":{"country_code":"PY","formatted_address":"Mayor Martinez, Asunción, Paraguay","locality":"Asunción","region":"Departamento Central"}},"labels":["soccer","sport"],"duration":6483,"start_local":"2024-04-28T20:00:00","end":"2024-04-29T01:48:03Z","end_local":"2024-04-28T21:48:03","updated":"2024-05-27T20:14:22Z"},{"title":"Division Profesional - Apertura - 2 de Mayo vs Libertad","description":"Sourced from predicthq.com","category":"sports","start":"2024-04-28T21:30:00Z","geo":{"geometry":{"coordinates":[-55.745889544487,-22.539423746076203],"type":"Point"},"placekey":"@kj3-ypr-z75","address":{"country_code":"PY","formatted_address":"F763+6MQ, Gral. Díaz 861, Pedro Juan Caballero 130106, Paraguay","postcode":"130106","locality":"Pedro Juan Caballero","region":"Amambay"}},"labels":["soccer","sport"],"duration":7141,"start_local":"2024-04-28T17:30:00","end":"2024-04-28T23:29:01Z","end_local":"2024-04-28T19:29:01","updated":"2024-06-05T18:35:39Z"},{"title":"Division Profesional - Apertura - Club Guaraní vs Nacional Asunción","description":"Sourced from predicthq.com","category":"sports","start":"2024-04-28T21:30:00Z","geo":{"geometry":{"coordinates":[-57.6160314097,-25.3033127117],"type":"Point"},"placekey":"@km8-g9h-bhq","address":{"country_code":"PY","formatted_address":"M9WM+MHH, Av. Eusebio Ayala, Asunción 001236, Paraguay","postcode":"001236","locality":"Asunción","region":"Asunción"}},"labels":["soccer","sport"],"duration":6885,"start_local":"2024-04-28T17:30:00","end":"2024-04-28T23:24:45Z","end_local":"2024-04-28T19:24:45","updated":"2024-06-05T11:06:47Z"},{"title":"Division Intermedia - Deportivo Recoleta vs Resistencia","description":"Sourced from predicthq.com","category":"sports","start":"2024-04-28T14:00:00Z","geo":{"geometry":{"coordinates":[-57.527764838,-25.252263018],"type":"Point"},"placekey":"@km8-g8n-g6k","address":{"country_code":"PY","formatted_address":"PFXC+2M, Luque, Paraguay","locality":"Luque","region":"Central Department"}},"labels":["soccer","sport"],"duration":0,"start_local":"2024-04-28T10:00:00","end":"2024-04-28T14:00:00Z","end_local":"2024-04-28T10:00:00","updated":"2024-06-12T07:24:37Z"},{"title":"Division Intermedia - Martín Ledesma vs Encarnación","description":"Sourced from predicthq.com","category":"sports","start":"2024-04-28T14:00:00Z","geo":{"geometry":{"coordinates":[-57.4453891805,-25.3533817438],"type":"Point"},"placekey":"@km8-gzv-35z","address":{"country_code":"PY","formatted_address":"Martín Ledesma y, Kapi'atã 110217, Paraguay","postcode":"110217","locality":"Kapi'atã","region":"Tetãvore Central"}},"labels":["soccer","sport"],"duration":0,"start_local":"2024-04-28T10:00:00","end":"2024-04-28T14:00:00Z","end_local":"2024-04-28T10:00:00","updated":"2024-06-12T08:51:59Z"},{"title":"OS TROTA | LIDER/SIMA/BRAZ FARMA","description":"Sourced from predicthq.com - ¡Te esperamos en el evento OS TROTA | LIDER/SIMA/BRAZ FARMA para vivir una experiencia inolvidable en Santa Rita, Paraguay!","category":"community","start":"2024-04-28T11:00:00Z","geo":{"geometry":{"coordinates":[-55.0879338,-25.7917136],"type":"Point"},"placekey":"@km9-8wt-qzz","address":{"country_code":"PY","formatted_address":"Santa Rita, Alto Paraná Department, Paraguay","locality":"Santa Rita","region":"Alto Paraná Department"}},"labels":["community","sport"],"duration":0,"start_local":"2024-04-28T07:00:00","end":"2024-04-28T11:00:00Z","end_local":"2024-04-28T07:00:00","updated":"2024-06-04T21:58:03Z"},{"title":"Division Profesional - Apertura - Sportivo Luqueño vs Tacuary","description":"Sourced from predicthq.com","category":"sports","start":"2024-04-28T00:00:00Z","geo":{"geometry":{"coordinates":[-57.4930308,-25.2722702],"type":"Point"},"placekey":"@km8-g7z-r49","address":{"country_code":"PY","formatted_address":"Doctor José Gaspar Rodríguez de Francia, Luque, Paraguay","locality":"Luque","region":"Departamento Central"}},"labels":["soccer","sport"],"duration":7941,"start_local":"2024-04-27T20:00:00","end":"2024-04-28T02:12:21Z","end_local":"2024-04-27T22:12:21","updated":"2024-05-27T00:25:11Z"},{"title":"Yacare Xv vs Dogos XV","description":"Sourced from predicthq.com","category":"sports","start":"2024-04-27T22:02:00Z","geo":{"geometry":{"coordinates":[-57.53065,-25.256794],"type":"Point"},"placekey":"@km8-g77-yy9","address":{"country_code":"PY","formatted_address":"PFV9+8GH, Luque, Paraguay","locality":"Luque","region":"Central Department"}},"labels":["rugby","sport"],"duration":0,"start_local":"2024-04-27T18:02:00","end":"2024-04-27T22:02:00Z","end_local":"2024-04-27T18:02:00","updated":"2024-06-12T00:49:07Z"},{"title":"Division Intermedia - Pastoreo vs Atlético Colegiales","description":"Sourced from predicthq.com","category":"sports","start":"2024-04-27T14:00:00Z","geo":{"geometry":{"coordinates":[-56.017418064,-25.443301964],"type":"Point"},"placekey":"@kmd-9vk-hwk","address":{"country_code":"PY","formatted_address":"HX4J+MWR, Caaguazú 050203, Paraguay","postcode":"050203","locality":"Caaguazú","region":"Caaguazú Department"}},"labels":["soccer","sport"],"duration":0,"start_local":"2024-04-27T10:00:00","end":"2024-04-27T14:00:00Z","end_local":"2024-04-27T10:00:00","updated":"2024-06-12T08:05:56Z"},{"title":"Division Intermedia - 12 de Junio VH vs Sportivo San Lorenzo","description":"Sourced from predicthq.com","category":"sports","start":"2024-04-27T14:00:00Z","geo":{"geometry":{"coordinates":[-57.528516034,-25.092782477],"type":"Point"},"placekey":"@km8-gmv-d35","address":{"country_code":"PY","formatted_address":"WF4C+VM2, Villa Hayes 150403, Paraguay","postcode":"150403","locality":"Villa Hayes","region":"Presidente Hayes Department"}},"labels":["soccer","sport"],"duration":0,"start_local":"2024-04-27T10:00:00","end":"2024-04-27T14:00:00Z","end_local":"2024-04-27T10:00:00","updated":"2024-06-12T03:17:12Z"},{"title":"Expo Santa Rita","description":"Sourced from predicthq.com - The Santa Rita Expo, considered the largest exhibition in the interior of the country, exhibits the potential of the productive force of the commercial, industrial, agricultural, livestock and service fields.","category":"expos","start":"2024-04-27T04:00:00Z","geo":{"geometry":{"coordinates":[-55.0879338,-25.7917136],"type":"Point"},"placekey":"@km9-8wt-qzz","address":{"country_code":"PY","formatted_address":"Santa Rita, Alto Paraná Department, Paraguay","locality":"Santa Rita","region":"Alto Paraná Department"}},"labels":["agriculture","animal","expo","industrial"],"duration":777599,"start_local":"2024-04-27T00:00:00","end":"2024-05-06T03:59:59Z","end_local":"2024-05-05T23:59:59","updated":"2024-06-02T05:01:24Z"},{"title":"Division Profesional - Apertura - Sportivo Trinidense vs Sol de América","description":"Sourced from predicthq.com","category":"sports","start":"2024-04-26T23:30:00Z","geo":{"geometry":{"coordinates":[-57.6399185,-25.2983351],"type":"Point"},"placekey":"@km8-gvr-2ff","address":{"country_code":"PY","formatted_address":"Asuncion, Asunción Capital District, Paraguay","locality":"Asuncion","region":"Asunción Capital District"}},"labels":["soccer","sport"],"duration":6564,"start_local":"2024-04-26T19:30:00","end":"2024-04-27T01:19:24Z","end_local":"2024-04-26T21:19:24","updated":"2024-06-12T11:38:53Z"},{"title":"Division Intermedia - Deportivo Santaní vs Fernando de la Mora","description":"Sourced from predicthq.com","category":"sports","start":"2024-04-26T21:15:00Z","geo":{"geometry":{"coordinates":[-56.4415526,-24.656756],"type":"Point"},"placekey":"@kmc-ctc-28v","address":{"country_code":"PY","formatted_address":"8HV5+79W, Coronel Z. González, San Estanislao 020801, Paraguay","postcode":"020801","locality":"San Estanislao","region":"San Pedro"}},"labels":["soccer","sport"],"duration":0,"start_local":"2024-04-26T17:15:00","end":"2024-04-26T21:15:00Z","end_local":"2024-04-26T17:15:00","updated":"2024-06-12T04:12:48Z"},{"title":"Division Intermedia - Sportivo Carapeguá vs Rubio Ñú","description":"Sourced from predicthq.com","category":"sports","start":"2024-04-26T14:00:00Z","geo":{"geometry":{"coordinates":[-57.2348213,-25.7652089],"type":"Point"},"placekey":"@km5-d25-xt9","address":{"country_code":"PY","formatted_address":"6QQ7+PWR, Mariscal Francisco Solano López, Carapeguá 090506, Paraguay","postcode":"090506","locality":"Carapeguá","region":"Paraguarí"}},"labels":["soccer","sport"],"duration":0,"start_local":"2024-04-26T10:00:00","end":"2024-04-26T14:00:00Z","end_local":"2024-04-26T10:00:00","updated":"2024-06-12T08:56:30Z"},{"title":"CONMEBOL Sudamericana - Group Stage - Nacional Asunción vs Racing","description":"Sourced from predicthq.com","category":"sports","start":"2024-04-25T22:00:00Z","geo":{"geometry":{"coordinates":[-57.6574033,-25.2920837],"type":"Point"},"placekey":"@km8-gvf-v9f","address":{"country_code":"PY","formatted_address":"Mayor Martinez, Asunción, Paraguay","locality":"Asunción","region":"Departamento Central"}},"labels":["soccer","sport"],"duration":6572,"start_local":"2024-04-25T18:00:00","end":"2024-04-25T23:49:32Z","end_local":"2024-04-25T19:49:32","updated":"2024-05-27T16:52:06Z"},{"title":"CONMEBOL Libertadores - Group Stage - Cerro Porteño vs Fluminense","description":"Sourced from predicthq.com","category":"sports","start":"2024-04-25T22:00:00Z","geo":{"geometry":{"coordinates":[-57.637399435,-25.299875903],"type":"Point"},"placekey":"@km8-gvq-zs5","address":{"country_code":"PY","formatted_address":"P927+22W, Av. Acuña de Figueroa, Asunción 001105, Paraguay","postcode":"001105","locality":"Asunción","region":"Asunción"}},"labels":["soccer","sport"],"duration":6892,"start_local":"2024-04-25T18:00:00","end":"2024-04-25T23:54:52Z","end_local":"2024-04-25T19:54:52","updated":"2024-06-05T14:43:21Z"},{"title":"CW Australia Educa 2024 - Paraguay","description":"Sourced from predicthq.com - ¡Llega CW Australia Educa en su edición 2024, la Feria Educativa Australiana más importante de Argentina, ahora en Paraguay!","category":"conferences","start":"2024-04-25T18:30:00Z","geo":{"geometry":{"coordinates":[-57.6449083,-25.2875845],"type":"Point"},"placekey":"@km8-gvf-5xq","address":{"country_code":"PY","formatted_address":"Avenida Ygatimi, 001012 Asunción, Paraguay","locality":"Asunción","postcode":"001012","region":"Asunción"}},"labels":["conference","education","family"],"duration":18000,"start_local":"2024-04-25T14:30:00","end":"2024-04-25T23:30:00Z","end_local":"2024-04-25T19:30:00","updated":"2024-06-12T00:19:07Z"},{"title":"CONMEBOL Libertadores - Group Stage - Libertad vs River Plate","description":"Sourced from predicthq.com","category":"sports","start":"2024-04-25T00:30:00Z","geo":{"geometry":{"coordinates":[-57.6574033,-25.2920837],"type":"Point"},"placekey":"@km8-gvf-v9f","address":{"country_code":"PY","formatted_address":"Mayor Martinez, Asunción, Paraguay","locality":"Asunción","region":"Departamento Central"}},"labels":["soccer","sport"],"duration":6817,"start_local":"2024-04-24T20:30:00","end":"2024-04-25T02:23:37Z","end_local":"2024-04-24T22:23:37","updated":"2024-05-27T17:04:56Z"},{"title":"CONMEBOL Sudamericana - Group Stage - Sportivo Trinidense vs Nacional Potosí","description":"Sourced from predicthq.com","category":"sports","start":"2024-04-24T00:00:00Z","geo":{"geometry":{"coordinates":[-57.6574033,-25.2920837],"type":"Point"},"placekey":"@km8-gvf-v9f","address":{"country_code":"PY","formatted_address":"Mayor Martinez, Asunción, Paraguay","locality":"Asunción","region":"Departamento Central"}},"labels":["soccer","sport"],"duration":6642,"start_local":"2024-04-23T20:00:00","end":"2024-04-24T01:50:42Z","end_local":"2024-04-23T21:50:42","updated":"2024-05-27T23:55:37Z"},{"title":"Division Intermedia - Deportivo Santaní vs Sportivo Carapeguá","description":"Sourced from predicthq.com","category":"sports","start":"2024-04-22T23:30:00Z","geo":{"geometry":{"coordinates":[-56.4415526,-24.656756],"type":"Point"},"placekey":"@kmc-ctc-28v","address":{"country_code":"PY","formatted_address":"8HV5+79W, Coronel Z. González, San Estanislao 020801, Paraguay","postcode":"020801","locality":"San Estanislao","region":"San Pedro"}},"labels":["soccer","sport"],"duration":0,"start_local":"2024-04-22T19:30:00","end":"2024-04-22T23:30:00Z","end_local":"2024-04-22T19:30:00","updated":"2024-06-12T12:04:37Z"},{"title":"Division Intermedia - Sportivo San Lorenzo vs Pastoreo","description":"Sourced from predicthq.com","category":"sports","start":"2024-04-22T21:15:00Z","geo":{"geometry":{"coordinates":[-57.5008106,-25.3427558],"type":"Point"},"placekey":"@km8-g9v-4n5","address":{"country_code":"PY","formatted_address":"MF4X+VMW, San Lorenzo 111429, Paraguay","postcode":"111429","locality":"San Lorenzo","region":"Central Department"}},"labels":["soccer","sport"],"duration":0,"start_local":"2024-04-22T17:15:00","end":"2024-04-22T21:15:00Z","end_local":"2024-04-22T17:15:00","updated":"2024-06-12T04:58:49Z"},{"title":"Division Profesional - Apertura - Nacional Asunción vs Olimpia","description":"Sourced from predicthq.com","category":"sports","start":"2024-04-22T00:00:00Z","geo":{"geometry":{"coordinates":[-57.6399185,-25.2983351],"type":"Point"},"placekey":"@km8-gvr-2ff","address":{"country_code":"PY","formatted_address":"Asuncion, Asunción Capital District, Paraguay","locality":"Asuncion","region":"Asunción Capital District"}},"labels":["soccer","sport"],"duration":6780,"start_local":"2024-04-21T20:00:00","end":"2024-04-22T01:53:00Z","end_local":"2024-04-21T21:53:00","updated":"2024-06-12T07:08:46Z"},{"title":"Division Profesional - Apertura - Tacuary vs Club Guaraní","description":"Sourced from predicthq.com","category":"sports","start":"2024-04-21T21:30:00Z","geo":{"geometry":{"coordinates":[-57.59810507297516,-25.30487117850329],"type":"Point"},"placekey":"@km8-g9f-y9z","address":{"country_code":"PY","formatted_address":"MCW2+2QW, Herminio Giménez, Asunción 001230, Paraguay","postcode":"001230","locality":"Asunción","region":"Asunción"}},"labels":["soccer","sport"],"duration":7143,"start_local":"2024-04-21T17:30:00","end":"2024-04-21T23:29:03Z","end_local":"2024-04-21T19:29:03","updated":"2024-06-05T01:48:05Z"},{"title":"Division Intermedia - Fernando de la Mora vs Encarnación","description":"Sourced from predicthq.com","category":"sports","start":"2024-04-21T13:30:00Z","geo":{"geometry":{"coordinates":[-57.6118004322052,-25.31564184305993],"type":"Point"},"placekey":"@km8-gv5-9vf","address":{"country_code":"PY","formatted_address":"Avenida Bruno Guggiari y Sajonia, Vista Alegre, Fernando de la Mora, Paraguay","locality":"Fernando de la Mora"}},"labels":["soccer","sport"],"duration":0,"start_local":"2024-04-21T09:30:00","end":"2024-04-21T13:30:00Z","end_local":"2024-04-21T09:30:00","updated":"2024-06-12T00:23:53Z"},{"title":"Division Intermedia - Independiente FBC vs 12 de Junio VH","description":"Sourced from predicthq.com","category":"sports","start":"2024-04-21T13:30:00Z","geo":{"geometry":{"coordinates":[-57.5521067744,-25.2759688287],"type":"Point"},"placekey":"@km8-g75-kpv","address":{"country_code":"PY","formatted_address":"Salvador Del Mundo (Santisima Trinidad)\nCampo Grande, Asunción\nParaguay","locality":"Campo Grande, Asunción"}},"labels":["soccer","sport"],"duration":0,"start_local":"2024-04-21T09:30:00","end":"2024-04-21T13:30:00Z","end_local":"2024-04-21T09:30:00","updated":"2024-06-12T06:07:03Z"},{"title":"Division Profesional - Apertura - Libertad vs Sportivo Trinidense","description":"Sourced from predicthq.com","category":"sports","start":"2024-04-21T00:00:00Z","geo":{"geometry":{"coordinates":[-57.611006498,-25.277772978],"type":"Point"},"placekey":"@km8-g98-kpv","address":{"country_code":"PY","formatted_address":"P9CQ+VHQ, Av. Gral. José Gervasio Artigas, Asunción, Paraguay","locality":"Asunción","region":"Asunción"}},"labels":["soccer","sport"],"duration":6671,"start_local":"2024-04-20T20:00:00","end":"2024-04-21T01:51:11Z","end_local":"2024-04-20T21:51:11","updated":"2024-06-05T02:31:54Z"},{"title":"Expulsados and Square Pants","description":"Sourced from predicthq.com","category":"community","start":"2024-04-20T23:00:00Z","geo":{"geometry":{"coordinates":[-57.63509,-25.28564],"type":"Point"},"placekey":"@km8-gvj-ty9","address":{"country_code":"PY","formatted_address":"Herrera 163, Asunción, Paraguay","locality":"Asunción","region":"Asunción"}},"labels":["concert","music"],"duration":0,"start_local":"2024-04-20T19:00:00","end":"2024-04-20T23:00:00Z","end_local":"2024-04-20T19:00:00","updated":"2024-06-05T13:00:50Z"},{"title":"Division Profesional - Apertura - Sportivo Ameliano vs General Caballero JLM","description":"Sourced from predicthq.com","category":"sports","start":"2024-04-20T21:30:00Z","geo":{"geometry":{"coordinates":[-57.58488178253174,-25.36726565310002],"type":"Point"},"placekey":"@km8-gq7-7nq","address":{"country_code":"PY","formatted_address":"Avenida Enrique Von Poleski, Bairro Villa Elisa, Asunción, Paraguay","locality":"Asunción"}},"labels":["soccer","sport"],"duration":6873,"start_local":"2024-04-20T17:30:00","end":"2024-04-20T23:24:33Z","end_local":"2024-04-20T19:24:33","updated":"2024-06-05T02:08:46Z"},{"title":"Division Intermedia - Atlético Colegiales vs Guaireña","description":"Sourced from predicthq.com","category":"sports","start":"2024-04-20T13:30:00Z","geo":{"geometry":{"coordinates":[-57.59255290031433,-25.34813715970821],"type":"Point"},"placekey":"@km8-gv9-s89","address":{"country_code":"PY","formatted_address":"Avenida Defensores del Chaco y 8 de Diciembre, Bairro Cuatro Mojones, Asunción, Paraguay","locality":"Asunción"}},"labels":["soccer","sport"],"duration":0,"start_local":"2024-04-20T09:30:00","end":"2024-04-20T13:30:00Z","end_local":"2024-04-20T09:30:00","updated":"2024-06-12T09:18:56Z"},{"title":"Division Intermedia - Resistencia vs Atlético Tembetary","description":"Sourced from predicthq.com","category":"sports","start":"2024-04-20T13:30:00Z","geo":{"geometry":{"coordinates":[-57.62552261352539,-25.279674463219955],"type":"Point"},"placekey":"@km8-gvj-5xq","address":{"country_code":"PY","formatted_address":"Fernando de Mompox y Zayas, Asunción 001212, Paraguay","postcode":"001212","locality":"Asunción","region":"Asunción"}},"labels":["soccer","sport"],"duration":0,"start_local":"2024-04-20T09:30:00","end":"2024-04-20T13:30:00Z","end_local":"2024-04-20T09:30:00","updated":"2024-06-12T07:22:59Z"},{"title":"Division Profesional - Apertura - 2 de Mayo vs Cerro Porteño","description":"Sourced from predicthq.com","category":"sports","start":"2024-04-20T00:30:00Z","geo":{"geometry":{"coordinates":[-55.745889544487,-22.539423746076203],"type":"Point"},"placekey":"@kj3-ypr-z75","address":{"country_code":"PY","formatted_address":"F763+6MQ, Gral. Díaz 861, Pedro Juan Caballero 130106, Paraguay","postcode":"130106","locality":"Pedro Juan Caballero","region":"Amambay"}},"labels":["soccer","sport"],"duration":7148,"start_local":"2024-04-19T20:30:00","end":"2024-04-20T02:29:08Z","end_local":"2024-04-19T22:29:08","updated":"2024-06-05T03:07:53Z"},{"title":"Division Intermedia - 3 de Febrero vs Martín Ledesma","description":"Sourced from predicthq.com","category":"sports","start":"2024-04-19T23:30:00Z","geo":{"geometry":{"coordinates":[-54.6120507,-25.526998],"type":"Point"},"placekey":"@kmf-2yy-gp9","address":{"country_code":"PY","formatted_address":"General Bernardino Caballero, Ciudad del Este, Paraguay","locality":"Ciudad del Este","region":"Departamento de Alto Paraná"}},"labels":["soccer","sport"],"duration":0,"start_local":"2024-04-19T19:30:00","end":"2024-04-19T23:30:00Z","end_local":"2024-04-19T19:30:00","updated":"2024-06-12T09:56:14Z"},{"title":"Division Profesional - Apertura - Sol de América vs Sportivo Luqueño","description":"Sourced from predicthq.com","category":"sports","start":"2024-04-19T22:00:00Z","geo":{"geometry":{"coordinates":[-57.58488178253174,-25.36726565310002],"type":"Point"},"placekey":"@km8-gq7-7nq","address":{"country_code":"PY","formatted_address":"Avenida Enrique Von Poleski, Bairro Villa Elisa, Asunción, Paraguay","locality":"Asunción"}},"labels":["soccer","sport"],"duration":6784,"start_local":"2024-04-19T18:00:00","end":"2024-04-19T23:53:04Z","end_local":"2024-04-19T19:53:04","updated":"2024-06-05T12:30:22Z"},{"title":"Division Intermedia - Rubio Ñú vs Deportivo Recoleta","description":"Sourced from predicthq.com","category":"sports","start":"2024-04-19T21:15:00Z","geo":{"geometry":{"coordinates":[-57.57512927055359,-25.25754359913714],"type":"Point"},"placekey":"@km8-g7r-649","address":{"country_code":"PY","formatted_address":"Tte. Fernando Delvalle, Asunción 001519, Paraguay","postcode":"001519","locality":"Asunción","region":"Asunción"}},"labels":["soccer","sport"],"duration":0,"start_local":"2024-04-19T17:15:00","end":"2024-04-19T21:15:00Z","end_local":"2024-04-19T17:15:00","updated":"2024-06-12T04:32:41Z"},{"title":"Division Profesional - Apertura - Nacional Asunción vs Libertad","description":"Sourced from predicthq.com","category":"sports","start":"2024-04-17T23:00:00Z","geo":{"geometry":{"coordinates":[-57.6399185,-25.2983351],"type":"Point"},"placekey":"@km8-gvr-2ff","address":{"country_code":"PY","formatted_address":"Asuncion, Asunción Capital District, Paraguay","locality":"Asuncion","region":"Asunción Capital District"}},"labels":["soccer","sport"],"duration":6854,"start_local":"2024-04-17T19:00:00","end":"2024-04-18T00:54:14Z","end_local":"2024-04-17T20:54:14","updated":"2024-06-11T20:58:49Z"},{"title":"Division Intermedia - Atlético Tembetary vs Rubio Ñú","description":"Sourced from predicthq.com","category":"sports","start":"2024-04-15T22:15:00Z","geo":{"geometry":{"coordinates":[-57.58488178253174,-25.36726565310002],"type":"Point"},"placekey":"@km8-gq7-7nq","address":{"country_code":"PY","formatted_address":"Avenida Enrique Von Poleski, Bairro Villa Elisa, Asunción, Paraguay","locality":"Asunción"}},"labels":["soccer","sport"],"duration":0,"start_local":"2024-04-15T18:15:00","end":"2024-04-15T22:15:00Z","end_local":"2024-04-15T18:15:00","updated":"2024-06-12T04:49:54Z"},{"title":"Division Intermedia - Deportivo Recoleta vs Deportivo Santaní","description":"Sourced from predicthq.com","category":"sports","start":"2024-04-15T21:15:00Z","geo":{"geometry":{"coordinates":[-57.527764838,-25.252263018],"type":"Point"},"placekey":"@km8-g8n-g6k","address":{"country_code":"PY","formatted_address":"PFXC+2M, Luque, Paraguay","locality":"Luque","region":"Central Department"}},"labels":["soccer","sport"],"duration":0,"start_local":"2024-04-15T17:15:00","end":"2024-04-15T21:15:00Z","end_local":"2024-04-15T17:15:00","updated":"2024-06-12T15:40:09Z"},{"title":"Division Profesional - Apertura - Cerro Porteño vs Sportivo Ameliano","description":"Sourced from predicthq.com","category":"sports","start":"2024-04-15T00:00:00Z","geo":{"geometry":{"coordinates":[-57.637399435,-25.299875903],"type":"Point"},"placekey":"@km8-gvq-zs5","address":{"country_code":"PY","formatted_address":"P927+22W, Av. Acuña de Figueroa, Asunción 001105, Paraguay","postcode":"001105","locality":"Asunción","region":"Asunción"}},"labels":["soccer","sport"],"duration":6783,"start_local":"2024-04-14T20:00:00","end":"2024-04-15T01:53:03Z","end_local":"2024-04-14T21:53:03","updated":"2024-06-05T09:30:40Z"},{"title":"Division Profesional - Apertura - Sportivo Luqueño vs Libertad","description":"Sourced from predicthq.com","category":"sports","start":"2024-04-14T21:30:00Z","geo":{"geometry":{"coordinates":[-57.4930308,-25.2722702],"type":"Point"},"placekey":"@km8-g7z-r49","address":{"country_code":"PY","formatted_address":"Doctor José Gaspar Rodríguez de Francia, Luque, Paraguay","locality":"Luque","region":"Departamento Central"}},"labels":["soccer","sport"],"duration":6730,"start_local":"2024-04-14T17:30:00","end":"2024-04-14T23:22:10Z","end_local":"2024-04-14T19:22:10","updated":"2024-05-27T00:24:17Z"},{"title":"Division Intermedia - Pastoreo vs Independiente FBC","description":"Sourced from predicthq.com","category":"sports","start":"2024-04-14T13:00:00Z","geo":{"geometry":{"coordinates":[-56.017418064,-25.443301964],"type":"Point"},"placekey":"@kmd-9vk-hwk","address":{"country_code":"PY","formatted_address":"HX4J+MWR, Caaguazú 050203, Paraguay","postcode":"050203","locality":"Caaguazú","region":"Caaguazú Department"}},"labels":["soccer","sport"],"duration":0,"start_local":"2024-04-14T09:00:00","end":"2024-04-14T13:00:00Z","end_local":"2024-04-14T09:00:00","updated":"2024-06-12T00:18:56Z"},{"title":"Division Intermedia - 12 de Junio VH vs Resistencia","description":"Sourced from predicthq.com","category":"sports","start":"2024-04-14T13:00:00Z","geo":{"geometry":{"coordinates":[-57.528516034,-25.092782477],"type":"Point"},"placekey":"@km8-gmv-d35","address":{"country_code":"PY","formatted_address":"WF4C+VM2, Villa Hayes 150403, Paraguay","postcode":"150403","locality":"Villa Hayes","region":"Presidente Hayes Department"}},"labels":["soccer","sport"],"duration":0,"start_local":"2024-04-14T09:00:00","end":"2024-04-14T13:00:00Z","end_local":"2024-04-14T09:00:00","updated":"2024-06-11T21:19:01Z"},{"title":"OS TROTA | FORMOSA RUNNING","description":"Sourced from predicthq.com - ¡Te esperamos en el evento OS TROTA | FORMOSA RUNNING para vivir una experiencia inolvidable en Curupayty, Paraguay!","category":"community","start":"2024-04-14T11:00:00Z","geo":{"geometry":{"coordinates":[-54.966667,-25.816667],"type":"Point"},"placekey":"@km9-c7t-gc5","address":{"country_code":"PY","formatted_address":"101502 Curupayty, Paraguay","locality":"Curupayty","postcode":"101502","region":"Alto Paraná"}},"labels":["community","sport"],"duration":0,"start_local":"2024-04-14T07:00:00","end":"2024-04-14T11:00:00Z","end_local":"2024-04-14T07:00:00","updated":"2024-06-04T22:48:19Z"},{"title":"Division Profesional - Apertura - General Caballero JLM vs Nacional Asunción","description":"Sourced from predicthq.com","category":"sports","start":"2024-04-14T00:30:00Z","geo":{"geometry":{"coordinates":[-55.25653222211986,-25.432281086792358],"type":"Point"},"placekey":"@kmd-z34-dgk","address":{"country_code":"PY","formatted_address":"HP9V+39R, Doctor Juan León Mallorquín, Paraguay","locality":"Doctor Juan León Mallorquín","region":"Alto Paraná Department"}},"labels":["soccer","sport"],"duration":7018,"start_local":"2024-04-13T20:30:00","end":"2024-04-14T02:26:58Z","end_local":"2024-04-13T22:26:58","updated":"2024-06-05T13:57:16Z"},{"title":"Division Profesional - Apertura - Olimpia vs Tacuary","description":"Sourced from predicthq.com","category":"sports","start":"2024-04-13T22:00:00Z","geo":{"geometry":{"coordinates":[-54.6120507,-25.526998],"type":"Point"},"placekey":"@kmf-2yy-gp9","address":{"country_code":"PY","formatted_address":"General Bernardino Caballero, Ciudad del Este, Paraguay","locality":"Ciudad del Este","region":"Departamento de Alto Paraná"}},"labels":["soccer","sport"],"duration":6897,"start_local":"2024-04-13T18:00:00","end":"2024-04-13T23:54:57Z","end_local":"2024-04-13T19:54:57","updated":"2024-05-28T23:48:52Z"},{"title":"Division Intermedia - Sportivo Carapeguá vs Fernando de la Mora","description":"Sourced from predicthq.com","category":"sports","start":"2024-04-13T13:00:00Z","geo":{"geometry":{"coordinates":[-57.2348213,-25.7652089],"type":"Point"},"placekey":"@km5-d25-xt9","address":{"country_code":"PY","formatted_address":"6QQ7+PWR, Mariscal Francisco Solano López, Carapeguá 090506, Paraguay","postcode":"090506","locality":"Carapeguá","region":"Paraguarí"}},"labels":["soccer","sport"],"duration":0,"start_local":"2024-04-13T09:00:00","end":"2024-04-13T13:00:00Z","end_local":"2024-04-13T09:00:00","updated":"2024-06-12T01:19:09Z"},{"title":"Division Intermedia - Martín Ledesma vs Atlético Colegiales","description":"Sourced from predicthq.com","category":"sports","start":"2024-04-13T13:00:00Z","geo":{"geometry":{"coordinates":[-57.4453891805,-25.3533817438],"type":"Point"},"placekey":"@km8-gzv-35z","address":{"country_code":"PY","formatted_address":"Martín Ledesma y, Kapi'atã 110217, Paraguay","postcode":"110217","locality":"Kapi'atã","region":"Tetãvore Central"}},"labels":["soccer","sport"],"duration":0,"start_local":"2024-04-13T09:00:00","end":"2024-04-13T13:00:00Z","end_local":"2024-04-13T09:00:00","updated":"2024-06-12T06:40:08Z"},{"title":"Division Profesional - Apertura - Sportivo Trinidense vs 2 de Mayo","description":"Sourced from predicthq.com","category":"sports","start":"2024-04-13T01:00:00Z","geo":{"geometry":{"coordinates":[-57.58392155170441,-25.25984807500201],"type":"Point"},"placekey":"@km8-g9d-3kf","address":{"country_code":"PY","formatted_address":"PCR8+4C6, Asunción 001532, Paraguay","postcode":"001532","locality":"Asunción","region":"Asunción"}},"labels":["soccer","sport"],"duration":6980,"start_local":"2024-04-12T21:00:00","end":"2024-04-13T02:56:20Z","end_local":"2024-04-12T22:56:20","updated":"2024-06-05T03:15:53Z"},{"title":"Division Intermedia - Guaireña vs Sportivo San Lorenzo","description":"Sourced from predicthq.com","category":"sports","start":"2024-04-12T23:30:00Z","geo":{"geometry":{"coordinates":[-56.4399934245,-25.7634830406],"type":"Point"},"placekey":"@kmd-gvm-8gk","address":{"country_code":"PY","formatted_address":"6HP6+G5V, PY08, Villarrica 040115, Paraguay","postcode":"040115","locality":"Villarrica","region":"Guairá"}},"labels":["soccer","sport"],"duration":0,"start_local":"2024-04-12T19:30:00","end":"2024-04-12T23:30:00Z","end_local":"2024-04-12T19:30:00","updated":"2024-06-11T21:22:39Z"},{"title":"Division Profesional - Apertura - Club Guaraní vs Sol de América","description":"Sourced from predicthq.com","category":"sports","start":"2024-04-12T22:30:00Z","geo":{"geometry":{"coordinates":[-57.6160314097,-25.3033127117],"type":"Point"},"placekey":"@km8-g9h-bhq","address":{"country_code":"PY","formatted_address":"M9WM+MHH, Av. Eusebio Ayala, Asunción 001236, Paraguay","postcode":"001236","locality":"Asunción","region":"Asunción"}},"labels":["soccer","sport"],"duration":6815,"start_local":"2024-04-12T18:30:00","end":"2024-04-13T00:23:35Z","end_local":"2024-04-12T20:23:35","updated":"2024-06-05T04:37:55Z"},{"title":"Division Intermedia - Encarnación vs 3 de Febrero","description":"Sourced from predicthq.com","category":"sports","start":"2024-04-12T21:15:00Z","geo":{"geometry":{"coordinates":[-55.84311557,-27.321969947],"type":"Point"},"placekey":"@km6-99z-nyv","address":{"country_code":"PY","formatted_address":"M5H4+6PP, Encarnacion, Paraguay","locality":"Encarnacion","region":"Itapúa Department"}},"labels":["soccer","sport"],"duration":0,"start_local":"2024-04-12T17:15:00","end":"2024-04-12T21:15:00Z","end_local":"2024-04-12T17:15:00","updated":"2024-06-11T23:58:00Z"},{"title":"Megadeth","description":"Sourced from predicthq.com","category":"concerts","start":"2024-04-11T23:00:00Z","geo":{"geometry":{"coordinates":[-57.5847044076,-25.3167998199],"type":"Point"},"placekey":"@km8-g9g-66k","address":{"country_code":"PY","formatted_address":"MCJ6+FW, Asunción 001425, Paraguay","postcode":"001425","locality":"Asunción","region":"Asunción"}},"labels":["concert","music"],"duration":0,"start_local":"2024-04-11T19:00:00","end":"2024-04-11T23:00:00Z","end_local":"2024-04-11T19:00:00","updated":"2024-07-01T13:02:41Z"},{"title":"CONMEBOL Libertadores - Group Stage - Cerro Porteño vs Alianza Lima","description":"Sourced from predicthq.com","category":"sports","start":"2024-04-10T22:00:00Z","geo":{"geometry":{"coordinates":[-57.637399435,-25.299875903],"type":"Point"},"placekey":"@km8-gvq-zs5","address":{"country_code":"PY","formatted_address":"P927+22W, Av. Acuña de Figueroa, Asunción 001105, Paraguay","postcode":"001105","locality":"Asunción","region":"Asunción"}},"labels":["soccer","sport"],"duration":7033,"start_local":"2024-04-10T18:00:00","end":"2024-04-10T23:57:13Z","end_local":"2024-04-10T19:57:13","updated":"2024-06-05T00:21:41Z"},{"title":"CONMEBOL Libertadores - Group Stage - Libertad vs Deportivo Táchira","description":"Sourced from predicthq.com","category":"sports","start":"2024-04-10T00:00:00Z","geo":{"geometry":{"coordinates":[-57.611006498,-25.277772978],"type":"Point"},"placekey":"@km8-g98-kpv","address":{"country_code":"PY","formatted_address":"P9CQ+VHQ, Av. Gral. José Gervasio Artigas, Asunción, Paraguay","locality":"Asunción","region":"Asunción"}},"labels":["soccer","sport"],"duration":6617,"start_local":"2024-04-09T20:00:00","end":"2024-04-10T01:50:17Z","end_local":"2024-04-09T21:50:17","updated":"2024-06-05T08:45:29Z"},{"title":"Division Intermedia - Resistencia vs Pastoreo","description":"Sourced from predicthq.com","category":"sports","start":"2024-04-08T23:30:00Z","geo":{"geometry":{"coordinates":[-57.62552261352539,-25.279674463219955],"type":"Point"},"placekey":"@km8-gvj-5xq","address":{"country_code":"PY","formatted_address":"Fernando de Mompox y Zayas, Asunción 001212, Paraguay","postcode":"001212","locality":"Asunción","region":"Asunción"}},"labels":["soccer","sport"],"duration":0,"start_local":"2024-04-08T19:30:00","end":"2024-04-08T23:30:00Z","end_local":"2024-04-08T19:30:00","updated":"2024-06-12T04:11:12Z"},{"title":"Division Intermedia - Independiente FBC vs Guaireña","description":"Sourced from predicthq.com","category":"sports","start":"2024-04-08T21:15:00Z","geo":{"geometry":{"coordinates":[-57.5521067744,-25.2759688287],"type":"Point"},"placekey":"@km8-g75-kpv","address":{"country_code":"PY","formatted_address":"Salvador Del Mundo (Santisima Trinidad)\nCampo Grande, Asunción\nParaguay","locality":"Campo Grande, Asunción"}},"labels":["soccer","sport"],"duration":0,"start_local":"2024-04-08T17:15:00","end":"2024-04-08T21:15:00Z","end_local":"2024-04-08T17:15:00","updated":"2024-06-12T11:37:51Z"},{"title":"Division Profesional - Apertura - 2 de Mayo vs Sportivo Luqueño","description":"Sourced from predicthq.com","category":"sports","start":"2024-04-08T00:00:00Z","geo":{"geometry":{"coordinates":[-55.745889544487,-22.539423746076203],"type":"Point"},"placekey":"@kj3-ypr-z75","address":{"country_code":"PY","formatted_address":"F763+6MQ, Gral. Díaz 861, Pedro Juan Caballero 130106, Paraguay","postcode":"130106","locality":"Pedro Juan Caballero","region":"Amambay"}},"labels":["soccer","sport"],"duration":6900,"start_local":"2024-04-07T20:00:00","end":"2024-04-08T01:55:00Z","end_local":"2024-04-07T21:55:00","updated":"2024-06-05T02:50:42Z"},{"title":"Division Profesional - Apertura - Sol de América vs Olimpia","description":"Sourced from predicthq.com","category":"sports","start":"2024-04-07T21:30:00Z","geo":{"geometry":{"coordinates":[-57.6574033,-25.2920837],"type":"Point"},"placekey":"@km8-gvf-v9f","address":{"country_code":"PY","formatted_address":"Mayor Martinez, Asunción, Paraguay","locality":"Asunción","region":"Departamento Central"}},"labels":["soccer","sport"],"duration":6833,"start_local":"2024-04-07T17:30:00","end":"2024-04-07T23:23:53Z","end_local":"2024-04-07T19:23:53","updated":"2024-05-27T15:33:46Z"},{"title":"Division Intermedia - Rubio Ñú vs 12 de Junio VH","description":"Sourced from predicthq.com","category":"sports","start":"2024-04-07T14:00:00Z","geo":{"geometry":{"coordinates":[-57.57512927055359,-25.25754359913714],"type":"Point"},"placekey":"@km8-g7r-649","address":{"country_code":"PY","formatted_address":"Tte. Fernando Delvalle, Asunción 001519, Paraguay","postcode":"001519","locality":"Asunción","region":"Asunción"}},"labels":["soccer","sport"],"duration":0,"start_local":"2024-04-07T10:00:00","end":"2024-04-07T14:00:00Z","end_local":"2024-04-07T10:00:00","updated":"2024-06-12T05:06:42Z"},{"title":"Division Intermedia - Sportivo Carapeguá vs Deportivo Recoleta","description":"Sourced from predicthq.com","category":"sports","start":"2024-04-07T14:00:00Z","geo":{"geometry":{"coordinates":[-57.2348213,-25.7652089],"type":"Point"},"placekey":"@km5-d25-xt9","address":{"country_code":"PY","formatted_address":"6QQ7+PWR, Mariscal Francisco Solano López, Carapeguá 090506, Paraguay","postcode":"090506","locality":"Carapeguá","region":"Paraguarí"}},"labels":["soccer","sport"],"duration":0,"start_local":"2024-04-07T10:00:00","end":"2024-04-07T14:00:00Z","end_local":"2024-04-07T10:00:00","updated":"2024-06-12T00:51:21Z"},{"title":"Division Profesional - Apertura - Libertad vs Club Guaraní","description":"Sourced from predicthq.com","category":"sports","start":"2024-04-07T00:30:00Z","geo":{"geometry":{"coordinates":[-57.611006498,-25.277772978],"type":"Point"},"placekey":"@km8-g98-kpv","address":{"country_code":"PY","formatted_address":"P9CQ+VHQ, Av. Gral. José Gervasio Artigas, Asunción, Paraguay","locality":"Asunción","region":"Asunción"}},"labels":["soccer","sport"],"duration":6878,"start_local":"2024-04-06T20:30:00","end":"2024-04-07T02:24:38Z","end_local":"2024-04-06T22:24:38","updated":"2024-06-05T15:39:32Z"}]