[{"title":"International Coastal Symposium","description":"Sourced from predicthq.com","category":"conferences","start":"2024-09-23T21:00:00Z","geo":{"geometry":{"coordinates":[51.536152,25.318338],"type":"Point"},"placekey":"@9sj-q42-nyv","address":{"country_code":"QA","formatted_address":"Al Corniche Street, Doha, Qatar","locality":"Doha","region":"Doha Municipality"}},"labels":["conference"],"duration":345599,"start_local":"2024-09-24T00:00:00","end":"2024-09-27T20:59:59Z","end_local":"2024-09-27T23:59:59","updated":"2024-05-27T17:07:50Z"},{"title":"QS Discover Master's and MBA Fair in Doha","description":"Sourced from predicthq.com - Network with fellow students and leading universities from the US, UK, Germany and many more. Get a FREE Expert CV review.","category":"expos","start":"2024-09-23T14:30:00Z","geo":{"geometry":{"coordinates":[51.5078139,25.2800724],"type":"Point"},"placekey":"@9sj-q4p-zcq","address":{"country_code":"QA","formatted_address":"Ad Dawhah, Doha, Qatar","locality":"Ad Dawhah","region":"Doha"}},"labels":["business","expo"],"duration":10800,"start_local":"2024-09-23T17:30:00","end":"2024-09-23T17:30:00Z","end_local":"2024-09-23T20:30:00","updated":"2024-06-27T01:55:29Z"},{"title":"QS World MBA Tour Doha","description":"Sourced from predicthq.com","category":"expos","start":"2024-09-22T21:00:00Z","geo":{"geometry":{"coordinates":[51.5138304234,25.272343637],"type":"Point"},"placekey":"@9sj-q4r-rhq","address":{"country_code":"QA","formatted_address":"Salwa Rd. (C Ring Rd.)\nالدوحة\nقطر","locality":"الدوحة","region":"الدوحة"}},"labels":["expo"],"duration":86399,"start_local":"2024-09-23T00:00:00","end":"2024-09-23T20:59:59Z","end_local":"2024-09-23T23:59:59","updated":"2024-06-30T02:48:17Z"},{"title":"Middle East Produced Water Oilfield Symposium & Exhibition","description":"Sourced from predicthq.com","category":"expos","start":"2024-09-16T21:00:00Z","geo":{"geometry":{"coordinates":[51.549673,25.375952],"type":"Point"},"placekey":"@9sj-q5r-bc5","address":{"country_code":"QA","formatted_address":"The Pearl - Doha\nCosta Malaz Bay\nDoha\nQatar","locality":"Doha"}},"labels":["expo"],"duration":172799,"start_local":"2024-09-17T00:00:00","end":"2024-09-18T20:59:59Z","end_local":"2024-09-18T23:59:59","updated":"2024-06-16T06:15:31Z"},{"title":"ConteQ Expo","description":"Sourced from predicthq.com - ConteQ Expo is a dynamic and immersive event held at a distinguished convention center, showcasing cutting-edge technologies, innovations, and breakthrough ideas across diverse industries. It brings together industry leaders, entrepreneurs, and enthusiasts, providing a unique platform for networking, knowledge exchange, and exploration of the latest trends in business and technology.","category":"expos","start":"2024-09-15T21:00:00Z","geo":{"geometry":{"coordinates":[51.4374137,25.3224537],"type":"Point"},"placekey":"@9sj-q4g-hyv","address":{"country_code":"QA","formatted_address":"Al Luqta St, Ar Rayyan, Qatar","locality":"Ar Rayyan","region":"Al Rayyan Municipality"}},"labels":["expo"],"duration":259199,"start_local":"2024-09-16T00:00:00","end":"2024-09-18T20:59:59Z","end_local":"2024-09-18T23:59:59","updated":"2024-06-03T19:57:41Z"},{"title":"Middle East Franchise Fair","description":"Sourced from predicthq.com - The Middle East Franchise Fair is a dynamic expo event that brings together aspiring entrepreneurs and established franchisors from various industries. Attendees can explore diverse franchise opportunities, attend informative seminars, and network with industry experts under one roof at the prestigious Doha Exhibition and Convention Center.","category":"expos","start":"2024-09-12T06:00:00Z","geo":{"geometry":{"coordinates":[51.5308517,25.3223339],"type":"Point"},"placekey":"@9sj-q3f-ygk","address":{"country_code":"QA","formatted_address":"Doha, Qatar","locality":"Doha","region":"Doha"}},"labels":["expo"],"duration":205200,"start_local":"2024-09-12T09:00:00","end":"2024-09-14T15:00:00Z","end_local":"2024-09-14T18:00:00","updated":"2024-05-24T03:28:12Z"},{"title":"International Conference on Economics and Business Research","description":"Sourced from predicthq.com","category":"conferences","start":"2024-09-09T21:00:00Z","geo":{"geometry":{"coordinates":[51.528003,25.283394],"type":"Point"},"placekey":"@9sj-q4m-y35","address":{"country_code":"QA","formatted_address":"Doha, Qatar","locality":"Doha","region":"Doha"}},"labels":["conference"],"duration":172799,"start_local":"2024-09-10T00:00:00","end":"2024-09-11T20:59:59Z","end_local":"2024-09-11T23:59:59","updated":"2024-06-16T04:18:53Z"},{"title":"China Visitors Summit","description":"Sourced from predicthq.com","category":"conferences","start":"2024-09-09T06:00:00Z","geo":{"geometry":{"coordinates":[51.513112,25.276187],"type":"Point"},"placekey":"@9sj-q4r-rx5","address":{"country_code":"QA","formatted_address":"7GG7+C7, Doha, Qatar","locality":"Doha","region":"Doha"}},"labels":["conference"],"duration":118800,"start_local":"2024-09-09T09:00:00","end":"2024-09-10T15:00:00Z","end_local":"2024-09-10T18:00:00","updated":"2024-06-02T09:47:07Z"},{"title":"Apply for U.S. Green Card. $800K EB-5 Investment – Doha, Qatar","description":"Sourced from predicthq.com - Get all the details on how to apply for a U.S. Green Card through an $800K EB-5 Investment at our in-person event in Doha on July 30, 2024","category":"conferences","start":"2024-07-30T07:30:00Z","geo":{"geometry":{"coordinates":[51.5281,25.325263],"type":"Point"},"placekey":"@9sj-q3f-syv","address":{"country_code":"QA","formatted_address":"8GGH+46J, Omar Al Mukhtar St, Doha, Qatar","locality":"Doha","region":"Doha Municipality"}},"labels":["business","conference"],"duration":27000,"start_local":"2024-07-30T10:30:00","end":"2024-07-30T15:00:00Z","end_local":"2024-07-30T18:00:00","updated":"2024-06-29T07:32:09Z"},{"title":"Basketball in Wakra Court - Indoor","description":"Sourced from predicthq.com - Hey guys, come join us for some indoor basketball fun at Wakra Court! Let's shoot some hoops and have a blast together!","category":"community","start":"2024-07-27T04:30:00Z","geo":{"geometry":{"coordinates":[51.5844139,25.1473054],"type":"Point"},"placekey":"@9sj-qg3-gtv","address":{"country_code":"QA","formatted_address":"Al Wakrah, Al Wakrah Municipality, Qatar","locality":"Al Wakrah","region":"Al Wakrah Municipality"}},"labels":["community","sport"],"duration":9000,"start_local":"2024-07-27T07:30:00","end":"2024-07-27T07:00:00Z","end_local":"2024-07-27T10:00:00","updated":"2024-07-04T05:26:31Z"},{"title":"Dubai Real Estate Event in Qatar Book Your Ticket For Free","description":"Sourced from predicthq.com - Join us at the Dubai Real Estate Event in Qatar, book your free ticket now for an exclusive experience!","category":"expos","start":"2024-07-26T07:00:00Z","geo":{"geometry":{"coordinates":[51.5333014,25.32425509999999],"type":"Point"},"placekey":"@9sj-q3f-x5z","address":{"country_code":"QA","formatted_address":"Conference Centre, Doha, Qatar","locality":"Doha","region":"Doha Municipality"}},"labels":["business","expo"],"duration":122400,"start_local":"2024-07-26T10:00:00","end":"2024-07-27T17:00:00Z","end_local":"2024-07-27T20:00:00","updated":"2024-07-04T08:01:01Z"},{"title":"Algorythm™️| Navigating the Dynamic AI Terrain","description":"Sourced from predicthq.com - \"Success in creating AI would be the biggest event in human history, unfortunately, it might also be the last.\" - Elon Musk","category":"conferences","start":"2024-07-18T16:00:00Z","geo":{"geometry":{"coordinates":[51.53103979999999,25.2854473],"type":"Point"},"placekey":"@9sj-q4n-35z","address":{"country_code":"QA","formatted_address":"Doha, Doha Municipality, Qatar","locality":"Doha","region":"Doha Municipality"}},"labels":["conference","science","technology"],"duration":7200,"start_local":"2024-07-18T19:00:00","end":"2024-07-18T18:00:00Z","end_local":"2024-07-18T21:00:00","updated":"2024-06-13T00:36:27Z"},{"title":"MAXI MERAKI","description":"Sourced from predicthq.com","category":"concerts","start":"2024-07-11T20:00:00Z","geo":{"geometry":{"coordinates":[51.52583,25.32614],"type":"Point"},"placekey":"@9sj-q3f-qvf","address":{"country_code":"QA","formatted_address":"West Bay, Doha, Qatar","locality":"Doha","region":"Doha Municipality"}},"labels":["concert","music"],"duration":0,"start_local":"2024-07-11T23:00:00","end":"2024-07-11T20:00:00Z","end_local":"2024-07-11T23:00:00","updated":"2024-06-11T02:13:36Z"},{"title":"International Conference on Civil and Environmental Engineering","description":"Sourced from predicthq.com","category":"conferences","start":"2024-07-10T06:00:00Z","geo":{"geometry":{"coordinates":[51.528003,25.283394],"type":"Point"},"placekey":"@9sj-q4m-y35","address":{"country_code":"QA","formatted_address":"Doha, Qatar","locality":"Doha","region":"Doha"}},"labels":["conference"],"duration":118800,"start_local":"2024-07-10T09:00:00","end":"2024-07-11T15:00:00Z","end_local":"2024-07-11T18:00:00","updated":"2024-05-28T01:33:46Z"},{"title":"International Conference on Advanced Research in Cloud Computing and Computer Science","description":"Sourced from predicthq.com","category":"conferences","start":"2024-07-08T21:00:00Z","geo":{"geometry":{"coordinates":[51.538893,25.285748],"type":"Point"},"placekey":"@9sj-q4m-m8v","address":{"country_code":"QA","formatted_address":"Ibn Aqeel Street Near Gold Souq Doha Qatar Doha Qatar","locality":"Doha"}},"labels":["conference"],"duration":172799,"start_local":"2024-07-09T00:00:00","end":"2024-07-10T20:59:59Z","end_local":"2024-07-10T23:59:59","updated":"2024-06-01T00:52:11Z"},{"title":"KLINIKUM+| HealthTech for the Tech-Savvy Doctor?","description":"Sourced from predicthq.com - Prepare to be inspired, informed, and equipped with the knowledge and tools to embrace the future of healthcare, happy healing!","category":"conferences","start":"2024-06-27T07:00:00Z","geo":{"geometry":{"coordinates":[51.53103979999999,25.2854473],"type":"Point"},"placekey":"@9sj-q4n-35z","address":{"country_code":"QA","formatted_address":"Doha, Doha Municipality, Qatar","locality":"Doha","region":"Doha Municipality"}},"labels":["conference","science","technology"],"duration":7200,"start_local":"2024-06-27T10:00:00","end":"2024-06-27T09:00:00Z","end_local":"2024-06-27T12:00:00","updated":"2024-06-04T00:07:11Z"},{"title":"Finnovex Qatar","description":"Sourced from predicthq.com","category":"conferences","start":"2024-06-24T21:00:00Z","geo":{"geometry":{"coordinates":[51.556829,25.285499],"type":"Point"},"placekey":"@9sj-qhg-cyv","address":{"country_code":"QA","formatted_address":"Ras Abu Abboud St, Doha, Qatar","locality":"Doha","region":"Doha Municipality"}},"labels":["conference"],"duration":172799,"start_local":"2024-06-25T00:00:00","end":"2024-06-26T20:59:59Z","end_local":"2024-06-26T23:59:59","updated":"2024-06-02T11:17:35Z"},{"title":"Certified Fire Protection Specialist (CFPS) Exam Prep Course (FREE 1-TIME)","description":"Sourced from predicthq.com - Course Timings:\nFriday, 3:30 PM to 6:30 PM\nNOTE: FREE FOR ONE-TIME SEAT IN ONLY. TERMS AND CONDITIONS APPLY.","category":"conferences","start":"2024-06-21T12:30:00Z","geo":{"geometry":{"coordinates":[51.51555279999999,25.2671057],"type":"Point"},"placekey":"@9sj-q4r-2p9","address":{"country_code":"QA","formatted_address":"C Ring Road, Doha, Qatar","locality":"Doha","region":"Doha Municipality"}},"labels":["conference","education","family"],"duration":10800,"start_local":"2024-06-21T15:30:00","end":"2024-06-21T15:30:00Z","end_local":"2024-06-21T18:30:00","updated":"2024-07-02T08:30:40Z"},{"title":"FREE Certified Maintenance and Reliability Professional 1-Day Training","description":"Sourced from predicthq.com - Come and learn all about becoming a Certified Maintenance and Reliability Professional (CMRP). FREE one-time event!","category":"conferences","start":"2024-06-20T16:00:00Z","geo":{"geometry":{"coordinates":[51.5206023,25.2643662],"type":"Point"},"placekey":"@9sj-q4r-73q","address":{"country_code":"QA","formatted_address":"الطريق الدائري الثالث, الدوحة, Qatar","locality":"الدوحة","region":"بلدية الدوحه"}},"labels":["business","conference"],"duration":10800,"start_local":"2024-06-20T19:00:00","end":"2024-06-20T19:00:00Z","end_local":"2024-06-20T22:00:00","updated":"2024-06-21T03:52:14Z"},{"title":"First Ladies Forum and Economic Development Summit Qatar 2024","description":"Sourced from predicthq.com - Join us at the First Ladies Forum and Economic Development Summit Qatar 2024, where influential women gather to discuss and drive forward ec","category":"conferences","start":"2024-06-20T07:00:00Z","geo":{"geometry":{"coordinates":[51.53103979999999,25.2854473],"type":"Point"},"placekey":"@9sj-q4n-35z","address":{"country_code":"QA","formatted_address":"Doha, Doha Municipality, Qatar","locality":"Doha","region":"Doha Municipality"}},"labels":["business","conference"],"duration":352800,"start_local":"2024-06-20T10:00:00","end":"2024-06-24T09:00:00Z","end_local":"2024-06-24T12:00:00","updated":"2024-06-04T00:46:45Z"},{"title":"FREE Certified Maintenance and Reliability Professional 1-Day Training","description":"Sourced from predicthq.com - Come and learn all about becoming a Certified Maintenance and Reliability Professional (CMRP). FREE one-time event!","category":"conferences","start":"2024-06-13T16:00:00Z","geo":{"geometry":{"coordinates":[51.5206023,25.2643662],"type":"Point"},"placekey":"@9sj-q4r-73q","address":{"country_code":"QA","formatted_address":"الطريق الدائري الثالث, الدوحة, Qatar","locality":"الدوحة","region":"بلدية الدوحه"}},"labels":["business","conference"],"duration":10800,"start_local":"2024-06-13T19:00:00","end":"2024-06-13T19:00:00Z","end_local":"2024-06-13T22:00:00","updated":"2024-06-13T00:57:45Z"},{"title":"Women's Circle: Women in Career: Empowered You","description":"Sourced from predicthq.com - QAR 100 per person","category":"conferences","start":"2024-06-12T14:30:00Z","geo":{"geometry":{"coordinates":[51.534893,25.3174877],"type":"Point"},"placekey":"@9sj-q4v-dgk","address":{"country_code":"QA","formatted_address":"Doha, Doha Municipality, Qatar","locality":"Doha","region":"Doha Municipality"}},"labels":["conference"],"duration":7200,"start_local":"2024-06-12T17:30:00","end":"2024-06-12T16:30:00Z","end_local":"2024-06-12T19:30:00","updated":"2024-06-04T00:47:51Z"},{"title":"AFC World Cup Qualifiers - 2nd Round - Lebanon vs Bangladesh","description":"Sourced from predicthq.com","category":"sports","start":"2024-06-11T16:00:00Z","geo":{"geometry":{"coordinates":[51.4480606,25.2635251],"type":"Point"},"placekey":"@9sj-qdk-8d9","address":{"country_code":"QA","formatted_address":"7C7X+C6X, Al Waab St, Doha, Qatar","locality":"Doha","region":"Al Rayyan Municipality"}},"labels":["soccer","sport"],"duration":6781,"start_local":"2024-06-11T19:00:00","end":"2024-06-11T17:53:01Z","end_local":"2024-06-11T20:53:01","updated":"2024-06-12T12:23:00Z"},{"title":"AFC World Cup Qualifiers - 2nd Round - Qatar vs India","description":"Sourced from predicthq.com","category":"sports","start":"2024-06-11T15:45:00Z","geo":{"geometry":{"coordinates":[51.483771899999965,25.2668113],"type":"Point"},"placekey":"@9sj-qdb-bc5","address":{"country_code":"QA","formatted_address":"30 Ahmed BinTaymiya St, Doha, Qatar","locality":"Doha","region":"Al Rayyan Municipality"}},"labels":["soccer","sport"],"duration":7032,"start_local":"2024-06-11T18:45:00","end":"2024-06-11T17:42:12Z","end_local":"2024-06-11T20:42:12","updated":"2024-06-12T06:13:46Z"},{"title":"IDC Security Roadshow","description":"Sourced from predicthq.com","category":"expos","start":"2024-06-10T06:00:00Z","geo":{"geometry":{"coordinates":[51.52813209999999,25.3771678],"type":"Point"},"placekey":"@9sj-q56-6p9","address":{"country_code":"QA","formatted_address":"West Bay Lagoon Street, Doha, Qatar","locality":"Doha","region":"Doha"}},"labels":["expo"],"duration":32400,"start_local":"2024-06-10T09:00:00","end":"2024-06-10T15:00:00Z","end_local":"2024-06-10T18:00:00","updated":"2024-05-29T00:16:34Z"},{"title":"International Conference on E-Education, E-Business, E-Management and E-Learning","description":"Sourced from predicthq.com","category":"conferences","start":"2024-06-09T21:00:00Z","geo":{"geometry":{"coordinates":[51.528003,25.283394],"type":"Point"},"placekey":"@9sj-q4m-y35","address":{"country_code":"QA","formatted_address":"Doha, Qatar","locality":"Doha","region":"Doha"}},"labels":["conference"],"duration":172799,"start_local":"2024-06-10T00:00:00","end":"2024-06-11T20:59:59Z","end_local":"2024-06-11T23:59:59","updated":"2024-05-27T11:47:26Z"},{"title":"International Conference on Innovative Engineering Technologies","description":"Sourced from predicthq.com","category":"conferences","start":"2024-06-09T21:00:00Z","geo":{"geometry":{"coordinates":[51.528003,25.283394],"type":"Point"},"placekey":"@9sj-q4m-y35","address":{"country_code":"QA","formatted_address":"Doha, Qatar","locality":"Doha","region":"Doha"}},"labels":["conference"],"duration":172799,"start_local":"2024-06-10T00:00:00","end":"2024-06-11T20:59:59Z","end_local":"2024-06-11T23:59:59","updated":"2024-05-27T16:59:19Z"},{"title":"Project Management Professionals ( PMP , PMI-USA)","description":"Sourced from predicthq.com - Get ready to level up your project management skills with PMP certification training from PMI-USA at our in-person event!","category":"conferences","start":"2024-06-08T16:00:00Z","geo":{"geometry":{"coordinates":[51.5192309,25.26711],"type":"Point"},"placekey":"@9sj-q4q-m49","address":{"country_code":"QA","formatted_address":"Doha, Doha Municipality, Qatar","locality":"Doha","region":"Doha Municipality"}},"labels":["business","conference"],"duration":10800,"start_local":"2024-06-08T19:00:00","end":"2024-06-08T19:00:00Z","end_local":"2024-06-08T22:00:00","updated":"2024-06-04T03:50:21Z"},{"title":"AFC World Cup Qualifiers - 2nd Round - Palestine vs Lebanon","description":"Sourced from predicthq.com","category":"sports","start":"2024-06-06T16:00:00Z","geo":{"geometry":{"coordinates":[51.483771899999965,25.2668113],"type":"Point"},"placekey":"@9sj-qdb-bc5","address":{"country_code":"QA","formatted_address":"30 Ahmed BinTaymiya St, Doha, Qatar","locality":"Doha","region":"Al Rayyan Municipality"}},"labels":["soccer","sport"],"duration":7133,"start_local":"2024-06-06T19:00:00","end":"2024-06-06T17:58:53Z","end_local":"2024-06-06T20:58:53","updated":"2024-06-06T23:49:31Z"},{"title":"FREE Certified Maintenance and Reliability Professional 1-Day Training","description":"Sourced from predicthq.com - Come and learn all about becoming a Certified Maintenance and Reliability Professional (CMRP). FREE one-time event!","category":"conferences","start":"2024-06-06T16:00:00Z","geo":{"geometry":{"coordinates":[51.5206023,25.2643662],"type":"Point"},"placekey":"@9sj-q4r-73q","address":{"country_code":"QA","formatted_address":"الطريق الدائري الثالث, الدوحة, Qatar","locality":"الدوحة","region":"بلدية الدوحه"}},"labels":["business","conference"],"duration":10800,"start_local":"2024-06-06T19:00:00","end":"2024-06-06T19:00:00Z","end_local":"2024-06-06T22:00:00","updated":"2024-06-06T01:32:55Z"},{"title":"Passport & Permanent Residency Meet up  -Qatar-June 06","description":"Sourced from predicthq.com - Come join us for a meet up in Qatar on June 06th to discuss all things related to passports and permanent residency!","category":"conferences","start":"2024-06-06T07:00:00Z","geo":{"geometry":{"coordinates":[51.5473273,25.2693943],"type":"Point"},"placekey":"@9sj-qhk-ndv","address":{"country_code":"QA","formatted_address":"Airport Street, الدوحة, Qatar","locality":"الدوحة","region":"بلدية الدوحه"}},"labels":["business","conference"],"duration":0,"start_local":"2024-06-06T10:00:00","end":"2024-06-06T07:00:00Z","end_local":"2024-06-06T10:00:00","updated":"2024-05-30T01:17:57Z"},{"title":"West Asia Super League - Final - Al Riyadi vs Sagesse","description":"Sourced from predicthq.com","category":"sports","start":"2024-06-01T15:00:00Z","geo":{"geometry":{"coordinates":[51.46292212859347,25.481343447778293],"type":"Point"},"placekey":"@9sj-qk3-h5z","address":{"country_code":"QA","formatted_address":"Al Masrouhiya, 1704, Lusail, Qatar","locality":"Lusail"}},"labels":["basketball","sport"],"duration":0,"start_local":"2024-06-01T18:00:00","end":"2024-06-01T15:00:00Z","end_local":"2024-06-01T18:00:00","updated":"2024-06-12T05:39:03Z"},{"title":"West Asia Super League - 3rd Place Final - Shahrdari Gorgan vs Kuwait","description":"Sourced from predicthq.com","category":"sports","start":"2024-06-01T12:00:00Z","geo":{"geometry":{"coordinates":[51.46292212859347,25.481343447778293],"type":"Point"},"placekey":"@9sj-qk3-h5z","address":{"country_code":"QA","formatted_address":"Al Masrouhiya, 1704, Lusail, Qatar","locality":"Lusail"}},"labels":["basketball","sport"],"duration":0,"start_local":"2024-06-01T15:00:00","end":"2024-06-01T12:00:00Z","end_local":"2024-06-01T15:00:00","updated":"2024-06-11T21:49:20Z"},{"title":"Kevay Stones Pvt. Ltd.","description":"Sourced from predicthq.com - Get ready to discover the latest trends in the jewelry industry at Kevay Stones Pvt. Ltd. event - it's going to be a sparkling experience!","category":"expos","start":"2024-06-01T07:00:00Z","geo":{"geometry":{"coordinates":[51.53103979999999,25.2854473],"type":"Point"},"placekey":"@9sj-q4n-35z","address":{"country_code":"QA","formatted_address":"Doha, Doha Municipality, Qatar","locality":"Doha","region":"Doha Municipality"}},"labels":["business","expo"],"duration":7200,"start_local":"2024-06-01T10:00:00","end":"2024-06-01T09:00:00Z","end_local":"2024-06-01T12:00:00","updated":"2024-06-04T04:31:19Z"},{"title":"West Asia Super League - Semi-finals - Kuwait vs Sagesse","description":"Sourced from predicthq.com","category":"sports","start":"2024-05-31T15:00:00Z","geo":{"geometry":{"coordinates":[51.46292212859347,25.481343447778293],"type":"Point"},"placekey":"@9sj-qk3-h5z","address":{"country_code":"QA","formatted_address":"Al Masrouhiya, 1704, Lusail, Qatar","locality":"Lusail"}},"labels":["basketball","sport"],"duration":0,"start_local":"2024-05-31T18:00:00","end":"2024-05-31T15:00:00Z","end_local":"2024-05-31T18:00:00","updated":"2024-06-11T20:53:01Z"},{"title":"West Asia Super League - Semi-finals - Al Riyadi vs Shahrdari Gorgan","description":"Sourced from predicthq.com","category":"sports","start":"2024-05-31T12:00:00Z","geo":{"geometry":{"coordinates":[51.46292212859347,25.481343447778293],"type":"Point"},"placekey":"@9sj-qk3-h5z","address":{"country_code":"QA","formatted_address":"Al Masrouhiya, 1704, Lusail, Qatar","locality":"Lusail"}},"labels":["basketball","sport"],"duration":0,"start_local":"2024-05-31T15:00:00","end":"2024-05-31T12:00:00Z","end_local":"2024-05-31T15:00:00","updated":"2024-06-11T22:50:22Z"},{"title":"How the latest Aus Budget will impact the property market & investors","description":"Sourced from predicthq.com - Find out what's in store for investors in the coming year from the Federal & Vic Budgets (8pm SIN/KUL, 5:30pm IST)","category":"conferences","start":"2024-05-30T12:00:00Z","geo":{"geometry":{"coordinates":[51.53103979999999,25.2854473],"type":"Point"},"placekey":"@9sj-q4n-35z","address":{"country_code":"QA","formatted_address":"Doha, Doha Municipality, Qatar","locality":"Doha","region":"Doha Municipality"}},"labels":["business","conference"],"duration":2700,"start_local":"2024-05-30T15:00:00","end":"2024-05-30T12:45:00Z","end_local":"2024-05-30T15:45:00","updated":"2024-05-30T01:53:18Z"},{"title":"West Asia Super League - Final 8 - Al Riyadi vs Manama","description":"Sourced from predicthq.com","category":"sports","start":"2024-05-29T18:00:00Z","geo":{"geometry":{"coordinates":[51.46292212859347,25.481343447778293],"type":"Point"},"placekey":"@9sj-qk3-h5z","address":{"country_code":"QA","formatted_address":"Al Masrouhiya, 1704, Lusail, Qatar","locality":"Lusail"}},"labels":["basketball","sport"],"duration":0,"start_local":"2024-05-29T21:00:00","end":"2024-05-29T18:00:00Z","end_local":"2024-05-29T21:00:00","updated":"2024-06-12T01:33:36Z"},{"title":"West Asia Super League - Final 8 - Sagesse vs Astana","description":"Sourced from predicthq.com","category":"sports","start":"2024-05-29T15:00:00Z","geo":{"geometry":{"coordinates":[51.46292212859347,25.481343447778293],"type":"Point"},"placekey":"@9sj-qk3-h5z","address":{"country_code":"QA","formatted_address":"Al Masrouhiya, 1704, Lusail, Qatar","locality":"Lusail"}},"labels":["basketball","sport"],"duration":0,"start_local":"2024-05-29T18:00:00","end":"2024-05-29T15:00:00Z","end_local":"2024-05-29T18:00:00","updated":"2024-06-12T01:52:35Z"},{"title":"West Asia Super League - Final 8 - Kuwait vs Shahrdari Gorgan","description":"Sourced from predicthq.com","category":"sports","start":"2024-05-28T18:00:00Z","geo":{"geometry":{"coordinates":[51.46292212859347,25.481343447778293],"type":"Point"},"placekey":"@9sj-qk3-h5z","address":{"country_code":"QA","formatted_address":"Al Masrouhiya, 1704, Lusail, Qatar","locality":"Lusail"}},"labels":["basketball","sport"],"duration":0,"start_local":"2024-05-28T21:00:00","end":"2024-05-28T18:00:00Z","end_local":"2024-05-28T21:00:00","updated":"2024-06-12T14:47:51Z"},{"title":"West Asia Super League - Final 8 - Kazma vs Tamil Nadu","description":"Sourced from predicthq.com","category":"sports","start":"2024-05-28T15:00:00Z","geo":{"geometry":{"coordinates":[51.46292212859347,25.481343447778293],"type":"Point"},"placekey":"@9sj-qk3-h5z","address":{"country_code":"QA","formatted_address":"Al Masrouhiya, 1704, Lusail, Qatar","locality":"Lusail"}},"labels":["basketball","sport"],"duration":0,"start_local":"2024-05-28T18:00:00","end":"2024-05-28T15:00:00Z","end_local":"2024-05-28T18:00:00","updated":"2024-06-12T11:58:48Z"},{"title":"R/E Agents - partner with us to make upto $1m in Bonus with AU property","description":"Sourced from predicthq.com - Find out how partnering with the right Australian Property Developer can earn your business upto AU$1m in bonuses every year","category":"conferences","start":"2024-05-28T07:00:00Z","geo":{"geometry":{"coordinates":[51.53103979999999,25.2854473],"type":"Point"},"placekey":"@9sj-q4n-35z","address":{"country_code":"QA","formatted_address":"Doha, Doha Municipality, Qatar","locality":"Doha","region":"Doha Municipality"}},"labels":["business","conference"],"duration":2700,"start_local":"2024-05-28T10:00:00","end":"2024-05-28T07:45:00Z","end_local":"2024-05-28T10:45:00","updated":"2024-05-23T01:51:22Z"},{"title":"West Asia Super League - Final 8 - Sagesse vs Al Riyadi","description":"Sourced from predicthq.com","category":"sports","start":"2024-05-27T18:00:00Z","geo":{"geometry":{"coordinates":[51.46292212859347,25.481343447778293],"type":"Point"},"placekey":"@9sj-qk3-h5z","address":{"country_code":"QA","formatted_address":"Al Masrouhiya, 1704, Lusail, Qatar","locality":"Lusail"}},"labels":["basketball","sport"],"duration":0,"start_local":"2024-05-27T21:00:00","end":"2024-05-27T18:00:00Z","end_local":"2024-05-27T21:00:00","updated":"2024-06-12T08:53:36Z"},{"title":"West Asia Super League - Final 8 - Astana vs Manama","description":"Sourced from predicthq.com","category":"sports","start":"2024-05-27T15:00:00Z","geo":{"geometry":{"coordinates":[51.46292212859347,25.481343447778293],"type":"Point"},"placekey":"@9sj-qk3-h5z","address":{"country_code":"QA","formatted_address":"Al Masrouhiya, 1704, Lusail, Qatar","locality":"Lusail"}},"labels":["basketball","sport"],"duration":0,"start_local":"2024-05-27T18:00:00","end":"2024-05-27T15:00:00Z","end_local":"2024-05-27T18:00:00","updated":"2024-06-12T03:42:28Z"},{"title":"Project Qatar","description":"Sourced from predicthq.com","category":"expos","start":"2024-05-26T21:00:00Z","geo":{"geometry":{"coordinates":[51.5308517,25.3223339],"type":"Point"},"placekey":"@9sj-q3f-ygk","address":{"country_code":"QA","formatted_address":"Doha, Doha Municipality, Qatar","locality":"Doha","region":"Doha Municipality"}},"labels":["construction","expo","technology"],"duration":345599,"start_local":"2024-05-27T00:00:00","end":"2024-05-30T20:59:59Z","end_local":"2024-05-30T23:59:59","updated":"2024-06-05T12:26:55Z"},{"title":"West Asia Super League - Final 8 - Al Riyadi vs Astana","description":"Sourced from predicthq.com","category":"sports","start":"2024-05-26T18:00:00Z","geo":{"geometry":{"coordinates":[51.46292212859347,25.481343447778293],"type":"Point"},"placekey":"@9sj-qk3-h5z","address":{"country_code":"QA","formatted_address":"Al Masrouhiya, 1704, Lusail, Qatar","locality":"Lusail"}},"labels":["basketball","sport"],"duration":0,"start_local":"2024-05-26T21:00:00","end":"2024-05-26T18:00:00Z","end_local":"2024-05-26T21:00:00","updated":"2024-06-12T17:00:44Z"},{"title":"West Asia Super League - Final 8 - Kazma vs Kuwait","description":"Sourced from predicthq.com","category":"sports","start":"2024-05-26T15:00:00Z","geo":{"geometry":{"coordinates":[51.46292212859347,25.481343447778293],"type":"Point"},"placekey":"@9sj-qk3-h5z","address":{"country_code":"QA","formatted_address":"Al Masrouhiya, 1704, Lusail, Qatar","locality":"Lusail"}},"labels":["basketball","sport"],"duration":0,"start_local":"2024-05-26T18:00:00","end":"2024-05-26T15:00:00Z","end_local":"2024-05-26T18:00:00","updated":"2024-06-12T13:08:15Z"},{"title":"West Asia Super League - Final 8 - Tamil Nadu vs Shahrdari Gorgan","description":"Sourced from predicthq.com","category":"sports","start":"2024-05-26T12:00:00Z","geo":{"geometry":{"coordinates":[51.46292212859347,25.481343447778293],"type":"Point"},"placekey":"@9sj-qk3-h5z","address":{"country_code":"QA","formatted_address":"Al Masrouhiya, 1704, Lusail, Qatar","locality":"Lusail"}},"labels":["basketball","sport"],"duration":0,"start_local":"2024-05-26T15:00:00","end":"2024-05-26T12:00:00Z","end_local":"2024-05-26T15:00:00","updated":"2024-06-12T08:50:00Z"},{"title":"West Asia Super League - Final 8 - Manama vs Sagesse","description":"Sourced from predicthq.com","category":"sports","start":"2024-05-25T18:00:00Z","geo":{"geometry":{"coordinates":[51.46292212859347,25.481343447778293],"type":"Point"},"placekey":"@9sj-qk3-h5z","address":{"country_code":"QA","formatted_address":"Al Masrouhiya, 1704, Lusail, Qatar","locality":"Lusail"}},"labels":["basketball","sport"],"duration":0,"start_local":"2024-05-25T21:00:00","end":"2024-05-25T18:00:00Z","end_local":"2024-05-25T21:00:00","updated":"2024-06-12T03:49:43Z"},{"title":"West Asia Super League - Final 8 - Shahrdari Gorgan vs Kazma","description":"Sourced from predicthq.com","category":"sports","start":"2024-05-25T15:00:00Z","geo":{"geometry":{"coordinates":[51.46292212859347,25.481343447778293],"type":"Point"},"placekey":"@9sj-qk3-h5z","address":{"country_code":"QA","formatted_address":"Al Masrouhiya, 1704, Lusail, Qatar","locality":"Lusail"}},"labels":["basketball","sport"],"duration":0,"start_local":"2024-05-25T18:00:00","end":"2024-05-25T15:00:00Z","end_local":"2024-05-25T18:00:00","updated":"2024-06-11T21:29:31Z"},{"title":"West Asia Super League - Final 8 - Kuwait vs Tamil Nadu","description":"Sourced from predicthq.com","category":"sports","start":"2024-05-25T12:00:00Z","geo":{"geometry":{"coordinates":[51.46292212859347,25.481343447778293],"type":"Point"},"placekey":"@9sj-qk3-h5z","address":{"country_code":"QA","formatted_address":"Al Masrouhiya, 1704, Lusail, Qatar","locality":"Lusail"}},"labels":["basketball","sport"],"duration":0,"start_local":"2024-05-25T15:00:00","end":"2024-05-25T12:00:00Z","end_local":"2024-05-25T15:00:00","updated":"2024-06-12T07:06:40Z"},{"title":"Certified Facility Manager (CFM -USA)","description":"Sourced from predicthq.com - Get certified as a Facility Manager (CFM - USA) and boost your career in the field of facilities management!","category":"conferences","start":"2024-05-24T11:00:00Z","geo":{"geometry":{"coordinates":[51.5194329,25.2680137],"type":"Point"},"placekey":"@9sj-q4q-m49","address":{"country_code":"QA","formatted_address":"الدوحة, بلدية الدوحه, Qatar","locality":"الدوحة","region":"بلدية الدوحه"}},"labels":["business","conference"],"duration":16200,"start_local":"2024-05-24T14:00:00","end":"2024-05-24T15:30:00Z","end_local":"2024-05-24T18:30:00","updated":"2024-06-05T15:00:27Z"},{"title":"Passport & Permanent Residency Meet up  -Qatar-May 24&25","description":"Sourced from predicthq.com - Come join us for a meet up in Qatar on May 24th & 25th to discuss all things related to passports and permanent residency!","category":"conferences","start":"2024-05-24T07:00:00Z","geo":{"geometry":{"coordinates":[51.5570049,25.2524713],"type":"Point"},"placekey":"@9sj-qh8-2zf","address":{"country_code":"QA","formatted_address":"Doha, Doha Municipality, Qatar","locality":"Doha","region":"Doha Municipality"}},"labels":["business","conference"],"duration":0,"start_local":"2024-05-24T10:00:00","end":"2024-05-24T07:00:00Z","end_local":"2024-05-24T10:00:00","updated":"2024-05-23T01:22:25Z"},{"title":"Emir Cup - Final - Al-Arabi vs Al Sadd","description":"Sourced from predicthq.com","category":"sports","start":"2024-05-23T15:30:00Z","geo":{"geometry":{"coordinates":[51.444496,25.345526],"type":"Point"},"placekey":"@9sj-qt7-yd9","address":{"country_code":"QA","formatted_address":"Al Maszhabiliya Street, Al Gharrafa, Doha, Qatar","locality":"Doha"}},"labels":["basketball","sport"],"duration":0,"start_local":"2024-05-23T18:30:00","end":"2024-05-23T15:30:00Z","end_local":"2024-05-23T18:30:00","updated":"2024-06-12T12:14:51Z"},{"title":"Certified Maintenance and Reliability Professional (CMRP) Exam Prep Course","description":"Sourced from predicthq.com - Come and learn all about becoming a Certified Maintenance and Reliability Professional (CMRP). FREE introductory, one-time event!","category":"conferences","start":"2024-05-23T15:30:00Z","geo":{"geometry":{"coordinates":[51.5206023,25.2643662],"type":"Point"},"placekey":"@9sj-q4r-73q","address":{"country_code":"QA","formatted_address":"الطريق الدائري الثالث, الدوحة, Qatar","locality":"الدوحة","region":"بلدية الدوحه"}},"labels":["business","conference"],"duration":10800,"start_local":"2024-05-23T18:30:00","end":"2024-05-23T18:30:00Z","end_local":"2024-05-23T21:30:00","updated":"2024-05-23T02:18:16Z"},{"title":"Finnovex Qatar","description":"Sourced from predicthq.com","category":"conferences","start":"2024-05-22T21:00:00Z","geo":{"geometry":{"coordinates":[51.556829,25.285499],"type":"Point"},"placekey":"@9sj-qhg-cyv","address":{"country_code":"QA","formatted_address":"Ras Abu Abboud St, Doha, Qatar","locality":"Doha","region":"Doha Municipality"}},"labels":["conference"],"duration":86399,"start_local":"2024-05-23T00:00:00","end":"2024-05-23T20:59:59Z","end_local":"2024-05-23T23:59:59","updated":"2024-06-05T03:44:02Z"},{"title":"Qatar AI Summit 2024","description":"Sourced from predicthq.com - Qatar AI Summit, a groundbreaking initiative set to unfold on May 22, 2024. With the resounding success of the Kingdom AI Summit in KSA.","category":"conferences","start":"2024-05-22T05:30:00Z","geo":{"geometry":{"coordinates":[51.53103979999999,25.2854473],"type":"Point"},"placekey":"@9sj-q4n-35z","address":{"country_code":"QA","formatted_address":"Doha, Doha Municipality, Qatar","locality":"Doha","region":"Doha Municipality"}},"labels":["conference","science","technology"],"duration":28800,"start_local":"2024-05-22T08:30:00","end":"2024-05-22T13:30:00Z","end_local":"2024-05-22T16:30:00","updated":"2024-06-05T03:10:58Z"},{"title":"Qatar AI Summit","description":"Sourced from predicthq.com","category":"conferences","start":"2024-05-21T21:00:00Z","geo":{"geometry":{"coordinates":[51.531874,25.379669],"type":"Point"},"placekey":"@9sj-q56-5s5","address":{"country_code":"QA","formatted_address":"West Bay Lagoon, Doha, Qatar","locality":"Doha","region":"Doha Municipality"}},"labels":["conference"],"duration":86399,"start_local":"2024-05-22T00:00:00","end":"2024-05-22T20:59:59Z","end_local":"2024-05-22T23:59:59","updated":"2024-05-27T05:00:01Z"},{"title":"Emir Cup - Semi-finals - Al-Ahli vs Al-Arabi","description":"Sourced from predicthq.com","category":"sports","start":"2024-05-14T16:00:00Z","geo":{"geometry":{"coordinates":[51.444496,25.345526],"type":"Point"},"placekey":"@9sj-qt7-yd9","address":{"country_code":"QA","formatted_address":"Al Maszhabiliya Street, Al Gharrafa, Doha, Qatar","locality":"Doha"}},"labels":["basketball","sport"],"duration":0,"start_local":"2024-05-14T19:00:00","end":"2024-05-14T16:00:00Z","end_local":"2024-05-14T19:00:00","updated":"2024-06-12T04:38:20Z"},{"title":"Emir Cup - Semi-finals - Al-Rayyan vs Al Sadd","description":"Sourced from predicthq.com","category":"sports","start":"2024-05-14T14:00:00Z","geo":{"geometry":{"coordinates":[51.444496,25.345526],"type":"Point"},"placekey":"@9sj-qt7-yd9","address":{"country_code":"QA","formatted_address":"Al Maszhabiliya Street, Al Gharrafa, Doha, Qatar","locality":"Doha"}},"labels":["basketball","sport"],"duration":0,"start_local":"2024-05-14T17:00:00","end":"2024-05-14T14:00:00Z","end_local":"2024-05-14T17:00:00","updated":"2024-06-12T05:27:47Z"},{"title":"How to save AND protect your money when buying an investment property","description":"Sourced from predicthq.com - Learn the right legalities to save  tens of thousands when buying and holding an Inv property in Australia (5:30pm IST, 7pm JKT, 8pm SIN/KL)","category":"conferences","start":"2024-05-14T12:00:00Z","geo":{"geometry":{"coordinates":[51.53103979999999,25.2854473],"type":"Point"},"placekey":"@9sj-q4n-35z","address":{"country_code":"QA","formatted_address":"Doha, Doha Municipality, Qatar","locality":"Doha","region":"Doha Municipality"}},"labels":["business","conference"],"duration":2700,"start_local":"2024-05-14T15:00:00","end":"2024-05-14T12:45:00Z","end_local":"2024-05-14T15:45:00","updated":"2024-06-05T10:22:08Z"},{"title":"Build your House Expo","description":"Sourced from predicthq.com - The Premier Exhibition for Qatari Nationals to Design, Build & Renovate","category":"expos","start":"2024-05-12T21:00:00Z","geo":{"geometry":{"coordinates":[51.4372725,25.3219654],"type":"Point"},"placekey":"@9sj-q4g-hyv","address":{"country_code":"QA","formatted_address":"Al Luqta Street, Ar Rayyan, Qatar","locality":"Ar Rayyan","region":"Al Rayyan Municipality"}},"labels":["construction","expo","technology"],"duration":345599,"start_local":"2024-05-13T00:00:00","end":"2024-05-16T20:59:59Z","end_local":"2024-05-16T23:59:59","updated":"2024-06-27T21:35:31Z"},{"title":"Emir Cup - Semi-finals - Al Sadd vs Al-Rayyan","description":"Sourced from predicthq.com","category":"sports","start":"2024-05-11T16:00:00Z","geo":{"geometry":{"coordinates":[51.444496,25.345526],"type":"Point"},"placekey":"@9sj-qt7-yd9","address":{"country_code":"QA","formatted_address":"Al Maszhabiliya Street, Al Gharrafa, Doha, Qatar","locality":"Doha"}},"labels":["basketball","sport"],"duration":0,"start_local":"2024-05-11T19:00:00","end":"2024-05-11T16:00:00Z","end_local":"2024-05-11T19:00:00","updated":"2024-06-12T18:01:38Z"},{"title":"Emir Cup - Semi-finals - Al-Arabi vs Al-Ahli","description":"Sourced from predicthq.com","category":"sports","start":"2024-05-11T14:00:00Z","geo":{"geometry":{"coordinates":[51.444496,25.345526],"type":"Point"},"placekey":"@9sj-qt7-yd9","address":{"country_code":"QA","formatted_address":"Al Maszhabiliya Street, Al Gharrafa, Doha, Qatar","locality":"Doha"}},"labels":["basketball","sport"],"duration":0,"start_local":"2024-05-11T17:00:00","end":"2024-05-11T14:00:00Z","end_local":"2024-05-11T17:00:00","updated":"2024-06-11T21:46:46Z"},{"title":"Certified Fire Protection Specialist (CFPS) Exam Preparation Course","description":"Sourced from predicthq.com - Course Timings:\nFriday, 3:30 PM to 6:30 PM\nNOTE: FREE FOR ONE-TIME SEAT IN ONLY. TERMS AND CONDITIONS APPLY.","category":"conferences","start":"2024-05-10T12:30:00Z","geo":{"geometry":{"coordinates":[51.51555279999999,25.2671057],"type":"Point"},"placekey":"@9sj-q4r-2p9","address":{"country_code":"QA","formatted_address":"C Ring Road, Doha, Qatar","locality":"Doha","region":"Doha Municipality"}},"labels":["conference","education","family"],"duration":10800,"start_local":"2024-05-10T15:30:00","end":"2024-05-10T15:30:00Z","end_local":"2024-05-10T18:30:00","updated":"2024-07-02T08:33:31Z"},{"title":"Certified Facility  Manager ( CFM, IFMA-USA)","description":"Sourced from predicthq.com - Get your CFM certification with IFMA-USA at our event - become a pro facility manager in no time!","category":"conferences","start":"2024-05-10T11:00:00Z","geo":{"geometry":{"coordinates":[51.5194329,25.2680137],"type":"Point"},"placekey":"@9sj-q4q-m49","address":{"country_code":"QA","formatted_address":"الدوحة, بلدية الدوحه, Qatar","locality":"الدوحة","region":"بلدية الدوحه"}},"labels":["business","conference"],"duration":18000,"start_local":"2024-05-10T14:00:00","end":"2024-05-10T16:00:00Z","end_local":"2024-05-10T19:00:00","updated":"2024-06-05T02:38:57Z"},{"title":"Innellea","description":"Sourced from predicthq.com","category":"concerts","start":"2024-05-09T16:00:00Z","geo":{"geometry":{"coordinates":[51.54014,25.37482],"type":"Point"},"placekey":"@9sj-q3k-kcq","address":{"country_code":"QA","formatted_address":"Abraj Quartier Pearl Boulevard Tower AQ-07، Doha, Qatar","locality":"Doha","region":"Doha"}},"labels":["concert","music"],"duration":0,"start_local":"2024-05-09T19:00:00","end":"2024-05-09T16:00:00Z","end_local":"2024-05-09T19:00:00","updated":"2024-06-11T23:58:20Z"},{"title":"Doha International Book Fair","description":"Sourced from predicthq.com - Doha International Book Fair","category":"expos","start":"2024-05-08T21:00:00Z","geo":{"geometry":{"coordinates":[51.5308517,25.3223339],"type":"Point"},"placekey":"@9sj-q3f-ygk","address":{"country_code":"QA","formatted_address":"Doha, Doha Municipality, Qatar","locality":"Doha","region":"Doha Municipality"}},"labels":["education","expo","print"],"duration":863999,"start_local":"2024-05-09T00:00:00","end":"2024-05-18T20:59:59Z","end_local":"2024-05-18T23:59:59","updated":"2024-05-24T03:27:31Z"},{"title":"Charting Business Success in Turbulent Times: Measuring what Matters","description":"Sourced from predicthq.com - Learn how to navigate the ups and downs of business with practical strategies for measuring success at our event!","category":"conferences","start":"2024-05-08T08:00:00Z","geo":{"geometry":{"coordinates":[51.5502877,25.256774],"type":"Point"},"placekey":"@9sj-qhj-tjv","address":{"country_code":"QA","formatted_address":"7H42+P42, Doha, Qatar","locality":"Doha","region":"Doha Municipality"}},"labels":["business","conference"],"duration":3600,"start_local":"2024-05-08T11:00:00","end":"2024-05-08T09:00:00Z","end_local":"2024-05-08T12:00:00","updated":"2024-06-05T21:41:48Z"},{"title":"Emir Cup - Semi-finals - Al-Ahli vs Al-Arabi","description":"Sourced from predicthq.com","category":"sports","start":"2024-05-07T16:00:00Z","geo":{"geometry":{"coordinates":[51.444496,25.345526],"type":"Point"},"placekey":"@9sj-qt7-yd9","address":{"country_code":"QA","formatted_address":"Al Maszhabiliya Street, Al Gharrafa, Doha, Qatar","locality":"Doha"}},"labels":["basketball","sport"],"duration":0,"start_local":"2024-05-07T19:00:00","end":"2024-05-07T16:00:00Z","end_local":"2024-05-07T19:00:00","updated":"2024-06-12T12:38:46Z"},{"title":"Emir Cup - Semi-finals - Al-Rayyan vs Al Sadd","description":"Sourced from predicthq.com","category":"sports","start":"2024-05-07T14:00:00Z","geo":{"geometry":{"coordinates":[51.444496,25.345526],"type":"Point"},"placekey":"@9sj-qt7-yd9","address":{"country_code":"QA","formatted_address":"Al Maszhabiliya Street, Al Gharrafa, Doha, Qatar","locality":"Doha"}},"labels":["basketball","sport"],"duration":0,"start_local":"2024-05-07T17:00:00","end":"2024-05-07T14:00:00Z","end_local":"2024-05-07T17:00:00","updated":"2024-06-12T00:43:11Z"},{"title":"The New World of Work: Navigating a New Social Presence","description":"Sourced from predicthq.com - This one-hour online masterclass is a unique program designed for career-driven professionals. Please note the session will be held on Zoom.","category":"conferences","start":"2024-05-06T13:00:00Z","geo":{"geometry":{"coordinates":[51.443331,25.318211],"type":"Point"},"placekey":"@9sj-q4g-q75","address":{"country_code":"QA","formatted_address":"Al Luqta St, Ar Rayyan, Doha, Qatar","locality":"Doha"}},"labels":["business","conference"],"duration":3600,"start_local":"2024-05-06T16:00:00","end":"2024-05-06T14:00:00Z","end_local":"2024-05-06T17:00:00","updated":"2024-05-28T10:16:29Z"},{"title":"TEFFA AI. R evolution","description":"Sourced from predicthq.com - Welcome to the second edition of TEFFA Event, where we celebrate the convergence of technology, education, finance, fashion, and art.","category":"conferences","start":"2024-05-06T13:00:00Z","geo":{"geometry":{"coordinates":[51.527669,25.2867728],"type":"Point"},"placekey":"@9sj-q4n-qzz","address":{"country_code":"QA","formatted_address":"Doha, Doha Municipality, Qatar","locality":"Doha","region":"Doha Municipality"}},"labels":["conference","science","technology"],"duration":198000,"start_local":"2024-05-06T16:00:00","end":"2024-05-08T20:00:00Z","end_local":"2024-05-08T23:00:00","updated":"2024-06-05T11:40:14Z"},{"title":"Build Your House - Ibni Baitak Exhibition","description":"Sourced from predicthq.com - Establishing itself as a platform that’s crucial for business, Build Your House Exhibition connects Qatari citizens looking to build their home, fit out an existing business or renovate their current property to an array of services and products from consultants, contractors, suppliers – including smart home and general service industry leaders.","category":"expos","start":"2024-05-06T07:00:00Z","geo":{"geometry":{"coordinates":[51.4374062,25.3220815],"type":"Point"},"placekey":"@9sj-q4g-hyv","address":{"country_code":"QA","formatted_address":"Ar-Rayyan, Qatar","locality":"Ar-Rayyan","region":"Al Rayyan Municipality"}},"labels":["construction","expo"],"duration":216000,"start_local":"2024-05-06T10:00:00","end":"2024-05-08T19:00:00Z","end_local":"2024-05-08T22:00:00","updated":"2024-06-12T01:04:29Z"},{"title":"Play-offs 1/2 - Final - Al Markhiya vs Al Shahaniya","description":"Sourced from predicthq.com","category":"sports","start":"2024-05-05T16:00:00Z","geo":{"geometry":{"coordinates":[51.5324322,25.2352756],"type":"Point"},"placekey":"@9sj-qj5-t7q","address":{"country_code":"QA","formatted_address":"6GPJ+8X4, Doha, Qatar","locality":"Doha","region":"Doha"}},"labels":["soccer","sport"],"duration":7371,"start_local":"2024-05-05T19:00:00","end":"2024-05-05T18:02:51Z","end_local":"2024-05-05T21:02:51","updated":"2024-06-05T01:47:54Z"},{"title":"Emir Cup - Semi-finals - Al Sadd vs Al-Rayyan","description":"Sourced from predicthq.com","category":"sports","start":"2024-05-04T16:00:00Z","geo":{"geometry":{"coordinates":[51.444496,25.345526],"type":"Point"},"placekey":"@9sj-qt7-yd9","address":{"country_code":"QA","formatted_address":"Al Maszhabiliya Street, Al Gharrafa, Doha, Qatar","locality":"Doha"}},"labels":["basketball","sport"],"duration":0,"start_local":"2024-05-04T19:00:00","end":"2024-05-04T16:00:00Z","end_local":"2024-05-04T19:00:00","updated":"2024-06-12T01:08:48Z"},{"title":"Emir Cup - Semi-finals - Al-Arabi vs Al-Ahli","description":"Sourced from predicthq.com","category":"sports","start":"2024-05-04T14:00:00Z","geo":{"geometry":{"coordinates":[51.444496,25.345526],"type":"Point"},"placekey":"@9sj-qt7-yd9","address":{"country_code":"QA","formatted_address":"Al Maszhabiliya Street, Al Gharrafa, Doha, Qatar","locality":"Doha"}},"labels":["basketball","sport"],"duration":0,"start_local":"2024-05-04T17:00:00","end":"2024-05-04T14:00:00Z","end_local":"2024-05-04T17:00:00","updated":"2024-06-12T08:01:57Z"},{"title":"التعليم العالي في ماليزيا | MALAYSIAN HIGHER EDUCATION INFO DAY: DOHA","description":"Sourced from predicthq.com - WORLD'S TOP-RANKED UNIVERSITIES - Study in Malaysia Expo in Qatar","category":"expos","start":"2024-05-03T14:00:00Z","geo":{"geometry":{"coordinates":[51.5382287,25.3250457],"type":"Point"},"placekey":"@9sj-q43-9zz","address":{"country_code":"QA","formatted_address":"Doha, Doha Municipality, Qatar","locality":"Doha","region":"Doha Municipality"}},"labels":["education","expo","family"],"duration":14400,"start_local":"2024-05-03T17:00:00","end":"2024-05-03T18:00:00Z","end_local":"2024-05-03T21:00:00","updated":"2024-06-04T22:33:28Z"},{"title":"KC Lights","description":"Sourced from predicthq.com","category":"concerts","start":"2024-05-03T13:00:00Z","geo":{"geometry":{"coordinates":[51.53341,25.32175],"type":"Point"},"placekey":"@9sj-q3f-x3q","address":{"country_code":"QA","formatted_address":"Doha, Qatar","locality":"Doha"}},"labels":["concert","music"],"duration":0,"start_local":"2024-05-03T16:00:00","end":"2024-05-03T13:00:00Z","end_local":"2024-05-03T16:00:00","updated":"2024-06-12T04:08:24Z"},{"title":"Certified Fire Protection Specialist (CFPS) Exam Preparation Course","description":"Sourced from predicthq.com - Course Timings:\nThursday, 6:00 PM to 9:00 PM","category":"conferences","start":"2024-05-03T12:30:00Z","geo":{"geometry":{"coordinates":[51.51555279999999,25.2671057],"type":"Point"},"placekey":"@9sj-q4r-2p9","address":{"country_code":"QA","formatted_address":"C Ring Road, Doha, Qatar","locality":"Doha","region":"Doha Municipality"}},"labels":["conference","education","family"],"duration":10800,"start_local":"2024-05-03T15:30:00","end":"2024-05-03T15:30:00Z","end_local":"2024-05-03T18:30:00","updated":"2024-07-02T18:07:55Z"},{"title":"MADE FOR GREATNESS: The 18TH SFC Qatar National Conference","description":"Sourced from predicthq.com - Register now for the 18th SFC Qatar National Conference, which will be hosted at Our Lady of the Rosary Parish on May 3rd, 2024.","category":"conferences","start":"2024-05-03T05:00:00Z","geo":{"geometry":{"coordinates":[51.5219,25.2126],"type":"Point"},"placekey":"@9sj-qj8-8vz","address":{"country_code":"QA","formatted_address":"6G7C+3R6, Doha, Qatar","locality":"Doha","region":"Al Rayyan Municipality"}},"labels":["community","conference"],"duration":36000,"start_local":"2024-05-03T08:00:00","end":"2024-05-03T15:00:00Z","end_local":"2024-05-03T18:00:00","updated":"2024-06-04T22:54:59Z"},{"title":"OffChain  Doha","description":"Sourced from predicthq.com - No speakers. Just come mingle with other Web3 professionals and enthusiasts.","category":"conferences","start":"2024-05-02T15:00:00Z","geo":{"geometry":{"coordinates":[51.5552993,25.2861653],"type":"Point"},"placekey":"@9sj-qhg-d35","address":{"country_code":"QA","formatted_address":"Doha, Qatar","locality":"Doha"}},"labels":["business","conference"],"duration":10800,"start_local":"2024-05-02T18:00:00","end":"2024-05-02T18:00:00Z","end_local":"2024-05-02T21:00:00","updated":"2024-06-03T20:18:53Z"},{"title":"التعليم العالي في ماليزيا | MALAYSIAN HIGHER EDUCATION INFO DAY: DOHA","description":"Sourced from predicthq.com - WORLD'S TOP-RANKED UNIVERSITIES - Study in Malaysia Expo in Qatar","category":"expos","start":"2024-05-02T14:00:00Z","geo":{"geometry":{"coordinates":[51.5382287,25.3250457],"type":"Point"},"placekey":"@9sj-q43-9zz","address":{"country_code":"QA","formatted_address":"Doha, Doha Municipality, Qatar","locality":"Doha","region":"Doha Municipality"}},"labels":["education","expo","family"],"duration":14400,"start_local":"2024-05-02T17:00:00","end":"2024-05-02T18:00:00Z","end_local":"2024-05-02T21:00:00","updated":"2024-06-05T12:41:45Z"},{"title":"Primary Spring Concert","description":"Sourced from predicthq.com - Join us for an enchanting evening of music at Doha College's Primary School Spring Concert!","category":"performing-arts","start":"2024-05-01T14:00:00Z","geo":{"geometry":{"coordinates":[51.4050266,25.3016006],"type":"Point"},"placekey":"@9sj-qcv-bzf","address":{"country_code":"QA","formatted_address":"Ar-Rayyan, Al Rayyan Municipality, Qatar","locality":"Ar-Rayyan","region":"Al Rayyan Municipality"}},"labels":["concert","music","performing-arts"],"duration":3600,"start_local":"2024-05-01T17:00:00","end":"2024-05-01T15:00:00Z","end_local":"2024-05-01T18:00:00","updated":"2024-06-04T21:39:15Z"},{"title":"Emir Cup - Pre Play-offs - Al-Wakrah vs Al-Ahli","description":"Sourced from predicthq.com","category":"sports","start":"2024-04-30T16:00:00Z","geo":{"geometry":{"coordinates":[51.444496,25.345526],"type":"Point"},"placekey":"@9sj-qt7-yd9","address":{"country_code":"QA","formatted_address":"Al Maszhabiliya Street, Al Gharrafa, Doha, Qatar","locality":"Doha"}},"labels":["basketball","sport"],"duration":0,"start_local":"2024-04-30T19:00:00","end":"2024-04-30T16:00:00Z","end_local":"2024-04-30T19:00:00","updated":"2024-06-12T09:58:36Z"},{"title":"Emir Cup - Pre Play-offs - Qatar Sports Club vs Al-Rayyan","description":"Sourced from predicthq.com","category":"sports","start":"2024-04-30T14:00:00Z","geo":{"geometry":{"coordinates":[51.444496,25.345526],"type":"Point"},"placekey":"@9sj-qt7-yd9","address":{"country_code":"QA","formatted_address":"Al Maszhabiliya Street, Al Gharrafa, Doha, Qatar","locality":"Doha"}},"labels":["basketball","sport"],"duration":0,"start_local":"2024-04-30T17:00:00","end":"2024-04-30T14:00:00Z","end_local":"2024-04-30T17:00:00","updated":"2024-06-12T03:38:54Z"},{"title":"Qatar CSR Summit","description":"Sourced from predicthq.com","category":"conferences","start":"2024-04-29T21:00:00Z","geo":{"geometry":{"coordinates":[51.487169,25.37695],"type":"Point"},"placekey":"@9sj-q5x-k9f","address":{"country_code":"QA","formatted_address":"9FGP+XJ8, Doha, Qatar","locality":"Doha","region":"Doha"}},"labels":["conference"],"duration":259199,"start_local":"2024-04-30T00:00:00","end":"2024-05-02T20:59:59Z","end_local":"2024-05-02T23:59:59","updated":"2024-06-02T01:44:00Z"},{"title":"Autonomous e-Mobility Forum","description":"Sourced from predicthq.com","category":"conferences","start":"2024-04-29T21:00:00Z","geo":{"geometry":{"coordinates":[51.4374137,25.3224537],"type":"Point"},"placekey":"@9sj-q4g-hyv","address":{"country_code":"QA","formatted_address":"Al Luqta St, Ar Rayyan, Qatar","locality":"Ar Rayyan","region":"Al Rayyan Municipality"}},"labels":["conference"],"duration":259199,"start_local":"2024-04-30T00:00:00","end":"2024-05-02T20:59:59Z","end_local":"2024-05-02T23:59:59","updated":"2024-06-01T00:27:34Z"},{"title":"Secondary Spring Concert","description":"Sourced from predicthq.com - Join us for an enchanting evening of music at Doha College's Secondary School Spring Concert!","category":"performing-arts","start":"2024-04-29T14:00:00Z","geo":{"geometry":{"coordinates":[51.4050266,25.3016006],"type":"Point"},"placekey":"@9sj-qcv-bzf","address":{"country_code":"QA","formatted_address":"Ar-Rayyan, Al Rayyan Municipality, Qatar","locality":"Ar-Rayyan","region":"Al Rayyan Municipality"}},"labels":["concert","music","performing-arts"],"duration":3600,"start_local":"2024-04-29T17:00:00","end":"2024-04-29T15:00:00Z","end_local":"2024-04-29T18:00:00","updated":"2024-06-05T08:54:42Z"},{"title":"IDC's Hybrid Cloud","description":"Sourced from predicthq.com","category":"conferences","start":"2024-04-29T06:00:00Z","geo":{"geometry":{"coordinates":[51.52813209999999,25.3771678],"type":"Point"},"placekey":"@9sj-q56-6p9","address":{"country_code":"QA","formatted_address":"West Bay Lagoon Street, Doha, Qatar","locality":"Doha","region":"Doha"}},"labels":["conference"],"duration":32400,"start_local":"2024-04-29T09:00:00","end":"2024-04-29T15:00:00Z","end_local":"2024-04-29T18:00:00","updated":"2024-06-05T02:00:22Z"},{"title":"Stars League - Qatar SC vs Al Duhail","description":"Sourced from predicthq.com","category":"sports","start":"2024-04-28T15:30:00Z","geo":{"geometry":{"coordinates":[51.483771899999965,25.2668113],"type":"Point"},"placekey":"@9sj-qdb-bc5","address":{"country_code":"QA","formatted_address":"30 Ahmed BinTaymiya St, Doha, Qatar","locality":"Doha","region":"Al Rayyan Municipality"}},"labels":["soccer","sport"],"duration":7163,"start_local":"2024-04-28T18:30:00","end":"2024-04-28T17:29:23Z","end_local":"2024-04-28T20:29:23","updated":"2024-06-23T11:36:12Z"},{"title":"Stars League - Al Rayyan vs Al Sadd","description":"Sourced from predicthq.com","category":"sports","start":"2024-04-28T15:30:00Z","geo":{"geometry":{"coordinates":[51.34234509999999,25.32960569999999],"type":"Point"},"placekey":"@9sj-qvc-qpv","address":{"country_code":"QA","formatted_address":"Unnamed Road, Qatar","region":"Al Rayyan Municipality"}},"labels":["soccer","sport"],"duration":6865,"start_local":"2024-04-28T18:30:00","end":"2024-04-28T17:24:25Z","end_local":"2024-04-28T20:24:25","updated":"2024-06-05T02:23:21Z"},{"title":"Stars League - Al Ahli vs Al Wakrah","description":"Sourced from predicthq.com","category":"sports","start":"2024-04-28T15:30:00Z","geo":{"geometry":{"coordinates":[51.44055247306824,25.34478718059418],"type":"Point"},"placekey":"@9sj-qt7-xkf","address":{"country_code":"QA","formatted_address":"Al-Maszhabiliya Street, ad-Dōha (Doha), Qatar","locality":"ad-Dōha (Doha)"}},"labels":["soccer","sport"],"duration":7049,"start_local":"2024-04-28T18:30:00","end":"2024-04-28T17:27:29Z","end_local":"2024-04-28T20:27:29","updated":"2024-06-05T09:37:22Z"},{"title":"Stars League - Al Shamal vs Al Gharafa","description":"Sourced from predicthq.com","category":"sports","start":"2024-04-28T15:30:00Z","geo":{"geometry":{"coordinates":[51.48784749999999,25.65220529999999],"type":"Point"},"placekey":"@9sh-s3c-w6k","address":{"country_code":"QA","formatted_address":"Al Khor, Qatar","locality":"Al Khor","region":"Al Khor"}},"labels":["soccer","sport"],"duration":7144,"start_local":"2024-04-28T18:30:00","end":"2024-04-28T17:29:04Z","end_local":"2024-04-28T20:29:04","updated":"2024-06-05T05:36:44Z"},{"title":"Stars League - Al Markhiya vs Umm Salal","description":"Sourced from predicthq.com","category":"sports","start":"2024-04-28T15:30:00Z","geo":{"geometry":{"coordinates":[51.520531,25.258843],"type":"Point"},"placekey":"@9sj-q4r-6c5","address":{"country_code":"QA","formatted_address":"7G59+FRR, Doha, Qatar","locality":"Doha","region":"Doha Municipality"}},"labels":["soccer","sport"],"duration":6910,"start_local":"2024-04-28T18:30:00","end":"2024-04-28T17:25:10Z","end_local":"2024-04-28T20:25:10","updated":"2024-06-05T18:19:51Z"},{"title":"Stars League - Al Arabi vs Muaither","description":"Sourced from predicthq.com","category":"sports","start":"2024-04-28T15:30:00Z","geo":{"geometry":{"coordinates":[51.5324322,25.2352756],"type":"Point"},"placekey":"@9sj-qj5-t7q","address":{"country_code":"QA","formatted_address":"6GPJ+8X4, Doha, Qatar","locality":"Doha","region":"Doha"}},"labels":["soccer","sport"],"duration":7872,"start_local":"2024-04-28T18:30:00","end":"2024-04-28T17:41:12Z","end_local":"2024-04-28T20:41:12","updated":"2024-06-05T08:54:25Z"},{"title":"Emir Cup - Group Stage - Al-Arabi vs Al-Khor","description":"Sourced from predicthq.com","category":"sports","start":"2024-04-27T16:00:00Z","geo":{"geometry":{"coordinates":[51.444496,25.345526],"type":"Point"},"placekey":"@9sj-qt7-yd9","address":{"country_code":"QA","formatted_address":"Al Maszhabiliya Street, Al Gharrafa, Doha, Qatar","locality":"Doha"}},"labels":["basketball","sport"],"duration":0,"start_local":"2024-04-27T19:00:00","end":"2024-04-27T16:00:00Z","end_local":"2024-04-27T19:00:00","updated":"2024-06-12T00:34:11Z"},{"title":"Emir Cup - Group Stage - Al-Gharafa vs Al-Wakrah","description":"Sourced from predicthq.com","category":"sports","start":"2024-04-27T14:00:00Z","geo":{"geometry":{"coordinates":[51.444496,25.345526],"type":"Point"},"placekey":"@9sj-qt7-yd9","address":{"country_code":"QA","formatted_address":"Al Maszhabiliya Street, Al Gharrafa, Doha, Qatar","locality":"Doha"}},"labels":["basketball","sport"],"duration":0,"start_local":"2024-04-27T17:00:00","end":"2024-04-27T14:00:00Z","end_local":"2024-04-27T17:00:00","updated":"2024-06-12T08:23:31Z"},{"title":"Emir Cup - Group Stage - Al-Ahli vs Al-Shamal","description":"Sourced from predicthq.com","category":"sports","start":"2024-04-24T16:00:00Z","geo":{"geometry":{"coordinates":[51.43764493121018,25.34570347459828],"type":"Point"},"placekey":"@9sj-qt8-cyv","address":{"country_code":"QA","formatted_address":"8CWQ+749, Al Maszhabiliya St, Ar Rayyan, Qatar","locality":"Ar Rayyan","region":"Al Rayyan Municipality"}},"labels":["basketball","sport"],"duration":0,"start_local":"2024-04-24T19:00:00","end":"2024-04-24T16:00:00Z","end_local":"2024-04-24T19:00:00","updated":"2024-06-11T22:06:12Z"},{"title":"Stars League - Muaither vs Qatar SC","description":"Sourced from predicthq.com","category":"sports","start":"2024-04-24T15:30:00Z","geo":{"geometry":{"coordinates":[51.520531,25.258843],"type":"Point"},"placekey":"@9sj-q4r-6c5","address":{"country_code":"QA","formatted_address":"7G59+FRR, Doha, Qatar","locality":"Doha","region":"Doha Municipality"}},"labels":["soccer","sport"],"duration":7414,"start_local":"2024-04-24T18:30:00","end":"2024-04-24T17:33:34Z","end_local":"2024-04-24T20:33:34","updated":"2024-06-05T03:15:43Z"},{"title":"Stars League - Al Shamal vs Al Sadd","description":"Sourced from predicthq.com","category":"sports","start":"2024-04-24T15:30:00Z","geo":{"geometry":{"coordinates":[51.48784749999999,25.65220529999999],"type":"Point"},"placekey":"@9sh-s3c-w6k","address":{"country_code":"QA","formatted_address":"Al Khor, Qatar","locality":"Al Khor","region":"Al Khor"}},"labels":["soccer","sport"],"duration":7177,"start_local":"2024-04-24T18:30:00","end":"2024-04-24T17:29:37Z","end_local":"2024-04-24T20:29:37","updated":"2024-06-05T09:33:36Z"},{"title":"Stars League - Al Wakrah vs Al Gharafa","description":"Sourced from predicthq.com","category":"sports","start":"2024-04-24T15:30:00Z","geo":{"geometry":{"coordinates":[51.59648537635803,25.180291704710072],"type":"Point"},"placekey":"@9sj-qfy-zpv","address":{"country_code":"QA","formatted_address":"Al-Wakra, Qatar","locality":"Al-Wakra"}},"labels":["soccer","sport"],"duration":7203,"start_local":"2024-04-24T18:30:00","end":"2024-04-24T17:30:03Z","end_local":"2024-04-24T20:30:03","updated":"2024-06-05T14:40:08Z"},{"title":"Stars League - Al Arabi vs Al Markhiya","description":"Sourced from predicthq.com","category":"sports","start":"2024-04-24T15:30:00Z","geo":{"geometry":{"coordinates":[51.5324322,25.2352756],"type":"Point"},"placekey":"@9sj-qj5-t7q","address":{"country_code":"QA","formatted_address":"6GPJ+8X4, Doha, Qatar","locality":"Doha","region":"Doha"}},"labels":["soccer","sport"],"duration":7145,"start_local":"2024-04-24T18:30:00","end":"2024-04-24T17:29:05Z","end_local":"2024-04-24T20:29:05","updated":"2024-06-05T16:53:51Z"},{"title":"Stars League - Umm Salal vs Al Duhail","description":"Sourced from predicthq.com","category":"sports","start":"2024-04-24T15:30:00Z","geo":{"geometry":{"coordinates":[51.44055247306824,25.34478718059418],"type":"Point"},"placekey":"@9sj-qt7-xkf","address":{"country_code":"QA","formatted_address":"Al-Maszhabiliya Street, ad-Dōha (Doha), Qatar","locality":"ad-Dōha (Doha)"}},"labels":["soccer","sport"],"duration":7118,"start_local":"2024-04-24T18:30:00","end":"2024-04-24T17:28:38Z","end_local":"2024-04-24T20:28:38","updated":"2024-06-05T20:20:51Z"},{"title":"Stars League - Al Rayyan vs Al Ahli","description":"Sourced from predicthq.com","category":"sports","start":"2024-04-24T15:30:00Z","geo":{"geometry":{"coordinates":[51.34234509999999,25.32960569999999],"type":"Point"},"placekey":"@9sj-qvc-qpv","address":{"country_code":"QA","formatted_address":"Unnamed Road, Qatar","region":"Al Rayyan Municipality"}},"labels":["soccer","sport"],"duration":7565,"start_local":"2024-04-24T18:30:00","end":"2024-04-24T17:36:05Z","end_local":"2024-04-24T20:36:05","updated":"2024-06-05T14:58:58Z"},{"title":"Emir Cup - Group Stage - Al-Rayyan vs Al Sadd","description":"Sourced from predicthq.com","category":"sports","start":"2024-04-24T14:00:00Z","geo":{"geometry":{"coordinates":[51.43764493121018,25.34570347459828],"type":"Point"},"placekey":"@9sj-qt8-cyv","address":{"country_code":"QA","formatted_address":"8CWQ+749, Al Maszhabiliya St, Ar Rayyan, Qatar","locality":"Ar Rayyan","region":"Al Rayyan Municipality"}},"labels":["basketball","sport"],"duration":0,"start_local":"2024-04-24T17:00:00","end":"2024-04-24T14:00:00Z","end_local":"2024-04-24T17:00:00","updated":"2024-06-12T18:05:15Z"},{"title":"Emir Cup - Group Stage - Al-Arabi vs Qatar Sports Club","description":"Sourced from predicthq.com","category":"sports","start":"2024-04-23T16:00:00Z","geo":{"geometry":{"coordinates":[51.444496,25.345526],"type":"Point"},"placekey":"@9sj-qt7-yd9","address":{"country_code":"QA","formatted_address":"Al Maszhabiliya Street, Al Gharrafa, Doha, Qatar","locality":"Doha"}},"labels":["basketball","sport"],"duration":0,"start_local":"2024-04-23T19:00:00","end":"2024-04-23T16:00:00Z","end_local":"2024-04-23T19:00:00","updated":"2024-06-12T13:13:44Z"},{"title":"Emir Cup - Group Stage - Al-Khor vs Al-Wakrah","description":"Sourced from predicthq.com","category":"sports","start":"2024-04-23T14:00:00Z","geo":{"geometry":{"coordinates":[51.444496,25.345526],"type":"Point"},"placekey":"@9sj-qt7-yd9","address":{"country_code":"QA","formatted_address":"Al Maszhabiliya Street, Al Gharrafa, Doha, Qatar","locality":"Doha"}},"labels":["basketball","sport"],"duration":0,"start_local":"2024-04-23T17:00:00","end":"2024-04-23T14:00:00Z","end_local":"2024-04-23T17:00:00","updated":"2024-06-12T20:07:35Z"},{"title":"Everything an  o/s buyer needs to know about financing an Aus Inv Property","description":"Sourced from predicthq.com - Finance is a critical aspect of property investment, it can make a significant impact on your investment journey (3pm AST, 8pm SIN/KUL)","category":"conferences","start":"2024-04-23T12:00:00Z","geo":{"geometry":{"coordinates":[51.53103979999999,25.2854473],"type":"Point"},"placekey":"@9sj-q4n-35z","address":{"country_code":"QA","formatted_address":"Doha, Doha Municipality, Qatar","locality":"Doha","region":"Doha Municipality"}},"labels":["business","conference"],"duration":2700,"start_local":"2024-04-23T15:00:00","end":"2024-04-23T12:45:00Z","end_local":"2024-04-23T15:45:00","updated":"2024-06-05T11:35:49Z"},{"title":"Global Security Symposium","description":"Sourced from predicthq.com","category":"conferences","start":"2024-04-22T06:00:00Z","geo":{"geometry":{"coordinates":[51.540028,25.326125],"type":"Point"},"placekey":"@9sj-q43-8vz","address":{"country_code":"QA","formatted_address":"Diplomatic St, Doha, Qatar","locality":"Doha","region":"Doha Municipality"}},"labels":["conference"],"duration":32400,"start_local":"2024-04-22T09:00:00","end":"2024-04-22T15:00:00Z","end_local":"2024-04-22T18:00:00","updated":"2024-06-01T16:49:15Z"},{"title":"Mega Seminar Meet up","description":"Sourced from predicthq.com - Get ready for the ultimate gathering of like-minded individuals at the Mega Seminar Meet up on April 21, 2024, at 4:00 PM!","category":"conferences","start":"2024-04-21T16:00:00Z","geo":{"geometry":{"coordinates":[51.5408356,25.273236],"type":"Point"},"placekey":"@9sj-qhk-g6k","address":{"country_code":"QA","formatted_address":"Doha, Qatar","locality":"Doha","region":"Doha"}},"labels":["conference"],"duration":10800,"start_local":"2024-04-21T19:00:00","end":"2024-04-21T19:00:00Z","end_local":"2024-04-21T22:00:00","updated":"2024-06-05T12:02:47Z"},{"title":"Emir Cup - Group Stage - Al-Rayyan vs Al-Ahli","description":"Sourced from predicthq.com","category":"sports","start":"2024-04-21T16:00:00Z","geo":{"geometry":{"coordinates":[51.444496,25.345526],"type":"Point"},"placekey":"@9sj-qt7-yd9","address":{"country_code":"QA","formatted_address":"Al Maszhabiliya Street, Al Gharrafa, Doha, Qatar","locality":"Doha"}},"labels":["basketball","sport"],"duration":0,"start_local":"2024-04-21T19:00:00","end":"2024-04-21T16:00:00Z","end_local":"2024-04-21T19:00:00","updated":"2024-06-12T07:37:01Z"},{"title":"Certified Professionals Contract Manager (CPCM/CCCM)","description":"Sourced from predicthq.com - Get ready to boost your career with our Certified Professionals Contract Manager event - become a pro in managing contracts!","category":"conferences","start":"2024-04-21T16:00:00Z","geo":{"geometry":{"coordinates":[51.5194329,25.2680137],"type":"Point"},"placekey":"@9sj-q4q-m49","address":{"country_code":"QA","formatted_address":"الدوحة, بلدية الدوحه, Qatar","locality":"الدوحة","region":"بلدية الدوحه"}},"labels":["business","conference"],"duration":10800,"start_local":"2024-04-21T19:00:00","end":"2024-04-21T19:00:00Z","end_local":"2024-04-21T22:00:00","updated":"2024-06-05T21:42:13Z"},{"title":"NASAR ABADEY & SUPERNOVA","description":"Sourced from predicthq.com - Georgetown University in Qatar and the United States Embassy in Qatar present\nNASAR ABADEY & SUPERNOVA\n\nWashington, D.C. to Doha, Qatar","category":"concerts","start":"2024-04-21T15:00:00Z","geo":{"geometry":{"coordinates":[51.42790369999999,25.3147828],"type":"Point"},"placekey":"@9sj-qd4-psq","address":{"country_code":"QA","formatted_address":"Ar-Rayyan, Al Rayyan Municipality, Qatar","locality":"Ar-Rayyan","region":"Al Rayyan Municipality"}},"labels":["concert","music"],"duration":7200,"start_local":"2024-04-21T18:00:00","end":"2024-04-21T17:00:00Z","end_local":"2024-04-21T20:00:00","updated":"2024-06-05T10:27:20Z"},{"title":"Emir Cup - Group Stage - Al Sadd vs Al-Shamal","description":"Sourced from predicthq.com","category":"sports","start":"2024-04-21T14:00:00Z","geo":{"geometry":{"coordinates":[51.444496,25.345526],"type":"Point"},"placekey":"@9sj-qt7-yd9","address":{"country_code":"QA","formatted_address":"Al Maszhabiliya Street, Al Gharrafa, Doha, Qatar","locality":"Doha"}},"labels":["basketball","sport"],"duration":0,"start_local":"2024-04-21T17:00:00","end":"2024-04-21T14:00:00Z","end_local":"2024-04-21T17:00:00","updated":"2024-06-12T11:54:30Z"},{"title":"Emir Cup - Group Stage - Al-Wakrah vs Al-Arabi","description":"Sourced from predicthq.com","category":"sports","start":"2024-04-20T16:00:00Z","geo":{"geometry":{"coordinates":[51.444496,25.345526],"type":"Point"},"placekey":"@9sj-qt7-yd9","address":{"country_code":"QA","formatted_address":"Al Maszhabiliya Street, Al Gharrafa, Doha, Qatar","locality":"Doha"}},"labels":["basketball","sport"],"duration":0,"start_local":"2024-04-20T19:00:00","end":"2024-04-20T16:00:00Z","end_local":"2024-04-20T19:00:00","updated":"2024-06-12T10:15:16Z"},{"title":"Emir Cup - Group Stage - Al-Gharafa vs Qatar Sports Club","description":"Sourced from predicthq.com","category":"sports","start":"2024-04-20T14:00:00Z","geo":{"geometry":{"coordinates":[51.444496,25.345526],"type":"Point"},"placekey":"@9sj-qt7-yd9","address":{"country_code":"QA","formatted_address":"Al Maszhabiliya Street, Al Gharrafa, Doha, Qatar","locality":"Doha"}},"labels":["basketball","sport"],"duration":0,"start_local":"2024-04-20T17:00:00","end":"2024-04-20T14:00:00Z","end_local":"2024-04-20T17:00:00","updated":"2024-06-12T08:31:01Z"},{"title":"Stagebound: Joelle and Pauleen's Music Recital at the QNCC","description":"Sourced from predicthq.com - A music recital the Qatar National Convention Centre (QNCC), Auditorium 2 on 19 April 2024","category":"performing-arts","start":"2024-04-19T11:00:00Z","geo":{"geometry":{"coordinates":[51.43727249999999,25.3219654],"type":"Point"},"placekey":"@9sj-q4g-hyv","address":{"country_code":"QA","formatted_address":"Ar-Rayyan, Al Rayyan Municipality, Qatar","locality":"Ar-Rayyan","region":"Al Rayyan Municipality"}},"labels":["concert","music","performing-arts"],"duration":7200,"start_local":"2024-04-19T14:00:00","end":"2024-04-19T13:00:00Z","end_local":"2024-04-19T16:00:00","updated":"2024-06-05T09:19:04Z"},{"title":"Gender in Foreign Policy","description":"Sourced from predicthq.com - Hiwaraat Conference at Georgetown University Qatar","category":"conferences","start":"2024-04-18T06:30:00Z","geo":{"geometry":{"coordinates":[51.443331,25.318211],"type":"Point"},"placekey":"@9sj-q4g-q75","address":{"country_code":"QA","formatted_address":"Al Luqta St, Ar Rayyan, Doha, Qatar","locality":"Doha"}},"labels":["conference"],"duration":30600,"start_local":"2024-04-18T09:30:00","end":"2024-04-18T15:00:00Z","end_local":"2024-04-18T18:00:00","updated":"2024-05-28T10:44:44Z"},{"title":"Stars League - Qatar SC vs Al Rayyan","description":"Sourced from predicthq.com","category":"sports","start":"2024-04-17T17:30:00Z","geo":{"geometry":{"coordinates":[51.483771899999965,25.2668113],"type":"Point"},"placekey":"@9sj-qdb-bc5","address":{"country_code":"QA","formatted_address":"30 Ahmed BinTaymiya St, Doha, Qatar","locality":"Doha","region":"Al Rayyan Municipality"}},"labels":["soccer","sport"],"duration":6911,"start_local":"2024-04-17T20:30:00","end":"2024-04-17T19:25:11Z","end_local":"2024-04-17T22:25:11","updated":"2024-06-05T07:50:20Z"},{"title":"Stars League - Al Ahli vs Al Sadd","description":"Sourced from predicthq.com","category":"sports","start":"2024-04-17T17:30:00Z","geo":{"geometry":{"coordinates":[51.5324322,25.2352756],"type":"Point"},"placekey":"@9sj-qj5-t7q","address":{"country_code":"QA","formatted_address":"6GPJ+8X4, Doha, Qatar","locality":"Doha","region":"Doha"}},"labels":["soccer","sport"],"duration":7054,"start_local":"2024-04-17T20:30:00","end":"2024-04-17T19:27:34Z","end_local":"2024-04-17T22:27:34","updated":"2024-06-05T19:09:51Z"},{"title":"Emir Cup - Group Stage - Al-Shamal vs Al-Rayyan","description":"Sourced from predicthq.com","category":"sports","start":"2024-04-17T16:00:00Z","geo":{"geometry":{"coordinates":[51.43764493121018,25.34570347459828],"type":"Point"},"placekey":"@9sj-qt8-cyv","address":{"country_code":"QA","formatted_address":"8CWQ+749, Al Maszhabiliya St, Ar Rayyan, Qatar","locality":"Ar Rayyan","region":"Al Rayyan Municipality"}},"labels":["basketball","sport"],"duration":0,"start_local":"2024-04-17T19:00:00","end":"2024-04-17T16:00:00Z","end_local":"2024-04-17T19:00:00","updated":"2024-06-12T14:23:00Z"},{"title":"Stars League - Umm Salal vs Al Arabi","description":"Sourced from predicthq.com","category":"sports","start":"2024-04-17T15:30:00Z","geo":{"geometry":{"coordinates":[51.44055247306824,25.34478718059418],"type":"Point"},"placekey":"@9sj-qt7-xkf","address":{"country_code":"QA","formatted_address":"Al-Maszhabiliya Street, ad-Dōha (Doha), Qatar","locality":"ad-Dōha (Doha)"}},"labels":["soccer","sport"],"duration":7147,"start_local":"2024-04-17T18:30:00","end":"2024-04-17T17:29:07Z","end_local":"2024-04-17T20:29:07","updated":"2024-06-04T23:27:09Z"},{"title":"Stars League - Muaither vs Al Duhail","description":"Sourced from predicthq.com","category":"sports","start":"2024-04-17T15:30:00Z","geo":{"geometry":{"coordinates":[51.520531,25.258843],"type":"Point"},"placekey":"@9sj-q4r-6c5","address":{"country_code":"QA","formatted_address":"7G59+FRR, Doha, Qatar","locality":"Doha","region":"Doha Municipality"}},"labels":["soccer","sport"],"duration":7127,"start_local":"2024-04-17T18:30:00","end":"2024-04-17T17:28:47Z","end_local":"2024-04-17T20:28:47","updated":"2024-06-05T07:31:42Z"},{"title":"Emir Cup - Group Stage - Al-Ahli vs Al Sadd","description":"Sourced from predicthq.com","category":"sports","start":"2024-04-17T14:00:00Z","geo":{"geometry":{"coordinates":[51.43764493121018,25.34570347459828],"type":"Point"},"placekey":"@9sj-qt8-cyv","address":{"country_code":"QA","formatted_address":"8CWQ+749, Al Maszhabiliya St, Ar Rayyan, Qatar","locality":"Ar Rayyan","region":"Al Rayyan Municipality"}},"labels":["basketball","sport"],"duration":0,"start_local":"2024-04-17T17:00:00","end":"2024-04-17T14:00:00Z","end_local":"2024-04-17T17:00:00","updated":"2024-06-12T07:37:19Z"},{"title":"Stars League - Al Markhiya vs Al Gharafa","description":"Sourced from predicthq.com","category":"sports","start":"2024-04-16T17:30:00Z","geo":{"geometry":{"coordinates":[51.520531,25.258843],"type":"Point"},"placekey":"@9sj-q4r-6c5","address":{"country_code":"QA","formatted_address":"7G59+FRR, Doha, Qatar","locality":"Doha","region":"Doha Municipality"}},"labels":["soccer","sport"],"duration":7587,"start_local":"2024-04-16T20:30:00","end":"2024-04-16T19:36:27Z","end_local":"2024-04-16T22:36:27","updated":"2024-06-05T20:38:45Z"},{"title":"Emir Cup - Group Stage - Qatar Sports Club vs Al-Khor","description":"Sourced from predicthq.com","category":"sports","start":"2024-04-16T16:00:00Z","geo":{"geometry":{"coordinates":[51.444496,25.345526],"type":"Point"},"placekey":"@9sj-qt7-yd9","address":{"country_code":"QA","formatted_address":"Al Maszhabiliya Street, Al Gharrafa, Doha, Qatar","locality":"Doha"}},"labels":["basketball","sport"],"duration":0,"start_local":"2024-04-16T19:00:00","end":"2024-04-16T16:00:00Z","end_local":"2024-04-16T19:00:00","updated":"2024-06-12T11:06:42Z"},{"title":"Stars League - Al Shamal vs Al Wakrah","description":"Sourced from predicthq.com","category":"sports","start":"2024-04-16T15:30:00Z","geo":{"geometry":{"coordinates":[51.48784749999999,25.65220529999999],"type":"Point"},"placekey":"@9sh-s3c-w6k","address":{"country_code":"QA","formatted_address":"Al Khor, Qatar","locality":"Al Khor","region":"Al Khor"}},"labels":["soccer","sport"],"duration":7298,"start_local":"2024-04-16T18:30:00","end":"2024-04-16T17:31:38Z","end_local":"2024-04-16T20:31:38","updated":"2024-06-05T04:56:34Z"},{"title":"Emir Cup - Group Stage - Al-Arabi vs Al-Gharafa","description":"Sourced from predicthq.com","category":"sports","start":"2024-04-16T14:00:00Z","geo":{"geometry":{"coordinates":[51.444496,25.345526],"type":"Point"},"placekey":"@9sj-qt7-yd9","address":{"country_code":"QA","formatted_address":"Al Maszhabiliya Street, Al Gharrafa, Doha, Qatar","locality":"Doha"}},"labels":["basketball","sport"],"duration":0,"start_local":"2024-04-16T17:00:00","end":"2024-04-16T14:00:00Z","end_local":"2024-04-16T17:00:00","updated":"2024-06-12T07:42:25Z"},{"title":"Emir Cup - Group Stage - Al-Khor vs Al-Gharafa","description":"Sourced from predicthq.com","category":"sports","start":"2024-04-13T16:00:00Z","geo":{"geometry":{"coordinates":[51.444496,25.345526],"type":"Point"},"placekey":"@9sj-qt7-yd9","address":{"country_code":"QA","formatted_address":"Al Maszhabiliya Street, Al Gharrafa, Doha, Qatar","locality":"Doha"}},"labels":["basketball","sport"],"duration":0,"start_local":"2024-04-13T19:00:00","end":"2024-04-13T16:00:00Z","end_local":"2024-04-13T19:00:00","updated":"2024-06-12T01:34:31Z"},{"title":"Emir Cup - Group Stage - Qatar Sports Club vs Al-Wakrah","description":"Sourced from predicthq.com","category":"sports","start":"2024-04-13T14:00:00Z","geo":{"geometry":{"coordinates":[51.444496,25.345526],"type":"Point"},"placekey":"@9sj-qt7-yd9","address":{"country_code":"QA","formatted_address":"Al Maszhabiliya Street, Al Gharrafa, Doha, Qatar","locality":"Doha"}},"labels":["basketball","sport"],"duration":0,"start_local":"2024-04-13T17:00:00","end":"2024-04-13T14:00:00Z","end_local":"2024-04-13T17:00:00","updated":"2024-06-12T03:25:23Z"},{"title":"Colyn, ZAMNA SOUNDSYSTEM, Jad Halal, and 3 others","description":"Sourced from predicthq.com","category":"concerts","start":"2024-04-12T12:00:00Z","geo":{"geometry":{"coordinates":[51.5027035,25.3790295],"type":"Point"},"placekey":"@9sj-q5x-bp9","address":{"country_code":"QA","formatted_address":"DOHA GOLF CLUB، Doha, Qatar","locality":"Doha","region":"Al Daayen Municipality"}},"labels":["concert","music"],"duration":0,"start_local":"2024-04-12T15:00:00","end":"2024-04-12T12:00:00Z","end_local":"2024-04-12T15:00:00","updated":"2024-06-12T11:37:05Z"},{"title":"ALGORYTHM™️| Navigating the Dynamic AI Terrain","description":"Sourced from predicthq.com - \"Success in creating AI would be the biggest event in human history, unfortunately, it might also be the last.\" - Elon Musk","category":"conferences","start":"2024-04-11T16:00:00Z","geo":{"geometry":{"coordinates":[51.53103979999999,25.2854473],"type":"Point"},"placekey":"@9sj-q4n-35z","address":{"country_code":"QA","formatted_address":"Doha, Doha Municipality, Qatar","locality":"Doha","region":"Doha Municipality"}},"labels":["conference","science","technology"],"duration":7200,"start_local":"2024-04-11T19:00:00","end":"2024-04-11T18:00:00Z","end_local":"2024-04-11T21:00:00","updated":"2024-06-05T05:59:32Z"},{"title":"Stars League - Al Rayyan vs Muaither","description":"Sourced from predicthq.com","category":"sports","start":"2024-04-07T18:30:00Z","geo":{"geometry":{"coordinates":[51.34234509999999,25.32960569999999],"type":"Point"},"placekey":"@9sj-qvc-qpv","address":{"country_code":"QA","formatted_address":"Unnamed Road, Qatar","region":"Al Rayyan Municipality"}},"labels":["soccer","sport"],"duration":6969,"start_local":"2024-04-07T21:30:00","end":"2024-04-07T20:26:09Z","end_local":"2024-04-07T23:26:09","updated":"2024-06-05T06:00:33Z"},{"title":"Stars League - Al Gharafa vs Umm Salal","description":"Sourced from predicthq.com","category":"sports","start":"2024-04-07T18:30:00Z","geo":{"geometry":{"coordinates":[51.44055247306824,25.34478718059418],"type":"Point"},"placekey":"@9sj-qt7-xkf","address":{"country_code":"QA","formatted_address":"Al-Maszhabiliya Street, ad-Dōha (Doha), Qatar","locality":"ad-Dōha (Doha)"}},"labels":["soccer","sport"],"duration":7398,"start_local":"2024-04-07T21:30:00","end":"2024-04-07T20:33:18Z","end_local":"2024-04-07T23:33:18","updated":"2024-06-05T00:47:28Z"},{"title":"CIPS Level4 (Certification In Procurement & Supply )","description":"Sourced from predicthq.com","category":"expos","start":"2024-03-29T21:00:00Z","geo":{"geometry":{"coordinates":[51.519215,25.267199],"type":"Point"},"placekey":"@9sj-q4q-m49","address":{"country_code":"QA","formatted_address":"Ibn Seena, Doha, Qatar","locality":"Doha","region":"Doha Municipality"}},"labels":["expo"],"duration":2678399,"start_local":"2024-03-30T00:00:00","end":"2024-04-29T20:59:59Z","end_local":"2024-04-29T23:59:59","updated":"2024-05-31T23:18:12Z"}]