[{"title":"Foulées du Coeur - Saint-Benoît","description":"Sourced from predicthq.com","category":"sports","start":"2024-09-29T03:00:00Z","geo":{"geometry":{"coordinates":[55.7130128,-21.033524],"type":"Point"},"placekey":"@jyh-9zm-jsq","address":{"country_code":"RE","formatted_address":"Rue Georges Pompidou, 97470 Saint-Benoît, La Réunion, France","locality":"Saint-Benoît","postcode":"97470","region":"Saint-Benoît"}},"labels":["outdoor-sports","running","sport"],"duration":0,"start_local":"2024-09-29T07:00:00","end":"2024-09-29T03:00:00Z","end_local":"2024-09-29T07:00:00","updated":"2024-06-03T23:38:48Z"},{"title":"Trail des Sources - Les avirons","description":"Sourced from predicthq.com","category":"sports","start":"2024-09-29T02:30:00Z","geo":{"geometry":{"coordinates":[55.3331676,-21.242448],"type":"Point"},"placekey":"@jyf-yky-r8v","address":{"country_code":"RE","formatted_address":"Avenue General de Gaulle, 97425 Les Avirons, La Réunion, France","locality":"Les Avirons","postcode":"97425","region":"Saint-Pierre"}},"labels":["outdoor-sports","running","sport"],"duration":0,"start_local":"2024-09-29T06:30:00","end":"2024-09-29T02:30:00Z","end_local":"2024-09-29T06:30:00","updated":"2024-06-04T01:29:06Z"},{"title":"Atelier du Mardi 24 Septembre 2024","description":"Sourced from predicthq.com - Viens participer à l'Atelier du Mardi 24 Septembre 2024 pour une journée de créativité, d'échanges et d'inspiration !","category":"conferences","start":"2024-09-24T05:30:00Z","geo":{"geometry":{"coordinates":[55.29013879999999,-20.9401924],"type":"Point"},"placekey":"@jyg-z7z-s89","address":{"country_code":"RE","formatted_address":"Rue du Maréchal Galliéni, 97420 Le Port, La Réunion, France","locality":"Le Port","postcode":"97420","region":"Saint-Paul"}},"labels":["conference","performing-arts"],"duration":9000,"start_local":"2024-09-24T09:30:00","end":"2024-09-24T08:00:00Z","end_local":"2024-09-24T12:00:00","updated":"2024-06-04T01:25:37Z"},{"title":"Trail Inter Hospitaliers","description":"Sourced from predicthq.com","category":"sports","start":"2024-09-22T04:00:00Z","geo":{"geometry":{"coordinates":[55.2701702,-21.0093476],"type":"Point"},"placekey":"@jyf-z4g-x89","address":{"country_code":"RE","formatted_address":"97460 Saint-Paul, La Réunion, France","locality":"Saint-Paul","postcode":"97460","region":"Saint-Paul"}},"labels":["outdoor-sports","running","sport"],"duration":0,"start_local":"2024-09-22T08:00:00","end":"2024-09-22T04:00:00Z","end_local":"2024-09-22T08:00:00","updated":"2024-06-04T02:06:41Z"},{"title":"Trail Urbain de Saint Denis","description":"Sourced from predicthq.com","category":"sports","start":"2024-09-21T13:00:00Z","geo":{"geometry":{"coordinates":[55.4484856,-20.8784675],"type":"Point"},"placekey":"@jyh-bfb-ysq","address":{"country_code":"RE","formatted_address":"Rue de la Compagnie, 97400 Saint-Denis, La Réunion, France","locality":"Saint-Denis","postcode":"97400","region":"Saint-Denis"}},"labels":["outdoor-sports","running","sport"],"duration":0,"start_local":"2024-09-21T17:00:00","end":"2024-09-21T13:00:00Z","end_local":"2024-09-21T17:00:00","updated":"2024-06-11T07:42:17Z"},{"title":"Trail des Sables de l'Étang-Salé les Bains","description":"Sourced from predicthq.com","category":"sports","start":"2024-09-21T12:00:00Z","geo":{"geometry":{"coordinates":[55.353065,-21.2718734],"type":"Point"},"placekey":"@jyf-ymg-x3q","address":{"country_code":"RE","formatted_address":"Chemin du Zoo, 97427 L'Étang-Salé, La Réunion, France","locality":"L'Étang-Salé","postcode":"97427","region":"Saint-Pierre"}},"labels":["outdoor-sports","running","sport"],"duration":0,"start_local":"2024-09-21T16:00:00","end":"2024-09-21T12:00:00Z","end_local":"2024-09-21T16:00:00","updated":"2024-06-04T10:09:51Z"},{"title":"Foulées Féminines Plaine des Palmistes","description":"Sourced from predicthq.com","category":"sports","start":"2024-09-15T05:00:00Z","geo":{"geometry":{"coordinates":[55.6256749,-21.1354928],"type":"Point"},"placekey":"@jyg-24s-5fz","address":{"country_code":"RE","formatted_address":"Rue de la République, 97431 La Plaine Des Palmistes, La Réunion, France","locality":"La Plaine Des Palmistes","postcode":"97431","region":"Saint-Benoît"}},"labels":["outdoor-sports","running","sport"],"duration":0,"start_local":"2024-09-15T09:00:00","end":"2024-09-15T05:00:00Z","end_local":"2024-09-15T09:00:00","updated":"2024-06-04T03:03:55Z"},{"title":"Foulées de Manap'","description":"Sourced from predicthq.com","category":"sports","start":"2024-09-15T03:00:00Z","geo":{"geometry":{"coordinates":[55.618982,-21.3788371],"type":"Point"},"placekey":"@jyg-2bf-swk","address":{"country_code":"RE","formatted_address":"Rue du Général Lambert, 97480 Saint-Joseph, La Réunion, France","locality":"Saint-Joseph","postcode":"97480","region":"Saint-Pierre"}},"labels":["outdoor-sports","running","sport"],"duration":0,"start_local":"2024-09-15T07:00:00","end":"2024-09-15T03:00:00Z","end_local":"2024-09-15T07:00:00","updated":"2024-06-04T04:11:56Z"},{"title":"Foulées Pédestres du Solida'run","description":"Sourced from predicthq.com","category":"sports","start":"2024-09-14T14:30:00Z","geo":{"geometry":{"coordinates":[55.4776663,-21.3408775],"type":"Point"},"placekey":"@jyf-yxg-wx5","address":{"country_code":"RE","formatted_address":"Boulevard Hubert Delisle, 97410 Saint-Pierre, La Réunion, France","locality":"Saint-Pierre","postcode":"97410","region":"Saint-Pierre"}},"labels":["outdoor-sports","running","sport"],"duration":0,"start_local":"2024-09-14T18:30:00","end":"2024-09-14T14:30:00Z","end_local":"2024-09-14T18:30:00","updated":"2024-06-04T03:59:07Z"},{"title":"David Adelson","description":"Sourced from predicthq.com - Join us for an evening of laughter, music, and memories at the David Adelson event - it's going to be a blast!","category":"conferences","start":"2024-09-13T20:00:00Z","geo":{"geometry":{"coordinates":[55.4484856,-20.8784675],"type":"Point"},"placekey":"@jyh-bfb-ysq","address":{"country_code":"RE","formatted_address":"Rue de la Compagnie, 97400 Saint-Denis, La Réunion, France","locality":"Saint-Denis","postcode":"97400","region":"Saint-Denis"}},"labels":["conference","performing-arts"],"duration":86400,"start_local":"2024-09-14T00:00:00","end":"2024-09-14T20:00:00Z","end_local":"2024-09-15T00:00:00","updated":"2024-06-11T00:53:55Z"},{"title":"Trail du Domaine Palssade","description":"Sourced from predicthq.com","category":"sports","start":"2024-09-08T03:00:00Z","geo":{"geometry":{"coordinates":[55.6508916,-20.9603972],"type":"Point"},"placekey":"@jyh-9xj-35z","address":{"country_code":"RE","formatted_address":"Avenue de la République, 97440 Saint-André, La Réunion, France","locality":"Saint-André","postcode":"97440","region":"Saint-Benoît"}},"labels":["outdoor-sports","running","sport"],"duration":0,"start_local":"2024-09-08T07:00:00","end":"2024-09-08T03:00:00Z","end_local":"2024-09-08T07:00:00","updated":"2024-06-04T06:56:33Z"},{"title":"Trail Coteau Sec","description":"Sourced from predicthq.com","category":"sports","start":"2024-09-08T03:00:00Z","geo":{"geometry":{"coordinates":[55.4700012,-21.2489125],"type":"Point"},"placekey":"@jyf-yqf-bx5","address":{"country_code":"RE","formatted_address":"Rue Fortune Hoarau, 97414 Entre-Deux, La Réunion, France","locality":"Entre-Deux","postcode":"97414","region":"Saint-Pierre"}},"labels":["outdoor-sports","running","sport"],"duration":0,"start_local":"2024-09-08T07:00:00","end":"2024-09-08T03:00:00Z","end_local":"2024-09-08T07:00:00","updated":"2024-06-03T23:39:23Z"},{"title":"Francofolies de La Reunion w/ Caravan Palace","description":"Sourced from predicthq.com","category":"festivals","start":"2024-09-07T20:00:00Z","geo":{"geometry":{"coordinates":[55.46999,-21.34376],"type":"Point"},"placekey":"@jyf-yxg-3t9","address":{"country_code":"RE","formatted_address":"33 Bd Hubert Delisle, Saint-Pierre 97410, Réunion","postcode":"97410","locality":"Saint-Pierre","region":"Saint-Pierre"}},"labels":["festival","music"],"duration":86399,"start_local":"2024-09-08T00:00:00","end":"2024-09-08T19:59:59Z","end_local":"2024-09-08T23:59:59","updated":"2024-06-08T01:01:36Z"},{"title":"10 km en Nocturne de Ville du Port","description":"Sourced from predicthq.com","category":"sports","start":"2024-09-07T15:00:00Z","geo":{"geometry":{"coordinates":[55.2903451,-20.9357423],"type":"Point"},"placekey":"@jyg-z7z-tn5","address":{"country_code":"RE","formatted_address":"Rue Renaudière de Vaux, 97420 Le Port, La Réunion, France","locality":"Le Port","postcode":"97420","region":"Saint-Paul"}},"labels":["outdoor-sports","running","sport"],"duration":0,"start_local":"2024-09-07T19:00:00","end":"2024-09-07T15:00:00Z","end_local":"2024-09-07T19:00:00","updated":"2024-06-04T00:21:22Z"},{"title":"Le Cilaos Challenge Trail","description":"Sourced from predicthq.com","category":"sports","start":"2024-09-07T03:00:00Z","geo":{"geometry":{"coordinates":[55.4711507,-21.1344903],"type":"Point"},"placekey":"@jyf-ysb-cnq","address":{"country_code":"RE","formatted_address":"Rue du Pere Boiteau, 97413 Cilaos, La Réunion, France","locality":"Cilaos","postcode":"97413","region":"Saint-Pierre"}},"labels":["outdoor-sports","running","sport"],"duration":0,"start_local":"2024-09-07T07:00:00","end":"2024-09-07T03:00:00Z","end_local":"2024-09-07T07:00:00","updated":"2024-06-04T05:13:22Z"},{"title":"Raid Tuit Tuit Mpoi","description":"Sourced from predicthq.com","category":"sports","start":"2024-09-01T03:00:00Z","geo":{"geometry":{"coordinates":[55.4484856,-20.8784675],"type":"Point"},"placekey":"@jyh-bfb-ysq","address":{"country_code":"RE","formatted_address":"Rue de la Compagnie, 97400 Saint-Denis, La Réunion, France","locality":"Saint-Denis","postcode":"97400","region":"Saint-Denis"}},"labels":["outdoor-sports","running","sport"],"duration":0,"start_local":"2024-09-01T07:00:00","end":"2024-09-01T03:00:00Z","end_local":"2024-09-01T07:00:00","updated":"2024-06-11T01:16:35Z"},{"title":"Cimasa Run","description":"Sourced from predicthq.com","category":"sports","start":"2024-08-31T01:00:00Z","geo":{"geometry":{"coordinates":[55.4711507,-21.1344903],"type":"Point"},"placekey":"@jyf-ysb-cnq","address":{"country_code":"RE","formatted_address":"Rue du Pere Boiteau, 97413 Cilaos, La Réunion, France","locality":"Cilaos","postcode":"97413","region":"Saint-Pierre"}},"labels":["outdoor-sports","running","sport"],"duration":0,"start_local":"2024-08-31T05:00:00","end":"2024-08-31T01:00:00Z","end_local":"2024-08-31T05:00:00","updated":"2024-06-04T04:33:03Z"},{"title":"Foulées Sentier Littoral de Sainte Suzanne","description":"Sourced from predicthq.com","category":"sports","start":"2024-08-25T03:30:00Z","geo":{"geometry":{"coordinates":[55.6106762,-20.9072551],"type":"Point"},"placekey":"@jyh-9nc-28v","address":{"country_code":"RE","formatted_address":"Rue Desprez, 97441 Sainte Suzanne, La Réunion, France","locality":"Sainte Suzanne","postcode":"97441","region":"Saint-Denis"}},"labels":["outdoor-sports","running","sport"],"duration":0,"start_local":"2024-08-25T07:30:00","end":"2024-08-25T03:30:00Z","end_local":"2024-08-25T07:30:00","updated":"2024-06-04T09:51:36Z"},{"title":"Les Foulées de Bois d'Olives","description":"Sourced from predicthq.com","category":"sports","start":"2024-08-25T02:30:00Z","geo":{"geometry":{"coordinates":[55.4776663,-21.3408775],"type":"Point"},"placekey":"@jyf-yxg-wx5","address":{"country_code":"RE","formatted_address":"Boulevard Hubert Delisle, 97410 Saint-Pierre, La Réunion, France","locality":"Saint-Pierre","postcode":"97410","region":"Saint-Pierre"}},"labels":["outdoor-sports","running","sport"],"duration":0,"start_local":"2024-08-25T06:30:00","end":"2024-08-25T02:30:00Z","end_local":"2024-08-25T06:30:00","updated":"2024-06-04T09:29:16Z"},{"title":"Boucle Parapente","description":"Sourced from predicthq.com","category":"sports","start":"2024-08-18T02:00:00Z","geo":{"geometry":{"coordinates":[55.2701702,-21.0093476],"type":"Point"},"placekey":"@jyf-z4g-x89","address":{"country_code":"RE","formatted_address":"97460 Saint-Paul, La Réunion, France","locality":"Saint-Paul","postcode":"97460","region":"Saint-Paul"}},"labels":["outdoor-sports","running","sport"],"duration":0,"start_local":"2024-08-18T06:00:00","end":"2024-08-18T02:00:00Z","end_local":"2024-08-18T06:00:00","updated":"2024-06-04T00:31:03Z"},{"title":"5 km et 10 km de Saint Leu","description":"Sourced from predicthq.com","category":"sports","start":"2024-08-15T13:00:00Z","geo":{"geometry":{"coordinates":[55.2878651,-21.1747552],"type":"Point"},"placekey":"@jyf-ynv-52k","address":{"country_code":"RE","formatted_address":"97436 Saint-Leu, La Réunion, France","locality":"Saint-Leu","postcode":"97436","region":"Saint-Paul"}},"labels":["outdoor-sports","running","sport"],"duration":0,"start_local":"2024-08-15T17:00:00","end":"2024-08-15T13:00:00Z","end_local":"2024-08-15T17:00:00","updated":"2024-06-04T00:55:11Z"},{"title":"Trail Tour Ti Benare","description":"Sourced from predicthq.com","category":"sports","start":"2024-08-15T00:00:00Z","geo":{"geometry":{"coordinates":[55.3331676,-21.242448],"type":"Point"},"placekey":"@jyf-yky-r8v","address":{"country_code":"RE","formatted_address":"Avenue General de Gaulle, 97425 Les Avirons, La Réunion, France","locality":"Les Avirons","postcode":"97425","region":"Saint-Pierre"}},"labels":["outdoor-sports","running","sport"],"duration":0,"start_local":"2024-08-15T04:00:00","end":"2024-08-15T00:00:00Z","end_local":"2024-08-15T04:00:00","updated":"2024-06-04T01:56:10Z"},{"title":"Trail Sud Sauvage","description":"Sourced from predicthq.com","category":"sports","start":"2024-08-11T03:00:00Z","geo":{"geometry":{"coordinates":[55.7665126,-21.3595223],"type":"Point"},"placekey":"@jyf-zkc-sdv","address":{"country_code":"RE","formatted_address":"Rue Leconte de Lisle, 97442 Saint-Philippe, La Réunion, France","locality":"Saint-Philippe","postcode":"97442","region":"Saint-Pierre"}},"labels":["outdoor-sports","running","sport"],"duration":0,"start_local":"2024-08-11T07:00:00","end":"2024-08-11T03:00:00Z","end_local":"2024-08-11T07:00:00","updated":"2024-06-04T01:06:41Z"},{"title":"10 km de Sainte Marie","description":"Sourced from predicthq.com","category":"sports","start":"2024-08-10T03:00:00Z","geo":{"geometry":{"coordinates":[55.549018,-20.8973789],"type":"Point"},"placekey":"@jyh-bcd-6p9","address":{"country_code":"RE","formatted_address":"Rue de la Republique, 97438 Sainte-Marie, La Réunion, France","locality":"Sainte-Marie","postcode":"97438","region":"Saint-Denis"}},"labels":["outdoor-sports","running","sport"],"duration":0,"start_local":"2024-08-10T07:00:00","end":"2024-08-10T03:00:00Z","end_local":"2024-08-10T07:00:00","updated":"2024-06-04T00:39:45Z"},{"title":"Trail et Rando Vaincre Parkison","description":"Sourced from predicthq.com","category":"sports","start":"2024-08-04T03:00:00Z","geo":{"geometry":{"coordinates":[55.2397317,-21.0926702],"type":"Point"},"placekey":"@jyf-z3t-mzf","address":{"country_code":"RE","formatted_address":"Rue des Pailles en Queues, 97434 Saint-Paul, La Réunion, France","locality":"Saint-Paul","postcode":"97434","region":"Saint-Paul"}},"labels":["outdoor-sports","running","sport"],"duration":0,"start_local":"2024-08-04T07:00:00","end":"2024-08-04T03:00:00Z","end_local":"2024-08-04T07:00:00","updated":"2024-05-27T01:21:50Z"},{"title":"Trail Urbain de la Muco","description":"Sourced from predicthq.com","category":"sports","start":"2024-08-03T14:00:00Z","geo":{"geometry":{"coordinates":[55.4776663,-21.3408775],"type":"Point"},"placekey":"@jyf-yxg-wx5","address":{"country_code":"RE","formatted_address":"Boulevard Hubert Delisle, 97410 Saint-Pierre, La Réunion, France","locality":"Saint-Pierre","postcode":"97410","region":"Saint-Pierre"}},"labels":["outdoor-sports","running","sport"],"duration":0,"start_local":"2024-08-03T18:00:00","end":"2024-08-03T14:00:00Z","end_local":"2024-08-03T18:00:00","updated":"2024-06-04T00:02:02Z"},{"title":"Trail Dina Morgabine","description":"Sourced from predicthq.com","category":"sports","start":"2024-08-03T03:00:00Z","geo":{"geometry":{"coordinates":[55.5391963,-21.027999],"type":"Point"},"placekey":"@jyh-9xp-cbk","address":{"country_code":"RE","formatted_address":"Place Theodore Simonette, 97433 Salazie, La Réunion, France","locality":"Salazie","postcode":"97433","region":"Saint-Benoît"}},"labels":["outdoor-sports","running","sport"],"duration":0,"start_local":"2024-08-03T07:00:00","end":"2024-08-03T03:00:00Z","end_local":"2024-08-03T07:00:00","updated":"2024-06-04T04:33:02Z"},{"title":"Alfredo Rodriguez, Alfredo Rodriguez Band, Alana Sinkëy, and 3 others","description":"Sourced from predicthq.com","category":"concerts","start":"2024-08-02T17:00:00Z","geo":{"geometry":{"coordinates":[55.29427,-20.94056],"type":"Point"},"placekey":"@jyg-z7z-syv","address":{"country_code":"RE","formatted_address":"60 Rue Mahé de la Bourdonnais, Le Port 97420, Réunion","postcode":"97420","locality":"Le Port","region":"Saint-Denis"}},"labels":["concert","music"],"duration":0,"start_local":"2024-08-02T21:00:00","end":"2024-08-02T17:00:00Z","end_local":"2024-08-02T21:00:00","updated":"2024-06-11T04:31:15Z"},{"title":"Take Off","description":"Sourced from predicthq.com","category":"community","start":"2024-08-02T16:00:00Z","geo":{"geometry":{"coordinates":[55.53064,-21.28356],"type":"Point"},"placekey":"@jyf-yzg-w49","address":{"country_code":"RE","formatted_address":"32 Chem. du Petit Tampon, Le Tampon 97430, Réunion","postcode":"97430","locality":"Le Tampon","region":"Saint-Pierre"}},"labels":["concert","music"],"duration":0,"start_local":"2024-08-02T20:00:00","end":"2024-08-02T16:00:00Z","end_local":"2024-08-02T20:00:00","updated":"2024-07-05T03:23:34Z"},{"title":"Grand Benare-trois Bassinoise","description":"Sourced from predicthq.com","category":"sports","start":"2024-07-28T02:30:00Z","geo":{"geometry":{"coordinates":[55.2951171,-21.1055992],"type":"Point"},"placekey":"@jyf-z48-mx5","address":{"country_code":"RE","formatted_address":"Rue du General de Gaulle, 97426 Les Trois-Bassins, La Réunion, France","locality":"Les Trois-Bassins","postcode":"97426","region":"Saint-Paul"}},"labels":["outdoor-sports","running","sport"],"duration":0,"start_local":"2024-07-28T06:30:00","end":"2024-07-28T02:30:00Z","end_local":"2024-07-28T06:30:00","updated":"2024-06-04T01:42:58Z"},{"title":"Est-il possible d’améliorer ses marges bénéficiaires en temps de crises ?","description":"Sourced from predicthq.com - Améliorez vos marges en temps de crise : maîtrisez le calcul, l’analyse, et transformez les risques en opportunités avec nos experts !","category":"conferences","start":"2024-07-22T14:00:00Z","geo":{"geometry":{"coordinates":[55.3278501,-20.9360441],"type":"Point"},"placekey":"@jyg-z6z-7qz","address":{"country_code":"RE","formatted_address":"Rue Patrice Lumumba, 97419 La Possession, La Réunion, France","locality":"La Possession","postcode":"97419","region":"Saint-Paul"}},"labels":["business","conference"],"duration":5400,"start_local":"2024-07-22T18:00:00","end":"2024-07-22T15:30:00Z","end_local":"2024-07-22T19:30:00","updated":"2024-06-27T13:33:59Z"},{"title":"Trail K'frines","description":"Sourced from predicthq.com","category":"sports","start":"2024-07-21T04:00:00Z","geo":{"geometry":{"coordinates":[55.4484856,-20.8784675],"type":"Point"},"placekey":"@jyh-bfb-ysq","address":{"country_code":"RE","formatted_address":"Rue de la Compagnie, 97400 Saint-Denis, La Réunion, France","locality":"Saint-Denis","postcode":"97400","region":"Saint-Denis"}},"labels":["outdoor-sports","running","sport"],"duration":0,"start_local":"2024-07-21T08:00:00","end":"2024-07-21T04:00:00Z","end_local":"2024-07-21T08:00:00","updated":"2024-06-10T23:48:32Z"},{"title":"Trail des Trois Pitons","description":"Sourced from predicthq.com","category":"sports","start":"2024-07-21T03:00:00Z","geo":{"geometry":{"coordinates":[55.6256749,-21.1354928],"type":"Point"},"placekey":"@jyg-24s-5fz","address":{"country_code":"RE","formatted_address":"Rue de la République, 97431 La Plaine Des Palmistes, La Réunion, France","locality":"La Plaine Des Palmistes","postcode":"97431","region":"Saint-Benoît"}},"labels":["outdoor-sports","running","sport"],"duration":0,"start_local":"2024-07-21T07:00:00","end":"2024-07-21T03:00:00Z","end_local":"2024-07-21T07:00:00","updated":"2024-06-04T00:07:15Z"},{"title":"Trail de la Riviere des Galets","description":"Sourced from predicthq.com","category":"sports","start":"2024-07-20T02:00:00Z","geo":{"geometry":{"coordinates":[55.2903451,-20.9357423],"type":"Point"},"placekey":"@jyg-z7z-tn5","address":{"country_code":"RE","formatted_address":"Rue Renaudière de Vaux, 97420 Le Port, La Réunion, France","locality":"Le Port","postcode":"97420","region":"Saint-Paul"}},"labels":["outdoor-sports","running","sport"],"duration":0,"start_local":"2024-07-20T06:00:00","end":"2024-07-20T02:00:00Z","end_local":"2024-07-20T06:00:00","updated":"2024-06-04T08:25:49Z"},{"title":"Leu Trail de la Chaloupe","description":"Sourced from predicthq.com","category":"sports","start":"2024-07-14T02:30:00Z","geo":{"geometry":{"coordinates":[55.3189318,-21.149401],"type":"Point"},"placekey":"@jyf-yn4-5vf","address":{"country_code":"RE","formatted_address":"Chemin du Stade, 97424 Saint-Leu, La Réunion, France","locality":"Saint-Leu","postcode":"97424","region":"Saint-Paul"}},"labels":["outdoor-sports","running","sport"],"duration":0,"start_local":"2024-07-14T06:30:00","end":"2024-07-14T02:30:00Z","end_local":"2024-07-14T06:30:00","updated":"2024-06-04T01:18:14Z"},{"title":"Ascension de l'Ouest","description":"Sourced from predicthq.com","category":"sports","start":"2024-07-14T00:00:00Z","geo":{"geometry":{"coordinates":[55.3189318,-21.149401],"type":"Point"},"placekey":"@jyf-yn4-5vf","address":{"country_code":"RE","formatted_address":"Chemin du Stade, 97424 Saint-Leu, La Réunion, France","locality":"Saint-Leu","postcode":"97424","region":"Saint-Paul"}},"labels":["outdoor-sports","running","sport"],"duration":0,"start_local":"2024-07-14T04:00:00","end":"2024-07-14T00:00:00Z","end_local":"2024-07-14T04:00:00","updated":"2024-06-04T06:31:27Z"},{"title":"Trail de Cilaos","description":"Sourced from predicthq.com","category":"sports","start":"2024-07-13T03:00:00Z","geo":{"geometry":{"coordinates":[55.4711507,-21.1344903],"type":"Point"},"placekey":"@jyf-ysb-cnq","address":{"country_code":"RE","formatted_address":"Rue du Pere Boiteau, 97413 Cilaos, La Réunion, France","locality":"Cilaos","postcode":"97413","region":"Saint-Pierre"}},"labels":["outdoor-sports","running","sport"],"duration":0,"start_local":"2024-07-13T07:00:00","end":"2024-07-13T03:00:00Z","end_local":"2024-07-13T07:00:00","updated":"2024-06-04T08:01:24Z"},{"title":"INVITATION - [RSE] Présentation du parcours Tipa Tipa  -  08/07/2024","description":"Sourced from predicthq.com - Lancer sa démarche responsable avec le parcours Tipa Tipa.","category":"conferences","start":"2024-07-08T12:00:00Z","geo":{"geometry":{"coordinates":[55.2716726,-21.0109907],"type":"Point"},"placekey":"@jyf-z4g-ty9","address":{"country_code":"RE","formatted_address":"Rue Poivre, 97460 Saint-Paul, La Réunion, France","locality":"Saint-Paul","postcode":"97460","region":"Saint-Paul"}},"labels":["business","conference"],"duration":7200,"start_local":"2024-07-08T16:00:00","end":"2024-07-08T14:00:00Z","end_local":"2024-07-08T18:00:00","updated":"2024-07-05T05:42:16Z"},{"title":"10 km de Domenjod","description":"Sourced from predicthq.com","category":"sports","start":"2024-07-07T03:30:00Z","geo":{"geometry":{"coordinates":[55.4484856,-20.8784675],"type":"Point"},"placekey":"@jyh-bfb-ysq","address":{"country_code":"RE","formatted_address":"Rue de la Compagnie, 97400 Saint-Denis, La Réunion, France","locality":"Saint-Denis","postcode":"97400","region":"Saint-Denis"}},"labels":["outdoor-sports","running","sport"],"duration":0,"start_local":"2024-07-07T07:30:00","end":"2024-07-07T03:30:00Z","end_local":"2024-07-07T07:30:00","updated":"2024-06-11T00:39:11Z"},{"title":"La Grande Traversée du Gr 2","description":"Sourced from predicthq.com","category":"sports","start":"2024-07-07T02:00:00Z","geo":{"geometry":{"coordinates":[55.4484856,-20.8784675],"type":"Point"},"placekey":"@jyh-bfb-ysq","address":{"country_code":"RE","formatted_address":"Rue de la Compagnie, 97400 Saint-Denis, La Réunion, France","locality":"Saint-Denis","postcode":"97400","region":"Saint-Denis"}},"labels":["outdoor-sports","running","sport"],"duration":0,"start_local":"2024-07-07T06:00:00","end":"2024-07-07T02:00:00Z","end_local":"2024-07-07T06:00:00","updated":"2024-06-11T04:14:07Z"},{"title":"Garbapapa and Yass","description":"Sourced from predicthq.com","category":"concerts","start":"2024-07-05T14:00:00Z","geo":{"geometry":{"coordinates":[55.46586,-21.33357],"type":"Point"},"placekey":"@jyf-yx9-qzz","address":{"country_code":"RE","formatted_address":"15 Rue De La Republique, Saint-Pierre 97410, Réunion","postcode":"97410","locality":"Saint-Pierre","region":"Saint-Pierre"}},"labels":["concert","music"],"duration":0,"start_local":"2024-07-05T18:00:00","end":"2024-07-05T14:00:00Z","end_local":"2024-07-05T18:00:00","updated":"2024-07-05T07:25:25Z"},{"title":"Diony Festy Trail","description":"Sourced from predicthq.com","category":"sports","start":"2024-07-05T04:00:00Z","geo":{"geometry":{"coordinates":[55.4484856,-20.8784675],"type":"Point"},"placekey":"@jyh-bfb-ysq","address":{"country_code":"RE","formatted_address":"Rue de la Compagnie, 97400 Saint-Denis, La Réunion, France","locality":"Saint-Denis","postcode":"97400","region":"Saint-Denis"}},"labels":["outdoor-sports","running","sport"],"duration":0,"start_local":"2024-07-05T08:00:00","end":"2024-07-05T04:00:00Z","end_local":"2024-07-05T08:00:00","updated":"2024-06-11T01:09:34Z"},{"title":"Championnat de Semi-marathon de la Réunion","description":"Sourced from predicthq.com","category":"sports","start":"2024-06-30T03:00:00Z","geo":{"geometry":{"coordinates":[55.3667935,-21.2655698],"type":"Point"},"placekey":"@jyf-ymc-4sq","address":{"country_code":"RE","formatted_address":"97427 L'Étang-Salé, La Réunion, France","locality":"L'Étang-Salé","postcode":"97427","region":"Saint-Pierre"}},"labels":["marathon","outdoor-sports","running","sport"],"duration":0,"start_local":"2024-06-30T07:00:00","end":"2024-06-30T03:00:00Z","end_local":"2024-06-30T07:00:00","updated":"2024-06-11T09:01:12Z"},{"title":"Trail du Bassin Boeuf","description":"Sourced from predicthq.com","category":"sports","start":"2024-06-30T03:00:00Z","geo":{"geometry":{"coordinates":[55.6106762,-20.9072551],"type":"Point"},"placekey":"@jyh-9nc-28v","address":{"country_code":"RE","formatted_address":"Rue Desprez, 97441 Sainte Suzanne, La Réunion, France","locality":"Sainte Suzanne","postcode":"97441","region":"Saint-Denis"}},"labels":["outdoor-sports","running","sport"],"duration":0,"start_local":"2024-06-30T07:00:00","end":"2024-06-30T03:00:00Z","end_local":"2024-06-30T07:00:00","updated":"2024-06-04T05:23:17Z"},{"title":"Raid 97.4 - Semi-raid 97.4","description":"Sourced from predicthq.com","category":"sports","start":"2024-06-30T01:00:00Z","geo":{"geometry":{"coordinates":[55.2903451,-20.9357423],"type":"Point"},"placekey":"@jyg-z7z-tn5","address":{"country_code":"RE","formatted_address":"Rue Renaudière de Vaux, 97420 Le Port, La Réunion, France","locality":"Le Port","postcode":"97420","region":"Saint-Paul"}},"labels":["outdoor-sports","running","sport"],"duration":0,"start_local":"2024-06-30T05:00:00","end":"2024-06-30T01:00:00Z","end_local":"2024-06-30T05:00:00","updated":"2024-06-04T02:16:20Z"},{"title":"Foulées Solidaires de Bras-fusil","description":"Sourced from predicthq.com","category":"sports","start":"2024-06-29T04:00:00Z","geo":{"geometry":{"coordinates":[55.7130128,-21.033524],"type":"Point"},"placekey":"@jyh-9zm-jsq","address":{"country_code":"RE","formatted_address":"Rue Georges Pompidou, 97470 Saint-Benoît, La Réunion, France","locality":"Saint-Benoît","postcode":"97470","region":"Saint-Benoît"}},"labels":["outdoor-sports","running","sport"],"duration":0,"start_local":"2024-06-29T08:00:00","end":"2024-06-29T04:00:00Z","end_local":"2024-06-29T08:00:00","updated":"2024-06-03T23:53:30Z"},{"title":"Raid 97.4","description":"Sourced from predicthq.com","category":"sports","start":"2024-06-28T20:00:00Z","geo":{"geometry":{"coordinates":[55.295055,-20.9456859],"type":"Point"},"placekey":"@jyg-z7y-z4v","address":{"country_code":"RE","formatted_address":"Allée Zimmermann, 97420 Le Port, La Réunion, France","locality":"Le Port","postcode":"97420","region":"Saint-Paul"}},"labels":["outdoor-sports","running","sport"],"duration":86399,"start_local":"2024-06-29T00:00:00","end":"2024-06-29T19:59:59Z","end_local":"2024-06-29T23:59:59","updated":"2024-06-04T03:41:24Z"},{"title":"Jeudi, on discute des législatives !","description":"Sourced from predicthq.com - On discute des législatives à venir, les groupes, programmes, dynamiques et perspectives sur un format apéritif, sur la plage !","category":"conferences","start":"2024-06-27T14:00:00Z","geo":{"geometry":{"coordinates":[55.2866924,-21.1786867],"type":"Point"},"placekey":"@jyf-ynn-r6k","address":{"country_code":"RE","formatted_address":"Rue du Général Lambert, 97436 Saint-Leu, La Réunion, France","locality":"Saint-Leu","postcode":"97436","region":"Saint-Paul"}},"labels":["conference"],"duration":5400,"start_local":"2024-06-27T18:00:00","end":"2024-06-27T15:30:00Z","end_local":"2024-06-27T19:30:00","updated":"2024-06-27T18:55:23Z"},{"title":"Mardi, on discute des législatives !","description":"Sourced from predicthq.com - On discute des législatives à venir, les groupes, programmes, dynamiques et perspectives sur un format apéritif, sur la plage !","category":"conferences","start":"2024-06-25T14:00:00Z","geo":{"geometry":{"coordinates":[55.2866924,-21.1786867],"type":"Point"},"placekey":"@jyf-ynn-r6k","address":{"country_code":"RE","formatted_address":"Rue du Général Lambert, 97436 Saint-Leu, La Réunion, France","locality":"Saint-Leu","postcode":"97436","region":"Saint-Paul"}},"labels":["conference"],"duration":5400,"start_local":"2024-06-25T18:00:00","end":"2024-06-25T15:30:00Z","end_local":"2024-06-25T19:30:00","updated":"2024-06-24T15:20:04Z"},{"title":"Dialogue social  et transition écologique","description":"Sourced from predicthq.com - Conférence sociale de la Direction de l'économie, de l'emploi, du travail et des solidarités","category":"conferences","start":"2024-06-25T04:30:00Z","geo":{"geometry":{"coordinates":[55.4484856,-20.8784675],"type":"Point"},"placekey":"@jyh-bfb-ysq","address":{"country_code":"RE","formatted_address":"Rue de la Compagnie, 97400 Saint-Denis, La Réunion, France","locality":"Saint-Denis","postcode":"97400","region":"Saint-Denis"}},"labels":["community","conference"],"duration":16200,"start_local":"2024-06-25T08:30:00","end":"2024-06-25T09:00:00Z","end_local":"2024-06-25T13:00:00","updated":"2024-06-11T03:34:53Z"},{"title":"INVITATION - GT Services à la personne","description":"Sourced from predicthq.com - Ce groupe de travail est espace privilégié pour vous faire entendre.","category":"conferences","start":"2024-06-24T13:00:00Z","geo":{"geometry":{"coordinates":[55.2716726,-21.0109907],"type":"Point"},"placekey":"@jyf-z4g-ty9","address":{"country_code":"RE","formatted_address":"Rue Poivre, 97460 Saint-Paul, La Réunion, France","locality":"Saint-Paul","postcode":"97460","region":"Saint-Paul"}},"labels":["business","conference"],"duration":7200,"start_local":"2024-06-24T17:00:00","end":"2024-06-24T15:00:00Z","end_local":"2024-06-24T19:00:00","updated":"2024-06-13T00:55:55Z"},{"title":"Foulées Metabolik","description":"Sourced from predicthq.com","category":"sports","start":"2024-06-22T11:00:00Z","geo":{"geometry":{"coordinates":[55.7130128,-21.033524],"type":"Point"},"placekey":"@jyh-9zm-jsq","address":{"country_code":"RE","formatted_address":"Rue Georges Pompidou, 97470 Saint-Benoît, La Réunion, France","locality":"Saint-Benoît","postcode":"97470","region":"Saint-Benoît"}},"labels":["outdoor-sports","running","sport"],"duration":0,"start_local":"2024-06-22T15:00:00","end":"2024-06-22T11:00:00Z","end_local":"2024-06-22T15:00:00","updated":"2024-06-04T03:11:33Z"},{"title":"Les 24 Heures du Piton Babet","description":"Sourced from predicthq.com","category":"sports","start":"2024-06-22T05:00:00Z","geo":{"geometry":{"coordinates":[55.618982,-21.3788371],"type":"Point"},"placekey":"@jyg-2bf-swk","address":{"country_code":"RE","formatted_address":"Rue du Général Lambert, 97480 Saint-Joseph, La Réunion, France","locality":"Saint-Joseph","postcode":"97480","region":"Saint-Pierre"}},"labels":["outdoor-sports","running","sport"],"duration":0,"start_local":"2024-06-22T09:00:00","end":"2024-06-22T05:00:00Z","end_local":"2024-06-22T09:00:00","updated":"2024-06-03T23:50:58Z"},{"title":"Trail Faham","description":"Sourced from predicthq.com","category":"sports","start":"2024-06-22T03:30:00Z","geo":{"geometry":{"coordinates":[55.4078708,-21.2866039],"type":"Point"},"placekey":"@jyf-z25-jjv","address":{"country_code":"RE","formatted_address":"N1C, 97450 Saint-Louis, La Réunion, France","locality":"Saint-Louis","postcode":"97450","region":"Saint-Pierre"}},"labels":["outdoor-sports","running","sport"],"duration":0,"start_local":"2024-06-22T07:30:00","end":"2024-06-22T03:30:00Z","end_local":"2024-06-22T07:30:00","updated":"2024-06-04T00:55:57Z"},{"title":"Trail du Grand Bassin","description":"Sourced from predicthq.com","category":"sports","start":"2024-06-22T03:00:00Z","geo":{"geometry":{"coordinates":[55.5579927,-21.2209911],"type":"Point"},"placekey":"@jyf-yr2-2kz","address":{"country_code":"RE","formatted_address":"Rue de la Gironde, 97418 Le Tampon, La Réunion, France","locality":"Le Tampon","postcode":"97418","region":"Saint-Pierre"}},"labels":["outdoor-sports","running","sport"],"duration":0,"start_local":"2024-06-22T07:00:00","end":"2024-06-22T03:00:00Z","end_local":"2024-06-22T07:00:00","updated":"2024-06-10T23:56:11Z"},{"title":"Ultra Marathon des Cirques","description":"Sourced from predicthq.com","category":"sports","start":"2024-06-21T23:30:00Z","geo":{"geometry":{"coordinates":[55.4711507,-21.1344903],"type":"Point"},"placekey":"@jyf-ysb-cnq","address":{"country_code":"RE","formatted_address":"Rue du Pere Boiteau, 97413 Cilaos, La Réunion, France","locality":"Cilaos","postcode":"97413","region":"Saint-Pierre"}},"labels":["marathon","outdoor-sports","running","sport"],"duration":0,"start_local":"2024-06-22T03:30:00","end":"2024-06-21T23:30:00Z","end_local":"2024-06-22T03:30:00","updated":"2024-06-04T06:10:01Z"},{"title":"RIZ CHAUFFE \"Emploi et handicap\"","description":"Sourced from predicthq.com - Bénéficiez de l'expérience et des idées des vos pairs référents handicap, grâce à l'intelligence collective (CODEV).","category":"conferences","start":"2024-06-20T04:45:00Z","geo":{"geometry":{"coordinates":[55.4960657,-20.8971931],"type":"Point"},"placekey":"@jyh-bbs-he9","address":{"country_code":"RE","formatted_address":"Boulevard du Chaudron, 97490 Saint-Denis, La Réunion, France","locality":"Saint-Denis","postcode":"97490","region":"Saint-Denis"}},"labels":["business","conference"],"duration":8100,"start_local":"2024-06-20T08:45:00","end":"2024-06-20T07:00:00Z","end_local":"2024-06-20T11:00:00","updated":"2024-05-30T06:19:55Z"},{"title":"Deeptech Green - Les micro réseaux","description":"Sourced from predicthq.com - Découvrez les microréseaux et l'impact qu'ils peuvent avoir sur vous, votre entreprise et l'économie réunionnaise.","category":"conferences","start":"2024-06-20T04:30:00Z","geo":{"geometry":{"coordinates":[55.48522209999999,-20.9017358],"type":"Point"},"placekey":"@jyh-bc3-hwk","address":{"country_code":"RE","formatted_address":"Avenue René Cassin, 97715 Saint-Denis, La Réunion, France","locality":"Saint-Denis","postcode":"97715","region":"Saint-Denis"}},"labels":["conference","science","technology"],"duration":12600,"start_local":"2024-06-20T08:30:00","end":"2024-06-20T08:00:00Z","end_local":"2024-06-20T12:00:00","updated":"2024-06-06T01:13:23Z"},{"title":"INVITATION - Groupe de Travail Numérique","description":"Sourced from predicthq.com - Inscrivez-vous !","category":"conferences","start":"2024-06-18T13:00:00Z","geo":{"geometry":{"coordinates":[55.2716726,-21.0109907],"type":"Point"},"placekey":"@jyf-z4g-ty9","address":{"country_code":"RE","formatted_address":"Rue Poivre, 97460 Saint-Paul, La Réunion, France","locality":"Saint-Paul","postcode":"97460","region":"Saint-Paul"}},"labels":["business","conference"],"duration":7200,"start_local":"2024-06-18T17:00:00","end":"2024-06-18T15:00:00Z","end_local":"2024-06-18T19:00:00","updated":"2024-06-06T02:25:09Z"},{"title":"Prévention de la désinsertion professionnelle, maintien dans l'emploi","description":"Sourced from predicthq.com - Vous entendez régulièrement parler de prévention de la désinsertion professionnelle et de maintien dans l'emploi. De quoi s'agit-il ?","category":"conferences","start":"2024-06-18T09:30:00Z","geo":{"geometry":{"coordinates":[55.2540737,-21.0535414],"type":"Point"},"placekey":"@jyf-z2x-kj9","address":{"country_code":"RE","formatted_address":"97460 Saint-Paul, La Réunion, France","locality":"Saint-Paul","postcode":"97460","region":"Saint-Paul"}},"labels":["business","conference"],"duration":4500,"start_local":"2024-06-18T13:30:00","end":"2024-06-18T10:45:00Z","end_local":"2024-06-18T14:45:00","updated":"2024-06-04T11:57:41Z"},{"title":"Matinale : #Dispositifs fiscaux de l'État","description":"Sourced from predicthq.com - Optimisez votre croissance grâce aux dispositifs fiscaux de l'État !","category":"conferences","start":"2024-06-18T06:00:00Z","geo":{"geometry":{"coordinates":[55.499477,-20.905496],"type":"Point"},"placekey":"@jyh-bbr-pd9","address":{"country_code":"RE","formatted_address":"Rue Albert Lougnon, 97490 Saint-Denis, La Réunion, France","locality":"Saint-Denis","postcode":"97490","region":"Saint-Denis"}},"labels":["conference"],"duration":7200,"start_local":"2024-06-18T10:00:00","end":"2024-06-18T08:00:00Z","end_local":"2024-06-18T12:00:00","updated":"2024-06-06T03:59:01Z"},{"title":"Plénière : Le Travail de demain","description":"Sourced from predicthq.com - Cette séance plénière souhaite explorer le futur du travail et le travail à venir.","category":"conferences","start":"2024-06-18T04:30:00Z","geo":{"geometry":{"coordinates":[55.2540737,-21.0535414],"type":"Point"},"placekey":"@jyf-z2x-kj9","address":{"country_code":"RE","formatted_address":"97460 Saint-Paul, La Réunion, France","locality":"Saint-Paul","postcode":"97460","region":"Saint-Paul"}},"labels":["business","conference"],"duration":9000,"start_local":"2024-06-18T08:30:00","end":"2024-06-18T07:00:00Z","end_local":"2024-06-18T11:00:00","updated":"2024-05-30T05:51:33Z"},{"title":"Trail de Bellevue","description":"Sourced from predicthq.com","category":"sports","start":"2024-06-16T03:30:00Z","geo":{"geometry":{"coordinates":[55.4955309,-20.8955374],"type":"Point"},"placekey":"@jyh-bbs-hyv","address":{"country_code":"RE","formatted_address":"Boulevard du Chaudron, 97490 Saint-Denis, La Réunion, France","locality":"Saint-Denis","postcode":"97490","region":"Saint-Denis"}},"labels":["outdoor-sports","running","sport"],"duration":0,"start_local":"2024-06-16T07:30:00","end":"2024-06-16T03:30:00Z","end_local":"2024-06-16T07:30:00","updated":"2024-06-04T07:22:21Z"},{"title":"Kabar Dann' Kan - Maloyèr pou lonèr Lélé","description":"Sourced from predicthq.com - Pou di Mersi Lélé","category":"festivals","start":"2024-06-15T09:30:00Z","geo":{"geometry":{"coordinates":[55.6765231,-20.9976316],"type":"Point"},"placekey":"@jyh-b3f-3nq","address":{"country_code":"RE","formatted_address":"Rue des Limites, 97412 Bras-Panon, La Réunion, France","locality":"Bras-Panon","postcode":"97412","region":"Saint-Benoît"}},"labels":["community","festival"],"duration":19800,"start_local":"2024-06-15T13:30:00","end":"2024-06-15T15:00:00Z","end_local":"2024-06-15T19:00:00","updated":"2024-06-06T01:23:46Z"},{"title":"Trail Urbain Ecocite","description":"Sourced from predicthq.com","category":"sports","start":"2024-06-15T03:00:00Z","geo":{"geometry":{"coordinates":[55.3337397,-20.9313685],"type":"Point"},"placekey":"@jyg-z6z-6x5","address":{"country_code":"RE","formatted_address":"Rue Sarda Garriga, 97419 La Possession, La Réunion, France","locality":"La Possession","postcode":"97419","region":"Saint-Paul"}},"labels":["outdoor-sports","running","sport"],"duration":0,"start_local":"2024-06-15T07:00:00","end":"2024-06-15T03:00:00Z","end_local":"2024-06-15T07:00:00","updated":"2024-06-11T00:56:47Z"},{"title":"Enter the Void","description":"Sourced from predicthq.com","category":"concerts","start":"2024-06-14T16:00:00Z","geo":{"geometry":{"coordinates":[55.53064,-21.28356],"type":"Point"},"placekey":"@jyf-yzg-w49","address":{"country_code":"RE","formatted_address":"32 Chem. du Petit Tampon, Le Tampon 97430, Réunion","postcode":"97430","locality":"Le Tampon","region":"Saint-Pierre"}},"labels":["concert","music"],"duration":0,"start_local":"2024-06-14T20:00:00","end":"2024-06-14T16:00:00Z","end_local":"2024-06-14T20:00:00","updated":"2024-06-28T16:02:40Z"},{"title":"Les Foulées du PMS Raphael Babet","description":"Sourced from predicthq.com","category":"sports","start":"2024-06-09T03:00:00Z","geo":{"geometry":{"coordinates":[55.618982,-21.3788371],"type":"Point"},"placekey":"@jyg-2bf-swk","address":{"country_code":"RE","formatted_address":"Rue du Général Lambert, 97480 Saint-Joseph, La Réunion, France","locality":"Saint-Joseph","postcode":"97480","region":"Saint-Pierre"}},"labels":["outdoor-sports","running","sport"],"duration":0,"start_local":"2024-06-09T07:00:00","end":"2024-06-09T03:00:00Z","end_local":"2024-06-09T07:00:00","updated":"2024-06-04T09:58:07Z"},{"title":"Trail Urbain de la Gare Routiere","description":"Sourced from predicthq.com","category":"sports","start":"2024-06-09T03:00:00Z","geo":{"geometry":{"coordinates":[55.4700012,-21.2489125],"type":"Point"},"placekey":"@jyf-yqf-bx5","address":{"country_code":"RE","formatted_address":"Rue Fortune Hoarau, 97414 Entre-Deux, La Réunion, France","locality":"Entre-Deux","postcode":"97414","region":"Saint-Pierre"}},"labels":["outdoor-sports","running","sport"],"duration":0,"start_local":"2024-06-09T07:00:00","end":"2024-06-09T03:00:00Z","end_local":"2024-06-09T07:00:00","updated":"2024-06-04T07:11:45Z"},{"title":"Trail des 3 Salines et Rando","description":"Sourced from predicthq.com","category":"sports","start":"2024-06-09T02:30:00Z","geo":{"geometry":{"coordinates":[55.2645969,-21.0855219],"type":"Point"},"placekey":"@jyf-z2w-nwk","address":{"country_code":"RE","formatted_address":"Rue Néhoua, 97422 Saint-Paul, La Réunion, France","locality":"Saint-Paul","postcode":"97422","region":"Saint-Paul"}},"labels":["outdoor-sports","running","sport"],"duration":0,"start_local":"2024-06-09T06:30:00","end":"2024-06-09T02:30:00Z","end_local":"2024-06-09T06:30:00","updated":"2024-06-03T23:54:09Z"},{"title":"Relais Nocturne de la Ville de Saint Andre","description":"Sourced from predicthq.com","category":"sports","start":"2024-06-08T15:30:00Z","geo":{"geometry":{"coordinates":[55.6508916,-20.9603972],"type":"Point"},"placekey":"@jyh-9xj-35z","address":{"country_code":"RE","formatted_address":"Avenue de la République, 97440 Saint-André, La Réunion, France","locality":"Saint-André","postcode":"97440","region":"Saint-Benoît"}},"labels":["outdoor-sports","running","sport"],"duration":0,"start_local":"2024-06-08T19:30:00","end":"2024-06-08T15:30:00Z","end_local":"2024-06-08T19:30:00","updated":"2024-06-04T03:15:38Z"},{"title":"Urban Trail du Tampon","description":"Sourced from predicthq.com","category":"sports","start":"2024-06-02T04:00:00Z","geo":{"geometry":{"coordinates":[55.515318,-21.2790444],"type":"Point"},"placekey":"@jyf-yzh-tvz","address":{"country_code":"RE","formatted_address":"Route Hubert Delisle, 97430 Le Tampon, La Réunion, France","locality":"Le Tampon","postcode":"97430","region":"Saint-Pierre"}},"labels":["outdoor-sports","running","sport"],"duration":0,"start_local":"2024-06-02T08:00:00","end":"2024-06-02T04:00:00Z","end_local":"2024-06-02T08:00:00","updated":"2024-06-04T04:53:07Z"},{"title":"Trail de la Crête","description":"Sourced from predicthq.com","category":"sports","start":"2024-06-01T03:00:00Z","geo":{"geometry":{"coordinates":[55.618982,-21.3788371],"type":"Point"},"placekey":"@jyg-2bf-swk","address":{"country_code":"RE","formatted_address":"Rue du Général Lambert, 97480 Saint-Joseph, La Réunion, France","locality":"Saint-Joseph","postcode":"97480","region":"Saint-Pierre"}},"labels":["outdoor-sports","running","sport"],"duration":0,"start_local":"2024-06-01T07:00:00","end":"2024-06-01T03:00:00Z","end_local":"2024-06-01T07:00:00","updated":"2024-06-04T04:51:10Z"},{"title":"La Mosaïque des Uniformes","description":"Sourced from predicthq.com","category":"sports","start":"2024-06-01T02:00:00Z","geo":{"geometry":{"coordinates":[55.5579927,-21.2209911],"type":"Point"},"placekey":"@jyf-yr2-2kz","address":{"country_code":"RE","formatted_address":"Rue de la Gironde, 97418 Le Tampon, La Réunion, France","locality":"Le Tampon","postcode":"97418","region":"Saint-Pierre"}},"labels":["outdoor-sports","running","sport"],"duration":0,"start_local":"2024-06-01T06:00:00","end":"2024-06-01T02:00:00Z","end_local":"2024-06-01T06:00:00","updated":"2024-06-04T03:35:11Z"},{"title":"DREO","description":"Sourced from predicthq.com","category":"concerts","start":"2024-05-30T15:30:00Z","geo":{"geometry":{"coordinates":[55.22741,-21.08115],"type":"Point"},"placekey":"@jyf-z3v-6kz","address":{"country_code":"RE","formatted_address":"26 Chem. de l'Hermitage, Saint-Paul 97434, Réunion","postcode":"97434","locality":"Saint-Paul","region":"Saint-Paul"}},"labels":["concert","music"],"duration":0,"start_local":"2024-05-30T19:30:00","end":"2024-05-30T15:30:00Z","end_local":"2024-05-30T19:30:00","updated":"2024-06-13T15:49:16Z"},{"title":"INVITATION - Commission Commerce","description":"Sourced from predicthq.com - Nos Commissions sont des espaces privilégiés pour échanger sur les questions qui vous préoccupent.","category":"conferences","start":"2024-05-30T13:00:00Z","geo":{"geometry":{"coordinates":[55.2716726,-21.0109907],"type":"Point"},"placekey":"@jyf-z4g-ty9","address":{"country_code":"RE","formatted_address":"Rue Poivre, 97460 Saint-Paul, La Réunion, France","locality":"Saint-Paul","postcode":"97460","region":"Saint-Paul"}},"labels":["business","conference"],"duration":7200,"start_local":"2024-05-30T17:00:00","end":"2024-05-30T15:00:00Z","end_local":"2024-05-30T19:00:00","updated":"2024-06-05T05:30:33Z"},{"title":"L'intelligence artificielle dans la finance","description":"Sourced from predicthq.com - / NOUVEAU / Table ronde sur l'Intelligence artificielle dans la finance, un événement exclusivement organisé pour les leaders du secteur !","category":"conferences","start":"2024-05-29T14:00:00Z","geo":{"geometry":{"coordinates":[55.3278501,-20.9360441],"type":"Point"},"placekey":"@jyg-z6z-7qz","address":{"country_code":"RE","formatted_address":"Rue Patrice Lumumba, 97419 La Possession, La Réunion, France","locality":"La Possession","postcode":"97419","region":"Saint-Paul"}},"labels":["conference","science","technology"],"duration":0,"start_local":"2024-05-29T18:00:00","end":"2024-05-29T14:00:00Z","end_local":"2024-05-29T18:00:00","updated":"2024-06-05T19:46:15Z"},{"title":"MASTERCLASS #HYBRIDATION","description":"Sourced from predicthq.com - Et si l’hybridation était la grande tendance du monde qui vient ?","category":"conferences","start":"2024-05-29T04:30:00Z","geo":{"geometry":{"coordinates":[55.48522209999999,-20.9017358],"type":"Point"},"placekey":"@jyh-bc3-hwk","address":{"country_code":"RE","formatted_address":"Avenue René Cassin, 97715 Saint-Denis, La Réunion, France","locality":"Saint-Denis","postcode":"97715","region":"Saint-Denis"}},"labels":["conference","science","technology"],"duration":12600,"start_local":"2024-05-29T08:30:00","end":"2024-05-29T08:00:00Z","end_local":"2024-05-29T12:00:00","updated":"2024-05-22T05:07:34Z"},{"title":"Marathon de la Réunion","description":"Sourced from predicthq.com","category":"sports","start":"2024-05-26T02:00:00Z","geo":{"geometry":{"coordinates":[55.6508916,-20.9603972],"type":"Point"},"placekey":"@jyh-9xj-35z","address":{"country_code":"RE","formatted_address":"Avenue de la République, 97440 Saint-André, La Réunion, France","locality":"Saint-André","postcode":"97440","region":"Saint-Benoît"}},"labels":["marathon","outdoor-sports","running","sport"],"duration":0,"start_local":"2024-05-26T06:00:00","end":"2024-05-26T02:00:00Z","end_local":"2024-05-26T06:00:00","updated":"2024-06-05T05:33:01Z"},{"title":"Trail la Planeze","description":"Sourced from predicthq.com","category":"sports","start":"2024-05-25T00:00:00Z","geo":{"geometry":{"coordinates":[55.7665126,-21.3595223],"type":"Point"},"placekey":"@jyf-zkc-sdv","address":{"country_code":"RE","formatted_address":"Rue Leconte de Lisle, 97442 Saint-Philippe, La Réunion, France","locality":"Saint-Philippe","postcode":"97442","region":"Saint-Pierre"}},"labels":["outdoor-sports","running","sport"],"duration":0,"start_local":"2024-05-25T04:00:00","end":"2024-05-25T00:00:00Z","end_local":"2024-05-25T04:00:00","updated":"2024-06-05T08:09:26Z"},{"title":"Grand Trail de l'Ouest","description":"Sourced from predicthq.com","category":"sports","start":"2024-05-24T18:00:00Z","geo":{"geometry":{"coordinates":[55.2701702,-21.0093476],"type":"Point"},"placekey":"@jyf-z4g-x89","address":{"country_code":"RE","formatted_address":"97460 Saint-Paul, La Réunion, France","locality":"Saint-Paul","postcode":"97460","region":"Saint-Paul"}},"labels":["outdoor-sports","running","sport"],"duration":0,"start_local":"2024-05-24T22:00:00","end":"2024-05-24T18:00:00Z","end_local":"2024-05-24T22:00:00","updated":"2024-06-04T22:56:18Z"},{"title":"ENTREPRENEURIAT FÉMININ À LA REUNION - FEMMES DE PROJETS, FEMMES D'AVENIR","description":"Sourced from predicthq.com - Viens rencontrer des femmes entrepreneures inspirantes à La Réunion et découvre leurs projets et leurs parcours pour un avenir brillant!","category":"conferences","start":"2024-05-24T04:00:00Z","geo":{"geometry":{"coordinates":[55.4477687,-20.8827916],"type":"Point"},"placekey":"@jyh-bfb-xqz","address":{"country_code":"RE","formatted_address":"Rue Sainte-Anne, 97400 Saint-Denis, La Réunion, France","locality":"Saint-Denis","postcode":"97400","region":"Saint-Denis"}},"labels":["business","conference"],"duration":14400,"start_local":"2024-05-24T08:00:00","end":"2024-05-24T08:00:00Z","end_local":"2024-05-24T12:00:00","updated":"2024-06-05T15:27:42Z"},{"title":"Visite du site de l’ESIROI, une école d’ingénieurs bioclimatique","description":"Sourced from predicthq.com - Venez découvrir la conception, le fonctionnement et l’optimisation énergétique ce bâtiment bioclimatique en milieu tropical.","category":"conferences","start":"2024-05-22T06:30:00Z","geo":{"geometry":{"coordinates":[55.4910225,-21.3411886],"type":"Point"},"placekey":"@jyf-yy3-6zf","address":{"country_code":"RE","formatted_address":"Avenue De Soweto, 97410 Saint-Pierre, La Réunion, France","locality":"Saint-Pierre","postcode":"97410","region":"Saint-Pierre"}},"labels":["business","conference"],"duration":5400,"start_local":"2024-05-22T10:30:00","end":"2024-05-22T08:00:00Z","end_local":"2024-05-22T12:00:00","updated":"2024-06-05T11:03:02Z"},{"title":"La Ronde des Goyaviers","description":"Sourced from predicthq.com","category":"sports","start":"2024-05-19T03:00:00Z","geo":{"geometry":{"coordinates":[55.6256749,-21.1354928],"type":"Point"},"placekey":"@jyg-24s-5fz","address":{"country_code":"RE","formatted_address":"Rue de la République, 97431 La Plaine Des Palmistes, La Réunion, France","locality":"La Plaine Des Palmistes","postcode":"97431","region":"Saint-Benoît"}},"labels":["outdoor-sports","running","sport"],"duration":0,"start_local":"2024-05-19T07:00:00","end":"2024-05-19T03:00:00Z","end_local":"2024-05-19T07:00:00","updated":"2024-06-05T09:49:40Z"},{"title":"Trail de Minuit","description":"Sourced from predicthq.com","category":"sports","start":"2024-05-18T19:59:00Z","geo":{"geometry":{"coordinates":[55.3337397,-20.9313685],"type":"Point"},"placekey":"@jyg-z6z-6x5","address":{"country_code":"RE","formatted_address":"Rue Sarda Garriga, 97419 La Possession, La Réunion, France","locality":"La Possession","postcode":"97419","region":"Saint-Paul"}},"labels":["outdoor-sports","running","sport"],"duration":0,"start_local":"2024-05-18T23:59:00","end":"2024-05-18T19:59:00Z","end_local":"2024-05-18T23:59:00","updated":"2024-06-11T21:26:31Z"},{"title":"10 km Nocturne de Saint Denis","description":"Sourced from predicthq.com","category":"sports","start":"2024-05-18T16:00:00Z","geo":{"geometry":{"coordinates":[55.4484856,-20.8784675],"type":"Point"},"placekey":"@jyh-bfb-ysq","address":{"country_code":"RE","formatted_address":"Rue de la Compagnie, 97400 Saint-Denis, La Réunion, France","locality":"Saint-Denis","postcode":"97400","region":"Saint-Denis"}},"labels":["outdoor-sports","running","sport"],"duration":0,"start_local":"2024-05-18T20:00:00","end":"2024-05-18T16:00:00Z","end_local":"2024-05-18T20:00:00","updated":"2024-06-12T01:59:17Z"},{"title":"Fresque de la biodiversité par ÉCHOBAT","description":"Sourced from predicthq.com - Participer à un atelier collaboratif pour comprendre de façon systémique l'état d'érosion de la biodiversité","category":"conferences","start":"2024-05-16T10:00:00Z","geo":{"geometry":{"coordinates":[55.2701702,-21.0093476],"type":"Point"},"placekey":"@jyf-z4g-x89","address":{"country_code":"RE","formatted_address":"97460 Saint-Paul, La Réunion, France","locality":"Saint-Paul","postcode":"97460","region":"Saint-Paul"}},"labels":["community","conference"],"duration":10800,"start_local":"2024-05-16T14:00:00","end":"2024-05-16T13:00:00Z","end_local":"2024-05-16T17:00:00","updated":"2024-06-05T18:31:34Z"},{"title":"Cilaos Women Trail","description":"Sourced from predicthq.com","category":"sports","start":"2024-05-11T02:00:00Z","geo":{"geometry":{"coordinates":[55.4711507,-21.1344903],"type":"Point"},"placekey":"@jyf-ysb-cnq","address":{"country_code":"RE","formatted_address":"Rue du Pere Boiteau, 97413 Cilaos, La Réunion, France","locality":"Cilaos","postcode":"97413","region":"Saint-Pierre"}},"labels":["outdoor-sports","running","sport"],"duration":0,"start_local":"2024-05-11T06:00:00","end":"2024-05-11T02:00:00Z","end_local":"2024-05-11T06:00:00","updated":"2024-06-05T00:44:51Z"},{"title":"La Salazienne","description":"Sourced from predicthq.com","category":"sports","start":"2024-05-09T03:00:00Z","geo":{"geometry":{"coordinates":[55.5391963,-21.027999],"type":"Point"},"placekey":"@jyh-9xp-cbk","address":{"country_code":"RE","formatted_address":"Place Theodore Simonette, 97433 Salazie, La Réunion, France","locality":"Salazie","postcode":"97433","region":"Saint-Benoît"}},"labels":["outdoor-sports","running","sport"],"duration":0,"start_local":"2024-05-09T07:00:00","end":"2024-05-09T03:00:00Z","end_local":"2024-05-09T07:00:00","updated":"2024-06-05T06:33:31Z"},{"title":"Foulée Sainte Anne","description":"Sourced from predicthq.com","category":"sports","start":"2024-05-08T03:30:00Z","geo":{"geometry":{"coordinates":[55.7245012,-21.124302],"type":"Point"},"placekey":"@jyg-24g-52k","address":{"country_code":"RE","formatted_address":"Chemin des Jacques, 97437 Saint-Benoît, La Réunion, France","locality":"Saint-Benoît","postcode":"97437","region":"Saint-Benoît"}},"labels":["outdoor-sports","running","sport"],"duration":0,"start_local":"2024-05-08T07:30:00","end":"2024-05-08T03:30:00Z","end_local":"2024-05-08T07:30:00","updated":"2024-06-05T16:48:49Z"},{"title":"10 km de la Ville du Port","description":"Sourced from predicthq.com","category":"sports","start":"2024-05-08T03:00:00Z","geo":{"geometry":{"coordinates":[55.2903451,-20.9357423],"type":"Point"},"placekey":"@jyg-z7z-tn5","address":{"country_code":"RE","formatted_address":"Rue Renaudière de Vaux, 97420 Le Port, La Réunion, France","locality":"Le Port","postcode":"97420","region":"Saint-Paul"}},"labels":["outdoor-sports","running","sport"],"duration":0,"start_local":"2024-05-08T07:00:00","end":"2024-05-08T03:00:00Z","end_local":"2024-05-08T07:00:00","updated":"2024-06-05T02:52:57Z"},{"title":"Course Papangue","description":"Sourced from predicthq.com","category":"sports","start":"2024-05-08T03:00:00Z","geo":{"geometry":{"coordinates":[55.3331676,-21.242448],"type":"Point"},"placekey":"@jyf-yky-r8v","address":{"country_code":"RE","formatted_address":"Avenue General de Gaulle, 97425 Les Avirons, La Réunion, France","locality":"Les Avirons","postcode":"97425","region":"Saint-Pierre"}},"labels":["outdoor-sports","running","sport"],"duration":0,"start_local":"2024-05-08T07:00:00","end":"2024-05-08T03:00:00Z","end_local":"2024-05-08T07:00:00","updated":"2024-06-05T11:08:15Z"},{"title":"Foulées de la Trisomie 21","description":"Sourced from predicthq.com","category":"sports","start":"2024-05-05T04:00:00Z","geo":{"geometry":{"coordinates":[55.5579927,-21.2209911],"type":"Point"},"placekey":"@jyf-yr2-2kz","address":{"country_code":"RE","formatted_address":"Rue de la Gironde, 97418 Le Tampon, La Réunion, France","locality":"Le Tampon","postcode":"97418","region":"Saint-Pierre"}},"labels":["outdoor-sports","running","sport"],"duration":0,"start_local":"2024-05-05T08:00:00","end":"2024-05-05T04:00:00Z","end_local":"2024-05-05T08:00:00","updated":"2024-06-05T11:51:49Z"},{"title":"10 km Ste Marie","description":"Sourced from predicthq.com","category":"sports","start":"2024-05-05T03:00:00Z","geo":{"geometry":{"coordinates":[55.549018,-20.8973789],"type":"Point"},"placekey":"@jyh-bcd-6p9","address":{"country_code":"RE","formatted_address":"Rue de la Republique, 97438 Sainte-Marie, La Réunion, France","locality":"Sainte-Marie","postcode":"97438","region":"Saint-Denis"}},"labels":["outdoor-sports","running","sport"],"duration":0,"start_local":"2024-05-05T07:00:00","end":"2024-05-05T03:00:00Z","end_local":"2024-05-05T07:00:00","updated":"2024-06-12T15:37:10Z"},{"title":"Ultra Trail de l'Océan Indien","description":"Sourced from predicthq.com","category":"sports","start":"2024-05-02T14:00:00Z","geo":{"geometry":{"coordinates":[55.7665126,-21.3595223],"type":"Point"},"placekey":"@jyf-zkc-sdv","address":{"country_code":"RE","formatted_address":"Rue Leconte de Lisle, 97442 Saint-Philippe, La Réunion, France","locality":"Saint-Philippe","postcode":"97442","region":"Saint-Pierre"}},"labels":["outdoor-sports","running","sport"],"duration":0,"start_local":"2024-05-02T18:00:00","end":"2024-05-02T14:00:00Z","end_local":"2024-05-02T18:00:00","updated":"2024-06-05T06:53:59Z"},{"title":"Utoi","description":"Sourced from predicthq.com","category":"sports","start":"2024-05-02T10:00:00Z","geo":{"geometry":{"coordinates":[55.2701702,-21.0093476],"type":"Point"},"placekey":"@jyf-z4g-x89","address":{"country_code":"RE","formatted_address":"97460 Saint-Paul, La Réunion, France","locality":"Saint-Paul","postcode":"97460","region":"Saint-Paul"}},"labels":["outdoor-sports","running","sport"],"duration":0,"start_local":"2024-05-02T14:00:00","end":"2024-05-02T10:00:00Z","end_local":"2024-05-02T14:00:00","updated":"2024-06-05T06:59:22Z"},{"title":"Trail du Volcan","description":"Sourced from predicthq.com","category":"sports","start":"2024-05-01T03:00:00Z","geo":{"geometry":{"coordinates":[55.5579927,-21.2209911],"type":"Point"},"placekey":"@jyf-yr2-2kz","address":{"country_code":"RE","formatted_address":"Rue de la Gironde, 97418 Le Tampon, La Réunion, France","locality":"Le Tampon","postcode":"97418","region":"Saint-Pierre"}},"labels":["outdoor-sports","running","sport"],"duration":0,"start_local":"2024-05-01T07:00:00","end":"2024-05-01T03:00:00Z","end_local":"2024-05-01T07:00:00","updated":"2024-06-05T11:34:54Z"},{"title":"Johan Papaconstantino","description":"Sourced from predicthq.com","category":"concerts","start":"2024-04-27T15:00:00Z","geo":{"geometry":{"coordinates":[55.29427,-20.94056],"type":"Point"},"placekey":"@jyg-z7z-syv","address":{"country_code":"RE","formatted_address":"60 Rue Mahé de la Bourdonnais, Le Port 97420, Réunion","postcode":"97420","locality":"Le Port","region":"Saint-Denis"}},"labels":["concert","music"],"duration":0,"start_local":"2024-04-27T19:00:00","end":"2024-04-27T15:00:00Z","end_local":"2024-04-27T19:00:00","updated":"2024-06-11T23:50:19Z"},{"title":"La Boucle Infernale","description":"Sourced from predicthq.com","category":"sports","start":"2024-04-27T03:00:00Z","geo":{"geometry":{"coordinates":[55.2701702,-21.0093476],"type":"Point"},"placekey":"@jyf-z4g-x89","address":{"country_code":"RE","formatted_address":"97460 Saint-Paul, La Réunion, France","locality":"Saint-Paul","postcode":"97460","region":"Saint-Paul"}},"labels":["outdoor-sports","running","sport"],"duration":0,"start_local":"2024-04-27T07:00:00","end":"2024-04-27T03:00:00Z","end_local":"2024-04-27T07:00:00","updated":"2024-06-05T11:38:41Z"},{"title":"Vente privée atout pc's","description":"Sourced from predicthq.com - Vente privée exclusive chez Atout Pc's ! Profitez de réductions incroyables sur tous nos produits. ️ Ne manquez pas cette occasion unique !","category":"expos","start":"2024-04-26T14:00:00Z","geo":{"geometry":{"coordinates":[55.51739600000001,-20.8972994],"type":"Point"},"placekey":"@jyh-bbt-w49","address":{"country_code":"RE","formatted_address":"Rue Adolphe Pegoud, 97438 Sainte-Marie, La Réunion, France","locality":"Sainte-Marie","postcode":"97438","region":"Saint-Denis"}},"labels":["business","expo"],"duration":9000,"start_local":"2024-04-26T18:00:00","end":"2024-04-26T16:30:00Z","end_local":"2024-04-26T20:30:00","updated":"2024-06-05T04:03:10Z"},{"title":"MATINALE  PROPRIÉTÉ INTELLECTUELLE","description":"Sourced from predicthq.com - Viens assister à notre matinée dédiée à la propriété intellectuelle, avec des conférences et des discussions passionnantes !","category":"conferences","start":"2024-04-26T04:30:00Z","geo":{"geometry":{"coordinates":[55.491355,-21.3400032],"type":"Point"},"placekey":"@jyf-yy3-6rk","address":{"country_code":"RE","formatted_address":"Avenue De Soweto, 97410 Saint-Pierre, La Réunion, France","locality":"Saint-Pierre","postcode":"97410","region":"Saint-Pierre"}},"labels":["business","conference"],"duration":10800,"start_local":"2024-04-26T08:30:00","end":"2024-04-26T07:30:00Z","end_local":"2024-04-26T11:30:00","updated":"2024-06-05T02:33:43Z"},{"title":"The Boneshakers","description":"Sourced from predicthq.com","category":"concerts","start":"2024-04-25T15:30:00Z","geo":{"geometry":{"coordinates":[55.22741,-21.08115],"type":"Point"},"placekey":"@jyf-z3v-6kz","address":{"country_code":"RE","formatted_address":"26 Chem. de l'Hermitage, Saint-Paul 97434, Réunion","postcode":"97434","locality":"Saint-Paul","region":"Saint-Paul"}},"labels":["concert","music"],"duration":0,"start_local":"2024-04-25T19:30:00","end":"2024-04-25T15:30:00Z","end_local":"2024-04-25T19:30:00","updated":"2024-06-12T09:14:50Z"},{"title":"Atelier Intelligence Artificielle avec Hugging Face","description":"Sourced from predicthq.com - Viens découvrir comment utiliser l'intelligence artificielle avec Hugging Face lors de notre atelier en personne!","category":"conferences","start":"2024-04-23T14:00:00Z","geo":{"geometry":{"coordinates":[55.45930389999999,-20.88259489999999],"type":"Point"},"placekey":"@jyh-bfd-jy9","address":{"country_code":"RE","formatted_address":"Rue Saint Jacques, 97400 Saint-Denis, La Réunion, France","locality":"Saint-Denis","postcode":"97400","region":"Saint-Denis"}},"labels":["conference","science","technology"],"duration":7200,"start_local":"2024-04-23T18:00:00","end":"2024-04-23T16:00:00Z","end_local":"2024-04-23T20:00:00","updated":"2024-06-05T02:59:30Z"},{"title":"Trail des Agriculteurs","description":"Sourced from predicthq.com","category":"sports","start":"2024-04-21T02:30:00Z","geo":{"geometry":{"coordinates":[55.5579927,-21.2209911],"type":"Point"},"placekey":"@jyf-yr2-2kz","address":{"country_code":"RE","formatted_address":"Rue de la Gironde, 97418 Le Tampon, La Réunion, France","locality":"Le Tampon","postcode":"97418","region":"Saint-Pierre"}},"labels":["outdoor-sports","running","sport"],"duration":0,"start_local":"2024-04-21T06:30:00","end":"2024-04-21T02:30:00Z","end_local":"2024-04-21T06:30:00","updated":"2024-06-05T04:59:56Z"},{"title":"D-tour","description":"Sourced from predicthq.com","category":"sports","start":"2024-04-20T19:00:00Z","geo":{"geometry":{"coordinates":[55.4484856,-20.8784675],"type":"Point"},"placekey":"@jyh-bfb-ysq","address":{"country_code":"RE","formatted_address":"Rue de la Compagnie, 97400 Saint-Denis, La Réunion, France","locality":"Saint-Denis","postcode":"97400","region":"Saint-Denis"}},"labels":["outdoor-sports","running","sport"],"duration":0,"start_local":"2024-04-20T23:00:00","end":"2024-04-20T19:00:00Z","end_local":"2024-04-20T23:00:00","updated":"2024-06-12T11:14:44Z"},{"title":"Rires en apprentissage : une soirée Stand-Up au CFA Réunion Apprentissage","description":"Sourced from predicthq.com - Rejoignez-nous pour une soirée où l’humour et l’apprentissage se rencontrent !","category":"performing-arts","start":"2024-04-19T15:00:00Z","geo":{"geometry":{"coordinates":[55.37089479999999,-21.2740339],"type":"Point"},"placekey":"@jyf-ymg-p5f","address":{"country_code":"RE","formatted_address":"Rue Leonus Benard, 97427 L'Étang-Salé, La Réunion, France","locality":"L'Étang-Salé","postcode":"97427","region":"Saint-Pierre"}},"labels":["concert","music","performing-arts"],"duration":5400,"start_local":"2024-04-19T19:00:00","end":"2024-04-19T16:30:00Z","end_local":"2024-04-19T20:30:00","updated":"2024-06-05T04:00:14Z"},{"title":"SOL ROSA","description":"Sourced from predicthq.com","category":"concerts","start":"2024-04-19T15:00:00Z","geo":{"geometry":{"coordinates":[55.71919,-21.03717],"type":"Point"},"placekey":"@jyh-9zp-9fz","address":{"country_code":"RE","formatted_address":"44 Rue Amiral Bouvet, Reunion, La Réunion, France","locality":"Reunion"}},"labels":["concert","music"],"duration":0,"start_local":"2024-04-19T19:00:00","end":"2024-04-19T15:00:00Z","end_local":"2024-04-19T19:00:00","updated":"2024-06-12T11:22:34Z"},{"title":"INVITATION - GT Services à la personne","description":"Sourced from predicthq.com - Afin de mieux structurer le secteur, nous vous convions au premier GT  Services à la personne de l'année prévu le vendredi 19 avril prochain","category":"conferences","start":"2024-04-19T13:00:00Z","geo":{"geometry":{"coordinates":[55.2716648,-21.01090139999999],"type":"Point"},"placekey":"@jyf-z4g-ty9","address":{"country_code":"RE","formatted_address":"Rue Poivre, 97460 Saint-Paul, La Réunion, France","locality":"Saint-Paul","postcode":"97460","region":"Saint-Paul"}},"labels":["business","conference"],"duration":7200,"start_local":"2024-04-19T17:00:00","end":"2024-04-19T15:00:00Z","end_local":"2024-04-19T19:00:00","updated":"2024-06-05T03:03:31Z"},{"title":"LMDD : Évaluation des risques professionnels - Addiction / Sexisme","description":"Sourced from predicthq.com - Isodom et ses partenaires vous convient à la prochaine édition (2024) : Les Matinales du Décideur","category":"conferences","start":"2024-04-19T05:00:00Z","geo":{"geometry":{"coordinates":[55.5009579,-20.905257],"type":"Point"},"placekey":"@jyh-bbr-bhq","address":{"country_code":"RE","formatted_address":"Rue Maxime Rivière, 97490 Saint-Denis, La Réunion, France","locality":"Saint-Denis","postcode":"97490","region":"Saint-Denis"}},"labels":["business","conference"],"duration":10800,"start_local":"2024-04-19T09:00:00","end":"2024-04-19T08:00:00Z","end_local":"2024-04-19T12:00:00","updated":"2024-06-05T02:32:53Z"},{"title":"Colloque annuel  du programme VIF® La Réunion","description":"Sourced from predicthq.com - \"En forme sur mon île !\" : l'activité physique au cœur des villes pour un capital santé préservé !","category":"conferences","start":"2024-04-18T06:00:00Z","geo":{"geometry":{"coordinates":[55.4715319,-20.88873049999999],"type":"Point"},"placekey":"@jyh-bfc-nt9","address":{"country_code":"RE","formatted_address":"Route Philibert Tsiranana, 97490 Saint-Denis, La Réunion, France","locality":"Saint-Denis","postcode":"97490","region":"Saint-Denis"}},"labels":["conference","health"],"duration":19800,"start_local":"2024-04-18T10:00:00","end":"2024-04-18T11:30:00Z","end_local":"2024-04-18T15:30:00","updated":"2024-06-05T10:41:41Z"},{"title":"INVITATION - Groupe de travail sur la défiscalisation","description":"Sourced from predicthq.com - Aides  et dispositifs de soutien aux entreprises.","category":"conferences","start":"2024-04-17T13:00:00Z","geo":{"geometry":{"coordinates":[55.2716726,-21.0109907],"type":"Point"},"placekey":"@jyf-z4g-ty9","address":{"country_code":"RE","formatted_address":"Rue Poivre, 97460 Saint-Paul, La Réunion, France","locality":"Saint-Paul","postcode":"97460","region":"Saint-Paul"}},"labels":["business","conference"],"duration":7200,"start_local":"2024-04-17T17:00:00","end":"2024-04-17T15:00:00Z","end_local":"2024-04-17T19:00:00","updated":"2024-06-05T15:49:15Z"},{"title":"INVITATION - Groupe de Travail Numérique","description":"Sourced from predicthq.com - Inscrivez-vous !","category":"conferences","start":"2024-04-16T13:30:00Z","geo":{"geometry":{"coordinates":[55.4995723,-20.9020063],"type":"Point"},"placekey":"@jyh-bbr-dy9","address":{"country_code":"RE","formatted_address":"Chemin de Grand Canal, 97490 Saint-Denis, La Réunion, France","locality":"Saint-Denis","postcode":"97490","region":"Saint-Denis"}},"labels":["business","conference"],"duration":7200,"start_local":"2024-04-16T17:30:00","end":"2024-04-16T15:30:00Z","end_local":"2024-04-16T19:30:00","updated":"2024-06-05T03:59:27Z"},{"title":"AAP FACT du 16 avril 2024","description":"Sourced from predicthq.com - L'Aract Réunion vous convie à une réunion de présentation et d'échange en présence de Patrick Issartelle Responsable des grands projets","category":"conferences","start":"2024-04-16T04:30:00Z","geo":{"geometry":{"coordinates":[55.4536767,-20.882102],"type":"Point"},"placekey":"@jyh-bfd-pn5","address":{"country_code":"RE","formatted_address":"Rue Roland Garros, 97400 Saint-Denis, La Réunion, France","locality":"Saint-Denis","postcode":"97400","region":"Saint-Denis"}},"labels":["community","conference"],"duration":28800,"start_local":"2024-04-16T08:30:00","end":"2024-04-16T12:30:00Z","end_local":"2024-04-16T16:30:00","updated":"2024-06-05T06:44:06Z"},{"title":"Course de la Fenetre Chpt de Montagne","description":"Sourced from predicthq.com","category":"sports","start":"2024-04-14T03:30:00Z","geo":{"geometry":{"coordinates":[55.4078708,-21.2866039],"type":"Point"},"placekey":"@jyf-z25-jjv","address":{"country_code":"RE","formatted_address":"N1C, 97450 Saint-Louis, La Réunion, France","locality":"Saint-Louis","postcode":"97450","region":"Saint-Pierre"}},"labels":["outdoor-sports","running","sport"],"duration":0,"start_local":"2024-04-14T07:30:00","end":"2024-04-14T03:30:00Z","end_local":"2024-04-14T07:30:00","updated":"2024-06-05T04:14:43Z"},{"title":"Trail de la Savane","description":"Sourced from predicthq.com","category":"sports","start":"2024-04-14T02:30:00Z","geo":{"geometry":{"coordinates":[55.2701702,-21.0093476],"type":"Point"},"placekey":"@jyf-z4g-x89","address":{"country_code":"RE","formatted_address":"97460 Saint-Paul, La Réunion, France","locality":"Saint-Paul","postcode":"97460","region":"Saint-Paul"}},"labels":["outdoor-sports","running","sport"],"duration":0,"start_local":"2024-04-14T06:30:00","end":"2024-04-14T02:30:00Z","end_local":"2024-04-14T06:30:00","updated":"2024-06-05T14:04:57Z"},{"title":"La Panonnaise Tophée Paul Canaguy","description":"Sourced from predicthq.com","category":"sports","start":"2024-04-13T14:00:00Z","geo":{"geometry":{"coordinates":[55.6772344,-20.995228],"type":"Point"},"placekey":"@jyh-b3f-2c5","address":{"country_code":"RE","formatted_address":"Allee Jean Albany, 97412 Bras-Panon, La Réunion, France","locality":"Bras-Panon","postcode":"97412","region":"Saint-Benoît"}},"labels":["outdoor-sports","running","sport"],"duration":0,"start_local":"2024-04-13T18:00:00","end":"2024-04-13T14:00:00Z","end_local":"2024-04-13T18:00:00","updated":"2024-06-12T15:38:25Z"},{"title":"Trails de la Griffe du Diable","description":"Sourced from predicthq.com","category":"sports","start":"2024-04-13T03:00:00Z","geo":{"geometry":{"coordinates":[55.5579927,-21.2209911],"type":"Point"},"placekey":"@jyf-yr2-2kz","address":{"country_code":"RE","formatted_address":"Rue de la Gironde, 97418 Le Tampon, La Réunion, France","locality":"Le Tampon","postcode":"97418","region":"Saint-Pierre"}},"labels":["outdoor-sports","running","sport"],"duration":0,"start_local":"2024-04-13T07:00:00","end":"2024-04-13T03:00:00Z","end_local":"2024-04-13T07:00:00","updated":"2024-06-05T19:46:33Z"},{"title":"Le Challenge Papang","description":"Sourced from predicthq.com","category":"sports","start":"2024-04-13T02:30:00Z","geo":{"geometry":{"coordinates":[55.4840265,-20.9063332],"type":"Point"},"placekey":"@jyh-bc3-jvz","address":{"country_code":"RE","formatted_address":"Rue Du Bosquet, 97400 Saint-Denis, La Réunion, France","locality":"Saint-Denis","postcode":"97400","region":"Saint-Denis"}},"labels":["outdoor-sports","running","sport"],"duration":0,"start_local":"2024-04-13T06:30:00","end":"2024-04-13T02:30:00Z","end_local":"2024-04-13T06:30:00","updated":"2024-06-05T01:00:40Z"},{"title":"Business Conference : Osons le leadership dans un monde complexe !","description":"Sourced from predicthq.com - Venez participer à notre Business Conference pour oser prendre le leadership dans un monde complexe, avec Frank Schneider !","category":"conferences","start":"2024-04-10T14:00:00Z","geo":{"geometry":{"coordinates":[55.5009579,-20.905257],"type":"Point"},"placekey":"@jyh-bbr-bhq","address":{"country_code":"RE","formatted_address":"Rue Maxime Rivière, 97490 Saint-Denis, La Réunion, France","locality":"Saint-Denis","postcode":"97490","region":"Saint-Denis"}},"labels":["business","conference"],"duration":7200,"start_local":"2024-04-10T18:00:00","end":"2024-04-10T16:00:00Z","end_local":"2024-04-10T20:00:00","updated":"2024-06-05T03:14:21Z"},{"title":"Atelier adhérents : nouvelle dynamique de DIGITAL REUNION","description":"Sourced from predicthq.com - Invitation : Venez participer à la nouvelle dynamique de DIGITAL REUNION","category":"conferences","start":"2024-04-10T13:30:00Z","geo":{"geometry":{"coordinates":[55.49811,-20.9057319],"type":"Point"},"placekey":"@jyh-bbr-rx5","address":{"country_code":"RE","formatted_address":"Rue Maxime Rivière, 97490 Saint-Denis, La Réunion, France","locality":"Saint-Denis","postcode":"97490","region":"Saint-Denis"}},"labels":["conference","science","technology"],"duration":3600,"start_local":"2024-04-10T17:30:00","end":"2024-04-10T14:30:00Z","end_local":"2024-04-10T18:30:00","updated":"2024-06-05T04:24:39Z"},{"title":"Conférence de la chercheure Dominique LHUILIER sur les addictions","description":"Sourced from predicthq.com - Conférence-débat sur la prévention des addictions","category":"conferences","start":"2024-04-10T13:00:00Z","geo":{"geometry":{"coordinates":[55.448382,-20.878787],"type":"Point"},"placekey":"@jyh-bfb-ysq","address":{"country_code":"RE","formatted_address":"Rue de Paris, 97400 Saint-Denis, La Réunion, France","locality":"Saint-Denis","postcode":"97400","region":"Saint-Denis"}},"labels":["conference","science","technology"],"duration":7200,"start_local":"2024-04-10T17:00:00","end":"2024-04-10T15:00:00Z","end_local":"2024-04-10T19:00:00","updated":"2024-06-05T04:55:36Z"},{"title":"Atelier adhérents : nouvelle dynamique de DIGITAL REUNION","description":"Sourced from predicthq.com - Invitation : Venez participer à la nouvelle dynamique de DIGITAL REUNION","category":"conferences","start":"2024-04-08T13:30:00Z","geo":{"geometry":{"coordinates":[55.46216250000001,-21.340604],"type":"Point"},"placekey":"@jyf-yxg-v75","address":{"country_code":"RE","formatted_address":"Rue Albert Luthuli, 97410 Saint-Pierre, La Réunion, France","locality":"Saint-Pierre","postcode":"97410","region":"Saint-Pierre"}},"labels":["conference","science","technology"],"duration":3600,"start_local":"2024-04-08T17:30:00","end":"2024-04-08T14:30:00Z","end_local":"2024-04-08T18:30:00","updated":"2024-06-05T02:14:19Z"},{"title":"10 km de Ste Suzanne","description":"Sourced from predicthq.com","category":"sports","start":"2024-04-07T04:00:00Z","geo":{"geometry":{"coordinates":[55.6106762,-20.9072551],"type":"Point"},"placekey":"@jyh-9nc-28v","address":{"country_code":"RE","formatted_address":"Rue Desprez, 97441 Sainte Suzanne, La Réunion, France","locality":"Sainte Suzanne","postcode":"97441","region":"Saint-Denis"}},"labels":["outdoor-sports","running","sport"],"duration":0,"start_local":"2024-04-07T08:00:00","end":"2024-04-07T04:00:00Z","end_local":"2024-04-07T08:00:00","updated":"2024-06-05T03:09:08Z"},{"title":"Trail la Boucle du Bassin Vital","description":"Sourced from predicthq.com","category":"sports","start":"2024-04-07T02:30:00Z","geo":{"geometry":{"coordinates":[55.2701702,-21.0093476],"type":"Point"},"placekey":"@jyf-z4g-x89","address":{"country_code":"RE","formatted_address":"97460 Saint-Paul, La Réunion, France","locality":"Saint-Paul","postcode":"97460","region":"Saint-Paul"}},"labels":["outdoor-sports","running","sport"],"duration":0,"start_local":"2024-04-07T06:30:00","end":"2024-04-07T02:30:00Z","end_local":"2024-04-07T06:30:00","updated":"2024-06-05T00:42:35Z"},{"title":"Trail des Cordistes","description":"Sourced from predicthq.com","category":"sports","start":"2024-04-07T02:30:00Z","geo":{"geometry":{"coordinates":[55.4484856,-20.8784675],"type":"Point"},"placekey":"@jyh-bfb-ysq","address":{"country_code":"RE","formatted_address":"Rue de la Compagnie, 97400 Saint-Denis, La Réunion, France","locality":"Saint-Denis","postcode":"97400","region":"Saint-Denis"}},"labels":["outdoor-sports","running","sport"],"duration":0,"start_local":"2024-04-07T06:30:00","end":"2024-04-07T02:30:00Z","end_local":"2024-04-07T06:30:00","updated":"2024-06-12T14:58:21Z"}]