[{"title":"Poultry Africa","description":"Sourced from predicthq.com - Poultry Africa is a premier conference event that gathers industry experts, innovators, and stakeholders to explore and enhance the poultry sector in Africa. Attendees can dive into informative sessions, connect with like-minded professionals, and discover the latest advancements in poultry farming, technology, and business strategies.","category":"conferences","start":"2024-10-02T07:00:00Z","geo":{"geometry":{"coordinates":[30.0939117,-1.954588],"type":"Point"},"placekey":"@cx6-t9w-r6k","address":{"country_code":"RW","formatted_address":"23VV+MQ9, Convention Ctr Roundabout, Kigali, Rwanda","locality":"Kigali","region":"Kigali City"}},"labels":["conference"],"duration":118800,"start_local":"2024-10-02T09:00:00","end":"2024-10-03T16:00:00Z","end_local":"2024-10-03T18:00:00","updated":"2024-06-01T09:37:42Z"},{"title":"Training on Effective Resource Mobilization and Fundraising in Projects and Programs","description":"Sourced from predicthq.com","category":"expos","start":"2024-08-04T22:00:00Z","geo":{"geometry":{"coordinates":[30.068376,-1.960114],"type":"Point"},"placekey":"@cx6-tb6-xqz","address":{"country_code":"RW","formatted_address":"KN 54 Street, Kigali, Rwanda","locality":"Kigali","region":"Kigali City"}},"labels":["expo"],"duration":431999,"start_local":"2024-08-05T00:00:00","end":"2024-08-09T21:59:59Z","end_local":"2024-08-09T23:59:59","updated":"2024-06-16T04:55:49Z"},{"title":"IRONMAN 70.3 Rwanda","description":"Sourced from predicthq.com","category":"sports","start":"2024-08-03T22:00:00Z","geo":{"geometry":{"coordinates":[29.873888,-1.940278],"type":"Point"},"placekey":"@cx7-28t-835","address":{"country_code":"RW","formatted_address":"Raygadh, Southern Province, Rwanda","locality":"Raygadh","region":"Southern Province"}},"labels":["outdoor-sports","running","sport"],"duration":86399,"start_local":"2024-08-04T00:00:00","end":"2024-08-04T21:59:59Z","end_local":"2024-08-04T23:59:59","updated":"2024-06-04T09:52:52Z"},{"title":"African Memorial & Human Rights Museums Building Peace","description":"Sourced from predicthq.com - The International Council of Museums, International Committee for Memorial and Human Rights Museums (ICMEMOHRI) 2024 meeting and conference","category":"conferences","start":"2024-07-29T07:00:00Z","geo":{"geometry":{"coordinates":[30.0618851,-1.9440727],"type":"Point"},"placekey":"@cx6-tb7-k2k","address":{"country_code":"RW","formatted_address":"Kigali, Kigali City, Rwanda","locality":"Kigali","region":"Kigali City"}},"labels":["community","conference"],"duration":205200,"start_local":"2024-07-29T09:00:00","end":"2024-07-31T16:00:00Z","end_local":"2024-07-31T18:00:00","updated":"2024-06-04T10:42:47Z"},{"title":"Standing Strong, Sharing Space and Shaping Solutions","description":"Sourced from predicthq.com - Come together to support each other, share experiences, and work towards finding solutions to our shared challenges as women in eye health.","category":"conferences","start":"2024-07-28T05:00:00Z","geo":{"geometry":{"coordinates":[30.0930576,-1.9546366],"type":"Point"},"placekey":"@cx6-t9w-249","address":{"country_code":"RW","formatted_address":"Kigali, Kigali City, Rwanda","locality":"Kigali","region":"Kigali City"}},"labels":["conference","fundraiser"],"duration":3600,"start_local":"2024-07-28T07:00:00","end":"2024-07-28T06:00:00Z","end_local":"2024-07-28T08:00:00","updated":"2024-06-13T01:21:57Z"},{"title":"Training on Gender Mainstreaming in Project Management","description":"Sourced from predicthq.com","category":"expos","start":"2024-07-15T07:00:00Z","geo":{"geometry":{"coordinates":[30.063619,-1.930632],"type":"Point"},"placekey":"@cx6-tb4-yqf","address":{"country_code":"RW","formatted_address":"3397+PCX, KG 14 Ave, Kigali, Rwanda","locality":"Kigali","region":"Kigali City"}},"labels":["expo"],"duration":378000,"start_local":"2024-07-15T09:00:00","end":"2024-07-19T16:00:00Z","end_local":"2024-07-19T18:00:00","updated":"2024-07-02T17:47:06Z"},{"title":"International Training on Advanced Data Management and Analysis using Microsoft Excel","description":"Sourced from predicthq.com","category":"expos","start":"2024-07-15T07:00:00Z","geo":{"geometry":{"coordinates":[30.063619,-1.930632],"type":"Point"},"placekey":"@cx6-tb4-yqf","address":{"country_code":"RW","formatted_address":"3397+PCX, KG 14 Ave, Kigali, Rwanda","locality":"Kigali","region":"Kigali City"}},"labels":["expo"],"duration":378000,"start_local":"2024-07-15T09:00:00","end":"2024-07-19T16:00:00Z","end_local":"2024-07-19T18:00:00","updated":"2024-07-02T23:11:47Z"},{"title":"Training on Project Design using Logical Framework Approach","description":"Sourced from predicthq.com","category":"expos","start":"2024-07-15T07:00:00Z","geo":{"geometry":{"coordinates":[30.063619,-1.930632],"type":"Point"},"placekey":"@cx6-tb4-yqf","address":{"country_code":"RW","formatted_address":"3397+PCX, KG 14 Ave, Kigali, Rwanda","locality":"Kigali","region":"Kigali City"}},"labels":["expo"],"duration":378000,"start_local":"2024-07-15T09:00:00","end":"2024-07-19T16:00:00Z","end_local":"2024-07-19T18:00:00","updated":"2024-07-02T14:53:49Z"},{"title":"Election for Rwandan Presidency","description":"Sourced from predicthq.com - At Stake in this Election: \n\n\n\n\nThe Rwandan Presidency  \n\n\n\n\nGovernment Structure:  \n\n\n\n\nChief of State: Paul KAGAME (since 22 April 2000) \n\n\n\n\n\n\nHead of Government: Édouard NGIRENTE (since 30 August 2017) \n\n\n\n\n\n\nAssembly: bicameral Parliament with a 26-seat Senate (Sénat) and an 80-seat Chamber of Deputies (Chambre des Députés) \n\n\n\n\nElectoral System: \n\n\n\n\nThe President is directly elected by plurality vote and may serve up to two 5-year terms. \n\n\n\n\n\n\nThe Prime Minister is appointed by the president. \n\n\n\n\n\n\nIn the Senate, 12 members are indirectly elected by local councils, 8 are appointed by the president, 4 are appointed by the Political Organizations Forum, and 2 are selected by institutions of higher learning. All 26 members serve 8-year terms.  \n\n\n\n\n\n\nIn the Chamber of Deputies, 53 members are directly elected by proportional representation vote, 24 women are selected by special interest groups, and 3 members are selected by youth and disability groups. All 80 members serve 5-year terms. \n\n\n\n\nLast Election:  \n\n\nIn the 2017 presidential election, Paul Kagame (RPF) won with 98.79% of the vote. Voter turnout was 98%. \n\n\nInformation for Voters: \n\n\nIgikorwa cyo kwiyamamaza: Ibyo wamenya ku mategeko n'amabwiriza abigenga / What you need to know about the rules and regulations (in Kinyarwanda) \n\n\n\n\nKey Deadlines: \n\n\n\n\nCandidate filing deadline: May 30th, 2024 \n\n\n\n\n\n\nVoter registration deadline: June 13th, 2024 \n\n\n\n\nMain Candidates in this Election:  \n\n\n\n\nPaul KAGAME \n\n\n\n\n\n\nRwandan Patriotic Front (RPF) \n\n\n\n\n\n\nFrank HABINEZA \n\n\n\n\n\n\nThe Democratic Green Party of Rwanda (DGPR / IRDKI) \n\n\n\n\n\n\nPhillipe MPAYIMANA \n\n\n\n\n\n\nIndependent \n\n\n\n\nPopulation and Registered Voters: \n\n\n\n\nPopulation: 13,776,698 (2022 est.) \n\n\n\n\n\n\nRegistered Voters: 9,012,789 (2024)  \n\n\n\n\nGender Data: \n\n\n\n\nFemale Population:  7,035,658 (2022 est.) \n\n\n\n\n\n\nCEDAW Status: Signed 1 May 1980, Ratified 2 March 1981 \n\n\n\n\n\n\n\n\nGender Quota:  Yes, at least 30% of members in the House of Deputies must be women and 30% of Senators must also be women.  \n\n\n\n\n\n\nFemale Candidates in this election: No \n\n\n\n\n\n\nNumber of Female Legislators (pre-election): 49 out of 80 (61%) in the House of Deputies and 9 out of 26 (35%) in the Senate  \n\n\n\n\n\n\nHuman Development Index (HDI) Position: 0.548, Low (2022)  \n\n\n\n\n\n\nSocial Institutions and Gender Index (SIGI) Categorization: 19%, High (2023)  \n\n\n\n\nDisability Data: \n\n\n\n\nCRPD Status: Signed 15 December 2008, Ratified 14 January 2009  \n\n\n\n\n\n\nProjected population with a disability: 5% \n\n\n\n\nIFES Resources: \n\n\n\n\nDoes IFES have a presence in Rwanda: No \n\n\n\n\n\n\nElection Access: Yes","category":"politics","start":"2024-07-15T00:00:00Z","geo":{"geometry":{"coordinates":[29.873888,-1.940278],"type":"Point"},"address":{"country_code":"RW","formatted_address":"Rwanda"}},"labels":["election","politics","president"],"duration":86399,"start_local":"2024-07-15T00:00:00","end":"2024-07-15T23:59:59Z","end_local":"2024-07-15T23:59:59","updated":"2024-07-05T00:30:55Z"},{"title":"Election for Chambre des Députés (Rwandan Chamber of Deputies)","description":"Sourced from predicthq.com - Rwanda will hold parliamentary elections on 15 July 2024.","category":"politics","start":"2024-07-15T00:00:00Z","geo":{"geometry":{"coordinates":[29.873888,-1.940278],"type":"Point"},"address":{"country_code":"RW","formatted_address":"Rwanda"}},"labels":["election","parliament","politics"],"duration":86399,"start_local":"2024-07-15T00:00:00","end":"2024-07-15T23:59:59Z","end_local":"2024-07-15T23:59:59","updated":"2024-07-05T07:29:09Z"},{"title":"Travel in Kigali and Handcraft Exhibition Festival","description":"Sourced from predicthq.com","category":"expos","start":"2024-07-10T22:00:00Z","geo":{"geometry":{"coordinates":[30.057883,-1.950413],"type":"Point"},"placekey":"@cx6-tb7-v2k","address":{"country_code":"RW","formatted_address":"Kigali, Kigali City, Rwanda","locality":"Kigali","region":"Kigali City"}},"labels":["expo"],"duration":259199,"start_local":"2024-07-11T00:00:00","end":"2024-07-13T21:59:59Z","end_local":"2024-07-13T23:59:59","updated":"2024-06-02T09:00:16Z"},{"title":"ICEF Africa Connect Recruit Grow","description":"Sourced from predicthq.com","category":"conferences","start":"2024-07-02T07:00:00Z","geo":{"geometry":{"coordinates":[30.0939117,-1.954588],"type":"Point"},"placekey":"@cx6-t9w-r6k","address":{"country_code":"RW","formatted_address":"23VV+MQ9, Convention Ctr Roundabout, Kigali, Rwanda","locality":"Kigali","region":"Kigali City"}},"labels":["conference"],"duration":205200,"start_local":"2024-07-02T09:00:00","end":"2024-07-04T16:00:00Z","end_local":"2024-07-04T18:00:00","updated":"2024-06-02T09:10:11Z"},{"title":"International CIMPAD Conference","description":"Sourced from predicthq.com","category":"conferences","start":"2024-06-23T07:00:00Z","geo":{"geometry":{"coordinates":[30.0622816,-1.9578979],"type":"Point"},"placekey":"@cx6-tb6-r49","address":{"country_code":"RW","formatted_address":"KN 3 Ave, Kigali, Rwanda","locality":"Kigali","region":"Kigali City"}},"labels":["conference"],"duration":378000,"start_local":"2024-06-23T09:00:00","end":"2024-06-27T16:00:00Z","end_local":"2024-06-27T18:00:00","updated":"2024-05-31T23:07:52Z"},{"title":"Africa Coffee & Tea Expo","description":"Sourced from predicthq.com - The Africa Coffee & Tea Expo is a premier event showcasing the vibrant coffee and tea industry in Africa, bringing together industry professionals, producers, and enthusiasts for a unique experience of tasting, networking, and learning about the rich flavors and traditions that the continent has to offer. With interactive exhibits, informative workshops, and live demonstrations, this expo celebrates Africa's role as a leading producer and provider of exceptional coffee and tea products.","category":"expos","start":"2024-06-19T07:00:00Z","geo":{"geometry":{"coordinates":[30.0939117,-1.954588],"type":"Point"},"placekey":"@cx6-t9w-r6k","address":{"country_code":"RW","formatted_address":"23VV+MQ9, Convention Ctr Roundabout, Kigali, Rwanda","locality":"Kigali","region":"Kigali City"}},"labels":["expo"],"duration":205200,"start_local":"2024-06-19T09:00:00","end":"2024-06-21T16:00:00Z","end_local":"2024-06-21T18:00:00","updated":"2024-05-31T23:06:41Z"},{"title":"Training on Resource Mobilization and Proposal Writing for Projects","description":"Sourced from predicthq.com","category":"expos","start":"2024-06-17T07:00:00Z","geo":{"geometry":{"coordinates":[30.063619,-1.930632],"type":"Point"},"placekey":"@cx6-tb4-yqf","address":{"country_code":"RW","formatted_address":"3397+PCX, KG 14 Ave, Kigali, Rwanda","locality":"Kigali","region":"Kigali City"}},"labels":["expo"],"duration":378000,"start_local":"2024-06-17T09:00:00","end":"2024-06-21T16:00:00Z","end_local":"2024-06-21T18:00:00","updated":"2024-06-04T10:37:09Z"},{"title":"Training Workshop on Project Impact Evaluation","description":"Sourced from predicthq.com","category":"expos","start":"2024-06-17T07:00:00Z","geo":{"geometry":{"coordinates":[30.063619,-1.930632],"type":"Point"},"placekey":"@cx6-tb4-yqf","address":{"country_code":"RW","formatted_address":"3397+PCX, KG 14 Ave, Kigali, Rwanda","locality":"Kigali","region":"Kigali City"}},"labels":["expo"],"duration":378000,"start_local":"2024-06-17T09:00:00","end":"2024-06-21T16:00:00Z","end_local":"2024-06-21T18:00:00","updated":"2024-06-04T12:13:07Z"},{"title":"Foundations of Creating a Knowledge-Based System in Your Organization Course","description":"Sourced from predicthq.com","category":"expos","start":"2024-06-17T07:00:00Z","geo":{"geometry":{"coordinates":[30.111021,-1.958851],"type":"Point"},"placekey":"@cx6-t9x-9zz","address":{"country_code":"RW","formatted_address":"KG 11 Avenue, Kigali, Rwanda","locality":"Kigali","region":"Kigali City"}},"labels":["expo"],"duration":982800,"start_local":"2024-06-17T09:00:00","end":"2024-06-28T16:00:00Z","end_local":"2024-06-28T18:00:00","updated":"2024-06-16T01:00:16Z"},{"title":"Training on GIS Mapping and Spatial Data Analysis","description":"Sourced from predicthq.com","category":"expos","start":"2024-06-17T07:00:00Z","geo":{"geometry":{"coordinates":[30.063619,-1.930632],"type":"Point"},"placekey":"@cx6-tb4-yqf","address":{"country_code":"RW","formatted_address":"3397+PCX, KG 14 Ave, Kigali, Rwanda","locality":"Kigali","region":"Kigali City"}},"labels":["expo"],"duration":378000,"start_local":"2024-06-17T09:00:00","end":"2024-06-21T16:00:00Z","end_local":"2024-06-21T18:00:00","updated":"2024-06-16T00:59:23Z"},{"title":"Training on Project Management, and Monitoring & Evaluation","description":"Sourced from predicthq.com","category":"expos","start":"2024-06-17T07:00:00Z","geo":{"geometry":{"coordinates":[30.063619,-1.930632],"type":"Point"},"placekey":"@cx6-tb4-yqf","address":{"country_code":"RW","formatted_address":"3397+PCX, KG 14 Ave, Kigali, Rwanda","locality":"Kigali","region":"Kigali City"}},"labels":["expo"],"duration":378000,"start_local":"2024-06-17T09:00:00","end":"2024-06-21T16:00:00Z","end_local":"2024-06-21T18:00:00","updated":"2024-06-04T11:36:55Z"},{"title":"Training on Application of GIS in Water, Sanitation and Hygiene","description":"Sourced from predicthq.com","category":"expos","start":"2024-06-17T07:00:00Z","geo":{"geometry":{"coordinates":[30.063619,-1.930632],"type":"Point"},"placekey":"@cx6-tb4-yqf","address":{"country_code":"RW","formatted_address":"3397+PCX, KG 14 Ave, Kigali, Rwanda","locality":"Kigali","region":"Kigali City"}},"labels":["expo"],"duration":378000,"start_local":"2024-06-17T09:00:00","end":"2024-06-21T16:00:00Z","end_local":"2024-06-21T18:00:00","updated":"2024-06-04T11:36:50Z"},{"title":"Training on Project Design using Logical Framework Approach","description":"Sourced from predicthq.com","category":"expos","start":"2024-06-17T07:00:00Z","geo":{"geometry":{"coordinates":[30.063619,-1.930632],"type":"Point"},"placekey":"@cx6-tb4-yqf","address":{"country_code":"RW","formatted_address":"3397+PCX, KG 14 Ave, Kigali, Rwanda","locality":"Kigali","region":"Kigali City"}},"labels":["expo"],"duration":378000,"start_local":"2024-06-17T09:00:00","end":"2024-06-21T16:00:00Z","end_local":"2024-06-21T18:00:00","updated":"2024-06-04T10:20:39Z"},{"title":"Training on Data Management and Analysis for Qualitative Data using NVIVO","description":"Sourced from predicthq.com","category":"expos","start":"2024-06-17T07:00:00Z","geo":{"geometry":{"coordinates":[30.063619,-1.930632],"type":"Point"},"placekey":"@cx6-tb4-yqf","address":{"country_code":"RW","formatted_address":"3397+PCX, KG 14 Ave, Kigali, Rwanda","locality":"Kigali","region":"Kigali City"}},"labels":["expo"],"duration":378000,"start_local":"2024-06-17T09:00:00","end":"2024-06-21T16:00:00Z","end_local":"2024-06-21T18:00:00","updated":"2024-06-04T11:28:56Z"},{"title":"Training on Gender Mainstreaming in Project Management","description":"Sourced from predicthq.com","category":"expos","start":"2024-06-17T07:00:00Z","geo":{"geometry":{"coordinates":[30.063619,-1.930632],"type":"Point"},"placekey":"@cx6-tb4-yqf","address":{"country_code":"RW","formatted_address":"3397+PCX, KG 14 Ave, Kigali, Rwanda","locality":"Kigali","region":"Kigali City"}},"labels":["expo"],"duration":378000,"start_local":"2024-06-17T09:00:00","end":"2024-06-21T16:00:00Z","end_local":"2024-06-21T18:00:00","updated":"2024-06-04T10:05:51Z"},{"title":"12TH INTERNATIONAL/INDEPENDENT SCHOOLS EDUCATION FAIR(ISEF) ,KIGALI-RWANDA","description":"Sourced from predicthq.com - ISEF AFRICA is a platform that connects leading international/independent schools with families seeking quality global education.","category":"expos","start":"2024-06-15T08:00:00Z","geo":{"geometry":{"coordinates":[30.062596,-1.956069],"type":"Point"},"placekey":"@cx6-tb6-py9","address":{"country_code":"RW","formatted_address":"KN 3 Ave, Kigali, Rwanda","locality":"Kigali","region":"Kigali City"}},"labels":["education","expo","family"],"duration":25200,"start_local":"2024-06-15T10:00:00","end":"2024-06-15T15:00:00Z","end_local":"2024-06-15T17:00:00","updated":"2024-06-04T00:59:46Z"},{"title":"2024 1st International African Housing Conference","description":"Sourced from predicthq.com - Get ready for the ultimate gathering of housing experts from across Africa at the 2024 1st African International Housing Conference!","category":"conferences","start":"2024-06-13T07:00:00Z","geo":{"geometry":{"coordinates":[30.1046431,-1.9457457],"type":"Point"},"placekey":"@cx6-tb5-sbk","address":{"country_code":"RW","formatted_address":"KG 274 Street, Kigali, Rwanda","locality":"Kigali","region":"Kigali City"}},"labels":["community","conference"],"duration":10800,"start_local":"2024-06-13T09:00:00","end":"2024-06-13T10:00:00Z","end_local":"2024-06-13T12:00:00","updated":"2024-06-06T07:30:38Z"},{"title":"The International Association of Psychiatric Nurse Annual Conference","description":"Sourced from predicthq.com","category":"conferences","start":"2024-06-12T07:00:00Z","geo":{"geometry":{"coordinates":[30.097829,-1.955594],"type":"Point"},"placekey":"@cx6-t9w-2tv","address":{"country_code":"RW","formatted_address":"KG 624 St, Kigali, Rwanda","locality":"Kigali","region":"Kigali City"}},"labels":["conference"],"duration":205200,"start_local":"2024-06-12T09:00:00","end":"2024-06-14T16:00:00Z","end_local":"2024-06-14T18:00:00","updated":"2024-07-02T14:34:08Z"},{"title":"International Peace Marathon of Kigali","description":"Sourced from predicthq.com","category":"sports","start":"2024-06-09T06:00:00Z","geo":{"geometry":{"coordinates":[30.059999,-1.94],"type":"Point"},"placekey":"@cx6-xxv-k75","address":{"country_code":"RW","formatted_address":"Kigali, Kigali City, Rwanda","locality":"Kigali","region":"Kigali City"}},"labels":["marathon","outdoor-sports","running","sport"],"duration":0,"start_local":"2024-06-09T08:00:00","end":"2024-06-09T06:00:00Z","end_local":"2024-06-09T08:00:00","updated":"2024-06-02T06:02:17Z"},{"title":"Basketball Africa League - Final - Petro Atlético vs Al-Ahly Benghazi","description":"Sourced from predicthq.com","category":"sports","start":"2024-06-01T14:00:00Z","geo":{"geometry":{"coordinates":[30.115602,-1.953314],"type":"Point"},"placekey":"@cx6-t9y-7kf","address":{"country_code":"RW","formatted_address":"KG 17 Ave, Kigali, Rwanda","locality":"Kigali","region":"Kigali City"}},"labels":["basketball","sport"],"duration":0,"start_local":"2024-06-01T16:00:00","end":"2024-06-01T14:00:00Z","end_local":"2024-06-01T16:00:00","updated":"2024-06-12T11:40:40Z"},{"title":"Basketball Africa League - 3rd Place Final - Rivers Hoopers vs Cape Town Tigers","description":"Sourced from predicthq.com","category":"sports","start":"2024-05-31T18:00:00Z","geo":{"geometry":{"coordinates":[30.115602,-1.953314],"type":"Point"},"placekey":"@cx6-t9y-7kf","address":{"country_code":"RW","formatted_address":"KG 17 Ave, Kigali, Rwanda","locality":"Kigali","region":"Kigali City"}},"labels":["basketball","sport"],"duration":0,"start_local":"2024-05-31T20:00:00","end":"2024-05-31T18:00:00Z","end_local":"2024-05-31T20:00:00","updated":"2024-06-12T02:34:04Z"},{"title":"TEDx KIGALI WOMEN","description":"Sourced from predicthq.com - Welcome to TEDx KIGALI WOMEN! Join us for an inspiring day filled with powerful talks and discussions by incredible women.","category":"conferences","start":"2024-05-31T14:00:00Z","geo":{"geometry":{"coordinates":[30.07965359999999,-1.9467599],"type":"Point"},"placekey":"@cx6-tb4-btv","address":{"country_code":"RW","formatted_address":"KG 623 Street, Kigali, Rwanda","locality":"Kigali","region":"Kigali City"}},"labels":["community","conference"],"duration":10800,"start_local":"2024-05-31T16:00:00","end":"2024-05-31T17:00:00Z","end_local":"2024-05-31T19:00:00","updated":"2024-05-23T01:24:20Z"},{"title":"Basketball Africa League - Semi-finals - Petro Atlético vs Cape Town Tigers","description":"Sourced from predicthq.com","category":"sports","start":"2024-05-29T18:00:00Z","geo":{"geometry":{"coordinates":[30.115602,-1.953314],"type":"Point"},"placekey":"@cx6-t9y-7kf","address":{"country_code":"RW","formatted_address":"KG 17 Ave, Kigali, Rwanda","locality":"Kigali","region":"Kigali City"}},"labels":["basketball","sport"],"duration":0,"start_local":"2024-05-29T20:00:00","end":"2024-05-29T18:00:00Z","end_local":"2024-05-29T20:00:00","updated":"2024-06-12T05:15:57Z"},{"title":"Basketball Africa League - Semi-finals - Rivers Hoopers vs Al-Ahly Benghazi","description":"Sourced from predicthq.com","category":"sports","start":"2024-05-29T15:00:00Z","geo":{"geometry":{"coordinates":[30.115602,-1.953314],"type":"Point"},"placekey":"@cx6-t9y-7kf","address":{"country_code":"RW","formatted_address":"KG 17 Ave, Kigali, Rwanda","locality":"Kigali","region":"Kigali City"}},"labels":["basketball","sport"],"duration":0,"start_local":"2024-05-29T17:00:00","end":"2024-05-29T15:00:00Z","end_local":"2024-05-29T17:00:00","updated":"2024-06-12T09:41:37Z"},{"title":"eLearning Africa","description":"Sourced from predicthq.com - eLearning Africa is an annual expo event that brings together technologists, educators, and policymakers to explore innovative digital solutions and advancements in learning and training across Africa. With a focus on technology-enabled education, this event showcases pioneering ideas, best practices, and networking opportunities for stakeholders in the education sector.","category":"expos","start":"2024-05-28T22:00:00Z","geo":{"geometry":{"coordinates":[30.0938534,-1.9545556],"type":"Point"},"placekey":"@cx6-t9w-r6k","address":{"country_code":"RW","formatted_address":"Convention Center Roundabout, Kigali, Rwanda","locality":"Kigali","region":"Kigali City"}},"labels":["education","expo"],"duration":259199,"start_local":"2024-05-29T00:00:00","end":"2024-05-31T21:59:59Z","end_local":"2024-05-31T23:59:59","updated":"2024-06-27T21:31:27Z"},{"title":"Basketball Africa League - Quarter-finals - Douanes vs Petro Atlético","description":"Sourced from predicthq.com","category":"sports","start":"2024-05-27T18:00:00Z","geo":{"geometry":{"coordinates":[30.115602,-1.953314],"type":"Point"},"placekey":"@cx6-t9y-7kf","address":{"country_code":"RW","formatted_address":"KG 17 Ave, Kigali, Rwanda","locality":"Kigali","region":"Kigali City"}},"labels":["basketball","sport"],"duration":0,"start_local":"2024-05-27T20:00:00","end":"2024-05-27T18:00:00Z","end_local":"2024-05-27T20:00:00","updated":"2024-06-12T03:33:29Z"},{"title":"Basketball Africa League - Quarter-finals - Rivers Hoopers vs Monastir","description":"Sourced from predicthq.com","category":"sports","start":"2024-05-27T15:00:00Z","geo":{"geometry":{"coordinates":[30.115602,-1.953314],"type":"Point"},"placekey":"@cx6-t9y-7kf","address":{"country_code":"RW","formatted_address":"KG 17 Ave, Kigali, Rwanda","locality":"Kigali","region":"Kigali City"}},"labels":["basketball","sport"],"duration":0,"start_local":"2024-05-27T17:00:00","end":"2024-05-27T15:00:00Z","end_local":"2024-05-27T17:00:00","updated":"2024-06-12T11:25:42Z"},{"title":"Training Course on Research Design, Data Management and Statistical Analysis using Stata","description":"Sourced from predicthq.com","category":"expos","start":"2024-05-27T07:00:00Z","geo":{"geometry":{"coordinates":[30.063619,-1.930632],"type":"Point"},"placekey":"@cx6-tb4-yqf","address":{"country_code":"RW","formatted_address":"3397+PCX, KG 14 Ave, Kigali, Rwanda","locality":"Kigali","region":"Kigali City"}},"labels":["expo"],"duration":378000,"start_local":"2024-05-27T09:00:00","end":"2024-05-31T16:00:00Z","end_local":"2024-05-31T18:00:00","updated":"2024-06-04T11:29:33Z"},{"title":"Training Workshop on Project Impact Evaluation","description":"Sourced from predicthq.com","category":"expos","start":"2024-05-27T07:00:00Z","geo":{"geometry":{"coordinates":[30.063619,-1.930632],"type":"Point"},"placekey":"@cx6-tb4-yqf","address":{"country_code":"RW","formatted_address":"3397+PCX, KG 14 Ave, Kigali, Rwanda","locality":"Kigali","region":"Kigali City"}},"labels":["expo"],"duration":378000,"start_local":"2024-05-27T09:00:00","end":"2024-05-31T16:00:00Z","end_local":"2024-05-31T18:00:00","updated":"2024-06-04T11:25:29Z"},{"title":"Training on Project Management, and Monitoring & Evaluation","description":"Sourced from predicthq.com","category":"expos","start":"2024-05-27T07:00:00Z","geo":{"geometry":{"coordinates":[30.063619,-1.930632],"type":"Point"},"placekey":"@cx6-tb4-yqf","address":{"country_code":"RW","formatted_address":"3397+PCX, KG 14 Ave, Kigali, Rwanda","locality":"Kigali","region":"Kigali City"}},"labels":["expo"],"duration":378000,"start_local":"2024-05-27T09:00:00","end":"2024-05-31T16:00:00Z","end_local":"2024-05-31T18:00:00","updated":"2024-06-04T11:23:35Z"},{"title":"Training on Data Management and Analysis for Qualitative Data using NVIVO","description":"Sourced from predicthq.com","category":"expos","start":"2024-05-27T07:00:00Z","geo":{"geometry":{"coordinates":[30.063619,-1.930632],"type":"Point"},"placekey":"@cx6-tb4-yqf","address":{"country_code":"RW","formatted_address":"3397+PCX, KG 14 Ave, Kigali, Rwanda","locality":"Kigali","region":"Kigali City"}},"labels":["expo"],"duration":378000,"start_local":"2024-05-27T09:00:00","end":"2024-05-31T16:00:00Z","end_local":"2024-05-31T18:00:00","updated":"2024-06-04T09:51:58Z"},{"title":"Training on Application of GIS in Monitoring and Evaluation","description":"Sourced from predicthq.com","category":"expos","start":"2024-05-27T07:00:00Z","geo":{"geometry":{"coordinates":[30.063619,-1.930632],"type":"Point"},"placekey":"@cx6-tb4-yqf","address":{"country_code":"RW","formatted_address":"3397+PCX, KG 14 Ave, Kigali, Rwanda","locality":"Kigali","region":"Kigali City"}},"labels":["expo"],"duration":378000,"start_local":"2024-05-27T09:00:00","end":"2024-05-31T16:00:00Z","end_local":"2024-05-31T18:00:00","updated":"2024-06-04T10:43:59Z"},{"title":"Training on Gender Mainstreaming in Project Management","description":"Sourced from predicthq.com","category":"expos","start":"2024-05-27T07:00:00Z","geo":{"geometry":{"coordinates":[30.063619,-1.930632],"type":"Point"},"placekey":"@cx6-tb4-yqf","address":{"country_code":"RW","formatted_address":"3397+PCX, KG 14 Ave, Kigali, Rwanda","locality":"Kigali","region":"Kigali City"}},"labels":["expo"],"duration":378000,"start_local":"2024-05-27T09:00:00","end":"2024-05-31T16:00:00Z","end_local":"2024-05-31T18:00:00","updated":"2024-06-04T10:53:03Z"},{"title":"Training on Project Design using Logical Framework Approach","description":"Sourced from predicthq.com","category":"expos","start":"2024-05-27T07:00:00Z","geo":{"geometry":{"coordinates":[30.063619,-1.930632],"type":"Point"},"placekey":"@cx6-tb4-yqf","address":{"country_code":"RW","formatted_address":"3397+PCX, KG 14 Ave, Kigali, Rwanda","locality":"Kigali","region":"Kigali City"}},"labels":["expo"],"duration":378000,"start_local":"2024-05-27T09:00:00","end":"2024-05-31T16:00:00Z","end_local":"2024-05-31T18:00:00","updated":"2024-06-04T10:54:30Z"},{"title":"Training on Resource Mobilization and Proposal Writing for Projects","description":"Sourced from predicthq.com","category":"expos","start":"2024-05-27T07:00:00Z","geo":{"geometry":{"coordinates":[30.063619,-1.930632],"type":"Point"},"placekey":"@cx6-tb4-yqf","address":{"country_code":"RW","formatted_address":"3397+PCX, KG 14 Ave, Kigali, Rwanda","locality":"Kigali","region":"Kigali City"}},"labels":["expo"],"duration":378000,"start_local":"2024-05-27T09:00:00","end":"2024-05-31T16:00:00Z","end_local":"2024-05-31T18:00:00","updated":"2024-06-04T09:44:29Z"},{"title":"Basketball Africa League - Quarter-finals - FUS de Rabat vs Cape Town Tigers","description":"Sourced from predicthq.com","category":"sports","start":"2024-05-26T15:30:00Z","geo":{"geometry":{"coordinates":[30.115602,-1.953314],"type":"Point"},"placekey":"@cx6-t9y-7kf","address":{"country_code":"RW","formatted_address":"KG 17 Ave, Kigali, Rwanda","locality":"Kigali","region":"Kigali City"}},"labels":["basketball","sport"],"duration":0,"start_local":"2024-05-26T17:30:00","end":"2024-05-26T15:30:00Z","end_local":"2024-05-26T17:30:00","updated":"2024-06-12T07:45:50Z"},{"title":"Basketball Africa League - Quarter-finals - Al Ahly vs Al-Ahly Benghazi","description":"Sourced from predicthq.com","category":"sports","start":"2024-05-26T12:30:00Z","geo":{"geometry":{"coordinates":[30.115602,-1.953314],"type":"Point"},"placekey":"@cx6-t9y-7kf","address":{"country_code":"RW","formatted_address":"KG 17 Ave, Kigali, Rwanda","locality":"Kigali","region":"Kigali City"}},"labels":["basketball","sport"],"duration":0,"start_local":"2024-05-26T14:30:00","end":"2024-05-26T12:30:00Z","end_local":"2024-05-26T14:30:00","updated":"2024-06-11T23:26:05Z"},{"title":"Basketball Africa League - Seeding Games - Rivers Hoopers vs Douanes","description":"Sourced from predicthq.com","category":"sports","start":"2024-05-25T15:30:00Z","geo":{"geometry":{"coordinates":[30.115602,-1.953314],"type":"Point"},"placekey":"@cx6-t9y-7kf","address":{"country_code":"RW","formatted_address":"KG 17 Ave, Kigali, Rwanda","locality":"Kigali","region":"Kigali City"}},"labels":["basketball","sport"],"duration":0,"start_local":"2024-05-25T17:30:00","end":"2024-05-25T15:30:00Z","end_local":"2024-05-25T17:30:00","updated":"2024-06-11T21:25:00Z"},{"title":"Basketball Africa League - Seeding Games - Petro Atlético vs Monastir","description":"Sourced from predicthq.com","category":"sports","start":"2024-05-25T12:30:00Z","geo":{"geometry":{"coordinates":[30.115602,-1.953314],"type":"Point"},"placekey":"@cx6-t9y-7kf","address":{"country_code":"RW","formatted_address":"KG 17 Ave, Kigali, Rwanda","locality":"Kigali","region":"Kigali City"}},"labels":["basketball","sport"],"duration":0,"start_local":"2024-05-25T14:30:00","end":"2024-05-25T12:30:00Z","end_local":"2024-05-25T14:30:00","updated":"2024-06-12T13:56:11Z"},{"title":"Basketball Africa League - Seeding Games - Al Ahly vs FUS de Rabat","description":"Sourced from predicthq.com","category":"sports","start":"2024-05-24T18:00:00Z","geo":{"geometry":{"coordinates":[30.115602,-1.953314],"type":"Point"},"placekey":"@cx6-t9y-7kf","address":{"country_code":"RW","formatted_address":"KG 17 Ave, Kigali, Rwanda","locality":"Kigali","region":"Kigali City"}},"labels":["basketball","sport"],"duration":0,"start_local":"2024-05-24T20:00:00","end":"2024-05-24T18:00:00Z","end_local":"2024-05-24T20:00:00","updated":"2024-06-12T11:08:12Z"},{"title":"Basketball Africa League - Seeding Games - Al-Ahly Benghazi vs Cape Town Tigers","description":"Sourced from predicthq.com","category":"sports","start":"2024-05-24T15:00:00Z","geo":{"geometry":{"coordinates":[30.115602,-1.953314],"type":"Point"},"placekey":"@cx6-t9y-7kf","address":{"country_code":"RW","formatted_address":"KG 17 Ave, Kigali, Rwanda","locality":"Kigali","region":"Kigali City"}},"labels":["basketball","sport"],"duration":0,"start_local":"2024-05-24T17:00:00","end":"2024-05-24T15:00:00Z","end_local":"2024-05-24T17:00:00","updated":"2024-06-12T08:30:49Z"},{"title":"Microfinance Tech Summit","description":"Sourced from predicthq.com","category":"conferences","start":"2024-05-22T22:00:00Z","geo":{"geometry":{"coordinates":[30.0939117,-1.954588],"type":"Point"},"placekey":"@cx6-t9w-r6k","address":{"country_code":"RW","formatted_address":"23VV+MQ9, Convention Ctr Roundabout, Kigali, Rwanda","locality":"Kigali","region":"Kigali City"}},"labels":["conference"],"duration":172799,"start_local":"2024-05-23T00:00:00","end":"2024-05-24T21:59:59Z","end_local":"2024-05-24T23:59:59","updated":"2024-06-05T19:46:09Z"},{"title":"Amani Youth Expo and Summit","description":"Sourced from predicthq.com - Amani Youth Expo & Summit on Aug 23, 2023 at Mundi Center, Rwandex: Focused on mental health & youth empowerment.","category":"expos","start":"2024-05-20T16:30:00Z","geo":{"geometry":{"coordinates":[30.07847929999999,-1.9514972],"type":"Point"},"placekey":"@cx6-t9w-vpv","address":{"country_code":"RW","formatted_address":"KG 28 Avenue, Kigali, Rwanda","locality":"Kigali","region":"Kigali City"}},"labels":["expo","performing-arts"],"duration":10800,"start_local":"2024-05-20T18:30:00","end":"2024-05-20T19:30:00Z","end_local":"2024-05-20T21:30:00","updated":"2024-06-05T06:35:56Z"},{"title":"Angel & Angel's Wings Band and Chris Brown","description":"Sourced from predicthq.com","category":"concerts","start":"2024-05-17T16:00:00Z","geo":{"geometry":{"coordinates":[30.0964382,-1.9896014],"type":"Point"},"placekey":"@cx6-tb2-tjv","address":{"country_code":"RW","formatted_address":"236W+5H4, Kigali, Rwanda","locality":"Kigali","region":"Kigali City"}},"labels":["concert","music"],"duration":0,"start_local":"2024-05-17T18:00:00","end":"2024-05-17T16:00:00Z","end_local":"2024-05-17T18:00:00","updated":"2024-06-12T05:08:18Z"},{"title":"Angel & Angel's Wings Band and Chris Brown","description":"Sourced from predicthq.com","category":"concerts","start":"2024-05-16T16:00:00Z","geo":{"geometry":{"coordinates":[30.0964382,-1.9896014],"type":"Point"},"placekey":"@cx6-tb2-tjv","address":{"country_code":"RW","formatted_address":"236W+5H4, Kigali, Rwanda","locality":"Kigali","region":"Kigali City"}},"labels":["concert","music"],"duration":0,"start_local":"2024-05-16T18:00:00","end":"2024-05-16T16:00:00Z","end_local":"2024-05-16T18:00:00","updated":"2024-06-11T21:22:48Z"},{"title":"Angel & Angel's Wings Band and Chris Brown","description":"Sourced from predicthq.com","category":"concerts","start":"2024-05-15T15:00:00Z","geo":{"geometry":{"coordinates":[30.0964382,-1.9896014],"type":"Point"},"placekey":"@cx6-tb2-tjv","address":{"country_code":"RW","formatted_address":"236W+5H4, Kigali, Rwanda","locality":"Kigali","region":"Kigali City"}},"labels":["concert","music"],"duration":0,"start_local":"2024-05-15T17:00:00","end":"2024-05-15T15:00:00Z","end_local":"2024-05-15T17:00:00","updated":"2024-06-12T09:41:13Z"},{"title":"Angel & Angel's Wings Band and Chris Brown","description":"Sourced from predicthq.com","category":"concerts","start":"2024-05-14T15:00:00Z","geo":{"geometry":{"coordinates":[30.0964382,-1.9896014],"type":"Point"},"placekey":"@cx6-tb2-tjv","address":{"country_code":"RW","formatted_address":"236W+5H4, Kigali, Rwanda","locality":"Kigali","region":"Kigali City"}},"labels":["concert","music"],"duration":0,"start_local":"2024-05-14T17:00:00","end":"2024-05-14T15:00:00Z","end_local":"2024-05-14T17:00:00","updated":"2024-06-12T01:13:21Z"},{"title":"Angel & Angel's Wings Band and Chris Brown","description":"Sourced from predicthq.com","category":"concerts","start":"2024-05-13T15:00:00Z","geo":{"geometry":{"coordinates":[30.0964382,-1.9896014],"type":"Point"},"placekey":"@cx6-tb2-tjv","address":{"country_code":"RW","formatted_address":"236W+5H4, Kigali, Rwanda","locality":"Kigali","region":"Kigali City"}},"labels":["concert","music"],"duration":0,"start_local":"2024-05-13T17:00:00","end":"2024-05-13T15:00:00Z","end_local":"2024-05-13T17:00:00","updated":"2024-06-12T08:22:17Z"},{"title":"Training on Data Visualization using Tableau","description":"Sourced from predicthq.com","category":"expos","start":"2024-05-12T22:00:00Z","geo":{"geometry":{"coordinates":[30.069255,-1.948994],"type":"Point"},"placekey":"@cx6-tb7-mtv","address":{"country_code":"RW","formatted_address":"KN 37 Street, Kigali, Rwanda","locality":"Kigali","region":"Kigali City"}},"labels":["expo"],"duration":431999,"start_local":"2024-05-13T00:00:00","end":"2024-05-17T21:59:59Z","end_local":"2024-05-17T23:59:59","updated":"2024-05-28T12:11:48Z"},{"title":"Training on Project Management","description":"Sourced from predicthq.com","category":"expos","start":"2024-05-12T22:00:00Z","geo":{"geometry":{"coordinates":[30.069255,-1.948994],"type":"Point"},"placekey":"@cx6-tb7-mtv","address":{"country_code":"RW","formatted_address":"KN 37 Street, Kigali, Rwanda","locality":"Kigali","region":"Kigali City"}},"labels":["expo"],"duration":431999,"start_local":"2024-05-13T00:00:00","end":"2024-05-17T21:59:59Z","end_local":"2024-05-17T23:59:59","updated":"2024-05-31T23:18:33Z"},{"title":"National Soccer League - Musanze vs Police","description":"Sourced from predicthq.com","category":"sports","start":"2024-05-12T13:00:00Z","geo":{"geometry":{"coordinates":[29.63689148426056,-1.5036829437988777],"type":"Point"},"placekey":"@cx8-2ds-sh5","address":{"country_code":"RW","formatted_address":"Musanze, Rwanda","locality":"Musanze"}},"labels":["soccer","sport"],"duration":0,"start_local":"2024-05-12T15:00:00","end":"2024-05-12T13:00:00Z","end_local":"2024-05-12T15:00:00","updated":"2024-06-12T09:33:12Z"},{"title":"National Soccer League - APR vs Amagaju","description":"Sourced from predicthq.com","category":"sports","start":"2024-05-12T12:00:00Z","geo":{"geometry":{"coordinates":[30.044142008,-1.978122296],"type":"Point"},"placekey":"@cx6-tbz-ghq","address":{"country_code":"RW","formatted_address":"KN 2 Ave, Kigali, Rwanda","locality":"Kigali","region":"Kigali City"}},"labels":["soccer","sport"],"duration":0,"start_local":"2024-05-12T14:00:00","end":"2024-05-12T12:00:00Z","end_local":"2024-05-12T14:00:00","updated":"2024-06-12T08:24:12Z"},{"title":"National Soccer League - Kiyovu Sports vs Rayon Sports","description":"Sourced from predicthq.com","category":"sports","start":"2024-05-11T13:00:00Z","geo":{"geometry":{"coordinates":[30.044142008,-1.978122296],"type":"Point"},"placekey":"@cx6-tbz-ghq","address":{"country_code":"RW","formatted_address":"KN 2 Ave, Kigali, Rwanda","locality":"Kigali","region":"Kigali City"}},"labels":["soccer","sport"],"duration":0,"start_local":"2024-05-11T15:00:00","end":"2024-05-11T13:00:00Z","end_local":"2024-05-11T15:00:00","updated":"2024-06-12T09:14:43Z"},{"title":"National Soccer League - Etoile de l'Est vs Bugesera","description":"Sourced from predicthq.com","category":"sports","start":"2024-05-11T13:00:00Z","geo":{"geometry":{"coordinates":[30.543306419366452,-2.1471225911385803],"type":"Point"},"placekey":"@cx6-v9m-cyv","address":{"country_code":"RW","formatted_address":"Ngoma District, Kibungo, Rwanda","locality":"Kibungo"}},"labels":["soccer","sport"],"duration":0,"start_local":"2024-05-11T15:00:00","end":"2024-05-11T13:00:00Z","end_local":"2024-05-11T15:00:00","updated":"2024-06-11T23:24:30Z"},{"title":"National Soccer League - Sunrise vs Marine","description":"Sourced from predicthq.com","category":"sports","start":"2024-05-11T13:00:00Z","geo":{"geometry":{"coordinates":[30.334902400000033,-1.2897375],"type":"Point"},"placekey":"@cx8-99d-pd9","address":{"country_code":"RW","formatted_address":"P86M+3XR, Nyagatare, Rwanda","locality":"Nyagatare","region":"Eastern Province"}},"labels":["soccer","sport"],"duration":0,"start_local":"2024-05-11T15:00:00","end":"2024-05-11T13:00:00Z","end_local":"2024-05-11T15:00:00","updated":"2024-06-12T20:16:19Z"},{"title":"National Soccer League - Gorilla vs Mukura","description":"Sourced from predicthq.com","category":"sports","start":"2024-05-11T10:30:00Z","geo":{"geometry":{"coordinates":[30.044142008,-1.978122296],"type":"Point"},"placekey":"@cx6-tbz-ghq","address":{"country_code":"RW","formatted_address":"KN 2 Ave, Kigali, Rwanda","locality":"Kigali","region":"Kigali City"}},"labels":["soccer","sport"],"duration":0,"start_local":"2024-05-11T12:30:00","end":"2024-05-11T10:30:00Z","end_local":"2024-05-11T12:30:00","updated":"2024-06-12T00:57:35Z"},{"title":"National Soccer League - Gasogi United vs Etincelles","description":"Sourced from predicthq.com","category":"sports","start":"2024-05-10T13:00:00Z","geo":{"geometry":{"coordinates":[30.044142008,-1.978122296],"type":"Point"},"placekey":"@cx6-tbz-ghq","address":{"country_code":"RW","formatted_address":"KN 2 Ave, Kigali, Rwanda","locality":"Kigali","region":"Kigali City"}},"labels":["soccer","sport"],"duration":0,"start_local":"2024-05-10T15:00:00","end":"2024-05-10T13:00:00Z","end_local":"2024-05-10T15:00:00","updated":"2024-06-12T04:07:31Z"},{"title":"National Soccer League - AS Kigali vs Muhazi United","description":"Sourced from predicthq.com","category":"sports","start":"2024-05-09T13:00:00Z","geo":{"geometry":{"coordinates":[30.044142008,-1.978122296],"type":"Point"},"placekey":"@cx6-tbz-ghq","address":{"country_code":"RW","formatted_address":"KN 2 Ave, Kigali, Rwanda","locality":"Kigali","region":"Kigali City"}},"labels":["soccer","sport"],"duration":0,"start_local":"2024-05-09T15:00:00","end":"2024-05-09T13:00:00Z","end_local":"2024-05-09T15:00:00","updated":"2024-06-12T02:25:32Z"},{"title":"Data Analysis and Machine Learning for Statisticians using R Course","description":"Sourced from predicthq.com","category":"expos","start":"2024-05-06T07:00:00Z","geo":{"geometry":{"coordinates":[30.111021,-1.958851],"type":"Point"},"placekey":"@cx6-t9x-9zz","address":{"country_code":"RW","formatted_address":"KG 11 Avenue, Kigali, Rwanda","locality":"Kigali","region":"Kigali City"}},"labels":["expo"],"duration":378000,"start_local":"2024-05-06T09:00:00","end":"2024-05-10T16:00:00Z","end_local":"2024-05-10T18:00:00","updated":"2024-05-27T13:24:06Z"},{"title":"National Soccer League - Mukura vs Gasogi United","description":"Sourced from predicthq.com","category":"sports","start":"2024-05-05T13:00:00Z","geo":{"geometry":{"coordinates":[29.7458615899086,-2.615752074378619],"type":"Point"},"placekey":"@cx6-vz8-2ff","address":{"country_code":"RW","formatted_address":"Butare, Rwanda","locality":"Butare","region":"Southern Province"}},"labels":["soccer","sport"],"duration":0,"start_local":"2024-05-05T15:00:00","end":"2024-05-05T13:00:00Z","end_local":"2024-05-05T15:00:00","updated":"2024-06-12T12:18:16Z"},{"title":"National Soccer League - Rayon Sports vs AS Kigali","description":"Sourced from predicthq.com","category":"sports","start":"2024-05-05T13:00:00Z","geo":{"geometry":{"coordinates":[30.044142008,-1.978122296],"type":"Point"},"placekey":"@cx6-tbz-ghq","address":{"country_code":"RW","formatted_address":"KN 2 Ave, Kigali, Rwanda","locality":"Kigali","region":"Kigali City"}},"labels":["soccer","sport"],"duration":0,"start_local":"2024-05-05T15:00:00","end":"2024-05-05T13:00:00Z","end_local":"2024-05-05T15:00:00","updated":"2024-06-12T16:42:46Z"},{"title":"National Soccer League - Bugesera vs Muhazi United","description":"Sourced from predicthq.com","category":"sports","start":"2024-05-04T13:00:00Z","geo":{"geometry":{"coordinates":[30.144496000000004,-2.2072299],"type":"Point"},"placekey":"@cx6-ssf-vpv","address":{"country_code":"RW","formatted_address":"R3VX+9CC, Nyamata, Rwanda","locality":"Nyamata","region":"Eastern Province"}},"labels":["soccer","sport"],"duration":0,"start_local":"2024-05-04T15:00:00","end":"2024-05-04T13:00:00Z","end_local":"2024-05-04T15:00:00","updated":"2024-06-12T19:19:57Z"},{"title":"National Soccer League - Police vs Etoile de l'Est","description":"Sourced from predicthq.com","category":"sports","start":"2024-05-04T13:00:00Z","geo":{"geometry":{"coordinates":[30.044142008,-1.978122296],"type":"Point"},"placekey":"@cx6-tbz-ghq","address":{"country_code":"RW","formatted_address":"KN 2 Ave, Kigali, Rwanda","locality":"Kigali","region":"Kigali City"}},"labels":["soccer","sport"],"duration":0,"start_local":"2024-05-04T15:00:00","end":"2024-05-04T13:00:00Z","end_local":"2024-05-04T15:00:00","updated":"2024-06-12T08:23:31Z"},{"title":"National Soccer League - Amagaju vs Sunrise","description":"Sourced from predicthq.com","category":"sports","start":"2024-05-04T13:00:00Z","geo":{"geometry":{"coordinates":[29.7458615899086,-2.615752074378619],"type":"Point"},"placekey":"@cx6-vz8-2ff","address":{"country_code":"RW","formatted_address":"Butare, Rwanda","locality":"Butare","region":"Southern Province"}},"labels":["soccer","sport"],"duration":0,"start_local":"2024-05-04T15:00:00","end":"2024-05-04T13:00:00Z","end_local":"2024-05-04T15:00:00","updated":"2024-06-12T06:15:35Z"},{"title":"National Soccer League - APR vs Gorilla","description":"Sourced from predicthq.com","category":"sports","start":"2024-05-03T13:00:00Z","geo":{"geometry":{"coordinates":[30.044142008,-1.978122296],"type":"Point"},"placekey":"@cx6-tbz-ghq","address":{"country_code":"RW","formatted_address":"KN 2 Ave, Kigali, Rwanda","locality":"Kigali","region":"Kigali City"}},"labels":["soccer","sport"],"duration":0,"start_local":"2024-05-03T15:00:00","end":"2024-05-03T13:00:00Z","end_local":"2024-05-03T15:00:00","updated":"2024-06-12T04:08:56Z"},{"title":"National Soccer League - Etincelles vs Kiyovu Sports","description":"Sourced from predicthq.com","category":"sports","start":"2024-05-03T13:00:00Z","geo":{"geometry":{"coordinates":[29.2627455,-1.6753297],"type":"Point"},"placekey":"@cx8-nx2-n3q","address":{"country_code":"RW","formatted_address":"Gisenyi, Western Province, Rwanda","locality":"Gisenyi","region":"Western Province"}},"labels":["soccer","sport"],"duration":0,"start_local":"2024-05-03T15:00:00","end":"2024-05-03T13:00:00Z","end_local":"2024-05-03T15:00:00","updated":"2024-06-11T21:47:32Z"},{"title":"Translating research into policy and practice","description":"Sourced from predicthq.com","category":"conferences","start":"2024-05-03T07:00:00Z","geo":{"geometry":{"coordinates":[30.0939117,-1.954588],"type":"Point"},"placekey":"@cx6-t9w-r6k","address":{"country_code":"RW","formatted_address":"23VV+MQ9, Convention Ctr Roundabout, Kigali, Rwanda","locality":"Kigali","region":"Kigali City"}},"labels":["conference"],"duration":32400,"start_local":"2024-05-03T09:00:00","end":"2024-05-03T16:00:00Z","end_local":"2024-05-03T18:00:00","updated":"2024-06-03T20:39:16Z"},{"title":"National Soccer League - Marine vs Musanze","description":"Sourced from predicthq.com","category":"sports","start":"2024-05-02T13:00:00Z","geo":{"geometry":{"coordinates":[29.2627455,-1.6753297],"type":"Point"},"placekey":"@cx8-nx2-n3q","address":{"country_code":"RW","formatted_address":"Gisenyi, Western Province, Rwanda","locality":"Gisenyi","region":"Western Province"}},"labels":["soccer","sport"],"duration":0,"start_local":"2024-05-02T15:00:00","end":"2024-05-02T13:00:00Z","end_local":"2024-05-02T15:00:00","updated":"2024-06-12T07:27:40Z"},{"title":"INGSA International Conference","description":"Sourced from predicthq.com","category":"conferences","start":"2024-05-01T07:00:00Z","geo":{"geometry":{"coordinates":[30.0939117,-1.954588],"type":"Point"},"placekey":"@cx6-t9w-r6k","address":{"country_code":"RW","formatted_address":"23VV+MQ9, Convention Ctr Roundabout, Kigali, Rwanda","locality":"Kigali","region":"Kigali City"}},"labels":["conference"],"duration":118800,"start_local":"2024-05-01T09:00:00","end":"2024-05-02T16:00:00Z","end_local":"2024-05-02T18:00:00","updated":"2024-06-01T20:29:57Z"},{"title":"National Soccer League - Sunrise vs Gorilla","description":"Sourced from predicthq.com","category":"sports","start":"2024-04-28T13:00:00Z","geo":{"geometry":{"coordinates":[30.334902400000033,-1.2897375],"type":"Point"},"placekey":"@cx8-99d-pd9","address":{"country_code":"RW","formatted_address":"P86M+3XR, Nyagatare, Rwanda","locality":"Nyagatare","region":"Eastern Province"}},"labels":["soccer","sport"],"duration":0,"start_local":"2024-04-28T15:00:00","end":"2024-04-28T13:00:00Z","end_local":"2024-04-28T15:00:00","updated":"2024-06-12T14:55:08Z"},{"title":"National Soccer League - Gasogi United vs APR","description":"Sourced from predicthq.com","category":"sports","start":"2024-04-28T13:00:00Z","geo":{"geometry":{"coordinates":[30.044142008,-1.978122296],"type":"Point"},"placekey":"@cx6-tbz-ghq","address":{"country_code":"RW","formatted_address":"KN 2 Ave, Kigali, Rwanda","locality":"Kigali","region":"Kigali City"}},"labels":["soccer","sport"],"duration":0,"start_local":"2024-04-28T15:00:00","end":"2024-04-28T13:00:00Z","end_local":"2024-04-28T15:00:00","updated":"2024-06-12T05:32:26Z"},{"title":"National Soccer League - Etoile de l'Est vs Marine","description":"Sourced from predicthq.com","category":"sports","start":"2024-04-28T13:00:00Z","geo":{"geometry":{"coordinates":[30.543306419366452,-2.1471225911385803],"type":"Point"},"placekey":"@cx6-v9m-cyv","address":{"country_code":"RW","formatted_address":"Ngoma District, Kibungo, Rwanda","locality":"Kibungo"}},"labels":["soccer","sport"],"duration":0,"start_local":"2024-04-28T15:00:00","end":"2024-04-28T13:00:00Z","end_local":"2024-04-28T15:00:00","updated":"2024-06-12T14:54:00Z"},{"title":"National Soccer League - Muhazi United vs Rayon Sports","description":"Sourced from predicthq.com","category":"sports","start":"2024-04-27T13:00:00Z","geo":{"geometry":{"coordinates":[30.543306419366452,-2.1471225911385803],"type":"Point"},"placekey":"@cx6-v9m-cyv","address":{"country_code":"RW","formatted_address":"Ngoma District, Kibungo, Rwanda","locality":"Kibungo"}},"labels":["soccer","sport"],"duration":0,"start_local":"2024-04-27T15:00:00","end":"2024-04-27T13:00:00Z","end_local":"2024-04-27T15:00:00","updated":"2024-06-12T09:35:07Z"},{"title":"National Soccer League - AS Kigali vs Etincelles","description":"Sourced from predicthq.com","category":"sports","start":"2024-04-27T13:00:00Z","geo":{"geometry":{"coordinates":[30.044142008,-1.978122296],"type":"Point"},"placekey":"@cx6-tbz-ghq","address":{"country_code":"RW","formatted_address":"KN 2 Ave, Kigali, Rwanda","locality":"Kigali","region":"Kigali City"}},"labels":["soccer","sport"],"duration":0,"start_local":"2024-04-27T15:00:00","end":"2024-04-27T13:00:00Z","end_local":"2024-04-27T15:00:00","updated":"2024-06-12T08:24:29Z"},{"title":"National Soccer League - Musanze vs Amagaju","description":"Sourced from predicthq.com","category":"sports","start":"2024-04-27T13:00:00Z","geo":{"geometry":{"coordinates":[29.63689148426056,-1.5036829437988777],"type":"Point"},"placekey":"@cx8-2ds-sh5","address":{"country_code":"RW","formatted_address":"Musanze, Rwanda","locality":"Musanze"}},"labels":["soccer","sport"],"duration":0,"start_local":"2024-04-27T15:00:00","end":"2024-04-27T13:00:00Z","end_local":"2024-04-27T15:00:00","updated":"2024-06-12T02:37:25Z"},{"title":"National Soccer League - Police vs Bugesera","description":"Sourced from predicthq.com","category":"sports","start":"2024-04-26T13:00:00Z","geo":{"geometry":{"coordinates":[30.044142008,-1.978122296],"type":"Point"},"placekey":"@cx6-tbz-ghq","address":{"country_code":"RW","formatted_address":"KN 2 Ave, Kigali, Rwanda","locality":"Kigali","region":"Kigali City"}},"labels":["soccer","sport"],"duration":0,"start_local":"2024-04-26T15:00:00","end":"2024-04-26T13:00:00Z","end_local":"2024-04-26T15:00:00","updated":"2024-06-12T07:17:38Z"},{"title":"National Soccer League - Kiyovu Sports vs Mukura","description":"Sourced from predicthq.com","category":"sports","start":"2024-04-25T13:00:00Z","geo":{"geometry":{"coordinates":[30.044142008,-1.978122296],"type":"Point"},"placekey":"@cx6-tbz-ghq","address":{"country_code":"RW","formatted_address":"KN 2 Ave, Kigali, Rwanda","locality":"Kigali","region":"Kigali City"}},"labels":["soccer","sport"],"duration":0,"start_local":"2024-04-25T15:00:00","end":"2024-04-25T13:00:00Z","end_local":"2024-04-25T15:00:00","updated":"2024-06-12T09:11:15Z"},{"title":"PMC and  Malaria Vaccine  Co-implementation Meeting: MIM 2024","description":"Sourced from predicthq.com - PMC community of practice working group: Follow up meeting after ASTMH workshop","category":"conferences","start":"2024-04-23T16:30:00Z","geo":{"geometry":{"coordinates":[30.0939117,-1.954588],"type":"Point"},"placekey":"@cx6-t9w-r6k","address":{"country_code":"RW","formatted_address":"23VV+MQ9, Convention Ctr Roundabout, Kigali, Rwanda","locality":"Kigali","region":"Kigali City"}},"labels":["business","conference"],"duration":5400,"start_local":"2024-04-23T18:30:00","end":"2024-04-23T18:00:00Z","end_local":"2024-04-23T20:00:00","updated":"2024-06-05T03:20:27Z"},{"title":"Catalysing change: The crucial role of philanthropy in eliminating malaria","description":"Sourced from predicthq.com - In person panel event hosted by Malaria Consortium during the 8th MIM Conference to build momentum and action around malaria elimination.","category":"conferences","start":"2024-04-23T15:00:00Z","geo":{"geometry":{"coordinates":[30.0939117,-1.954588],"type":"Point"},"placekey":"@cx6-t9w-r6k","address":{"country_code":"RW","formatted_address":"23VV+MQ9, Convention Ctr Roundabout, Kigali, Rwanda","locality":"Kigali","region":"Kigali City"}},"labels":["conference","fundraiser"],"duration":5400,"start_local":"2024-04-23T17:00:00","end":"2024-04-23T16:30:00Z","end_local":"2024-04-23T18:30:00","updated":"2024-06-05T10:07:56Z"},{"title":"Training on Resource Mobilization and Proposal Writing for Projects","description":"Sourced from predicthq.com","category":"expos","start":"2024-04-22T07:00:00Z","geo":{"geometry":{"coordinates":[30.063619,-1.930632],"type":"Point"},"placekey":"@cx6-tb4-yqf","address":{"country_code":"RW","formatted_address":"3397+PCX, KG 14 Ave, Kigali, Rwanda","locality":"Kigali","region":"Kigali City"}},"labels":["expo"],"duration":378000,"start_local":"2024-04-22T09:00:00","end":"2024-04-26T16:00:00Z","end_local":"2024-04-26T18:00:00","updated":"2024-06-04T11:06:18Z"},{"title":"Training on Gender Mainstreaming in Project Management","description":"Sourced from predicthq.com","category":"expos","start":"2024-04-22T07:00:00Z","geo":{"geometry":{"coordinates":[30.063619,-1.930632],"type":"Point"},"placekey":"@cx6-tb4-yqf","address":{"country_code":"RW","formatted_address":"3397+PCX, KG 14 Ave, Kigali, Rwanda","locality":"Kigali","region":"Kigali City"}},"labels":["expo"],"duration":378000,"start_local":"2024-04-22T09:00:00","end":"2024-04-26T16:00:00Z","end_local":"2024-04-26T18:00:00","updated":"2024-06-04T10:43:59Z"},{"title":"Training on Project Design using Logical Framework Approach","description":"Sourced from predicthq.com","category":"expos","start":"2024-04-22T07:00:00Z","geo":{"geometry":{"coordinates":[30.063619,-1.930632],"type":"Point"},"placekey":"@cx6-tb4-yqf","address":{"country_code":"RW","formatted_address":"3397+PCX, KG 14 Ave, Kigali, Rwanda","locality":"Kigali","region":"Kigali City"}},"labels":["expo"],"duration":378000,"start_local":"2024-04-22T09:00:00","end":"2024-04-26T16:00:00Z","end_local":"2024-04-26T18:00:00","updated":"2024-06-04T11:05:00Z"},{"title":"Training on Project Management, and Monitoring & Evaluation","description":"Sourced from predicthq.com","category":"expos","start":"2024-04-22T07:00:00Z","geo":{"geometry":{"coordinates":[30.063619,-1.930632],"type":"Point"},"placekey":"@cx6-tb4-yqf","address":{"country_code":"RW","formatted_address":"3397+PCX, KG 14 Ave, Kigali, Rwanda","locality":"Kigali","region":"Kigali City"}},"labels":["expo"],"duration":378000,"start_local":"2024-04-22T09:00:00","end":"2024-04-26T16:00:00Z","end_local":"2024-04-26T18:00:00","updated":"2024-06-04T09:55:15Z"},{"title":"Training on Data Management and Analysis for Qualitative Data using NVIVO","description":"Sourced from predicthq.com","category":"expos","start":"2024-04-22T07:00:00Z","geo":{"geometry":{"coordinates":[30.063619,-1.930632],"type":"Point"},"placekey":"@cx6-tb4-yqf","address":{"country_code":"RW","formatted_address":"3397+PCX, KG 14 Ave, Kigali, Rwanda","locality":"Kigali","region":"Kigali City"}},"labels":["expo"],"duration":378000,"start_local":"2024-04-22T09:00:00","end":"2024-04-26T16:00:00Z","end_local":"2024-04-26T18:00:00","updated":"2024-06-04T09:51:38Z"},{"title":"Training on GIS Mapping and Spatial Data Analysis","description":"Sourced from predicthq.com","category":"expos","start":"2024-04-22T07:00:00Z","geo":{"geometry":{"coordinates":[30.063619,-1.930632],"type":"Point"},"placekey":"@cx6-tb4-yqf","address":{"country_code":"RW","formatted_address":"3397+PCX, KG 14 Ave, Kigali, Rwanda","locality":"Kigali","region":"Kigali City"}},"labels":["expo"],"duration":378000,"start_local":"2024-04-22T09:00:00","end":"2024-04-26T16:00:00Z","end_local":"2024-04-26T18:00:00","updated":"2024-06-04T11:48:58Z"},{"title":"Training on Application of GIS in Monitoring and Evaluation","description":"Sourced from predicthq.com","category":"expos","start":"2024-04-22T07:00:00Z","geo":{"geometry":{"coordinates":[30.063619,-1.930632],"type":"Point"},"placekey":"@cx6-tb4-yqf","address":{"country_code":"RW","formatted_address":"3397+PCX, KG 14 Ave, Kigali, Rwanda","locality":"Kigali","region":"Kigali City"}},"labels":["expo"],"duration":378000,"start_local":"2024-04-22T09:00:00","end":"2024-04-26T16:00:00Z","end_local":"2024-04-26T18:00:00","updated":"2024-06-04T11:49:59Z"},{"title":"Training Workshop on Project Impact Evaluation","description":"Sourced from predicthq.com","category":"expos","start":"2024-04-22T07:00:00Z","geo":{"geometry":{"coordinates":[30.063619,-1.930632],"type":"Point"},"placekey":"@cx6-tb4-yqf","address":{"country_code":"RW","formatted_address":"3397+PCX, KG 14 Ave, Kigali, Rwanda","locality":"Kigali","region":"Kigali City"}},"labels":["expo"],"duration":378000,"start_local":"2024-04-22T09:00:00","end":"2024-04-26T16:00:00Z","end_local":"2024-04-26T18:00:00","updated":"2024-06-04T11:16:54Z"},{"title":"Training Course on Research Design, Data Management and Statistical Analysis using Stata","description":"Sourced from predicthq.com","category":"expos","start":"2024-04-22T07:00:00Z","geo":{"geometry":{"coordinates":[30.063619,-1.930632],"type":"Point"},"placekey":"@cx6-tb4-yqf","address":{"country_code":"RW","formatted_address":"3397+PCX, KG 14 Ave, Kigali, Rwanda","locality":"Kigali","region":"Kigali City"}},"labels":["expo"],"duration":378000,"start_local":"2024-04-22T09:00:00","end":"2024-04-26T16:00:00Z","end_local":"2024-04-26T18:00:00","updated":"2024-06-04T10:26:55Z"},{"title":"National Soccer League - Mukura vs AS Kigali","description":"Sourced from predicthq.com","category":"sports","start":"2024-04-21T13:00:00Z","geo":{"geometry":{"coordinates":[29.7458615899086,-2.615752074378619],"type":"Point"},"placekey":"@cx6-vz8-2ff","address":{"country_code":"RW","formatted_address":"Butare, Rwanda","locality":"Butare","region":"Southern Province"}},"labels":["soccer","sport"],"duration":0,"start_local":"2024-04-21T15:00:00","end":"2024-04-21T13:00:00Z","end_local":"2024-04-21T15:00:00","updated":"2024-06-11T22:05:26Z"},{"title":"National Soccer League - Gorilla vs Musanze","description":"Sourced from predicthq.com","category":"sports","start":"2024-04-21T13:00:00Z","geo":{"geometry":{"coordinates":[30.044142008,-1.978122296],"type":"Point"},"placekey":"@cx6-tbz-ghq","address":{"country_code":"RW","formatted_address":"KN 2 Ave, Kigali, Rwanda","locality":"Kigali","region":"Kigali City"}},"labels":["soccer","sport"],"duration":0,"start_local":"2024-04-21T15:00:00","end":"2024-04-21T13:00:00Z","end_local":"2024-04-21T15:00:00","updated":"2024-06-12T13:56:05Z"},{"title":"National Soccer League - Etincelles vs Muhazi United","description":"Sourced from predicthq.com","category":"sports","start":"2024-04-21T13:00:00Z","geo":{"geometry":{"coordinates":[29.2627455,-1.6753297],"type":"Point"},"placekey":"@cx8-nx2-n3q","address":{"country_code":"RW","formatted_address":"Gisenyi, Western Province, Rwanda","locality":"Gisenyi","region":"Western Province"}},"labels":["soccer","sport"],"duration":0,"start_local":"2024-04-21T15:00:00","end":"2024-04-21T13:00:00Z","end_local":"2024-04-21T15:00:00","updated":"2024-06-11T21:28:46Z"},{"title":"Multilateral Initiative on Malaria Pan African Malaria Conference","description":"Sourced from predicthq.com","category":"conferences","start":"2024-04-21T07:00:00Z","geo":{"geometry":{"coordinates":[30.0939117,-1.954588],"type":"Point"},"placekey":"@cx6-t9w-r6k","address":{"country_code":"RW","formatted_address":"23VV+MQ9, Convention Ctr Roundabout, Kigali, Rwanda","locality":"Kigali","region":"Kigali City"}},"labels":["conference"],"duration":550800,"start_local":"2024-04-21T09:00:00","end":"2024-04-27T16:00:00Z","end_local":"2024-04-27T18:00:00","updated":"2024-06-05T09:49:45Z"},{"title":"Amani Youth Expo and Summit","description":"Sourced from predicthq.com - Amani Youth Expo & Summit on Aug 23, 2023 at Mundi Center, Rwandex: Focused on mental health & youth empowerment.","category":"expos","start":"2024-04-20T16:30:00Z","geo":{"geometry":{"coordinates":[30.07847929999999,-1.9514972],"type":"Point"},"placekey":"@cx6-t9w-vpv","address":{"country_code":"RW","formatted_address":"KG 28 Avenue, Kigali, Rwanda","locality":"Kigali","region":"Kigali City"}},"labels":["expo","performing-arts"],"duration":10800,"start_local":"2024-04-20T18:30:00","end":"2024-04-20T19:30:00Z","end_local":"2024-04-20T21:30:00","updated":"2024-06-05T10:42:55Z"},{"title":"National Soccer League - Marine vs Police","description":"Sourced from predicthq.com","category":"sports","start":"2024-04-20T13:00:00Z","geo":{"geometry":{"coordinates":[29.2627455,-1.6753297],"type":"Point"},"placekey":"@cx8-nx2-n3q","address":{"country_code":"RW","formatted_address":"Gisenyi, Western Province, Rwanda","locality":"Gisenyi","region":"Western Province"}},"labels":["soccer","sport"],"duration":0,"start_local":"2024-04-20T15:00:00","end":"2024-04-20T13:00:00Z","end_local":"2024-04-20T15:00:00","updated":"2024-06-11T23:28:55Z"},{"title":"National Soccer League - APR vs Kiyovu Sports","description":"Sourced from predicthq.com","category":"sports","start":"2024-04-20T13:00:00Z","geo":{"geometry":{"coordinates":[30.044142008,-1.978122296],"type":"Point"},"placekey":"@cx6-tbz-ghq","address":{"country_code":"RW","formatted_address":"KN 2 Ave, Kigali, Rwanda","locality":"Kigali","region":"Kigali City"}},"labels":["soccer","sport"],"duration":0,"start_local":"2024-04-20T15:00:00","end":"2024-04-20T13:00:00Z","end_local":"2024-04-20T15:00:00","updated":"2024-06-12T07:09:51Z"},{"title":"National Soccer League - Amagaju vs Etoile de l'Est","description":"Sourced from predicthq.com","category":"sports","start":"2024-04-20T13:00:00Z","geo":{"geometry":{"coordinates":[29.7458615899086,-2.615752074378619],"type":"Point"},"placekey":"@cx6-vz8-2ff","address":{"country_code":"RW","formatted_address":"Butare, Rwanda","locality":"Butare","region":"Southern Province"}},"labels":["soccer","sport"],"duration":0,"start_local":"2024-04-20T15:00:00","end":"2024-04-20T13:00:00Z","end_local":"2024-04-20T15:00:00","updated":"2024-06-12T09:14:56Z"},{"title":"National Soccer League - Bugesera vs Rayon Sports","description":"Sourced from predicthq.com","category":"sports","start":"2024-04-20T13:00:00Z","geo":{"geometry":{"coordinates":[30.144496000000004,-2.2072299],"type":"Point"},"placekey":"@cx6-ssf-vpv","address":{"country_code":"RW","formatted_address":"R3VX+9CC, Nyamata, Rwanda","locality":"Nyamata","region":"Eastern Province"}},"labels":["soccer","sport"],"duration":0,"start_local":"2024-04-20T15:00:00","end":"2024-04-20T13:00:00Z","end_local":"2024-04-20T15:00:00","updated":"2024-06-12T19:04:06Z"},{"title":"Info session for entrepreneurs","description":"Sourced from predicthq.com - Hey entrepreneurs! Come join the Sinapis team to discuss how we can support your business launch and growth goals!!!","category":"conferences","start":"2024-04-20T08:00:00Z","geo":{"geometry":{"coordinates":[30.0577603,-1.9512273],"type":"Point"},"placekey":"@cx6-tb7-tqf","address":{"country_code":"RW","formatted_address":"KN 80 Street, Kigali, Rwanda","locality":"Kigali","region":"Kigali City"}},"labels":["business","conference"],"duration":7200,"start_local":"2024-04-20T10:00:00","end":"2024-04-20T10:00:00Z","end_local":"2024-04-20T12:00:00","updated":"2024-06-05T08:41:14Z"},{"title":"National Soccer League - Gasogi United vs Sunrise","description":"Sourced from predicthq.com","category":"sports","start":"2024-04-19T13:00:00Z","geo":{"geometry":{"coordinates":[30.044142008,-1.978122296],"type":"Point"},"placekey":"@cx6-tbz-ghq","address":{"country_code":"RW","formatted_address":"KN 2 Ave, Kigali, Rwanda","locality":"Kigali","region":"Kigali City"}},"labels":["soccer","sport"],"duration":0,"start_local":"2024-04-19T15:00:00","end":"2024-04-19T13:00:00Z","end_local":"2024-04-19T15:00:00","updated":"2024-06-12T01:46:59Z"},{"title":"Audition Sinapis","description":"Sourced from predicthq.com - Audition Sinapis adalah kesempatan untuk menunjukkan bakat terbaikmu di depan para juri dan bersaing untuk menjadi bintang berikutnya!","category":"performing-arts","start":"2024-04-17T17:00:00Z","geo":{"geometry":{"coordinates":[30.0809664,-1.9648983],"type":"Point"},"placekey":"@cx6-t9w-6kz","address":{"country_code":"RW","formatted_address":"KN 3 Road, Kigali, Rwanda","locality":"Kigali","region":"Kigali City"}},"labels":["concert","music","performing-arts"],"duration":93600,"start_local":"2024-04-17T19:00:00","end":"2024-04-18T19:00:00Z","end_local":"2024-04-18T21:00:00","updated":"2024-06-05T15:07:33Z"},{"title":"National Soccer League - AS Kigali vs APR","description":"Sourced from predicthq.com","category":"sports","start":"2024-04-15T13:00:00Z","geo":{"geometry":{"coordinates":[30.044142008,-1.978122296],"type":"Point"},"placekey":"@cx6-tbz-ghq","address":{"country_code":"RW","formatted_address":"KN 2 Ave, Kigali, Rwanda","locality":"Kigali","region":"Kigali City"}},"labels":["soccer","sport"],"duration":0,"start_local":"2024-04-15T15:00:00","end":"2024-04-15T13:00:00Z","end_local":"2024-04-15T15:00:00","updated":"2024-06-12T01:37:50Z"},{"title":"The UFI MEA Conference","description":"Sourced from predicthq.com","category":"conferences","start":"2024-04-15T07:00:00Z","geo":{"geometry":{"coordinates":[30.0939117,-1.954588],"type":"Point"},"placekey":"@cx6-t9w-r6k","address":{"country_code":"RW","formatted_address":"23VV+MQ9, Convention Ctr Roundabout, Kigali, Rwanda","locality":"Kigali","region":"Kigali City"}},"labels":["conference"],"duration":205200,"start_local":"2024-04-15T09:00:00","end":"2024-04-17T16:00:00Z","end_local":"2024-04-17T18:00:00","updated":"2024-06-05T01:04:33Z"},{"title":"Fraud Detection for Banking Professionals Using Machine Learning Models in Python Course","description":"Sourced from predicthq.com","category":"expos","start":"2024-04-08T07:00:00Z","geo":{"geometry":{"coordinates":[30.111021,-1.958851],"type":"Point"},"placekey":"@cx6-t9x-9zz","address":{"country_code":"RW","formatted_address":"KG 11 Avenue, Kigali, Rwanda","locality":"Kigali","region":"Kigali City"}},"labels":["expo"],"duration":378000,"start_local":"2024-04-08T09:00:00","end":"2024-04-12T16:00:00Z","end_local":"2024-04-12T18:00:00","updated":"2024-05-31T23:02:53Z"},{"title":"Training on Quality Management Skills in Business Projects and Programs","description":"Sourced from predicthq.com","category":"expos","start":"2024-04-07T22:00:00Z","geo":{"geometry":{"coordinates":[30.068376,-1.960114],"type":"Point"},"placekey":"@cx6-tb6-xqz","address":{"country_code":"RW","formatted_address":"KN 54 Street, Kigali, Rwanda","locality":"Kigali","region":"Kigali City"}},"labels":["expo"],"duration":431999,"start_local":"2024-04-08T00:00:00","end":"2024-04-12T21:59:59Z","end_local":"2024-04-12T23:59:59","updated":"2024-07-05T22:04:55Z"}]