[{"title":"S-League - Juniper vs Marist","description":"Sourced from predicthq.com","category":"sports","start":"2024-06-09T09:00:00Z","geo":{"geometry":{"coordinates":[159.9713626,-9.436619],"type":"Point"},"placekey":"@jnp-c9g-5s5","address":{"country_code":"SB","formatted_address":"Kukum Highway, Honiara, Solomon Islands","locality":"Honiara","region":"Guadalcanal Province"}},"labels":["soccer","sport"],"duration":0,"start_local":"2024-06-09T20:00:00","end":"2024-06-09T09:00:00Z","end_local":"2024-06-09T20:00:00","updated":"2024-06-12T13:39:48Z"},{"title":"S-League - SOSA vs KOSSA","description":"Sourced from predicthq.com","category":"sports","start":"2024-06-09T04:00:00Z","geo":{"geometry":{"coordinates":[159.9713626,-9.436619],"type":"Point"},"placekey":"@jnp-c9g-5s5","address":{"country_code":"SB","formatted_address":"Kukum Highway, Honiara, Solomon Islands","locality":"Honiara","region":"Guadalcanal Province"}},"labels":["soccer","sport"],"duration":0,"start_local":"2024-06-09T15:00:00","end":"2024-06-09T04:00:00Z","end_local":"2024-06-09T15:00:00","updated":"2024-06-12T06:45:13Z"},{"title":"S-League - Waneagu United vs Solomon Warriors","description":"Sourced from predicthq.com","category":"sports","start":"2024-06-09T02:00:00Z","geo":{"geometry":{"coordinates":[159.9713626,-9.436619],"type":"Point"},"placekey":"@jnp-c9g-5s5","address":{"country_code":"SB","formatted_address":"Kukum Highway, Honiara, Solomon Islands","locality":"Honiara","region":"Guadalcanal Province"}},"labels":["soccer","sport"],"duration":0,"start_local":"2024-06-09T13:00:00","end":"2024-06-09T02:00:00Z","end_local":"2024-06-09T13:00:00","updated":"2024-06-12T03:19:31Z"},{"title":"S-League - Henderson Eels vs Laugu United","description":"Sourced from predicthq.com","category":"sports","start":"2024-06-02T04:00:00Z","geo":{"geometry":{"coordinates":[159.9713626,-9.436619],"type":"Point"},"placekey":"@jnp-c9g-5s5","address":{"country_code":"SB","formatted_address":"Kukum Highway, Honiara, Solomon Islands","locality":"Honiara","region":"Guadalcanal Province"}},"labels":["soccer","sport"],"duration":0,"start_local":"2024-06-02T15:00:00","end":"2024-06-02T04:00:00Z","end_local":"2024-06-02T15:00:00","updated":"2024-06-12T14:58:21Z"},{"title":"S-League - Real Kakamora vs Central Coast","description":"Sourced from predicthq.com","category":"sports","start":"2024-06-02T02:00:00Z","geo":{"geometry":{"coordinates":[159.9713626,-9.436619],"type":"Point"},"placekey":"@jnp-c9g-5s5","address":{"country_code":"SB","formatted_address":"Kukum Highway, Honiara, Solomon Islands","locality":"Honiara","region":"Guadalcanal Province"}},"labels":["soccer","sport"],"duration":0,"start_local":"2024-06-02T13:00:00","end":"2024-06-02T02:00:00Z","end_local":"2024-06-02T13:00:00","updated":"2024-06-11T21:49:52Z"},{"title":"S-League - KOSSA vs Honiara City","description":"Sourced from predicthq.com","category":"sports","start":"2024-06-02T00:00:00Z","geo":{"geometry":{"coordinates":[159.9713626,-9.436619],"type":"Point"},"placekey":"@jnp-c9g-5s5","address":{"country_code":"SB","formatted_address":"Kukum Highway, Honiara, Solomon Islands","locality":"Honiara","region":"Guadalcanal Province"}},"labels":["soccer","sport"],"duration":0,"start_local":"2024-06-02T11:00:00","end":"2024-06-02T00:00:00Z","end_local":"2024-06-02T11:00:00","updated":"2024-06-11T22:10:29Z"},{"title":"S-League - Southern United vs Waneagu United","description":"Sourced from predicthq.com","category":"sports","start":"2024-06-01T04:00:00Z","geo":{"geometry":{"coordinates":[159.9713626,-9.436619],"type":"Point"},"placekey":"@jnp-c9g-5s5","address":{"country_code":"SB","formatted_address":"Kukum Highway, Honiara, Solomon Islands","locality":"Honiara","region":"Guadalcanal Province"}},"labels":["soccer","sport"],"duration":0,"start_local":"2024-06-01T15:00:00","end":"2024-06-01T04:00:00Z","end_local":"2024-06-01T15:00:00","updated":"2024-06-16T01:27:56Z"},{"title":"S-League - Marist vs SOSA","description":"Sourced from predicthq.com","category":"sports","start":"2024-06-01T02:00:00Z","geo":{"geometry":{"coordinates":[159.9713626,-9.436619],"type":"Point"},"placekey":"@jnp-c9g-5s5","address":{"country_code":"SB","formatted_address":"Kukum Highway, Honiara, Solomon Islands","locality":"Honiara","region":"Guadalcanal Province"}},"labels":["soccer","sport"],"duration":0,"start_local":"2024-06-01T13:00:00","end":"2024-06-01T02:00:00Z","end_local":"2024-06-01T13:00:00","updated":"2024-06-16T01:31:50Z"},{"title":"S-League - Solomon Warriors vs Juniper","description":"Sourced from predicthq.com","category":"sports","start":"2024-06-01T00:00:00Z","geo":{"geometry":{"coordinates":[159.9713626,-9.436619],"type":"Point"},"placekey":"@jnp-c9g-5s5","address":{"country_code":"SB","formatted_address":"Kukum Highway, Honiara, Solomon Islands","locality":"Honiara","region":"Guadalcanal Province"}},"labels":["soccer","sport"],"duration":0,"start_local":"2024-06-01T11:00:00","end":"2024-06-01T00:00:00Z","end_local":"2024-06-01T11:00:00","updated":"2024-06-12T06:12:17Z"},{"title":"S-League - SOSA vs Solomon Warriors","description":"Sourced from predicthq.com","category":"sports","start":"2024-05-29T04:00:00Z","geo":{"geometry":{"coordinates":[159.9713626,-9.436619],"type":"Point"},"placekey":"@jnp-c9g-5s5","address":{"country_code":"SB","formatted_address":"Kukum Highway, Honiara, Solomon Islands","locality":"Honiara","region":"Guadalcanal Province"}},"labels":["soccer","sport"],"duration":0,"start_local":"2024-05-29T15:00:00","end":"2024-05-29T04:00:00Z","end_local":"2024-05-29T15:00:00","updated":"2024-06-12T00:25:00Z"},{"title":"S-League - Honiara City vs Marist","description":"Sourced from predicthq.com","category":"sports","start":"2024-05-26T04:00:00Z","geo":{"geometry":{"coordinates":[159.9713626,-9.436619],"type":"Point"},"placekey":"@jnp-c9g-5s5","address":{"country_code":"SB","formatted_address":"Kukum Highway, Honiara, Solomon Islands","locality":"Honiara","region":"Guadalcanal Province"}},"labels":["soccer","sport"],"duration":0,"start_local":"2024-05-26T15:00:00","end":"2024-05-26T04:00:00Z","end_local":"2024-05-26T15:00:00","updated":"2024-06-12T02:07:13Z"},{"title":"S-League - Waneagu United vs Juniper","description":"Sourced from predicthq.com","category":"sports","start":"2024-05-26T02:00:00Z","geo":{"geometry":{"coordinates":[159.9713626,-9.436619],"type":"Point"},"placekey":"@jnp-c9g-5s5","address":{"country_code":"SB","formatted_address":"Kukum Highway, Honiara, Solomon Islands","locality":"Honiara","region":"Guadalcanal Province"}},"labels":["soccer","sport"],"duration":0,"start_local":"2024-05-26T13:00:00","end":"2024-05-26T02:00:00Z","end_local":"2024-05-26T13:00:00","updated":"2024-06-12T14:26:50Z"},{"title":"S-League - Central Coast vs KOSSA","description":"Sourced from predicthq.com","category":"sports","start":"2024-05-25T04:00:00Z","geo":{"geometry":{"coordinates":[159.9713626,-9.436619],"type":"Point"},"placekey":"@jnp-c9g-5s5","address":{"country_code":"SB","formatted_address":"Kukum Highway, Honiara, Solomon Islands","locality":"Honiara","region":"Guadalcanal Province"}},"labels":["soccer","sport"],"duration":0,"start_local":"2024-05-25T15:00:00","end":"2024-05-25T04:00:00Z","end_local":"2024-05-25T15:00:00","updated":"2024-06-12T19:08:39Z"},{"title":"S-League - Laugu United vs Real Kakamora","description":"Sourced from predicthq.com","category":"sports","start":"2024-05-25T02:00:00Z","geo":{"geometry":{"coordinates":[159.9713626,-9.436619],"type":"Point"},"placekey":"@jnp-c9g-5s5","address":{"country_code":"SB","formatted_address":"Kukum Highway, Honiara, Solomon Islands","locality":"Honiara","region":"Guadalcanal Province"}},"labels":["soccer","sport"],"duration":0,"start_local":"2024-05-25T13:00:00","end":"2024-05-25T02:00:00Z","end_local":"2024-05-25T13:00:00","updated":"2024-06-11T21:33:06Z"},{"title":"S-League - Henderson Eels vs Southern United","description":"Sourced from predicthq.com","category":"sports","start":"2024-05-25T00:00:00Z","geo":{"geometry":{"coordinates":[159.9713626,-9.436619],"type":"Point"},"placekey":"@jnp-c9g-5s5","address":{"country_code":"SB","formatted_address":"Kukum Highway, Honiara, Solomon Islands","locality":"Honiara","region":"Guadalcanal Province"}},"labels":["soccer","sport"],"duration":0,"start_local":"2024-05-25T11:00:00","end":"2024-05-25T00:00:00Z","end_local":"2024-05-25T11:00:00","updated":"2024-06-12T08:50:16Z"},{"title":"S-League - Real Kakamora vs Henderson Eels","description":"Sourced from predicthq.com","category":"sports","start":"2024-05-19T04:00:00Z","geo":{"geometry":{"coordinates":[159.9713626,-9.436619],"type":"Point"},"placekey":"@jnp-c9g-5s5","address":{"country_code":"SB","formatted_address":"Kukum Highway, Honiara, Solomon Islands","locality":"Honiara","region":"Guadalcanal Province"}},"labels":["soccer","sport"],"duration":0,"start_local":"2024-05-19T15:00:00","end":"2024-05-19T04:00:00Z","end_local":"2024-05-19T15:00:00","updated":"2024-06-12T06:02:09Z"},{"title":"S-League - Marist vs Central Coast","description":"Sourced from predicthq.com","category":"sports","start":"2024-05-19T02:00:00Z","geo":{"geometry":{"coordinates":[159.9713626,-9.436619],"type":"Point"},"placekey":"@jnp-c9g-5s5","address":{"country_code":"SB","formatted_address":"Kukum Highway, Honiara, Solomon Islands","locality":"Honiara","region":"Guadalcanal Province"}},"labels":["soccer","sport"],"duration":0,"start_local":"2024-05-19T13:00:00","end":"2024-05-19T02:00:00Z","end_local":"2024-05-19T13:00:00","updated":"2024-06-11T21:47:22Z"},{"title":"S-League - KOSSA vs Laugu United","description":"Sourced from predicthq.com","category":"sports","start":"2024-05-19T00:00:00Z","geo":{"geometry":{"coordinates":[159.9713626,-9.436619],"type":"Point"},"placekey":"@jnp-c9g-5s5","address":{"country_code":"SB","formatted_address":"Kukum Highway, Honiara, Solomon Islands","locality":"Honiara","region":"Guadalcanal Province"}},"labels":["soccer","sport"],"duration":0,"start_local":"2024-05-19T11:00:00","end":"2024-05-19T00:00:00Z","end_local":"2024-05-19T11:00:00","updated":"2024-06-12T13:00:02Z"},{"title":"S-League - Waneagu United vs SOSA","description":"Sourced from predicthq.com","category":"sports","start":"2024-05-18T04:00:00Z","geo":{"geometry":{"coordinates":[159.9713626,-9.436619],"type":"Point"},"placekey":"@jnp-c9g-5s5","address":{"country_code":"SB","formatted_address":"Kukum Highway, Honiara, Solomon Islands","locality":"Honiara","region":"Guadalcanal Province"}},"labels":["soccer","sport"],"duration":0,"start_local":"2024-05-18T15:00:00","end":"2024-05-18T04:00:00Z","end_local":"2024-05-18T15:00:00","updated":"2024-06-12T04:24:13Z"},{"title":"S-League - Southern United vs Juniper","description":"Sourced from predicthq.com","category":"sports","start":"2024-05-18T02:00:00Z","geo":{"geometry":{"coordinates":[159.9713626,-9.436619],"type":"Point"},"placekey":"@jnp-c9g-5s5","address":{"country_code":"SB","formatted_address":"Kukum Highway, Honiara, Solomon Islands","locality":"Honiara","region":"Guadalcanal Province"}},"labels":["soccer","sport"],"duration":0,"start_local":"2024-05-18T13:00:00","end":"2024-05-18T02:00:00Z","end_local":"2024-05-18T13:00:00","updated":"2024-06-12T02:09:20Z"},{"title":"S-League - Henderson Eels vs KOSSA","description":"Sourced from predicthq.com","category":"sports","start":"2024-05-12T04:00:00Z","geo":{"geometry":{"coordinates":[159.9713626,-9.436619],"type":"Point"},"placekey":"@jnp-c9g-5s5","address":{"country_code":"SB","formatted_address":"Kukum Highway, Honiara, Solomon Islands","locality":"Honiara","region":"Guadalcanal Province"}},"labels":["soccer","sport"],"duration":0,"start_local":"2024-05-12T15:00:00","end":"2024-05-12T04:00:00Z","end_local":"2024-05-12T15:00:00","updated":"2024-06-12T08:24:03Z"},{"title":"S-League - Laugu United vs Marist","description":"Sourced from predicthq.com","category":"sports","start":"2024-05-12T02:00:00Z","geo":{"geometry":{"coordinates":[159.9713626,-9.436619],"type":"Point"},"placekey":"@jnp-c9g-5s5","address":{"country_code":"SB","formatted_address":"Kukum Highway, Honiara, Solomon Islands","locality":"Honiara","region":"Guadalcanal Province"}},"labels":["soccer","sport"],"duration":0,"start_local":"2024-05-12T13:00:00","end":"2024-05-12T02:00:00Z","end_local":"2024-05-12T13:00:00","updated":"2024-07-01T02:36:51Z"},{"title":"S-League - Real Kakamora vs Southern United","description":"Sourced from predicthq.com","category":"sports","start":"2024-05-12T00:00:00Z","geo":{"geometry":{"coordinates":[159.9713626,-9.436619],"type":"Point"},"placekey":"@jnp-c9g-5s5","address":{"country_code":"SB","formatted_address":"Kukum Highway, Honiara, Solomon Islands","locality":"Honiara","region":"Guadalcanal Province"}},"labels":["soccer","sport"],"duration":0,"start_local":"2024-05-12T11:00:00","end":"2024-05-12T00:00:00Z","end_local":"2024-05-12T11:00:00","updated":"2024-07-01T02:36:51Z"},{"title":"S-League - SOSA vs Juniper","description":"Sourced from predicthq.com","category":"sports","start":"2024-05-11T04:00:00Z","geo":{"geometry":{"coordinates":[159.9713626,-9.436619],"type":"Point"},"placekey":"@jnp-c9g-5s5","address":{"country_code":"SB","formatted_address":"Kukum Highway, Honiara, Solomon Islands","locality":"Honiara","region":"Guadalcanal Province"}},"labels":["soccer","sport"],"duration":0,"start_local":"2024-05-11T15:00:00","end":"2024-05-11T04:00:00Z","end_local":"2024-05-11T15:00:00","updated":"2024-06-12T11:42:14Z"},{"title":"S-League - Honiara City vs Waneagu United","description":"Sourced from predicthq.com","category":"sports","start":"2024-05-11T02:00:00Z","geo":{"geometry":{"coordinates":[159.9713626,-9.436619],"type":"Point"},"placekey":"@jnp-c9g-5s5","address":{"country_code":"SB","formatted_address":"Kukum Highway, Honiara, Solomon Islands","locality":"Honiara","region":"Guadalcanal Province"}},"labels":["soccer","sport"],"duration":0,"start_local":"2024-05-11T13:00:00","end":"2024-05-11T02:00:00Z","end_local":"2024-05-11T13:00:00","updated":"2024-06-12T06:17:31Z"},{"title":"S-League - Waneagu United vs Central Coast","description":"Sourced from predicthq.com","category":"sports","start":"2024-05-05T04:00:00Z","geo":{"geometry":{"coordinates":[159.9713626,-9.436619],"type":"Point"},"placekey":"@jnp-c9g-5s5","address":{"country_code":"SB","formatted_address":"Kukum Highway, Honiara, Solomon Islands","locality":"Honiara","region":"Guadalcanal Province"}},"labels":["soccer","sport"],"duration":0,"start_local":"2024-05-05T15:00:00","end":"2024-05-05T04:00:00Z","end_local":"2024-05-05T15:00:00","updated":"2024-06-12T02:13:53Z"},{"title":"S-League - KOSSA vs Real Kakamora","description":"Sourced from predicthq.com","category":"sports","start":"2024-05-05T02:00:00Z","geo":{"geometry":{"coordinates":[159.9713626,-9.436619],"type":"Point"},"placekey":"@jnp-c9g-5s5","address":{"country_code":"SB","formatted_address":"Kukum Highway, Honiara, Solomon Islands","locality":"Honiara","region":"Guadalcanal Province"}},"labels":["soccer","sport"],"duration":0,"start_local":"2024-05-05T13:00:00","end":"2024-05-05T02:00:00Z","end_local":"2024-05-05T13:00:00","updated":"2024-06-12T10:14:14Z"},{"title":"S-League - Marist vs Henderson Eels","description":"Sourced from predicthq.com","category":"sports","start":"2024-05-05T00:00:00Z","geo":{"geometry":{"coordinates":[159.9713626,-9.436619],"type":"Point"},"placekey":"@jnp-c9g-5s5","address":{"country_code":"SB","formatted_address":"Kukum Highway, Honiara, Solomon Islands","locality":"Honiara","region":"Guadalcanal Province"}},"labels":["soccer","sport"],"duration":0,"start_local":"2024-05-05T11:00:00","end":"2024-05-05T00:00:00Z","end_local":"2024-05-05T11:00:00","updated":"2024-06-12T03:41:11Z"},{"title":"S-League - Solomon Warriors vs Laugu United","description":"Sourced from predicthq.com","category":"sports","start":"2024-05-04T04:00:00Z","geo":{"geometry":{"coordinates":[159.9713626,-9.436619],"type":"Point"},"placekey":"@jnp-c9g-5s5","address":{"country_code":"SB","formatted_address":"Kukum Highway, Honiara, Solomon Islands","locality":"Honiara","region":"Guadalcanal Province"}},"labels":["soccer","sport"],"duration":0,"start_local":"2024-05-04T15:00:00","end":"2024-05-04T04:00:00Z","end_local":"2024-05-04T15:00:00","updated":"2024-06-11T22:46:25Z"},{"title":"S-League - Southern United vs SOSA","description":"Sourced from predicthq.com","category":"sports","start":"2024-05-04T02:00:00Z","geo":{"geometry":{"coordinates":[159.9713626,-9.436619],"type":"Point"},"placekey":"@jnp-c9g-5s5","address":{"country_code":"SB","formatted_address":"Kukum Highway, Honiara, Solomon Islands","locality":"Honiara","region":"Guadalcanal Province"}},"labels":["soccer","sport"],"duration":0,"start_local":"2024-05-04T13:00:00","end":"2024-05-04T02:00:00Z","end_local":"2024-05-04T13:00:00","updated":"2024-06-12T09:27:36Z"},{"title":"S-League - Juniper vs Honiara City","description":"Sourced from predicthq.com","category":"sports","start":"2024-05-04T00:00:00Z","geo":{"geometry":{"coordinates":[159.9713626,-9.436619],"type":"Point"},"placekey":"@jnp-c9g-5s5","address":{"country_code":"SB","formatted_address":"Kukum Highway, Honiara, Solomon Islands","locality":"Honiara","region":"Guadalcanal Province"}},"labels":["soccer","sport"],"duration":0,"start_local":"2024-05-04T11:00:00","end":"2024-05-04T00:00:00Z","end_local":"2024-05-04T11:00:00","updated":"2024-06-12T08:39:35Z"},{"title":"S-League - KOSSA vs Southern United","description":"Sourced from predicthq.com","category":"sports","start":"2024-05-01T05:00:00Z","geo":{"geometry":{"coordinates":[160.018459384,-9.425861483],"type":"Point"},"placekey":"@jnp-c96-rkz","address":{"country_code":"SB","formatted_address":"H2F9+C8, Honiara, Solomon Islands","locality":"Honiara","region":"Capital Territory"}},"labels":["soccer","sport"],"duration":0,"start_local":"2024-05-01T16:00:00","end":"2024-05-01T05:00:00Z","end_local":"2024-05-01T16:00:00","updated":"2024-06-12T20:10:06Z"},{"title":"S-League - Honiara City vs SOSA","description":"Sourced from predicthq.com","category":"sports","start":"2024-05-01T05:00:00Z","geo":{"geometry":{"coordinates":[159.9713626,-9.436619],"type":"Point"},"placekey":"@jnp-c9g-5s5","address":{"country_code":"SB","formatted_address":"Kukum Highway, Honiara, Solomon Islands","locality":"Honiara","region":"Guadalcanal Province"}},"labels":["soccer","sport"],"duration":0,"start_local":"2024-05-01T16:00:00","end":"2024-05-01T05:00:00Z","end_local":"2024-05-01T16:00:00","updated":"2024-06-12T04:08:06Z"},{"title":"S-League - Central Coast vs Juniper","description":"Sourced from predicthq.com","category":"sports","start":"2024-05-01T03:00:00Z","geo":{"geometry":{"coordinates":[159.9713626,-9.436619],"type":"Point"},"placekey":"@jnp-c9g-5s5","address":{"country_code":"SB","formatted_address":"Kukum Highway, Honiara, Solomon Islands","locality":"Honiara","region":"Guadalcanal Province"}},"labels":["soccer","sport"],"duration":0,"start_local":"2024-05-01T14:00:00","end":"2024-05-01T03:00:00Z","end_local":"2024-05-01T14:00:00","updated":"2024-06-12T01:26:12Z"},{"title":"S-League - Real Kakamora vs Marist","description":"Sourced from predicthq.com","category":"sports","start":"2024-05-01T03:00:00Z","geo":{"geometry":{"coordinates":[160.018459384,-9.425861483],"type":"Point"},"placekey":"@jnp-c96-rkz","address":{"country_code":"SB","formatted_address":"H2F9+C8, Honiara, Solomon Islands","locality":"Honiara","region":"Capital Territory"}},"labels":["soccer","sport"],"duration":0,"start_local":"2024-05-01T14:00:00","end":"2024-05-01T03:00:00Z","end_local":"2024-05-01T14:00:00","updated":"2024-06-11T23:59:41Z"},{"title":"S-League - Laugu United vs Waneagu United","description":"Sourced from predicthq.com","category":"sports","start":"2024-05-01T01:00:00Z","geo":{"geometry":{"coordinates":[159.9713626,-9.436619],"type":"Point"},"placekey":"@jnp-c9g-5s5","address":{"country_code":"SB","formatted_address":"Kukum Highway, Honiara, Solomon Islands","locality":"Honiara","region":"Guadalcanal Province"}},"labels":["soccer","sport"],"duration":0,"start_local":"2024-05-01T12:00:00","end":"2024-05-01T01:00:00Z","end_local":"2024-05-01T12:00:00","updated":"2024-06-12T09:45:15Z"},{"title":"S-League - Henderson Eels vs Solomon Warriors","description":"Sourced from predicthq.com","category":"sports","start":"2024-05-01T01:00:00Z","geo":{"geometry":{"coordinates":[160.018459384,-9.425861483],"type":"Point"},"placekey":"@jnp-c96-rkz","address":{"country_code":"SB","formatted_address":"H2F9+C8, Honiara, Solomon Islands","locality":"Honiara","region":"Capital Territory"}},"labels":["soccer","sport"],"duration":0,"start_local":"2024-05-01T12:00:00","end":"2024-05-01T01:00:00Z","end_local":"2024-05-01T12:00:00","updated":"2024-06-12T03:56:32Z"},{"title":"S-League - Waneagu United vs Henderson Eels","description":"Sourced from predicthq.com","category":"sports","start":"2024-04-28T04:00:00Z","geo":{"geometry":{"coordinates":[159.9713626,-9.436619],"type":"Point"},"placekey":"@jnp-c9g-5s5","address":{"country_code":"SB","formatted_address":"Kukum Highway, Honiara, Solomon Islands","locality":"Honiara","region":"Guadalcanal Province"}},"labels":["soccer","sport"],"duration":0,"start_local":"2024-04-28T15:00:00","end":"2024-04-28T04:00:00Z","end_local":"2024-04-28T15:00:00","updated":"2024-06-12T17:08:57Z"},{"title":"S-League - Solomon Warriors vs Real Kakamora","description":"Sourced from predicthq.com","category":"sports","start":"2024-04-28T02:00:00Z","geo":{"geometry":{"coordinates":[159.9713626,-9.436619],"type":"Point"},"placekey":"@jnp-c9g-5s5","address":{"country_code":"SB","formatted_address":"Kukum Highway, Honiara, Solomon Islands","locality":"Honiara","region":"Guadalcanal Province"}},"labels":["soccer","sport"],"duration":0,"start_local":"2024-04-28T13:00:00","end":"2024-04-28T02:00:00Z","end_local":"2024-04-28T13:00:00","updated":"2024-06-12T04:45:49Z"},{"title":"S-League - Marist vs KOSSA","description":"Sourced from predicthq.com","category":"sports","start":"2024-04-28T00:00:00Z","geo":{"geometry":{"coordinates":[159.9713626,-9.436619],"type":"Point"},"placekey":"@jnp-c9g-5s5","address":{"country_code":"SB","formatted_address":"Kukum Highway, Honiara, Solomon Islands","locality":"Honiara","region":"Guadalcanal Province"}},"labels":["soccer","sport"],"duration":0,"start_local":"2024-04-28T11:00:00","end":"2024-04-28T00:00:00Z","end_local":"2024-04-28T11:00:00","updated":"2024-06-12T05:26:18Z"},{"title":"S-League - Juniper vs Laugu United","description":"Sourced from predicthq.com","category":"sports","start":"2024-04-27T04:00:00Z","geo":{"geometry":{"coordinates":[159.9713626,-9.436619],"type":"Point"},"placekey":"@jnp-c9g-5s5","address":{"country_code":"SB","formatted_address":"Kukum Highway, Honiara, Solomon Islands","locality":"Honiara","region":"Guadalcanal Province"}},"labels":["soccer","sport"],"duration":0,"start_local":"2024-04-27T15:00:00","end":"2024-04-27T04:00:00Z","end_local":"2024-04-27T15:00:00","updated":"2024-06-12T10:46:40Z"},{"title":"S-League - Southern United vs Honiara City","description":"Sourced from predicthq.com","category":"sports","start":"2024-04-27T02:00:00Z","geo":{"geometry":{"coordinates":[159.9713626,-9.436619],"type":"Point"},"placekey":"@jnp-c9g-5s5","address":{"country_code":"SB","formatted_address":"Kukum Highway, Honiara, Solomon Islands","locality":"Honiara","region":"Guadalcanal Province"}},"labels":["soccer","sport"],"duration":0,"start_local":"2024-04-27T13:00:00","end":"2024-04-27T02:00:00Z","end_local":"2024-04-27T13:00:00","updated":"2024-06-12T05:07:05Z"},{"title":"S-League - SOSA vs Central Coast","description":"Sourced from predicthq.com","category":"sports","start":"2024-04-27T00:00:00Z","geo":{"geometry":{"coordinates":[159.9713626,-9.436619],"type":"Point"},"placekey":"@jnp-c9g-5s5","address":{"country_code":"SB","formatted_address":"Kukum Highway, Honiara, Solomon Islands","locality":"Honiara","region":"Guadalcanal Province"}},"labels":["soccer","sport"],"duration":0,"start_local":"2024-04-27T11:00:00","end":"2024-04-27T00:00:00Z","end_local":"2024-04-27T11:00:00","updated":"2024-06-12T07:27:37Z"},{"title":"Election for Solomon Islander National Parliament","description":"Sourced from predicthq.com - Party\tSeats Won\tSeats Change\tVotes\nOUR Party \n\t\t\t\t\t\t\n\t\t\t\t\t\t (OUR Party)\n\t\t\t\t\t\t\n\t\t\t\t\t\t\t\n\t\t\t\t\t\t15\n\t\t\t\t\t\t\n\t\t\t\t\t\t- \t\n\t\t\t\t\t\t\t\t83,279\nDemocratic Party (SIDP) \n\t\t\t\t\t\t\n\t\t\t\t\t\t (Democratic Party (SIDP))\n\t\t\t\t\t\t\n\t\t\t\t\t\t\t\n\t\t\t\t\t\t11\n\t\t\t\t\t\t\n\t\t\t\t\t\t- \t\n\t\t\t\t\t\t\t\t66,808\nIndependents \n\t\t\t\t\t\t\n\t\t\t\t\t\t (Independents)\n\t\t\t\t\t\t\n\t\t\t\t\t\t\t\n\t\t\t\t\t\t10\n\t\t\t\t\t\t\n\t\t\t\t\t\t- \t\n\t\t\t\t\t\t\t\t75,713\nUnited Party \n\t\t\t\t\t\t\n\t\t\t\t\t\t\t\n\t\t\t\t\t\t7\n\t\t\t\t\t\t\n\t\t\t\t\t\t- \t▲\t\n\t\t\t\t\t\t\t\t46,662\nSolomon Islands People First Party \n\t\t\t\t\t\t\n\t\t\t\t\t\t (Solomon Islands People First Party)\n\t\t\t\t\t\t\n\t\t\t\t\t\t\t\n\t\t\t\t\t\t3\n\t\t\t\t\t\t\n\t\t\t\t\t\t- \t▲\t\n\t\t\t\t\t\t\t\t11,045\nKadare Party of Solomon Islands \n\t\t\t\t\t\t\n\t\t\t\t\t\t (Kadare Party of Solomon Islands)\n\t\t\t\t\t\t\n\t\t\t\t\t\t\t\n\t\t\t\t\t\t1\n\t\t\t\t\t\t\n\t\t\t\t\t\t- \t▼\t\n\t\t\t\t\t\t\t\t16,906\nDemocratic Alliance Party \n\t\t\t\t\t\t\n\t\t\t\t\t\t (Democratic Alliance Party)\n\t\t\t\t\t\t\n\t\t\t\t\t\t\t\n\t\t\t\t\t\t1\n\t\t\t\t\t\t\n\t\t\t\t\t\t- \t▼\t\n\t\t\t\t\t\t\t\t5,515\nUmi for Change (U4C) \n\t\t\t\t\t\t\n\t\t\t\t\t\t (Umi for Change (U4C))\n\t\t\t\t\t\t\n\t\t\t\t\t\t\t\n\t\t\t\t\t\t1\n\t\t\t\t\t\t\n\t\t\t\t\t\t- \t\n\t\t\t\t\t\t\t\t10,388\nSolomon Islands Party for Rural Advancement (SIPRA) \n\t\t\t\t\t\t\n\t\t\t\t\t\t (Solomon Islands Party for Rural Advancement (SIPRA))\n\t\t\t\t\t\t\n\t\t\t\t\t\t\t\n\t\t\t\t\t\t1\n\t\t\t\t\t\t\n\t\t\t\t\t\t- -\t\n\t\t\t\t\t\t\t\t15,735\n\nAt Stake in this Election:\n\nAll 50 seats in the Solomon Islands National Parliament\n\nProvincial assembly and Honiara city council elections will take place concurrently.\nGovernment Structure: \n\nChief of State: King CHARLES III (since 8 September 2022)\n\nRepresented by Governor General David VUNAGI (since 8 July 2019)\n\n\nHead of Government: Prime Minister Manasseh SOGAVARE (since 24 April 2019)\nAssembly: unicameral National Parliament with 50 seats\n\nElectoral System: \n\nThe King is a hereditary monarch.\nThe Governor General is nominated by the National Parliament and appointed by the monarch. The Governor General may serve up to two 5-year terms.\nThe Prime Minister, typically the parliamentary majority leader, is elected by the National Parliament following each general election.\nIn the National Parliament, all 50 members are directly elected by plurality vote from single-seat constituencies. All members serve 4-year terms.\n\nLast Election:\nIn the 2019 parliamentary election, independent candidates won the largest share of seats (21). Eight coalitions and parties also won seats. Voter turnout was 67.54%.\nInformation for Voters:\nVoter and Civic Awareness Materials (in English)\nNew/Unique in this Election: \nThe postponement of the general election was enacted in September 2022 with the passage of the Constitution (Amendment) Bill 2022. The postponement delayed the next general election from 2023 to 2024. The government's official reason was to avoid having the election conflict with the 2023 Pacific Games, which the Solomon Islands hosted. \nKey Deadlines:\n\nCandidate filing deadline: 6 March 2024\nVoter registration deadline: 11 September 2024\n\nMain Parties in this Election:\n\nCoalition for Accountability Reform and Empowerment (CARE) \n\nCoalition including the Democratic Alliance Party (DAP) and Solomon Islands Democratic Party (SIDP), Umi for Change \nSeats won in last election: 11 out of 50\n\n\nKadare Party \n\nSeats won in last election: 8 out of 50\n\n\nUnited Democratic Party \n\nSeats won in last election: 4 out of 50\n\n\nPeople’s Alliance Party \n\nSeats won in last election: 2 out of 50\n\n\nUnited Party \n\nSeats won in last election: 2 out of 50\n\n\nSolomon Islands’ Party for Rural Advancement \n\nSeats won in last election: 1 out of 50\n\n\nSolomon Islands People First Party \n\nSeats won in last election: 1 out of 50\n\n\nDemocratic Coalition Government for Advancement (DCGA) \n\nCoalition including Ownership, Unity and Responsibility Party (OUR)\nSeats won in last election: 0 out of 50\n\n\n\nPopulation and Registered Voters:\n\nPopulation: 724,270 (2022 est.)\nRegistered Voters: 414,486 (2024)\n\nGender Data:\n\nFemale Population: 354,370 (2022 est.)\nCEDAW Status: Ratified (by accession) 6 May 2002\nGender Quota:  At least 10% of slots on each party list for National Assembly elections must be reserved for women.\nFemale Candidates in this election: Yes\nNumber of Female Legislators (pre-election): 4 out of 50 (8%) in the National Assembly\nHuman Development Index (HDI) Position: 0.562, Medium, Rank 156 (2024)\nSocial Institutions and Gender Index (SIGI) Categorization: Unavailable\n\nDisability Data:\n\nCRPD Status: Signed 23 September 2008, Ratified 22 June 2023 \nProjected population with a disability: 115,883 (2022 est.)\n\nIFES Resources:\n\nElection Snapshot: Yes\nDoes IFES have a presence in the Solomon Islands: Yes, programming  \nElection Access: Yes\nElection Judgements:  Yes, 1 judgement","category":"politics","start":"2024-04-17T00:00:00Z","geo":{"geometry":{"coordinates":[160.156194,-9.64571],"type":"Point"},"address":{"country_code":"SB","formatted_address":"Solomon Islands"}},"labels":["election","parliament","politics"],"duration":86399,"start_local":"2024-04-17T00:00:00","end":"2024-04-17T23:59:59Z","end_local":"2024-04-17T23:59:59","updated":"2024-06-11T23:59:27Z"}]