[{"title":"RSP & Thomax","description":"Sourced from predicthq.com","category":"concerts","start":"2024-09-21T17:00:00Z","geo":{"geometry":{"coordinates":[15.62672,78.22317],"type":"Point"},"placekey":"@abh-7m3-g6k","address":{"country_code":"SJ","formatted_address":"9170 Longyearbyen, Norway","locality":"Longyearbyen","postcode":"9170","region":"Svalbard"}},"labels":["concert","music"],"duration":0,"start_local":"2024-09-21T19:00:00","end":"2024-09-21T17:00:00Z","end_local":"2024-09-21T19:00:00","updated":"2024-06-11T02:39:05Z"},{"title":"MUSIC for ISOLATION","description":"Sourced from predicthq.com","category":"concerts","start":"2024-06-11T17:00:00Z","geo":{"geometry":{"coordinates":[15.62672,78.22317],"type":"Point"},"placekey":"@abh-7m3-g6k","address":{"country_code":"SJ","formatted_address":"9170 Longyearbyen, Norway","locality":"Longyearbyen","postcode":"9170","region":"Svalbard"}},"labels":["concert","music"],"duration":0,"start_local":"2024-06-11T19:00:00","end":"2024-06-11T17:00:00Z","end_local":"2024-06-11T19:00:00","updated":"2024-06-25T17:49:12Z"},{"title":"MUSIC for ISOLATION","description":"Sourced from predicthq.com","category":"concerts","start":"2024-06-05T17:00:00Z","geo":{"geometry":{"coordinates":[15.62672,78.22317],"type":"Point"},"placekey":"@abh-7m3-g6k","address":{"country_code":"SJ","formatted_address":"9170 Longyearbyen, Norway","locality":"Longyearbyen","postcode":"9170","region":"Svalbard"}},"labels":["concert","music"],"duration":0,"start_local":"2024-06-05T19:00:00","end":"2024-06-05T17:00:00Z","end_local":"2024-06-05T19:00:00","updated":"2024-06-19T17:29:55Z"},{"title":"Spitsbergen Marathon","description":"Sourced from predicthq.com","category":"sports","start":"2024-06-01T08:00:00Z","geo":{"geometry":{"coordinates":[15.55,78.216667],"type":"Point"},"placekey":"@abh-7kx-nyv","address":{"country_code":"SJ","formatted_address":"9170 Longyearbyen, Norway","locality":"Longyearbyen","postcode":"9170","region":"Svalbard"}},"labels":["marathon","outdoor-sports","running","sport"],"duration":0,"start_local":"2024-06-01T10:00:00","end":"2024-06-01T08:00:00Z","end_local":"2024-06-01T10:00:00","updated":"2024-05-31T23:12:43Z"}]