[{"title":"First International West Africa Symposium & Workshops on Infectious Disease","description":"Sourced from predicthq.com - An event that will bridge basic and clinical infectious disease research across countries in Africa, North America and the EU.","category":"conferences","start":"2024-07-29T09:00:00Z","geo":{"geometry":{"coordinates":[-13.2354918,8.487080299999999],"type":"Point"},"placekey":"@9x2-zb6-b8v","address":{"country_code":"SL","formatted_address":"Freetown, Western Area, Sierra Leone","locality":"Freetown","region":"Western Area"}},"labels":["conference","science","technology"],"duration":460800,"start_local":"2024-07-29T09:00:00","end":"2024-08-03T17:00:00Z","end_local":"2024-08-03T17:00:00","updated":"2024-06-04T06:37:57Z"},{"title":"Premier League - Mighty Blackpool vs Wusum Stars","description":"Sourced from predicthq.com","category":"sports","start":"2024-06-30T16:30:00Z","geo":{"geometry":{"coordinates":[-13.250345885753632,8.490279198124195],"type":"Point"},"placekey":"@9x2-tc2-w6k","address":{"country_code":"SL","formatted_address":"FPRX+5J4, Battery St, Freetown, Sierra Leone","locality":"Freetown"}},"labels":["soccer","sport"],"duration":0,"start_local":"2024-06-30T16:30:00","end":"2024-06-30T16:30:00Z","end_local":"2024-06-30T16:30:00","updated":"2024-06-25T19:28:16Z"},{"title":"Premier League - Bo Rangers vs Lamboi","description":"Sourced from predicthq.com","category":"sports","start":"2024-06-30T16:30:00Z","geo":{"geometry":{"coordinates":[-11.759896316,7.951642852],"type":"Point"},"placekey":"@dwv-rr6-jvz","address":{"country_code":"SL","formatted_address":"X62R+M5J, Bo, Sierra Leone","locality":"Bo","region":"Southern Province"}},"labels":["soccer","sport"],"duration":0,"start_local":"2024-06-30T16:30:00","end":"2024-06-30T16:30:00Z","end_local":"2024-06-30T16:30:00","updated":"2024-06-25T11:42:04Z"},{"title":"Premier League - East End Lions vs Old Edwardians","description":"Sourced from predicthq.com","category":"sports","start":"2024-06-30T16:30:00Z","geo":{"geometry":{"coordinates":[-13.230902616624576,8.464130535576366],"type":"Point"},"placekey":"@9x2-vq6-pjv","address":{"country_code":"SL","formatted_address":"FQ79+VJ3, George Brook Rd, Freetown, Sierra Leone","locality":"Freetown","region":"Western Area"}},"labels":["soccer","sport"],"duration":0,"start_local":"2024-06-30T16:30:00","end":"2024-06-30T16:30:00Z","end_local":"2024-06-30T16:30:00","updated":"2024-06-25T13:30:21Z"},{"title":"Premier League - Diamond Stars vs Luawa","description":"Sourced from predicthq.com","category":"sports","start":"2024-06-30T14:15:00Z","geo":{"geometry":{"coordinates":[-10.97158133983612,8.649001197939509],"type":"Point"},"placekey":"@dwv-65k-5pv","address":{"country_code":"SL","formatted_address":"Koidu Town (Sefadu), Sierra Leone","locality":"Koidu Town (Sefadu)"}},"labels":["soccer","sport"],"duration":0,"start_local":"2024-06-30T14:15:00","end":"2024-06-30T14:15:00Z","end_local":"2024-06-30T14:15:00","updated":"2024-07-01T13:40:07Z"},{"title":"Premier League - Real Republicans vs Ports Authority","description":"Sourced from predicthq.com","category":"sports","start":"2024-06-29T16:15:00Z","geo":{"geometry":{"coordinates":[-13.230902616624576,8.464130535576366],"type":"Point"},"placekey":"@9x2-vq6-pjv","address":{"country_code":"SL","formatted_address":"FQ79+VJ3, George Brook Rd, Freetown, Sierra Leone","locality":"Freetown","region":"Western Area"}},"labels":["soccer","sport"],"duration":0,"start_local":"2024-06-29T16:15:00","end":"2024-06-29T16:15:00Z","end_local":"2024-06-29T16:15:00","updated":"2024-06-25T16:52:21Z"},{"title":"Premier League - Wilberforce Strikers vs Freetown City","description":"Sourced from predicthq.com","category":"sports","start":"2024-06-29T16:15:00Z","geo":{"geometry":{"coordinates":[-13.250345885753632,8.490279198124195],"type":"Point"},"placekey":"@9x2-tc2-w6k","address":{"country_code":"SL","formatted_address":"FPRX+5J4, Battery St, Freetown, Sierra Leone","locality":"Freetown"}},"labels":["soccer","sport"],"duration":0,"start_local":"2024-06-29T16:15:00","end":"2024-06-29T16:15:00Z","end_local":"2024-06-29T16:15:00","updated":"2024-06-25T16:21:22Z"},{"title":"Premier League - Bai Bureh Warriors vs Bhantal","description":"Sourced from predicthq.com","category":"sports","start":"2024-06-29T16:15:00Z","geo":{"geometry":{"coordinates":[-12.790408848,8.749409035],"type":"Point"},"placekey":"@9xc-knm-3h5","address":{"country_code":"SL","formatted_address":"P6X5+QR Port Loko, Sierra Leone","locality":"Port Loko","region":"Northern Province"}},"labels":["soccer","sport"],"duration":0,"start_local":"2024-06-29T16:15:00","end":"2024-06-29T16:15:00Z","end_local":"2024-06-29T16:15:00","updated":"2024-06-25T13:22:21Z"},{"title":"Premier League - Luawa vs East End Lions","description":"Sourced from predicthq.com","category":"sports","start":"2024-06-26T16:30:00Z","geo":{"geometry":{"coordinates":[-13.230902616624576,8.464130535576366],"type":"Point"},"placekey":"@9x2-vq6-pjv","address":{"country_code":"SL","formatted_address":"FQ79+VJ3, George Brook Rd, Freetown, Sierra Leone","locality":"Freetown","region":"Western Area"}},"labels":["soccer","sport"],"duration":0,"start_local":"2024-06-26T16:30:00","end":"2024-06-26T16:30:00Z","end_local":"2024-06-26T16:30:00","updated":"2024-06-19T18:18:23Z"},{"title":"Premier League - Freetonians SLIFA vs Bai Bureh Warriors","description":"Sourced from predicthq.com","category":"sports","start":"2024-06-26T16:30:00Z","geo":{"geometry":{"coordinates":[-13.250345885753632,8.490279198124195],"type":"Point"},"placekey":"@9x2-tc2-w6k","address":{"country_code":"SL","formatted_address":"FPRX+5J4, Battery St, Freetown, Sierra Leone","locality":"Freetown"}},"labels":["soccer","sport"],"duration":0,"start_local":"2024-06-26T16:30:00","end":"2024-06-26T16:30:00Z","end_local":"2024-06-26T16:30:00","updated":"2024-06-25T16:49:08Z"},{"title":"Premier League - Lamboi vs Kallon","description":"Sourced from predicthq.com","category":"sports","start":"2024-06-26T16:15:00Z","geo":{"geometry":{"coordinates":[-12.790408848,8.749409035],"type":"Point"},"placekey":"@9xc-knm-3h5","address":{"country_code":"SL","formatted_address":"P6X5+QR Port Loko, Sierra Leone","locality":"Port Loko","region":"Northern Province"}},"labels":["soccer","sport"],"duration":0,"start_local":"2024-06-26T16:15:00","end":"2024-06-26T16:15:00Z","end_local":"2024-06-26T16:15:00","updated":"2024-06-19T18:31:27Z"},{"title":"Premier League - Freetown City vs Ports Authority","description":"Sourced from predicthq.com","category":"sports","start":"2024-06-25T16:30:00Z","geo":{"geometry":{"coordinates":[-13.230902616624576,8.464130535576366],"type":"Point"},"placekey":"@9x2-vq6-pjv","address":{"country_code":"SL","formatted_address":"FQ79+VJ3, George Brook Rd, Freetown, Sierra Leone","locality":"Freetown","region":"Western Area"}},"labels":["soccer","sport"],"duration":0,"start_local":"2024-06-25T16:30:00","end":"2024-06-25T16:30:00Z","end_local":"2024-06-25T16:30:00","updated":"2024-06-19T18:18:07Z"},{"title":"Premier League - Old Edwardians vs Real Republicans","description":"Sourced from predicthq.com","category":"sports","start":"2024-06-25T16:30:00Z","geo":{"geometry":{"coordinates":[-13.250345885753632,8.490279198124195],"type":"Point"},"placekey":"@9x2-tc2-w6k","address":{"country_code":"SL","formatted_address":"FPRX+5J4, Battery St, Freetown, Sierra Leone","locality":"Freetown"}},"labels":["soccer","sport"],"duration":0,"start_local":"2024-06-25T16:30:00","end":"2024-06-25T16:30:00Z","end_local":"2024-06-25T16:30:00","updated":"2024-06-25T12:17:20Z"},{"title":"Premier League - Bhantal vs Mighty Blackpool","description":"Sourced from predicthq.com","category":"sports","start":"2024-06-24T16:30:00Z","geo":{"geometry":{"coordinates":[-13.230902616624576,8.464130535576366],"type":"Point"},"placekey":"@9x2-vq6-pjv","address":{"country_code":"SL","formatted_address":"FQ79+VJ3, George Brook Rd, Freetown, Sierra Leone","locality":"Freetown","region":"Western Area"}},"labels":["soccer","sport"],"duration":0,"start_local":"2024-06-24T16:30:00","end":"2024-06-24T16:30:00Z","end_local":"2024-06-24T16:30:00","updated":"2024-06-20T02:26:01Z"},{"title":"Premier League - Freetonians SLIFA vs Bo Rangers","description":"Sourced from predicthq.com","category":"sports","start":"2024-06-23T16:30:00Z","geo":{"geometry":{"coordinates":[-13.230902616624576,8.464130535576366],"type":"Point"},"placekey":"@9x2-vq6-pjv","address":{"country_code":"SL","formatted_address":"FQ79+VJ3, George Brook Rd, Freetown, Sierra Leone","locality":"Freetown","region":"Western Area"}},"labels":["soccer","sport"],"duration":0,"start_local":"2024-06-23T16:30:00","end":"2024-06-23T16:30:00Z","end_local":"2024-06-23T16:30:00","updated":"2024-06-19T22:50:18Z"},{"title":"Premier League - Kahunla Rangers vs Wilberforce Strikers","description":"Sourced from predicthq.com","category":"sports","start":"2024-06-23T16:15:00Z","geo":{"geometry":{"coordinates":[-11.184229552745819,7.8767409281637955],"type":"Point"},"placekey":"@dwt-3fr-k9f","address":{"country_code":"SL","formatted_address":"VRG8+R7W, Kenema, Sierra Leone","locality":"Kenema","region":"Eastern Province"}},"labels":["soccer","sport"],"duration":0,"start_local":"2024-06-23T16:15:00","end":"2024-06-23T16:15:00Z","end_local":"2024-06-23T16:15:00","updated":"2024-06-19T18:33:57Z"},{"title":"Premier League - Wusum Stars vs Diamond Stars","description":"Sourced from predicthq.com","category":"sports","start":"2024-06-22T16:15:00Z","geo":{"geometry":{"coordinates":[-12.044432759284973,8.892995146226566],"type":"Point"},"placekey":"@9xc-msq-vmk","address":{"country_code":"SL","formatted_address":"VXJ8+8MR Teko Road, Makeni, Sierra Leone","locality":"Makeni","region":"Northern Province"}},"labels":["soccer","sport"],"duration":0,"start_local":"2024-06-22T16:15:00","end":"2024-06-22T16:15:00Z","end_local":"2024-06-22T16:15:00","updated":"2024-06-19T18:18:23Z"},{"title":"Premier League - Bhantal vs Bo Rangers","description":"Sourced from predicthq.com","category":"sports","start":"2024-06-20T16:30:00Z","geo":{"geometry":{"coordinates":[-13.230902616624576,8.464130535576366],"type":"Point"},"placekey":"@9x2-vq6-pjv","address":{"country_code":"SL","formatted_address":"FQ79+VJ3, George Brook Rd, Freetown, Sierra Leone","locality":"Freetown","region":"Western Area"}},"labels":["soccer","sport"],"duration":0,"start_local":"2024-06-20T16:30:00","end":"2024-06-20T16:30:00Z","end_local":"2024-06-20T16:30:00","updated":"2024-06-17T11:39:42Z"},{"title":"Premier League - Kallon vs Freetonians SLIFA","description":"Sourced from predicthq.com","category":"sports","start":"2024-06-19T16:30:00Z","geo":{"geometry":{"coordinates":[-13.250345885753632,8.490279198124195],"type":"Point"},"placekey":"@9x2-tc2-w6k","address":{"country_code":"SL","formatted_address":"FPRX+5J4, Battery St, Freetown, Sierra Leone","locality":"Freetown"}},"labels":["soccer","sport"],"duration":0,"start_local":"2024-06-19T16:30:00","end":"2024-06-19T16:30:00Z","end_local":"2024-06-19T16:30:00","updated":"2024-06-17T12:34:47Z"},{"title":"Premier League - Ports Authority vs Wilberforce Strikers","description":"Sourced from predicthq.com","category":"sports","start":"2024-06-18T19:00:00Z","geo":{"geometry":{"coordinates":[-13.230902616624576,8.464130535576366],"type":"Point"},"placekey":"@9x2-vq6-pjv","address":{"country_code":"SL","formatted_address":"FQ79+VJ3, George Brook Rd, Freetown, Sierra Leone","locality":"Freetown","region":"Western Area"}},"labels":["soccer","sport"],"duration":0,"start_local":"2024-06-18T19:00:00","end":"2024-06-18T19:00:00Z","end_local":"2024-06-18T19:00:00","updated":"2024-07-01T01:36:08Z"},{"title":"Premier League - Freetown City vs Kholifa Stars","description":"Sourced from predicthq.com","category":"sports","start":"2024-06-18T16:30:00Z","geo":{"geometry":{"coordinates":[-13.250345885753632,8.490279198124195],"type":"Point"},"placekey":"@9x2-tc2-w6k","address":{"country_code":"SL","formatted_address":"FPRX+5J4, Battery St, Freetown, Sierra Leone","locality":"Freetown"}},"labels":["soccer","sport"],"duration":0,"start_local":"2024-06-18T16:30:00","end":"2024-06-18T16:30:00Z","end_local":"2024-06-18T16:30:00","updated":"2024-06-17T12:17:42Z"},{"title":"Premier League - Luawa vs Mighty Blackpool","description":"Sourced from predicthq.com","category":"sports","start":"2024-06-18T16:30:00Z","geo":{"geometry":{"coordinates":[-13.230902616624576,8.464130535576366],"type":"Point"},"placekey":"@9x2-vq6-pjv","address":{"country_code":"SL","formatted_address":"FQ79+VJ3, George Brook Rd, Freetown, Sierra Leone","locality":"Freetown","region":"Western Area"}},"labels":["soccer","sport"],"duration":0,"start_local":"2024-06-18T16:30:00","end":"2024-06-18T16:30:00Z","end_local":"2024-06-18T16:30:00","updated":"2024-07-01T03:11:58Z"},{"title":"Premier League - Kahunla Rangers vs Lamboi","description":"Sourced from predicthq.com","category":"sports","start":"2024-06-17T16:30:00Z","geo":{"geometry":{"coordinates":[-11.184229552745819,7.8767409281637955],"type":"Point"},"placekey":"@dwt-3fr-k9f","address":{"country_code":"SL","formatted_address":"VRG8+R7W, Kenema, Sierra Leone","locality":"Kenema","region":"Eastern Province"}},"labels":["soccer","sport"],"duration":0,"start_local":"2024-06-17T16:30:00","end":"2024-06-17T16:30:00Z","end_local":"2024-06-17T16:30:00","updated":"2024-06-17T08:33:24Z"},{"title":"Premier League - Old Edwardians vs Diamond Stars","description":"Sourced from predicthq.com","category":"sports","start":"2024-06-17T16:30:00Z","geo":{"geometry":{"coordinates":[-13.250345885753632,8.490279198124195],"type":"Point"},"placekey":"@9x2-tc2-w6k","address":{"country_code":"SL","formatted_address":"FPRX+5J4, Battery St, Freetown, Sierra Leone","locality":"Freetown"}},"labels":["soccer","sport"],"duration":0,"start_local":"2024-06-17T16:30:00","end":"2024-06-17T16:30:00Z","end_local":"2024-06-17T16:30:00","updated":"2024-06-17T11:39:09Z"},{"title":"Premier League - Wusum Stars vs Bai Bureh Warriors","description":"Sourced from predicthq.com","category":"sports","start":"2024-06-17T16:15:00Z","geo":{"geometry":{"coordinates":[-12.044432759284973,8.892995146226566],"type":"Point"},"placekey":"@9xc-msq-vmk","address":{"country_code":"SL","formatted_address":"VXJ8+8MR Teko Road, Makeni, Sierra Leone","locality":"Makeni","region":"Northern Province"}},"labels":["soccer","sport"],"duration":0,"start_local":"2024-06-17T16:15:00","end":"2024-06-17T16:15:00Z","end_local":"2024-06-17T16:15:00","updated":"2024-06-17T15:43:24Z"},{"title":"Premier League - East End Lions vs Real Republicans","description":"Sourced from predicthq.com","category":"sports","start":"2024-06-15T16:15:00Z","geo":{"geometry":{"coordinates":[-13.230902616624576,8.464130535576366],"type":"Point"},"placekey":"@9x2-vq6-pjv","address":{"country_code":"SL","formatted_address":"FQ79+VJ3, George Brook Rd, Freetown, Sierra Leone","locality":"Freetown","region":"Western Area"}},"labels":["soccer","sport"],"duration":0,"start_local":"2024-06-15T16:15:00","end":"2024-06-15T16:15:00Z","end_local":"2024-06-15T16:15:00","updated":"2024-06-17T14:25:40Z"},{"title":"Premier League - Bai Bureh Warriors vs Luawa","description":"Sourced from predicthq.com","category":"sports","start":"2024-06-14T19:00:00Z","geo":{"geometry":{"coordinates":[-12.790408848,8.749409035],"type":"Point"},"placekey":"@9xc-knm-3h5","address":{"country_code":"SL","formatted_address":"P6X5+QR Port Loko, Sierra Leone","locality":"Port Loko","region":"Northern Province"}},"labels":["soccer","sport"],"duration":0,"start_local":"2024-06-14T19:00:00","end":"2024-06-14T19:00:00Z","end_local":"2024-06-14T19:00:00","updated":"2024-06-13T14:51:33Z"},{"title":"Premier League - Kholifa Stars vs Ports Authority","description":"Sourced from predicthq.com","category":"sports","start":"2024-06-14T16:30:00Z","geo":{"geometry":{"coordinates":[-12.044432759284973,8.892995146226566],"type":"Point"},"placekey":"@9xc-msq-vmk","address":{"country_code":"SL","formatted_address":"VXJ8+8MR Teko Road, Makeni, Sierra Leone","locality":"Makeni","region":"Northern Province"}},"labels":["soccer","sport"],"duration":0,"start_local":"2024-06-14T16:30:00","end":"2024-06-14T16:30:00Z","end_local":"2024-06-14T16:30:00","updated":"2024-06-11T17:44:18Z"},{"title":"Premier League - Mighty Blackpool vs Old Edwardians","description":"Sourced from predicthq.com","category":"sports","start":"2024-06-14T16:30:00Z","geo":{"geometry":{"coordinates":[-13.250345885753632,8.490279198124195],"type":"Point"},"placekey":"@9x2-tc2-w6k","address":{"country_code":"SL","formatted_address":"FPRX+5J4, Battery St, Freetown, Sierra Leone","locality":"Freetown"}},"labels":["soccer","sport"],"duration":0,"start_local":"2024-06-14T16:30:00","end":"2024-06-14T16:30:00Z","end_local":"2024-06-14T16:30:00","updated":"2024-06-11T17:55:15Z"},{"title":"Premier League - Lamboi vs Freetown City","description":"Sourced from predicthq.com","category":"sports","start":"2024-06-14T16:30:00Z","geo":{"geometry":{"coordinates":[-12.790408848,8.749409035],"type":"Point"},"placekey":"@9xc-knm-3h5","address":{"country_code":"SL","formatted_address":"P6X5+QR Port Loko, Sierra Leone","locality":"Port Loko","region":"Northern Province"}},"labels":["soccer","sport"],"duration":0,"start_local":"2024-06-14T16:30:00","end":"2024-06-14T16:30:00Z","end_local":"2024-06-14T16:30:00","updated":"2024-06-11T18:37:35Z"},{"title":"Premier League - Bhantal vs Kallon","description":"Sourced from predicthq.com","category":"sports","start":"2024-06-13T16:30:00Z","geo":{"geometry":{"coordinates":[-13.230902616624576,8.464130535576366],"type":"Point"},"placekey":"@9x2-vq6-pjv","address":{"country_code":"SL","formatted_address":"FQ79+VJ3, George Brook Rd, Freetown, Sierra Leone","locality":"Freetown","region":"Western Area"}},"labels":["soccer","sport"],"duration":0,"start_local":"2024-06-13T16:30:00","end":"2024-06-13T16:30:00Z","end_local":"2024-06-13T16:30:00","updated":"2024-06-11T18:20:34Z"},{"title":"Premier League - Bo Rangers vs Wusum Stars","description":"Sourced from predicthq.com","category":"sports","start":"2024-06-12T17:00:00Z","geo":{"geometry":{"coordinates":[-11.759896316,7.951642852],"type":"Point"},"placekey":"@dwv-rr6-jvz","address":{"country_code":"SL","formatted_address":"X62R+M5J, Bo, Sierra Leone","locality":"Bo","region":"Southern Province"}},"labels":["soccer","sport"],"duration":0,"start_local":"2024-06-12T17:00:00","end":"2024-06-12T17:00:00Z","end_local":"2024-06-12T17:00:00","updated":"2024-06-11T17:55:15Z"},{"title":"Premier League - Diamond Stars vs East End Lions","description":"Sourced from predicthq.com","category":"sports","start":"2024-06-12T16:30:00Z","geo":{"geometry":{"coordinates":[-10.97158133983612,8.649001197939509],"type":"Point"},"placekey":"@dwv-65k-5pv","address":{"country_code":"SL","formatted_address":"Koidu Town (Sefadu), Sierra Leone","locality":"Koidu Town (Sefadu)"}},"labels":["soccer","sport"],"duration":0,"start_local":"2024-06-12T16:30:00","end":"2024-06-12T16:30:00Z","end_local":"2024-06-12T16:30:00","updated":"2024-06-11T17:37:34Z"},{"title":"Premier League - Real Republicans vs Wilberforce Strikers","description":"Sourced from predicthq.com","category":"sports","start":"2024-06-12T16:30:00Z","geo":{"geometry":{"coordinates":[-13.230902616624576,8.464130535576366],"type":"Point"},"placekey":"@9x2-vq6-pjv","address":{"country_code":"SL","formatted_address":"FQ79+VJ3, George Brook Rd, Freetown, Sierra Leone","locality":"Freetown","region":"Western Area"}},"labels":["soccer","sport"],"duration":0,"start_local":"2024-06-12T16:30:00","end":"2024-06-12T16:30:00Z","end_local":"2024-06-12T16:30:00","updated":"2024-06-11T18:20:34Z"},{"title":"Premier League - Ports Authority vs Lamboi","description":"Sourced from predicthq.com","category":"sports","start":"2024-06-11T16:30:00Z","geo":{"geometry":{"coordinates":[-13.230902616624576,8.464130535576366],"type":"Point"},"placekey":"@9x2-vq6-pjv","address":{"country_code":"SL","formatted_address":"FQ79+VJ3, George Brook Rd, Freetown, Sierra Leone","locality":"Freetown","region":"Western Area"}},"labels":["soccer","sport"],"duration":0,"start_local":"2024-06-11T16:30:00","end":"2024-06-11T16:30:00Z","end_local":"2024-06-11T16:30:00","updated":"2024-06-11T09:07:19Z"},{"title":"Premier League - Old Edwardians vs Bai Bureh Warriors","description":"Sourced from predicthq.com","category":"sports","start":"2024-06-11T16:30:00Z","geo":{"geometry":{"coordinates":[-13.250345885753632,8.490279198124195],"type":"Point"},"placekey":"@9x2-tc2-w6k","address":{"country_code":"SL","formatted_address":"FPRX+5J4, Battery St, Freetown, Sierra Leone","locality":"Freetown"}},"labels":["soccer","sport"],"duration":0,"start_local":"2024-06-11T16:30:00","end":"2024-06-11T16:30:00Z","end_local":"2024-06-11T16:30:00","updated":"2024-06-11T03:58:22Z"},{"title":"Premier League - Kahunla Rangers vs Bhantal","description":"Sourced from predicthq.com","category":"sports","start":"2024-06-09T16:30:00Z","geo":{"geometry":{"coordinates":[-11.184229552745819,7.8767409281637955],"type":"Point"},"placekey":"@dwt-3fr-k9f","address":{"country_code":"SL","formatted_address":"VRG8+R7W, Kenema, Sierra Leone","locality":"Kenema","region":"Eastern Province"}},"labels":["soccer","sport"],"duration":0,"start_local":"2024-06-09T16:30:00","end":"2024-06-09T16:30:00Z","end_local":"2024-06-09T16:30:00","updated":"2024-06-11T23:30:21Z"},{"title":"Premier League - East End Lions vs Mighty Blackpool","description":"Sourced from predicthq.com","category":"sports","start":"2024-06-09T16:30:00Z","geo":{"geometry":{"coordinates":[-13.230902616624576,8.464130535576366],"type":"Point"},"placekey":"@9x2-vq6-pjv","address":{"country_code":"SL","formatted_address":"FQ79+VJ3, George Brook Rd, Freetown, Sierra Leone","locality":"Freetown","region":"Western Area"}},"labels":["soccer","sport"],"duration":0,"start_local":"2024-06-09T16:30:00","end":"2024-06-09T16:30:00Z","end_local":"2024-06-09T16:30:00","updated":"2024-06-11T22:40:49Z"},{"title":"Premier League - Diamond Stars vs Real Republicans","description":"Sourced from predicthq.com","category":"sports","start":"2024-06-09T16:30:00Z","geo":{"geometry":{"coordinates":[-10.97158133983612,8.649001197939509],"type":"Point"},"placekey":"@dwv-65k-5pv","address":{"country_code":"SL","formatted_address":"Koidu Town (Sefadu), Sierra Leone","locality":"Koidu Town (Sefadu)"}},"labels":["soccer","sport"],"duration":0,"start_local":"2024-06-09T16:30:00","end":"2024-06-09T16:30:00Z","end_local":"2024-06-09T16:30:00","updated":"2024-06-12T06:21:17Z"},{"title":"Premier League - Freetown City vs Freetonians SLIFA","description":"Sourced from predicthq.com","category":"sports","start":"2024-06-08T16:30:00Z","geo":{"geometry":{"coordinates":[-13.250345885753632,8.490279198124195],"type":"Point"},"placekey":"@9x2-tc2-w6k","address":{"country_code":"SL","formatted_address":"FPRX+5J4, Battery St, Freetown, Sierra Leone","locality":"Freetown"}},"labels":["soccer","sport"],"duration":0,"start_local":"2024-06-08T16:30:00","end":"2024-06-08T16:30:00Z","end_local":"2024-06-08T16:30:00","updated":"2024-06-12T02:54:20Z"},{"title":"Premier League - Luawa vs Bo Rangers","description":"Sourced from predicthq.com","category":"sports","start":"2024-06-08T16:30:00Z","geo":{"geometry":{"coordinates":[-13.230902616624576,8.464130535576366],"type":"Point"},"placekey":"@9x2-vq6-pjv","address":{"country_code":"SL","formatted_address":"FQ79+VJ3, George Brook Rd, Freetown, Sierra Leone","locality":"Freetown","region":"Western Area"}},"labels":["soccer","sport"],"duration":0,"start_local":"2024-06-08T16:30:00","end":"2024-06-08T16:30:00Z","end_local":"2024-06-08T16:30:00","updated":"2024-06-12T10:34:02Z"},{"title":"Premier League - Wusum Stars vs Kallon","description":"Sourced from predicthq.com","category":"sports","start":"2024-06-08T16:30:00Z","geo":{"geometry":{"coordinates":[-12.044432759284973,8.892995146226566],"type":"Point"},"placekey":"@9xc-msq-vmk","address":{"country_code":"SL","formatted_address":"VXJ8+8MR Teko Road, Makeni, Sierra Leone","locality":"Makeni","region":"Northern Province"}},"labels":["soccer","sport"],"duration":0,"start_local":"2024-06-08T16:30:00","end":"2024-06-08T16:30:00Z","end_local":"2024-06-08T16:30:00","updated":"2024-06-12T07:42:21Z"},{"title":"Premier League - Wilberforce Strikers vs Kholifa Stars","description":"Sourced from predicthq.com","category":"sports","start":"2024-06-07T16:30:00Z","geo":{"geometry":{"coordinates":[-13.230902616624576,8.464130535576366],"type":"Point"},"placekey":"@9x2-vq6-pjv","address":{"country_code":"SL","formatted_address":"FQ79+VJ3, George Brook Rd, Freetown, Sierra Leone","locality":"Freetown","region":"Western Area"}},"labels":["soccer","sport"],"duration":0,"start_local":"2024-06-07T16:30:00","end":"2024-06-07T16:30:00Z","end_local":"2024-06-07T16:30:00","updated":"2024-06-12T04:49:58Z"},{"title":"Premier League - Bai Bureh Warriors vs East End Lions","description":"Sourced from predicthq.com","category":"sports","start":"2024-06-04T16:30:00Z","geo":{"geometry":{"coordinates":[-12.790408848,8.749409035],"type":"Point"},"placekey":"@9xc-knm-3h5","address":{"country_code":"SL","formatted_address":"P6X5+QR Port Loko, Sierra Leone","locality":"Port Loko","region":"Northern Province"}},"labels":["soccer","sport"],"duration":0,"start_local":"2024-06-04T16:30:00","end":"2024-06-04T16:30:00Z","end_local":"2024-06-04T16:30:00","updated":"2024-06-12T11:19:54Z"},{"title":"Premier League - Freetonians SLIFA vs Ports Authority","description":"Sourced from predicthq.com","category":"sports","start":"2024-06-04T16:30:00Z","geo":{"geometry":{"coordinates":[-13.250345885753632,8.490279198124195],"type":"Point"},"placekey":"@9x2-tc2-w6k","address":{"country_code":"SL","formatted_address":"FPRX+5J4, Battery St, Freetown, Sierra Leone","locality":"Freetown"}},"labels":["soccer","sport"],"duration":0,"start_local":"2024-06-04T16:30:00","end":"2024-06-04T16:30:00Z","end_local":"2024-06-04T16:30:00","updated":"2024-06-12T14:37:39Z"},{"title":"Premier League - Kallon vs Luawa","description":"Sourced from predicthq.com","category":"sports","start":"2024-06-03T16:30:00Z","geo":{"geometry":{"coordinates":[-13.250345885753632,8.490279198124195],"type":"Point"},"placekey":"@9x2-tc2-w6k","address":{"country_code":"SL","formatted_address":"FPRX+5J4, Battery St, Freetown, Sierra Leone","locality":"Freetown"}},"labels":["soccer","sport"],"duration":0,"start_local":"2024-06-03T16:30:00","end":"2024-06-03T16:30:00Z","end_local":"2024-06-03T16:30:00","updated":"2024-06-11T21:27:26Z"},{"title":"Premier League - Mighty Blackpool vs Diamond Stars","description":"Sourced from predicthq.com","category":"sports","start":"2024-06-02T16:30:00Z","geo":{"geometry":{"coordinates":[-13.250345885753632,8.490279198124195],"type":"Point"},"placekey":"@9x2-tc2-w6k","address":{"country_code":"SL","formatted_address":"FPRX+5J4, Battery St, Freetown, Sierra Leone","locality":"Freetown"}},"labels":["soccer","sport"],"duration":0,"start_local":"2024-06-02T16:30:00","end":"2024-06-02T16:30:00Z","end_local":"2024-06-02T16:30:00","updated":"2024-06-12T01:48:14Z"},{"title":"Premier League - Bhantal vs Freetown City","description":"Sourced from predicthq.com","category":"sports","start":"2024-06-02T16:30:00Z","geo":{"geometry":{"coordinates":[-13.230902616624576,8.464130535576366],"type":"Point"},"placekey":"@9x2-vq6-pjv","address":{"country_code":"SL","formatted_address":"FQ79+VJ3, George Brook Rd, Freetown, Sierra Leone","locality":"Freetown","region":"Western Area"}},"labels":["soccer","sport"],"duration":0,"start_local":"2024-06-02T16:30:00","end":"2024-06-02T16:30:00Z","end_local":"2024-06-02T16:30:00","updated":"2024-06-12T00:56:56Z"},{"title":"Premier League - Wusum Stars vs Kahunla Rangers","description":"Sourced from predicthq.com","category":"sports","start":"2024-06-02T16:15:00Z","geo":{"geometry":{"coordinates":[-12.044432759284973,8.892995146226566],"type":"Point"},"placekey":"@9xc-msq-vmk","address":{"country_code":"SL","formatted_address":"VXJ8+8MR Teko Road, Makeni, Sierra Leone","locality":"Makeni","region":"Northern Province"}},"labels":["soccer","sport"],"duration":0,"start_local":"2024-06-02T16:15:00","end":"2024-06-02T16:15:00Z","end_local":"2024-06-02T16:15:00","updated":"2024-06-12T12:41:48Z"},{"title":"Premier League - Bo Rangers vs Old Edwardians","description":"Sourced from predicthq.com","category":"sports","start":"2024-06-01T17:00:00Z","geo":{"geometry":{"coordinates":[-11.759896316,7.951642852],"type":"Point"},"placekey":"@dwv-rr6-jvz","address":{"country_code":"SL","formatted_address":"X62R+M5J, Bo, Sierra Leone","locality":"Bo","region":"Southern Province"}},"labels":["soccer","sport"],"duration":0,"start_local":"2024-06-01T17:00:00","end":"2024-06-01T17:00:00Z","end_local":"2024-06-01T17:00:00","updated":"2024-06-11T22:22:05Z"},{"title":"Premier League - Real Republicans vs Kholifa Stars","description":"Sourced from predicthq.com","category":"sports","start":"2024-06-01T16:30:00Z","geo":{"geometry":{"coordinates":[-13.230902616624576,8.464130535576366],"type":"Point"},"placekey":"@9x2-vq6-pjv","address":{"country_code":"SL","formatted_address":"FQ79+VJ3, George Brook Rd, Freetown, Sierra Leone","locality":"Freetown","region":"Western Area"}},"labels":["soccer","sport"],"duration":0,"start_local":"2024-06-01T16:30:00","end":"2024-06-01T16:30:00Z","end_local":"2024-06-01T16:30:00","updated":"2024-06-12T02:55:19Z"},{"title":"Premier League - Lamboi vs Wilberforce Strikers","description":"Sourced from predicthq.com","category":"sports","start":"2024-06-01T16:15:00Z","geo":{"geometry":{"coordinates":[-12.790408848,8.749409035],"type":"Point"},"placekey":"@9xc-knm-3h5","address":{"country_code":"SL","formatted_address":"P6X5+QR Port Loko, Sierra Leone","locality":"Port Loko","region":"Northern Province"}},"labels":["soccer","sport"],"duration":0,"start_local":"2024-06-01T16:15:00","end":"2024-06-01T16:15:00Z","end_local":"2024-06-01T16:15:00","updated":"2024-06-11T21:35:26Z"},{"title":"Premier League - Ports Authority vs Luawa","description":"Sourced from predicthq.com","category":"sports","start":"2024-05-31T16:30:00Z","geo":{"geometry":{"coordinates":[-13.230902616624576,8.464130535576366],"type":"Point"},"placekey":"@9x2-vq6-pjv","address":{"country_code":"SL","formatted_address":"FQ79+VJ3, George Brook Rd, Freetown, Sierra Leone","locality":"Freetown","region":"Western Area"}},"labels":["soccer","sport"],"duration":0,"start_local":"2024-05-31T16:30:00","end":"2024-05-31T16:30:00Z","end_local":"2024-05-31T16:30:00","updated":"2024-06-12T13:02:47Z"},{"title":"Premier League - Kallon vs Old Edwardians","description":"Sourced from predicthq.com","category":"sports","start":"2024-05-29T16:30:00Z","geo":{"geometry":{"coordinates":[-13.250345885753632,8.490279198124195],"type":"Point"},"placekey":"@9x2-tc2-w6k","address":{"country_code":"SL","formatted_address":"FPRX+5J4, Battery St, Freetown, Sierra Leone","locality":"Freetown"}},"labels":["soccer","sport"],"duration":0,"start_local":"2024-05-29T16:30:00","end":"2024-05-29T16:30:00Z","end_local":"2024-05-29T16:30:00","updated":"2024-06-12T18:13:07Z"},{"title":"Premier League - Ports Authority vs Bhantal","description":"Sourced from predicthq.com","category":"sports","start":"2024-05-28T16:30:00Z","geo":{"geometry":{"coordinates":[-13.230902616624576,8.464130535576366],"type":"Point"},"placekey":"@9x2-vq6-pjv","address":{"country_code":"SL","formatted_address":"FQ79+VJ3, George Brook Rd, Freetown, Sierra Leone","locality":"Freetown","region":"Western Area"}},"labels":["soccer","sport"],"duration":0,"start_local":"2024-05-28T16:30:00","end":"2024-05-28T16:30:00Z","end_local":"2024-05-28T16:30:00","updated":"2024-06-11T21:41:24Z"},{"title":"Premier League - Luawa vs Kahunla Rangers","description":"Sourced from predicthq.com","category":"sports","start":"2024-05-27T16:30:00Z","geo":{"geometry":{"coordinates":[-13.230902616624576,8.464130535576366],"type":"Point"},"placekey":"@9x2-vq6-pjv","address":{"country_code":"SL","formatted_address":"FQ79+VJ3, George Brook Rd, Freetown, Sierra Leone","locality":"Freetown","region":"Western Area"}},"labels":["soccer","sport"],"duration":0,"start_local":"2024-05-27T16:30:00","end":"2024-05-27T16:30:00Z","end_local":"2024-05-27T16:30:00","updated":"2024-06-12T00:17:45Z"},{"title":"Premier League - Mighty Blackpool vs Real Republicans","description":"Sourced from predicthq.com","category":"sports","start":"2024-05-26T16:30:00Z","geo":{"geometry":{"coordinates":[-13.250345885753632,8.490279198124195],"type":"Point"},"placekey":"@9x2-tc2-w6k","address":{"country_code":"SL","formatted_address":"FPRX+5J4, Battery St, Freetown, Sierra Leone","locality":"Freetown"}},"labels":["soccer","sport"],"duration":0,"start_local":"2024-05-26T16:30:00","end":"2024-05-26T16:30:00Z","end_local":"2024-05-26T16:30:00","updated":"2024-06-12T11:15:36Z"},{"title":"Premier League - Wilberforce Strikers vs Freetonians SLIFA","description":"Sourced from predicthq.com","category":"sports","start":"2024-05-26T16:30:00Z","geo":{"geometry":{"coordinates":[-13.230902616624576,8.464130535576366],"type":"Point"},"placekey":"@9x2-vq6-pjv","address":{"country_code":"SL","formatted_address":"FQ79+VJ3, George Brook Rd, Freetown, Sierra Leone","locality":"Freetown","region":"Western Area"}},"labels":["soccer","sport"],"duration":0,"start_local":"2024-05-26T16:30:00","end":"2024-05-26T16:30:00Z","end_local":"2024-05-26T16:30:00","updated":"2024-06-11T21:46:37Z"},{"title":"Premier League - Diamond Stars vs Bai Bureh Warriors","description":"Sourced from predicthq.com","category":"sports","start":"2024-05-26T16:15:00Z","geo":{"geometry":{"coordinates":[-10.97158133983612,8.649001197939509],"type":"Point"},"placekey":"@dwv-65k-5pv","address":{"country_code":"SL","formatted_address":"Koidu Town (Sefadu), Sierra Leone","locality":"Koidu Town (Sefadu)"}},"labels":["soccer","sport"],"duration":0,"start_local":"2024-05-26T16:15:00","end":"2024-05-26T16:15:00Z","end_local":"2024-05-26T16:15:00","updated":"2024-06-12T06:29:03Z"},{"title":"Premier League - Freetown City vs Wusum Stars","description":"Sourced from predicthq.com","category":"sports","start":"2024-05-25T16:30:00Z","geo":{"geometry":{"coordinates":[-13.250345885753632,8.490279198124195],"type":"Point"},"placekey":"@9x2-tc2-w6k","address":{"country_code":"SL","formatted_address":"FPRX+5J4, Battery St, Freetown, Sierra Leone","locality":"Freetown"}},"labels":["soccer","sport"],"duration":0,"start_local":"2024-05-25T16:30:00","end":"2024-05-25T16:30:00Z","end_local":"2024-05-25T16:30:00","updated":"2024-06-25T16:26:46Z"},{"title":"Premier League - East End Lions vs Bo Rangers","description":"Sourced from predicthq.com","category":"sports","start":"2024-05-25T16:30:00Z","geo":{"geometry":{"coordinates":[-13.230902616624576,8.464130535576366],"type":"Point"},"placekey":"@9x2-vq6-pjv","address":{"country_code":"SL","formatted_address":"FQ79+VJ3, George Brook Rd, Freetown, Sierra Leone","locality":"Freetown","region":"Western Area"}},"labels":["soccer","sport"],"duration":0,"start_local":"2024-05-25T16:30:00","end":"2024-05-25T16:30:00Z","end_local":"2024-05-25T16:30:00","updated":"2024-06-25T17:12:08Z"},{"title":"Premier League - Kholifa Stars vs Lamboi","description":"Sourced from predicthq.com","category":"sports","start":"2024-05-25T16:15:00Z","geo":{"geometry":{"coordinates":[-12.044432759284973,8.892995146226566],"type":"Point"},"placekey":"@9xc-msq-vmk","address":{"country_code":"SL","formatted_address":"VXJ8+8MR Teko Road, Makeni, Sierra Leone","locality":"Makeni","region":"Northern Province"}},"labels":["soccer","sport"],"duration":0,"start_local":"2024-05-25T16:15:00","end":"2024-05-25T16:15:00Z","end_local":"2024-05-25T16:15:00","updated":"2024-06-12T05:30:05Z"},{"title":"Premier League - Freetonians SLIFA vs Mighty Blackpool","description":"Sourced from predicthq.com","category":"sports","start":"2024-05-23T16:00:00Z","geo":{"geometry":{"coordinates":[-13.250345885753632,8.490279198124195],"type":"Point"},"placekey":"@9x2-tc2-w6k","address":{"country_code":"SL","formatted_address":"FPRX+5J4, Battery St, Freetown, Sierra Leone","locality":"Freetown"}},"labels":["soccer","sport"],"duration":0,"start_local":"2024-05-23T16:00:00","end":"2024-05-23T16:00:00Z","end_local":"2024-05-23T16:00:00","updated":"2024-06-11T21:41:03Z"},{"title":"Premier League - Kahunla Rangers vs Ports Authority","description":"Sourced from predicthq.com","category":"sports","start":"2024-05-22T16:30:00Z","geo":{"geometry":{"coordinates":[-11.184229552745819,7.8767409281637955],"type":"Point"},"placekey":"@dwt-3fr-k9f","address":{"country_code":"SL","formatted_address":"VRG8+R7W, Kenema, Sierra Leone","locality":"Kenema","region":"Eastern Province"}},"labels":["soccer","sport"],"duration":0,"start_local":"2024-05-22T16:30:00","end":"2024-05-22T16:30:00Z","end_local":"2024-05-22T16:30:00","updated":"2024-06-12T07:24:43Z"},{"title":"Premier League - Luawa vs Freetown City","description":"Sourced from predicthq.com","category":"sports","start":"2024-05-21T16:30:00Z","geo":{"geometry":{"coordinates":[-13.250345885753632,8.490279198124195],"type":"Point"},"placekey":"@9x2-tc2-w6k","address":{"country_code":"SL","formatted_address":"FPRX+5J4, Battery St, Freetown, Sierra Leone","locality":"Freetown"}},"labels":["soccer","sport"],"duration":0,"start_local":"2024-05-21T16:30:00","end":"2024-05-21T16:30:00Z","end_local":"2024-05-21T16:30:00","updated":"2024-06-12T10:33:45Z"},{"title":"Premier League - Bo Rangers vs Diamond Stars","description":"Sourced from predicthq.com","category":"sports","start":"2024-05-19T17:00:00Z","geo":{"geometry":{"coordinates":[-11.759896316,7.951642852],"type":"Point"},"placekey":"@dwv-rr6-jvz","address":{"country_code":"SL","formatted_address":"X62R+M5J, Bo, Sierra Leone","locality":"Bo","region":"Southern Province"}},"labels":["soccer","sport"],"duration":0,"start_local":"2024-05-19T17:00:00","end":"2024-05-19T17:00:00Z","end_local":"2024-05-19T17:00:00","updated":"2024-06-12T05:48:27Z"},{"title":"Premier League - Freetonians SLIFA vs Kholifa Stars","description":"Sourced from predicthq.com","category":"sports","start":"2024-05-19T16:30:00Z","geo":{"geometry":{"coordinates":[-13.250345885753632,8.490279198124195],"type":"Point"},"placekey":"@9x2-tc2-w6k","address":{"country_code":"SL","formatted_address":"FPRX+5J4, Battery St, Freetown, Sierra Leone","locality":"Freetown"}},"labels":["soccer","sport"],"duration":0,"start_local":"2024-05-19T16:30:00","end":"2024-05-19T16:30:00Z","end_local":"2024-05-19T16:30:00","updated":"2024-06-12T05:51:16Z"},{"title":"Premier League - Kahunla Rangers vs Old Edwardians","description":"Sourced from predicthq.com","category":"sports","start":"2024-05-19T16:30:00Z","geo":{"geometry":{"coordinates":[-11.184229552745819,7.8767409281637955],"type":"Point"},"placekey":"@dwt-3fr-k9f","address":{"country_code":"SL","formatted_address":"VRG8+R7W, Kenema, Sierra Leone","locality":"Kenema","region":"Eastern Province"}},"labels":["soccer","sport"],"duration":0,"start_local":"2024-05-19T16:30:00","end":"2024-05-19T16:30:00Z","end_local":"2024-05-19T16:30:00","updated":"2024-06-12T04:18:58Z"},{"title":"Premier League - Bai Bureh Warriors vs Mighty Blackpool","description":"Sourced from predicthq.com","category":"sports","start":"2024-05-18T16:30:00Z","geo":{"geometry":{"coordinates":[-12.790408848,8.749409035],"type":"Point"},"placekey":"@9xc-knm-3h5","address":{"country_code":"SL","formatted_address":"P6X5+QR Port Loko, Sierra Leone","locality":"Port Loko","region":"Northern Province"}},"labels":["soccer","sport"],"duration":0,"start_local":"2024-05-18T16:30:00","end":"2024-05-18T16:30:00Z","end_local":"2024-05-18T16:30:00","updated":"2024-06-12T04:08:53Z"},{"title":"Premier League - Wusum Stars vs Ports Authority","description":"Sourced from predicthq.com","category":"sports","start":"2024-05-18T16:30:00Z","geo":{"geometry":{"coordinates":[-12.044432759284973,8.892995146226566],"type":"Point"},"placekey":"@9xc-msq-vmk","address":{"country_code":"SL","formatted_address":"VXJ8+8MR Teko Road, Makeni, Sierra Leone","locality":"Makeni","region":"Northern Province"}},"labels":["soccer","sport"],"duration":0,"start_local":"2024-05-18T16:30:00","end":"2024-05-18T16:30:00Z","end_local":"2024-05-18T16:30:00","updated":"2024-06-19T18:25:41Z"},{"title":"Premier League - Real Republicans vs Lamboi","description":"Sourced from predicthq.com","category":"sports","start":"2024-05-18T16:30:00Z","geo":{"geometry":{"coordinates":[-13.230902616624576,8.464130535576366],"type":"Point"},"placekey":"@9x2-vq6-pjv","address":{"country_code":"SL","formatted_address":"FQ79+VJ3, George Brook Rd, Freetown, Sierra Leone","locality":"Freetown","region":"Western Area"}},"labels":["soccer","sport"],"duration":0,"start_local":"2024-05-18T16:30:00","end":"2024-05-18T16:30:00Z","end_local":"2024-05-18T16:30:00","updated":"2024-06-12T04:29:11Z"},{"title":"Premier League - Kallon vs East End Lions","description":"Sourced from predicthq.com","category":"sports","start":"2024-05-18T16:30:00Z","geo":{"geometry":{"coordinates":[-13.250345885753632,8.490279198124195],"type":"Point"},"placekey":"@9x2-tc2-w6k","address":{"country_code":"SL","formatted_address":"FPRX+5J4, Battery St, Freetown, Sierra Leone","locality":"Freetown"}},"labels":["soccer","sport"],"duration":0,"start_local":"2024-05-18T16:30:00","end":"2024-05-18T16:30:00Z","end_local":"2024-05-18T16:30:00","updated":"2024-06-12T11:08:42Z"},{"title":"Premier League - Bhantal vs Wilberforce Strikers","description":"Sourced from predicthq.com","category":"sports","start":"2024-05-17T16:30:00Z","geo":{"geometry":{"coordinates":[-13.230902616624576,8.464130535576366],"type":"Point"},"placekey":"@9x2-vq6-pjv","address":{"country_code":"SL","formatted_address":"FQ79+VJ3, George Brook Rd, Freetown, Sierra Leone","locality":"Freetown","region":"Western Area"}},"labels":["soccer","sport"],"duration":0,"start_local":"2024-05-17T16:30:00","end":"2024-05-17T16:30:00Z","end_local":"2024-05-17T16:30:00","updated":"2024-06-12T18:08:02Z"},{"title":"Premier League - Luawa vs Old Edwardians","description":"Sourced from predicthq.com","category":"sports","start":"2024-05-17T16:30:00Z","geo":{"geometry":{"coordinates":[-13.250345885753632,8.490279198124195],"type":"Point"},"placekey":"@9x2-tc2-w6k","address":{"country_code":"SL","formatted_address":"FPRX+5J4, Battery St, Freetown, Sierra Leone","locality":"Freetown"}},"labels":["soccer","sport"],"duration":0,"start_local":"2024-05-17T16:30:00","end":"2024-05-17T16:30:00Z","end_local":"2024-05-17T16:30:00","updated":"2024-06-12T11:17:49Z"},{"title":"Premier League - Mighty Blackpool vs Bo Rangers","description":"Sourced from predicthq.com","category":"sports","start":"2024-05-15T16:30:00Z","geo":{"geometry":{"coordinates":[-13.250345885753632,8.490279198124195],"type":"Point"},"placekey":"@9x2-tc2-w6k","address":{"country_code":"SL","formatted_address":"FPRX+5J4, Battery St, Freetown, Sierra Leone","locality":"Freetown"}},"labels":["soccer","sport"],"duration":0,"start_local":"2024-05-15T16:30:00","end":"2024-05-15T16:30:00Z","end_local":"2024-05-15T16:30:00","updated":"2024-06-12T17:36:12Z"},{"title":"Premier League - Old Edwardians vs Freetown City","description":"Sourced from predicthq.com","category":"sports","start":"2024-05-13T16:30:00Z","geo":{"geometry":{"coordinates":[-13.250345885753632,8.490279198124195],"type":"Point"},"placekey":"@9x2-tc2-w6k","address":{"country_code":"SL","formatted_address":"FPRX+5J4, Battery St, Freetown, Sierra Leone","locality":"Freetown"}},"labels":["soccer","sport"],"duration":0,"start_local":"2024-05-13T16:30:00","end":"2024-05-13T16:30:00Z","end_local":"2024-05-13T16:30:00","updated":"2024-06-12T01:18:53Z"},{"title":"Premier League - East End Lions vs Kahunla Rangers","description":"Sourced from predicthq.com","category":"sports","start":"2024-05-12T16:30:00Z","geo":{"geometry":{"coordinates":[-13.250345885753632,8.490279198124195],"type":"Point"},"placekey":"@9x2-tc2-w6k","address":{"country_code":"SL","formatted_address":"FPRX+5J4, Battery St, Freetown, Sierra Leone","locality":"Freetown"}},"labels":["soccer","sport"],"duration":0,"start_local":"2024-05-12T16:30:00","end":"2024-05-12T16:30:00Z","end_local":"2024-05-12T16:30:00","updated":"2024-06-11T23:59:42Z"},{"title":"Premier League - Bai Bureh Warriors vs Real Republicans","description":"Sourced from predicthq.com","category":"sports","start":"2024-05-12T16:15:00Z","geo":{"geometry":{"coordinates":[-12.790408848,8.749409035],"type":"Point"},"placekey":"@9xc-knm-3h5","address":{"country_code":"SL","formatted_address":"P6X5+QR Port Loko, Sierra Leone","locality":"Port Loko","region":"Northern Province"}},"labels":["soccer","sport"],"duration":0,"start_local":"2024-05-12T16:15:00","end":"2024-05-12T16:15:00Z","end_local":"2024-05-12T16:15:00","updated":"2024-06-12T15:57:58Z"},{"title":"Premier League - Diamond Stars vs Kallon","description":"Sourced from predicthq.com","category":"sports","start":"2024-05-12T16:15:00Z","geo":{"geometry":{"coordinates":[-10.97158133983612,8.649001197939509],"type":"Point"},"placekey":"@dwv-65k-5pv","address":{"country_code":"SL","formatted_address":"Koidu Town (Sefadu), Sierra Leone","locality":"Koidu Town (Sefadu)"}},"labels":["soccer","sport"],"duration":0,"start_local":"2024-05-12T16:15:00","end":"2024-05-12T16:15:00Z","end_local":"2024-05-12T16:15:00","updated":"2024-06-12T10:28:33Z"},{"title":"Premier League - Bo Rangers vs Ports Authority","description":"Sourced from predicthq.com","category":"sports","start":"2024-05-11T17:00:00Z","geo":{"geometry":{"coordinates":[-11.759896316,7.951642852],"type":"Point"},"placekey":"@dwv-rr6-jvz","address":{"country_code":"SL","formatted_address":"X62R+M5J, Bo, Sierra Leone","locality":"Bo","region":"Southern Province"}},"labels":["soccer","sport"],"duration":0,"start_local":"2024-05-11T17:00:00","end":"2024-05-11T17:00:00Z","end_local":"2024-05-11T17:00:00","updated":"2024-06-12T08:30:45Z"},{"title":"Premier League - Wilberforce Strikers vs Wusum Stars","description":"Sourced from predicthq.com","category":"sports","start":"2024-05-11T16:30:00Z","geo":{"geometry":{"coordinates":[-13.250345885753632,8.490279198124195],"type":"Point"},"placekey":"@9x2-tc2-w6k","address":{"country_code":"SL","formatted_address":"FPRX+5J4, Battery St, Freetown, Sierra Leone","locality":"Freetown"}},"labels":["soccer","sport"],"duration":0,"start_local":"2024-05-11T16:30:00","end":"2024-05-11T16:30:00Z","end_local":"2024-05-11T16:30:00","updated":"2024-06-12T07:19:07Z"},{"title":"Premier League - Kholifa Stars vs Bhantal","description":"Sourced from predicthq.com","category":"sports","start":"2024-05-11T16:15:00Z","geo":{"geometry":{"coordinates":[-12.044432759284973,8.892995146226566],"type":"Point"},"placekey":"@9xc-msq-vmk","address":{"country_code":"SL","formatted_address":"VXJ8+8MR Teko Road, Makeni, Sierra Leone","locality":"Makeni","region":"Northern Province"}},"labels":["soccer","sport"],"duration":0,"start_local":"2024-05-11T16:15:00","end":"2024-05-11T16:15:00Z","end_local":"2024-05-11T16:15:00","updated":"2024-06-12T03:45:11Z"},{"title":"Premier League - Lamboi vs Freetonians SLIFA","description":"Sourced from predicthq.com","category":"sports","start":"2024-05-11T16:15:00Z","geo":{"geometry":{"coordinates":[-12.790408848,8.749409035],"type":"Point"},"placekey":"@9xc-knm-3h5","address":{"country_code":"SL","formatted_address":"P6X5+QR Port Loko, Sierra Leone","locality":"Port Loko","region":"Northern Province"}},"labels":["soccer","sport"],"duration":0,"start_local":"2024-05-11T16:15:00","end":"2024-05-11T16:15:00Z","end_local":"2024-05-11T16:15:00","updated":"2024-06-17T15:43:07Z"},{"title":"The Renaissance Movement - Sierra Leone 'Wi Barray' Event","description":"Sourced from predicthq.com - 63 Years on: Delivering on Democracy and Development â€“ A Conversation with Sierra Leoneans","category":"conferences","start":"2024-05-10T17:00:00Z","geo":{"geometry":{"coordinates":[-13.2354918,8.487080299999999],"type":"Point"},"placekey":"@9x2-zb6-b8v","address":{"country_code":"SL","formatted_address":"Freetown, Western Area, Sierra Leone","locality":"Freetown","region":"Western Area"}},"labels":["community","conference"],"duration":7200,"start_local":"2024-05-10T17:00:00","end":"2024-05-10T19:00:00Z","end_local":"2024-05-10T19:00:00","updated":"2024-06-05T03:04:57Z"},{"title":"Premier League - Freetown City vs East End Lions","description":"Sourced from predicthq.com","category":"sports","start":"2024-05-09T16:30:00Z","geo":{"geometry":{"coordinates":[-13.250345885753632,8.490279198124195],"type":"Point"},"placekey":"@9x2-tc2-w6k","address":{"country_code":"SL","formatted_address":"FPRX+5J4, Battery St, Freetown, Sierra Leone","locality":"Freetown"}},"labels":["soccer","sport"],"duration":0,"start_local":"2024-05-09T16:30:00","end":"2024-05-09T16:30:00Z","end_local":"2024-05-09T16:30:00","updated":"2024-06-11T22:12:30Z"},{"title":"Premier League - Bo Rangers vs Bai Bureh Warriors","description":"Sourced from predicthq.com","category":"sports","start":"2024-05-08T17:00:00Z","geo":{"geometry":{"coordinates":[-11.759896316,7.951642852],"type":"Point"},"placekey":"@dwv-rr6-jvz","address":{"country_code":"SL","formatted_address":"X62R+M5J, Bo, Sierra Leone","locality":"Bo","region":"Southern Province"}},"labels":["soccer","sport"],"duration":0,"start_local":"2024-05-08T17:00:00","end":"2024-05-08T17:00:00Z","end_local":"2024-05-08T17:00:00","updated":"2024-06-12T06:36:12Z"},{"title":"Premier League - Luawa vs Wilberforce Strikers","description":"Sourced from predicthq.com","category":"sports","start":"2024-05-08T16:30:00Z","geo":{"geometry":{"coordinates":[-13.250345885753632,8.490279198124195],"type":"Point"},"placekey":"@9x2-tc2-w6k","address":{"country_code":"SL","formatted_address":"FPRX+5J4, Battery St, Freetown, Sierra Leone","locality":"Freetown"}},"labels":["soccer","sport"],"duration":0,"start_local":"2024-05-08T16:30:00","end":"2024-05-08T16:30:00Z","end_local":"2024-05-08T16:30:00","updated":"2024-06-12T09:06:23Z"},{"title":"Premier League - Old Edwardians vs Ports Authority","description":"Sourced from predicthq.com","category":"sports","start":"2024-05-07T16:30:00Z","geo":{"geometry":{"coordinates":[-13.250345885753632,8.490279198124195],"type":"Point"},"placekey":"@9x2-tc2-w6k","address":{"country_code":"SL","formatted_address":"FPRX+5J4, Battery St, Freetown, Sierra Leone","locality":"Freetown"}},"labels":["soccer","sport"],"duration":0,"start_local":"2024-05-07T16:30:00","end":"2024-05-07T16:30:00Z","end_local":"2024-05-07T16:30:00","updated":"2024-06-11T21:31:21Z"},{"title":"Premier League - Real Republicans vs Freetonians SLIFA","description":"Sourced from predicthq.com","category":"sports","start":"2024-05-06T16:30:00Z","geo":{"geometry":{"coordinates":[-13.250345885753632,8.490279198124195],"type":"Point"},"placekey":"@9x2-tc2-w6k","address":{"country_code":"SL","formatted_address":"FPRX+5J4, Battery St, Freetown, Sierra Leone","locality":"Freetown"}},"labels":["soccer","sport"],"duration":0,"start_local":"2024-05-06T16:30:00","end":"2024-05-06T16:30:00Z","end_local":"2024-05-06T16:30:00","updated":"2024-06-12T02:31:53Z"},{"title":"Premier League - Kallon vs Mighty Blackpool","description":"Sourced from predicthq.com","category":"sports","start":"2024-05-05T16:30:00Z","geo":{"geometry":{"coordinates":[-13.250345885753632,8.490279198124195],"type":"Point"},"placekey":"@9x2-tc2-w6k","address":{"country_code":"SL","formatted_address":"FPRX+5J4, Battery St, Freetown, Sierra Leone","locality":"Freetown"}},"labels":["soccer","sport"],"duration":0,"start_local":"2024-05-05T16:30:00","end":"2024-05-05T16:30:00Z","end_local":"2024-05-05T16:30:00","updated":"2024-06-12T14:08:06Z"},{"title":"Premier League - Kahunla Rangers vs Diamond Stars","description":"Sourced from predicthq.com","category":"sports","start":"2024-05-05T16:15:00Z","geo":{"geometry":{"coordinates":[-11.184229552745819,7.8767409281637955],"type":"Point"},"placekey":"@dwt-3fr-k9f","address":{"country_code":"SL","formatted_address":"VRG8+R7W, Kenema, Sierra Leone","locality":"Kenema","region":"Eastern Province"}},"labels":["soccer","sport"],"duration":0,"start_local":"2024-05-05T16:15:00","end":"2024-05-05T16:15:00Z","end_local":"2024-05-05T16:15:00","updated":"2024-06-12T04:12:31Z"},{"title":"Sierra Leone Marathon","description":"Sourced from predicthq.com","category":"sports","start":"2024-05-05T06:00:00Z","geo":{"geometry":{"coordinates":[-12.0375565,8.8719747],"type":"Point"},"placekey":"@9xc-n7c-sdv","address":{"country_code":"SL","formatted_address":"Makeni, Northern Province, Sierra Leone","locality":"Makeni","region":"Northern Province"}},"labels":["marathon","outdoor-sports","running","sport"],"duration":0,"start_local":"2024-05-05T06:00:00","end":"2024-05-05T06:00:00Z","end_local":"2024-05-05T06:00:00","updated":"2024-06-12T10:26:26Z"},{"title":"Premier League - Bhantal vs Lamboi","description":"Sourced from predicthq.com","category":"sports","start":"2024-05-03T16:30:00Z","geo":{"geometry":{"coordinates":[-13.250345885753632,8.490279198124195],"type":"Point"},"placekey":"@9x2-tc2-w6k","address":{"country_code":"SL","formatted_address":"FPRX+5J4, Battery St, Freetown, Sierra Leone","locality":"Freetown"}},"labels":["soccer","sport"],"duration":0,"start_local":"2024-05-03T16:30:00","end":"2024-05-03T16:30:00Z","end_local":"2024-05-03T16:30:00","updated":"2024-06-12T12:05:50Z"},{"title":"Premier League - Wusum Stars vs Kholifa Stars","description":"Sourced from predicthq.com","category":"sports","start":"2024-05-03T16:15:00Z","geo":{"geometry":{"coordinates":[-12.044432759284973,8.892995146226566],"type":"Point"},"placekey":"@9xc-msq-vmk","address":{"country_code":"SL","formatted_address":"VXJ8+8MR Teko Road, Makeni, Sierra Leone","locality":"Makeni","region":"Northern Province"}},"labels":["soccer","sport"],"duration":0,"start_local":"2024-05-03T16:15:00","end":"2024-05-03T16:15:00Z","end_local":"2024-05-03T16:15:00","updated":"2024-06-12T13:07:55Z"},{"title":"Premier League - Bai Bureh Warriors vs Kallon","description":"Sourced from predicthq.com","category":"sports","start":"2024-05-02T16:15:00Z","geo":{"geometry":{"coordinates":[-12.790408848,8.749409035],"type":"Point"},"placekey":"@9xc-knm-3h5","address":{"country_code":"SL","formatted_address":"P6X5+QR Port Loko, Sierra Leone","locality":"Port Loko","region":"Northern Province"}},"labels":["soccer","sport"],"duration":0,"start_local":"2024-05-02T16:15:00","end":"2024-05-02T16:15:00Z","end_local":"2024-05-02T16:15:00","updated":"2024-06-12T10:39:44Z"},{"title":"Premier League - Wilberforce Strikers vs Old Edwardians","description":"Sourced from predicthq.com","category":"sports","start":"2024-05-01T16:30:00Z","geo":{"geometry":{"coordinates":[-13.250345885753632,8.490279198124195],"type":"Point"},"placekey":"@9x2-tc2-w6k","address":{"country_code":"SL","formatted_address":"FPRX+5J4, Battery St, Freetown, Sierra Leone","locality":"Freetown"}},"labels":["soccer","sport"],"duration":0,"start_local":"2024-05-01T16:30:00","end":"2024-05-01T16:30:00Z","end_local":"2024-05-01T16:30:00","updated":"2024-06-12T00:22:48Z"},{"title":"Premier League - Mighty Blackpool vs Kahunla Rangers","description":"Sourced from predicthq.com","category":"sports","start":"2024-04-30T16:30:00Z","geo":{"geometry":{"coordinates":[-13.250345885753632,8.490279198124195],"type":"Point"},"placekey":"@9x2-tc2-w6k","address":{"country_code":"SL","formatted_address":"FPRX+5J4, Battery St, Freetown, Sierra Leone","locality":"Freetown"}},"labels":["soccer","sport"],"duration":0,"start_local":"2024-04-30T16:30:00","end":"2024-04-30T16:30:00Z","end_local":"2024-04-30T16:30:00","updated":"2024-06-12T04:05:56Z"},{"title":"Premier League - Freetonians SLIFA vs Bhantal","description":"Sourced from predicthq.com","category":"sports","start":"2024-04-29T16:30:00Z","geo":{"geometry":{"coordinates":[-13.250345885753632,8.490279198124195],"type":"Point"},"placekey":"@9x2-tc2-w6k","address":{"country_code":"SL","formatted_address":"FPRX+5J4, Battery St, Freetown, Sierra Leone","locality":"Freetown"}},"labels":["soccer","sport"],"duration":0,"start_local":"2024-04-29T16:30:00","end":"2024-04-29T16:30:00Z","end_local":"2024-04-29T16:30:00","updated":"2024-06-12T08:07:35Z"},{"title":"Premier League - Kholifa Stars vs Luawa","description":"Sourced from predicthq.com","category":"sports","start":"2024-04-29T16:30:00Z","geo":{"geometry":{"coordinates":[-12.044432759284973,8.892995146226566],"type":"Point"},"placekey":"@9xc-msq-vmk","address":{"country_code":"SL","formatted_address":"VXJ8+8MR Teko Road, Makeni, Sierra Leone","locality":"Makeni","region":"Northern Province"}},"labels":["soccer","sport"],"duration":0,"start_local":"2024-04-29T16:30:00","end":"2024-04-29T16:30:00Z","end_local":"2024-04-29T16:30:00","updated":"2024-06-12T02:42:25Z"},{"title":"Premier League - Kallon vs Bo Rangers","description":"Sourced from predicthq.com","category":"sports","start":"2024-04-28T16:30:00Z","geo":{"geometry":{"coordinates":[-13.250345885753632,8.490279198124195],"type":"Point"},"placekey":"@9x2-tc2-w6k","address":{"country_code":"SL","formatted_address":"FPRX+5J4, Battery St, Freetown, Sierra Leone","locality":"Freetown"}},"labels":["soccer","sport"],"duration":0,"start_local":"2024-04-28T16:30:00","end":"2024-04-28T16:30:00Z","end_local":"2024-04-28T16:30:00","updated":"2024-06-11T21:35:13Z"},{"title":"Premier League - Lamboi vs Wusum Stars","description":"Sourced from predicthq.com","category":"sports","start":"2024-04-28T16:15:00Z","geo":{"geometry":{"coordinates":[-12.790408848,8.749409035],"type":"Point"},"placekey":"@9xc-knm-3h5","address":{"country_code":"SL","formatted_address":"P6X5+QR Port Loko, Sierra Leone","locality":"Port Loko","region":"Northern Province"}},"labels":["soccer","sport"],"duration":0,"start_local":"2024-04-28T16:15:00","end":"2024-04-28T16:15:00Z","end_local":"2024-04-28T16:15:00","updated":"2024-06-12T12:43:28Z"},{"title":"Premier League - Diamond Stars vs Freetown City","description":"Sourced from predicthq.com","category":"sports","start":"2024-04-28T16:15:00Z","geo":{"geometry":{"coordinates":[-10.97158133983612,8.649001197939509],"type":"Point"},"placekey":"@dwv-65k-5pv","address":{"country_code":"SL","formatted_address":"Koidu Town (Sefadu), Sierra Leone","locality":"Koidu Town (Sefadu)"}},"labels":["soccer","sport"],"duration":0,"start_local":"2024-04-28T16:15:00","end":"2024-04-28T16:15:00Z","end_local":"2024-04-28T16:15:00","updated":"2024-06-12T03:06:36Z"},{"title":"Premier League - East End Lions vs Ports Authority","description":"Sourced from predicthq.com","category":"sports","start":"2024-04-27T16:30:00Z","geo":{"geometry":{"coordinates":[-13.250345885753632,8.490279198124195],"type":"Point"},"placekey":"@9x2-tc2-w6k","address":{"country_code":"SL","formatted_address":"FPRX+5J4, Battery St, Freetown, Sierra Leone","locality":"Freetown"}},"labels":["soccer","sport"],"duration":0,"start_local":"2024-04-27T16:30:00","end":"2024-04-27T16:30:00Z","end_local":"2024-04-27T16:30:00","updated":"2024-06-12T01:59:44Z"},{"title":"Premier League - East End Lions vs Wilberforce Strikers","description":"Sourced from predicthq.com","category":"sports","start":"2024-04-24T17:00:00Z","geo":{"geometry":{"coordinates":[-13.250345885753632,8.490279198124195],"type":"Point"},"placekey":"@9x2-tc2-w6k","address":{"country_code":"SL","formatted_address":"FPRX+5J4, Battery St, Freetown, Sierra Leone","locality":"Freetown"}},"labels":["soccer","sport"],"duration":0,"start_local":"2024-04-24T17:00:00","end":"2024-04-24T17:00:00Z","end_local":"2024-04-24T17:00:00","updated":"2024-06-12T02:38:44Z"},{"title":"Premier League - Bo Rangers vs Real Republicans","description":"Sourced from predicthq.com","category":"sports","start":"2024-04-24T17:00:00Z","geo":{"geometry":{"coordinates":[-11.759896316,7.951642852],"type":"Point"},"placekey":"@dwv-rr6-jvz","address":{"country_code":"SL","formatted_address":"X62R+M5J, Bo, Sierra Leone","locality":"Bo","region":"Southern Province"}},"labels":["soccer","sport"],"duration":0,"start_local":"2024-04-24T17:00:00","end":"2024-04-24T17:00:00Z","end_local":"2024-04-24T17:00:00","updated":"2024-06-12T09:36:42Z"},{"title":"Premier League - Wusum Stars vs Freetonians SLIFA","description":"Sourced from predicthq.com","category":"sports","start":"2024-04-24T16:30:00Z","geo":{"geometry":{"coordinates":[-12.044432759284973,8.892995146226566],"type":"Point"},"placekey":"@9xc-msq-vmk","address":{"country_code":"SL","formatted_address":"VXJ8+8MR Teko Road, Makeni, Sierra Leone","locality":"Makeni","region":"Northern Province"}},"labels":["soccer","sport"],"duration":0,"start_local":"2024-04-24T16:30:00","end":"2024-04-24T16:30:00Z","end_local":"2024-04-24T16:30:00","updated":"2024-06-12T14:22:55Z"},{"title":"Premier League - Ports Authority vs Diamond Stars","description":"Sourced from predicthq.com","category":"sports","start":"2024-04-23T17:00:00Z","geo":{"geometry":{"coordinates":[-13.250345885753632,8.490279198124195],"type":"Point"},"placekey":"@9x2-tc2-w6k","address":{"country_code":"SL","formatted_address":"FPRX+5J4, Battery St, Freetown, Sierra Leone","locality":"Freetown"}},"labels":["soccer","sport"],"duration":0,"start_local":"2024-04-23T17:00:00","end":"2024-04-23T17:00:00Z","end_local":"2024-04-23T17:00:00","updated":"2024-06-12T05:50:28Z"},{"title":"Premier League - Luawa vs Lamboi","description":"Sourced from predicthq.com","category":"sports","start":"2024-04-22T17:00:00Z","geo":{"geometry":{"coordinates":[-13.250345885753632,8.490279198124195],"type":"Point"},"placekey":"@9x2-tc2-w6k","address":{"country_code":"SL","formatted_address":"FPRX+5J4, Battery St, Freetown, Sierra Leone","locality":"Freetown"}},"labels":["soccer","sport"],"duration":0,"start_local":"2024-04-22T17:00:00","end":"2024-04-22T17:00:00Z","end_local":"2024-04-22T17:00:00","updated":"2024-06-12T12:23:38Z"},{"title":"Premier League - Freetown City vs Mighty Blackpool","description":"Sourced from predicthq.com","category":"sports","start":"2024-04-21T19:00:00Z","geo":{"geometry":{"coordinates":[-13.250345885753632,8.490279198124195],"type":"Point"},"placekey":"@9x2-tc2-w6k","address":{"country_code":"SL","formatted_address":"FPRX+5J4, Battery St, Freetown, Sierra Leone","locality":"Freetown"}},"labels":["soccer","sport"],"duration":0,"start_local":"2024-04-21T19:00:00","end":"2024-04-21T19:00:00Z","end_local":"2024-04-21T19:00:00","updated":"2024-06-12T07:27:23Z"},{"title":"Premier League - Old Edwardians vs Kholifa Stars","description":"Sourced from predicthq.com","category":"sports","start":"2024-04-21T16:15:00Z","geo":{"geometry":{"coordinates":[-13.250345885753632,8.490279198124195],"type":"Point"},"placekey":"@9x2-tc2-w6k","address":{"country_code":"SL","formatted_address":"FPRX+5J4, Battery St, Freetown, Sierra Leone","locality":"Freetown"}},"labels":["soccer","sport"],"duration":0,"start_local":"2024-04-21T16:15:00","end":"2024-04-21T16:15:00Z","end_local":"2024-04-21T16:15:00","updated":"2024-06-11T21:20:07Z"},{"title":"Premier League - Kahunla Rangers vs Bai Bureh Warriors","description":"Sourced from predicthq.com","category":"sports","start":"2024-04-21T16:15:00Z","geo":{"geometry":{"coordinates":[-11.184229552745819,7.8767409281637955],"type":"Point"},"placekey":"@dwt-3fr-k9f","address":{"country_code":"SL","formatted_address":"VRG8+R7W, Kenema, Sierra Leone","locality":"Kenema","region":"Eastern Province"}},"labels":["soccer","sport"],"duration":0,"start_local":"2024-04-21T16:15:00","end":"2024-04-21T16:15:00Z","end_local":"2024-04-21T16:15:00","updated":"2024-06-12T17:02:09Z"},{"title":"Premier League - Real Republicans vs Bhantal","description":"Sourced from predicthq.com","category":"sports","start":"2024-04-18T17:00:00Z","geo":{"geometry":{"coordinates":[-13.250345885753632,8.490279198124195],"type":"Point"},"placekey":"@9x2-tc2-w6k","address":{"country_code":"SL","formatted_address":"FPRX+5J4, Battery St, Freetown, Sierra Leone","locality":"Freetown"}},"labels":["soccer","sport"],"duration":0,"start_local":"2024-04-18T17:00:00","end":"2024-04-18T17:00:00Z","end_local":"2024-04-18T17:00:00","updated":"2024-06-12T04:11:03Z"},{"title":"Premier League - Mighty Blackpool vs Ports Authority","description":"Sourced from predicthq.com","category":"sports","start":"2024-04-16T18:00:00Z","geo":{"geometry":{"coordinates":[-13.250345885753632,8.490279198124195],"type":"Point"},"placekey":"@9x2-tc2-w6k","address":{"country_code":"SL","formatted_address":"FPRX+5J4, Battery St, Freetown, Sierra Leone","locality":"Freetown"}},"labels":["soccer","sport"],"duration":0,"start_local":"2024-04-16T18:00:00","end":"2024-04-16T18:00:00Z","end_local":"2024-04-16T18:00:00","updated":"2024-06-12T03:36:52Z"},{"title":"Premier League - Bhantal vs Wusum Stars","description":"Sourced from predicthq.com","category":"sports","start":"2024-04-15T17:00:00Z","geo":{"geometry":{"coordinates":[-13.250345885753632,8.490279198124195],"type":"Point"},"placekey":"@9x2-tc2-w6k","address":{"country_code":"SL","formatted_address":"FPRX+5J4, Battery St, Freetown, Sierra Leone","locality":"Freetown"}},"labels":["soccer","sport"],"duration":0,"start_local":"2024-04-15T17:00:00","end":"2024-04-15T17:00:00Z","end_local":"2024-04-15T17:00:00","updated":"2024-06-12T13:00:48Z"},{"title":"Premier League - Kallon vs Real Republicans","description":"Sourced from predicthq.com","category":"sports","start":"2024-04-14T18:00:00Z","geo":{"geometry":{"coordinates":[-13.250345885753632,8.490279198124195],"type":"Point"},"placekey":"@9x2-tc2-w6k","address":{"country_code":"SL","formatted_address":"FPRX+5J4, Battery St, Freetown, Sierra Leone","locality":"Freetown"}},"labels":["soccer","sport"],"duration":0,"start_local":"2024-04-14T18:00:00","end":"2024-04-14T18:00:00Z","end_local":"2024-04-14T18:00:00","updated":"2024-06-11T21:15:40Z"},{"title":"Premier League - Bai Bureh Warriors vs Freetown City","description":"Sourced from predicthq.com","category":"sports","start":"2024-04-14T16:15:00Z","geo":{"geometry":{"coordinates":[-12.790408848,8.749409035],"type":"Point"},"placekey":"@9xc-knm-3h5","address":{"country_code":"SL","formatted_address":"P6X5+QR Port Loko, Sierra Leone","locality":"Port Loko","region":"Northern Province"}},"labels":["soccer","sport"],"duration":0,"start_local":"2024-04-14T16:15:00","end":"2024-04-14T16:15:00Z","end_local":"2024-04-14T16:15:00","updated":"2024-06-12T04:10:45Z"},{"title":"Premier League - Diamond Stars vs Wilberforce Strikers","description":"Sourced from predicthq.com","category":"sports","start":"2024-04-14T16:15:00Z","geo":{"geometry":{"coordinates":[-10.97158133983612,8.649001197939509],"type":"Point"},"placekey":"@dwv-65k-5pv","address":{"country_code":"SL","formatted_address":"Koidu Town (Sefadu), Sierra Leone","locality":"Koidu Town (Sefadu)"}},"labels":["soccer","sport"],"duration":0,"start_local":"2024-04-14T16:15:00","end":"2024-04-14T16:15:00Z","end_local":"2024-04-14T16:15:00","updated":"2024-06-12T00:54:46Z"},{"title":"Premier League - Kholifa Stars vs East End Lions","description":"Sourced from predicthq.com","category":"sports","start":"2024-04-14T16:15:00Z","geo":{"geometry":{"coordinates":[-12.044432759284973,8.892995146226566],"type":"Point"},"placekey":"@9xc-msq-vmk","address":{"country_code":"SL","formatted_address":"VXJ8+8MR Teko Road, Makeni, Sierra Leone","locality":"Makeni","region":"Northern Province"}},"labels":["soccer","sport"],"duration":0,"start_local":"2024-04-14T16:15:00","end":"2024-04-14T16:15:00Z","end_local":"2024-04-14T16:15:00","updated":"2024-06-11T22:48:28Z"},{"title":"Premier League - Lamboi vs Old Edwardians","description":"Sourced from predicthq.com","category":"sports","start":"2024-04-13T16:15:00Z","geo":{"geometry":{"coordinates":[-12.790408848,8.749409035],"type":"Point"},"placekey":"@9xc-knm-3h5","address":{"country_code":"SL","formatted_address":"P6X5+QR Port Loko, Sierra Leone","locality":"Port Loko","region":"Northern Province"}},"labels":["soccer","sport"],"duration":0,"start_local":"2024-04-13T16:15:00","end":"2024-04-13T16:15:00Z","end_local":"2024-04-13T16:15:00","updated":"2024-06-12T09:17:02Z"},{"title":"Premier League - Freetonians SLIFA vs Luawa","description":"Sourced from predicthq.com","category":"sports","start":"2024-04-13T16:15:00Z","geo":{"geometry":{"coordinates":[-13.250345885753632,8.490279198124195],"type":"Point"},"placekey":"@9x2-tc2-w6k","address":{"country_code":"SL","formatted_address":"FPRX+5J4, Battery St, Freetown, Sierra Leone","locality":"Freetown"}},"labels":["soccer","sport"],"duration":0,"start_local":"2024-04-13T16:15:00","end":"2024-04-13T16:15:00Z","end_local":"2024-04-13T16:15:00","updated":"2024-06-12T14:33:46Z"},{"title":"Shine Aesthetics & Wellness Clinic Launch","description":"Sourced from predicthq.com - Come join us for the grand launching of Shine Aesthetics And Wellness Clinic in Sierra Leone!","category":"expos","start":"2024-04-13T12:00:00Z","geo":{"geometry":{"coordinates":[-13.2838867,8.4774184],"type":"Point"},"placekey":"@9x2-tc5-d5f","address":{"country_code":"SL","formatted_address":"Freetown, Western Area, Sierra Leone","locality":"Freetown","region":"Western Area"}},"labels":["expo","health"],"duration":10800,"start_local":"2024-04-13T12:00:00","end":"2024-04-13T15:00:00Z","end_local":"2024-04-13T15:00:00","updated":"2024-06-05T08:11:31Z"},{"title":"Premier League - Real Republicans vs Wusum Stars","description":"Sourced from predicthq.com","category":"sports","start":"2024-04-11T16:30:00Z","geo":{"geometry":{"coordinates":[-13.250345885753632,8.490279198124195],"type":"Point"},"placekey":"@9x2-tc2-w6k","address":{"country_code":"SL","formatted_address":"FPRX+5J4, Battery St, Freetown, Sierra Leone","locality":"Freetown"}},"labels":["soccer","sport"],"duration":0,"start_local":"2024-04-11T16:30:00","end":"2024-04-11T16:30:00Z","end_local":"2024-04-11T16:30:00","updated":"2024-06-12T07:22:22Z"},{"title":"Premier League - Diamond Stars vs Kholifa Stars","description":"Sourced from predicthq.com","category":"sports","start":"2024-04-11T16:30:00Z","geo":{"geometry":{"coordinates":[-10.97158133983612,8.649001197939509],"type":"Point"},"placekey":"@dwv-65k-5pv","address":{"country_code":"SL","formatted_address":"Koidu Town (Sefadu), Sierra Leone","locality":"Koidu Town (Sefadu)"}},"labels":["soccer","sport"],"duration":0,"start_local":"2024-04-11T16:30:00","end":"2024-04-11T16:30:00Z","end_local":"2024-04-11T16:30:00","updated":"2024-06-12T06:28:30Z"},{"title":"Premier League - Bo Rangers vs Kahunla Rangers","description":"Sourced from predicthq.com","category":"sports","start":"2024-04-10T16:30:00Z","geo":{"geometry":{"coordinates":[-11.759896316,7.951642852],"type":"Point"},"placekey":"@dwv-rr6-jvz","address":{"country_code":"SL","formatted_address":"X62R+M5J, Bo, Sierra Leone","locality":"Bo","region":"Southern Province"}},"labels":["soccer","sport"],"duration":0,"start_local":"2024-04-10T16:30:00","end":"2024-04-10T16:30:00Z","end_local":"2024-04-10T16:30:00","updated":"2024-06-12T13:49:18Z"},{"title":"Premier League - Luawa vs Bhantal","description":"Sourced from predicthq.com","category":"sports","start":"2024-04-09T18:00:00Z","geo":{"geometry":{"coordinates":[-13.250345885753632,8.490279198124195],"type":"Point"},"placekey":"@9x2-tc2-w6k","address":{"country_code":"SL","formatted_address":"FPRX+5J4, Battery St, Freetown, Sierra Leone","locality":"Freetown"}},"labels":["soccer","sport"],"duration":0,"start_local":"2024-04-09T18:00:00","end":"2024-04-09T18:00:00Z","end_local":"2024-04-09T18:00:00","updated":"2024-06-12T05:00:38Z"},{"title":"Premier League - Bo Rangers vs Kholifa Stars","description":"Sourced from predicthq.com","category":"sports","start":"2024-04-07T16:30:00Z","geo":{"geometry":{"coordinates":[-11.759896316,7.951642852],"type":"Point"},"placekey":"@dwv-rr6-jvz","address":{"country_code":"SL","formatted_address":"X62R+M5J, Bo, Sierra Leone","locality":"Bo","region":"Southern Province"}},"labels":["soccer","sport"],"duration":0,"start_local":"2024-04-07T16:30:00","end":"2024-04-07T16:30:00Z","end_local":"2024-04-07T16:30:00","updated":"2024-06-12T09:38:33Z"},{"title":"Premier League - Kahunla Rangers vs Kallon","description":"Sourced from predicthq.com","category":"sports","start":"2024-04-07T16:30:00Z","geo":{"geometry":{"coordinates":[-11.184229552745819,7.8767409281637955],"type":"Point"},"placekey":"@dwt-3fr-k9f","address":{"country_code":"SL","formatted_address":"VRG8+R7W, Kenema, Sierra Leone","locality":"Kenema","region":"Eastern Province"}},"labels":["soccer","sport"],"duration":0,"start_local":"2024-04-07T16:30:00","end":"2024-04-07T16:30:00Z","end_local":"2024-04-07T16:30:00","updated":"2024-06-12T02:17:11Z"},{"title":"Premier League - East End Lions vs Lamboi","description":"Sourced from predicthq.com","category":"sports","start":"2024-04-07T16:30:00Z","geo":{"geometry":{"coordinates":[-13.250345885753632,8.490279198124195],"type":"Point"},"placekey":"@9x2-tc2-w6k","address":{"country_code":"SL","formatted_address":"FPRX+5J4, Battery St, Freetown, Sierra Leone","locality":"Freetown"}},"labels":["soccer","sport"],"duration":0,"start_local":"2024-04-07T16:30:00","end":"2024-04-07T16:30:00Z","end_local":"2024-04-07T16:30:00","updated":"2024-06-12T18:20:50Z"}]