[{"title":"TEDxFann","description":"Sourced from predicthq.com - TEDxFann: Un événement inspirant où des esprits brillants partagent leurs idées et défient le statu quo.","category":"conferences","start":"2024-07-27T16:00:00Z","geo":{"geometry":{"coordinates":[-17.4756291,14.7120223],"type":"Point"},"placekey":"@9wq-xz8-6p9","address":{"country_code":"SN","formatted_address":"Rue MZ 33, Dakar, Senegal","locality":"Dakar","region":"Région de Dakar"}},"labels":["community","conference"],"duration":10800,"start_local":"2024-07-27T16:00:00","end":"2024-07-27T19:00:00Z","end_local":"2024-07-27T19:00:00","updated":"2024-06-20T02:34:30Z"},{"title":"7ième édition Salon STAYUP","description":"Sourced from predicthq.com - La 7ième édition du Salon STAYUP est l'endroit idéal pour découvrir les dernières tendances en matière de mode et de style de vie!","category":"expos","start":"2024-07-26T09:00:00Z","geo":{"geometry":{"coordinates":[-16.9889904,14.443593],"type":"Point"},"placekey":"@9wr-6pm-5j9","address":{"country_code":"SN","formatted_address":"Saly, Thiès Region, Senegal","locality":"Saly","region":"Thiès Region"}},"labels":["community","expo"],"duration":201600,"start_local":"2024-07-26T09:00:00","end":"2024-07-28T17:00:00Z","end_local":"2024-07-28T17:00:00","updated":"2024-06-26T13:47:23Z"},{"title":"5th West Africa LPG Expo - Senegal 2024","description":"Sourced from predicthq.com - Engage in the top regional LPG event. Discover insights, network, and make an impact. Your presence is crucial for this premier occasion.","category":"expos","start":"2024-07-18T09:00:00Z","geo":{"geometry":{"coordinates":[-17.270929,14.71554],"type":"Point"},"placekey":"@9wr-8x9-xnq","address":{"country_code":"SN","formatted_address":"Dakar, Région de Dakar, Senegal","locality":"Dakar","region":"Région de Dakar"}},"labels":["business","expo"],"duration":118800,"start_local":"2024-07-18T09:00:00","end":"2024-07-19T18:00:00Z","end_local":"2024-07-19T18:00:00","updated":"2024-06-04T00:37:35Z"},{"title":"5th West Africa LPG Expo - Senegal 2024","description":"Sourced from predicthq.com","category":"expos","start":"2024-07-18T00:00:00Z","geo":{"geometry":{"coordinates":[-17.1983349,14.7398594],"type":"Point"},"placekey":"@9wr-dj5-jsq","address":{"country_code":"SN","formatted_address":"Rufisque, Dakar Region, Senegal","locality":"Rufisque","region":"Dakar Region"}},"labels":["business","expo","industrial","technology"],"duration":172799,"start_local":"2024-07-18T00:00:00","end":"2024-07-19T23:59:59Z","end_local":"2024-07-19T23:59:59","updated":"2024-06-04T10:43:43Z"},{"title":"Friendlies Women - Friendlies 2 - Senegal vs Congo DR","description":"Sourced from predicthq.com","category":"sports","start":"2024-07-16T17:00:00Z","geo":{"geometry":{"coordinates":[-16.944481453636058,14.76981338933677],"type":"Point"},"placekey":"@9wr-dch-y9z","address":{"country_code":"SN","formatted_address":"Q3C3+2WH, Thies, Senegal","locality":"Thiès","region":"Région de Thiès"}},"labels":["soccer","sport"],"duration":0,"start_local":"2024-07-16T17:00:00","end":"2024-07-16T17:00:00Z","end_local":"2024-07-16T17:00:00","updated":"2024-07-03T21:09:59Z"},{"title":"FORUM DE L'AUDIT & DU CONTROLE DE GESTION","description":"Sourced from predicthq.com - Rendez-vous annuel des professionnels du chiffre, le Forum de l'Audit et du Contrôle de gestion réunira plus de 200 participants.","category":"conferences","start":"2024-07-13T09:00:00Z","geo":{"geometry":{"coordinates":[-17.4730578,14.694667],"type":"Point"},"placekey":"@9wq-xxn-435","address":{"country_code":"SN","formatted_address":"Dakar, Dakar Region, Senegal","locality":"Dakar","region":"Dakar Region"}},"labels":["business","conference"],"duration":0,"start_local":"2024-07-13T09:00:00","end":"2024-07-13T09:00:00Z","end_local":"2024-07-13T09:00:00","updated":"2024-06-04T09:20:51Z"},{"title":"Friendlies Women - Friendlies 2 - Senegal vs Congo DR","description":"Sourced from predicthq.com","category":"sports","start":"2024-07-12T17:00:00Z","geo":{"geometry":{"coordinates":[-16.944481453636058,14.76981338933677],"type":"Point"},"placekey":"@9wr-dch-y9z","address":{"country_code":"SN","formatted_address":"Q3C3+2WH, Thies, Senegal","locality":"Thiès","region":"Région de Thiès"}},"labels":["soccer","sport"],"duration":0,"start_local":"2024-07-12T17:00:00","end":"2024-07-12T17:00:00Z","end_local":"2024-07-12T17:00:00","updated":"2024-07-03T18:16:40Z"},{"title":"AKA TALKS","description":"Sourced from predicthq.com - AKA TALKS : une série de discussions et de conférences avec des experts reconnus.","category":"conferences","start":"2024-06-29T08:00:00Z","geo":{"geometry":{"coordinates":[-17.4756291,14.7120223],"type":"Point"},"placekey":"@9wq-xz8-6p9","address":{"country_code":"SN","formatted_address":"Rue MZ 33, Dakar, Senegal","locality":"Dakar","region":"Région de Dakar"}},"labels":["business","conference"],"duration":18000,"start_local":"2024-06-29T08:00:00","end":"2024-06-29T13:00:00Z","end_local":"2024-06-29T13:00:00","updated":"2024-06-28T08:23:52Z"},{"title":"Journée Portes Ouvertes : Découvrez la Summer Academy ! - GOMYCODE SENEGAL","description":"Sourced from predicthq.com - Passez visiter nos espaces, discutez avec nos conseillers et instructeurs pour bien choisir votre formation !","category":"conferences","start":"2024-06-28T11:00:00Z","geo":{"geometry":{"coordinates":[-17.4580412,14.6951296],"type":"Point"},"placekey":"@9wq-xzn-7qz","address":{"country_code":"SN","formatted_address":"Rue de Kaolack, Dakar, Senegal","locality":"Dakar","region":"Dakar Region"}},"labels":["conference","science","technology"],"duration":7200,"start_local":"2024-06-28T11:00:00","end":"2024-06-28T13:00:00Z","end_local":"2024-06-28T13:00:00","updated":"2024-06-27T01:01:42Z"},{"title":"7ième édition Salon STAYUP","description":"Sourced from predicthq.com","category":"conferences","start":"2024-06-28T09:00:00Z","geo":{"geometry":{"coordinates":[-17.01462,14.43967],"type":"Point"},"placekey":"@9wr-6pn-cbk","address":{"country_code":"SN","formatted_address":"Mbour, Thiès Region, Senegal","locality":"Mbour","region":"Thiès Region"}},"labels":["business","conference"],"duration":201600,"start_local":"2024-06-28T09:00:00","end":"2024-06-30T17:00:00Z","end_local":"2024-06-30T17:00:00","updated":"2024-06-04T02:08:42Z"},{"title":"DEMO DAY #TALENT4STARTUPS 2024","description":"Sourced from predicthq.com - Découvrez en exclusivité le parcours et les réalisations de notre toute dernière promotion et détectez à l'avance vos Talents !","category":"conferences","start":"2024-06-22T09:00:00Z","geo":{"geometry":{"coordinates":[-17.4672647,14.7090876],"type":"Point"},"placekey":"@9wq-xxn-mtv","address":{"country_code":"SN","formatted_address":"Dakar, Dakar Region, Senegal","locality":"Dakar","region":"Dakar Region"}},"labels":["business","conference"],"duration":12600,"start_local":"2024-06-22T09:00:00","end":"2024-06-22T12:30:00Z","end_local":"2024-06-22T12:30:00","updated":"2024-06-20T02:34:30Z"},{"title":"Ligue 1 - Gorée vs DSC","description":"Sourced from predicthq.com","category":"sports","start":"2024-06-08T17:00:00Z","geo":{"geometry":{"coordinates":[-17.467096926,14.731307903],"type":"Point"},"placekey":"@9wq-xz8-fs5","address":{"country_code":"SN","formatted_address":"Liberté 6 Extension Nord, face Camp Leclerc, Dakar, Senegal","locality":"Dakar","region":"Région de Dakar"}},"labels":["soccer","sport"],"duration":0,"start_local":"2024-06-08T17:00:00","end":"2024-06-08T17:00:00Z","end_local":"2024-06-08T17:00:00","updated":"2024-06-12T05:22:25Z"},{"title":"Ligue 1 - Teungueth vs Stade de Mbour","description":"Sourced from predicthq.com","category":"sports","start":"2024-06-08T17:00:00Z","geo":{"geometry":{"coordinates":[-17.281086444854736,14.727322477691752],"type":"Point"},"placekey":"@9wq-xrt-q9f","address":{"country_code":"SN","formatted_address":"PPHF+PJ, Rufisque, Senegal","locality":"Rufisque","region":"Dakar Region"}},"labels":["soccer","sport"],"duration":0,"start_local":"2024-06-08T17:00:00","end":"2024-06-08T17:00:00Z","end_local":"2024-06-08T17:00:00","updated":"2024-06-12T16:41:58Z"},{"title":"Ligue 1 - Jaraaf vs La Linguère","description":"Sourced from predicthq.com","category":"sports","start":"2024-06-08T17:00:00Z","geo":{"geometry":{"coordinates":[-17.509755492210388,14.746943286556498],"type":"Point"},"placekey":"@9wq-y26-gc5","address":{"country_code":"SN","formatted_address":"Dakar, Senegal","locality":"Dakar","region":"Dakar Region"}},"labels":["soccer","sport"],"duration":0,"start_local":"2024-06-08T17:00:00","end":"2024-06-08T17:00:00Z","end_local":"2024-06-08T17:00:00","updated":"2024-06-11T23:46:16Z"},{"title":"Ligue 1 - Casa Sport vs Ouakam","description":"Sourced from predicthq.com","category":"sports","start":"2024-06-08T17:00:00Z","geo":{"geometry":{"coordinates":[-14.947223,12.9016087],"type":"Point"},"placekey":"@9v9-jt5-2ff","address":{"country_code":"SN","formatted_address":"W26V+FGW, Kolda, Senegal","locality":"Kolda","region":"Kolda Region"}},"labels":["soccer","sport"],"duration":0,"start_local":"2024-06-08T17:00:00","end":"2024-06-08T17:00:00Z","end_local":"2024-06-08T17:00:00","updated":"2024-06-11T23:04:28Z"},{"title":"Ligue 1 - Sonacos vs Guédiawaye","description":"Sourced from predicthq.com","category":"sports","start":"2024-06-08T17:00:00Z","geo":{"geometry":{"coordinates":[-16.931662119,14.788609376],"type":"Point"},"placekey":"@9wr-dcq-gtv","address":{"country_code":"SN","formatted_address":"Q3Q9+C78, Thies, Senegal","locality":"Thies","region":"Thiès Region"}},"labels":["soccer","sport"],"duration":0,"start_local":"2024-06-08T17:00:00","end":"2024-06-08T17:00:00Z","end_local":"2024-06-08T17:00:00","updated":"2024-06-12T02:07:26Z"},{"title":"Ligue 1 - Pikine vs Jamono Fatick","description":"Sourced from predicthq.com","category":"sports","start":"2024-06-08T17:00:00Z","geo":{"geometry":{"coordinates":[-17.39295,14.7548516],"type":"Point"},"placekey":"@9wq-xqp-49z","address":{"country_code":"SN","formatted_address":"QJ34+WQ9, Pikine, Senegal","locality":"Pikine","region":"Dakar Region"}},"labels":["soccer","sport"],"duration":0,"start_local":"2024-06-08T17:00:00","end":"2024-06-08T17:00:00Z","end_local":"2024-06-08T17:00:00","updated":"2024-06-12T04:55:28Z"},{"title":"Ligue 1 - Diambars vs Génération Foot","description":"Sourced from predicthq.com","category":"sports","start":"2024-06-08T17:00:00Z","geo":{"geometry":{"coordinates":[-16.944481453636058,14.76981338933677],"type":"Point"},"placekey":"@9wr-dch-y9z","address":{"country_code":"SN","formatted_address":"Q3C3+2WH, Thies, Senegal","locality":"Thiès","region":"Région de Thiès"}},"labels":["soccer","sport"],"duration":0,"start_local":"2024-06-08T17:00:00","end":"2024-06-08T17:00:00Z","end_local":"2024-06-08T17:00:00","updated":"2024-06-11T22:26:54Z"},{"title":"International Exhibition for Beauty, Cosmetic and Hygiene","description":"Sourced from predicthq.com","category":"expos","start":"2024-06-06T09:00:00Z","geo":{"geometry":{"coordinates":[-17.198358,14.739777],"type":"Point"},"placekey":"@9wr-dj5-jsq","address":{"country_code":"SN","formatted_address":"Deni Mali Gueye, Région de Dakar, Senegal","locality":"Deni Mali Gueye","region":"Région de Dakar"}},"labels":["expo"],"duration":205200,"start_local":"2024-06-06T09:00:00","end":"2024-06-08T18:00:00Z","end_local":"2024-06-08T18:00:00","updated":"2024-05-21T23:56:09Z"},{"title":"Senagro Exhibition International Exhibition of Agricultural Machinery, Equipment and Technologies","description":"Sourced from predicthq.com","category":"expos","start":"2024-06-06T09:00:00Z","geo":{"geometry":{"coordinates":[-17.198358,14.739777],"type":"Point"},"placekey":"@9wr-dj5-jsq","address":{"country_code":"SN","formatted_address":"Deni Mali Gueye, Région de Dakar, Senegal","locality":"Deni Mali Gueye","region":"Région de Dakar"}},"labels":["expo"],"duration":205200,"start_local":"2024-06-06T09:00:00","end":"2024-06-08T18:00:00Z","end_local":"2024-06-08T18:00:00","updated":"2024-05-31T23:12:35Z"},{"title":"SENEFOOD - International Food, Food Processing Fair","description":"Sourced from predicthq.com","category":"expos","start":"2024-06-06T00:00:00Z","geo":{"geometry":{"coordinates":[-17.1958693,14.7406391],"type":"Point"},"placekey":"@9wr-dj5-hnq","address":{"country_code":"SN","formatted_address":"Rufisque, Dakar, Senegal","locality":"Rufisque","region":"Dakar"}},"labels":["expo"],"duration":259199,"start_local":"2024-06-06T00:00:00","end":"2024-06-08T23:59:59Z","end_local":"2024-06-08T23:59:59","updated":"2024-05-31T23:05:01Z"},{"title":"Senegal DecorExpo","description":"Sourced from predicthq.com","category":"expos","start":"2024-06-06T00:00:00Z","geo":{"geometry":{"coordinates":[-17.1958693,14.7406391],"type":"Point"},"placekey":"@9wr-dj5-hnq","address":{"country_code":"SN","formatted_address":"Rufisque, Dakar, Senegal","locality":"Rufisque","region":"Dakar"}},"labels":["expo"],"duration":259199,"start_local":"2024-06-06T00:00:00","end":"2024-06-08T23:59:59Z","end_local":"2024-06-08T23:59:59","updated":"2024-05-31T23:10:04Z"},{"title":"SenePack - International Exhibition for Packaging","description":"Sourced from predicthq.com","category":"expos","start":"2024-06-06T00:00:00Z","geo":{"geometry":{"coordinates":[-17.195792,14.739587],"type":"Point"},"placekey":"@9wr-dj5-kcq","address":{"country_code":"SN","formatted_address":"Deni Mali Gueye, Région de Dakar, Senegal","locality":"Deni Mali Gueye","region":"Région de Dakar"}},"labels":["expo"],"duration":259199,"start_local":"2024-06-06T00:00:00","end":"2024-06-08T23:59:59Z","end_local":"2024-06-08T23:59:59","updated":"2024-05-28T03:39:28Z"},{"title":"Table ronde autour du Ceebu Jen x Terroubi","description":"Sourced from predicthq.com - Nous connaissons tous le Ceebu Jën, plat national sénégalais qui a rejoint  le Patrimoine de l’Unesco. Venez connaitre son histoire !","category":"conferences","start":"2024-06-05T09:30:00Z","geo":{"geometry":{"coordinates":[-17.4664361,14.6769745],"type":"Point"},"placekey":"@9wq-xxf-rc5","address":{"country_code":"SN","formatted_address":"Boulevard Martin Luther King Dakar, Dakar 11500, Senegal","postcode":"11500","locality":"Dakar","region":"Région de Dakar"}},"labels":["community","conference"],"duration":9000,"start_local":"2024-06-05T09:30:00","end":"2024-06-05T12:00:00Z","end_local":"2024-06-05T12:00:00","updated":"2024-06-12T15:50:03Z"},{"title":"Robotist Group Gala Dinner","description":"Sourced from predicthq.com","category":"community","start":"2024-06-04T21:00:00Z","geo":{"geometry":{"coordinates":[-17.46644,14.67697],"type":"Point"},"placekey":"@9wq-xxf-rc5","address":{"country_code":"SN","formatted_address":"Dakar, Dakar Region, Senegal","locality":"Dakar","region":"Dakar Region"}},"labels":["community","food"],"duration":7200,"start_local":"2024-06-04T21:00:00","end":"2024-06-04T23:00:00Z","end_local":"2024-06-04T23:00:00","updated":"2024-06-04T01:04:47Z"},{"title":"Friendlies Women - Friendlies 2 - Senegal vs South Africa","description":"Sourced from predicthq.com","category":"sports","start":"2024-06-04T17:00:00Z","geo":{"geometry":{"coordinates":[-16.944481453636058,14.76981338933677],"type":"Point"},"placekey":"@9wr-dch-y9z","address":{"country_code":"SN","formatted_address":"Q3C3+2WH, Thies, Senegal","locality":"Thiès","region":"Région de Thiès"}},"labels":["soccer","sport"],"duration":0,"start_local":"2024-06-04T17:00:00","end":"2024-06-04T17:00:00Z","end_local":"2024-06-04T17:00:00","updated":"2024-06-11T22:08:15Z"},{"title":"1ere convention des alumini de lISM ZIGUINCHOR","description":"Sourced from predicthq.com - La 1ère convention des anciens de l'ISM Ziguinchor, un événement incontournable où on se retrouve pour partager des souvenirs, réseauter et","category":"conferences","start":"2024-06-01T18:00:00Z","geo":{"geometry":{"coordinates":[-16.2566885,12.5699724],"type":"Point"},"placekey":"@9xg-3pd-skf","address":{"country_code":"SN","formatted_address":"Ziguinchor, Ziguinchor Region, Senegal","locality":"Ziguinchor","region":"Ziguinchor Region"}},"labels":["community","conference"],"duration":14400,"start_local":"2024-06-01T18:00:00","end":"2024-06-01T22:00:00Z","end_local":"2024-06-01T22:00:00","updated":"2024-06-04T02:43:17Z"},{"title":"Friendlies Women - Friendlies 2 - Senegal vs South Africa","description":"Sourced from predicthq.com","category":"sports","start":"2024-06-01T17:00:00Z","geo":{"geometry":{"coordinates":[-16.944481453636058,14.76981338933677],"type":"Point"},"placekey":"@9wr-dch-y9z","address":{"country_code":"SN","formatted_address":"Q3C3+2WH, Thies, Senegal","locality":"Thiès","region":"Région de Thiès"}},"labels":["soccer","sport"],"duration":0,"start_local":"2024-06-01T17:00:00","end":"2024-06-01T17:00:00Z","end_local":"2024-06-01T17:00:00","updated":"2024-06-12T13:12:51Z"},{"title":"Festival Musical pour la Paix et Foire du Japon à l’île de Gorée","description":"Sourced from predicthq.com - Le Japon s’invite au Sénégal ! Rejoignez nous à l'île de Gorée pour promouvoir la paix et échanger avec la communauté Japonaise au Sénégal","category":"festivals","start":"2024-06-01T15:00:00Z","geo":{"geometry":{"coordinates":[-17.3984824,14.6668162],"type":"Point"},"placekey":"@9wr-95z-zvf","address":{"country_code":"SN","formatted_address":"Rue du castel, Dakar, Senegal","locality":"Dakar","region":"Région de Dakar"}},"labels":["festival","music"],"duration":14400,"start_local":"2024-06-01T15:00:00","end":"2024-06-01T19:00:00Z","end_local":"2024-06-01T19:00:00","updated":"2024-06-04T10:04:19Z"},{"title":"Damay Dem Casamance ... Sans Tabou","description":"Sourced from predicthq.com - Un événement pour briser les tabous autour des règles, avec des discussions ouvertes et sans jugement !","category":"concerts","start":"2024-06-01T10:00:00Z","geo":{"geometry":{"coordinates":[-17.4676979,14.7108695],"type":"Point"},"placekey":"@9wq-xxn-mkz","address":{"country_code":"SN","formatted_address":"Dakar, Dakar Region, Senegal","locality":"Dakar","region":"Dakar Region"}},"labels":["community","concert","music"],"duration":10800,"start_local":"2024-06-01T10:00:00","end":"2024-06-01T13:00:00Z","end_local":"2024-06-01T13:00:00","updated":"2024-06-15T10:01:06Z"},{"title":"PORTES OUVERTES : REJOINS-NOUS ET GAGNE DES COMPÉTENCES - SENEGAL","description":"Sourced from predicthq.com - Nous vous invitons à vous rendre dans notre hackerspace au Point E pour la journée portes ouvertes !","category":"conferences","start":"2024-05-31T11:00:00Z","geo":{"geometry":{"coordinates":[-17.4580412,14.6951296],"type":"Point"},"placekey":"@9wq-xzn-7qz","address":{"country_code":"SN","formatted_address":"Rue de Kaolack, Dakar, Senegal","locality":"Dakar","region":"Dakar Region"}},"labels":["conference","science","technology"],"duration":7200,"start_local":"2024-05-31T11:00:00","end":"2024-05-31T13:00:00Z","end_local":"2024-05-31T13:00:00","updated":"2024-05-30T01:00:44Z"},{"title":"Senegal International Exhibition of Entrepreneurship, Employment and Training","description":"Sourced from predicthq.com","category":"expos","start":"2024-05-30T09:00:00Z","geo":{"geometry":{"coordinates":[-17.436355,14.6793754],"type":"Point"},"placekey":"@9wq-xzp-9xq","address":{"country_code":"SN","formatted_address":"Dakar, Senegal","locality":"Dakar","region":"Dakar Region"}},"labels":["expo"],"duration":205200,"start_local":"2024-05-30T09:00:00","end":"2024-06-01T18:00:00Z","end_local":"2024-06-01T18:00:00","updated":"2024-06-03T20:34:41Z"},{"title":"UA DAY","description":"Sourced from predicthq.com - \"Rejoignez-nous pour une Sensibilisation Bokk Jang unique !\"\n\n\nConstruisons un Internet inclusif","category":"conferences","start":"2024-05-30T09:00:00Z","geo":{"geometry":{"coordinates":[-17.4676979,14.7108695],"type":"Point"},"placekey":"@9wq-xxn-mkz","address":{"country_code":"SN","formatted_address":"Dakar, Dakar Region, Senegal","locality":"Dakar","region":"Dakar Region"}},"labels":["conference","science","technology"],"duration":10800,"start_local":"2024-05-30T09:00:00","end":"2024-05-30T12:00:00Z","end_local":"2024-05-30T12:00:00","updated":"2024-06-12T03:14:34Z"},{"title":"Ligue 1 - Ouakam vs Jaraaf","description":"Sourced from predicthq.com","category":"sports","start":"2024-05-26T17:00:00Z","geo":{"geometry":{"coordinates":[-17.509755492210388,14.746943286556498],"type":"Point"},"placekey":"@9wq-y26-gc5","address":{"country_code":"SN","formatted_address":"Dakar, Senegal","locality":"Dakar","region":"Dakar Region"}},"labels":["soccer","sport"],"duration":0,"start_local":"2024-05-26T17:00:00","end":"2024-05-26T17:00:00Z","end_local":"2024-05-26T17:00:00","updated":"2024-06-11T21:19:19Z"},{"title":"Ligue 1 - Génération Foot vs Teungueth","description":"Sourced from predicthq.com","category":"sports","start":"2024-05-26T17:00:00Z","geo":{"geometry":{"coordinates":[-16.944481453636058,14.76981338933677],"type":"Point"},"placekey":"@9wr-dch-y9z","address":{"country_code":"SN","formatted_address":"Q3C3+2WH, Thies, Senegal","locality":"Thiès","region":"Région de Thiès"}},"labels":["soccer","sport"],"duration":0,"start_local":"2024-05-26T17:00:00","end":"2024-05-26T17:00:00Z","end_local":"2024-05-26T17:00:00","updated":"2024-06-12T01:55:54Z"},{"title":"Ligue 1 - Guédiawaye vs Gorée","description":"Sourced from predicthq.com","category":"sports","start":"2024-05-26T17:00:00Z","geo":{"geometry":{"coordinates":[-17.3902424,14.7709953],"type":"Point"},"placekey":"@9wq-xqn-4sq","address":{"country_code":"SN","formatted_address":"QJC4+3Q2, Dakar, Senegal","locality":"Dakar","region":"Dakar Region"}},"labels":["soccer","sport"],"duration":0,"start_local":"2024-05-26T17:00:00","end":"2024-05-26T17:00:00Z","end_local":"2024-05-26T17:00:00","updated":"2024-06-12T14:30:35Z"},{"title":"Ligue 1 - Jamono Fatick vs Casa Sport","description":"Sourced from predicthq.com","category":"sports","start":"2024-05-26T17:00:00Z","geo":{"geometry":{"coordinates":[-16.412335045,14.338216629],"type":"Point"},"placekey":"@9wr-cnh-bhq","address":{"country_code":"SN","formatted_address":"Fatick, Senegal","locality":"Fatick","region":"Fatick Region"}},"labels":["soccer","sport"],"duration":0,"start_local":"2024-05-26T17:00:00","end":"2024-05-26T17:00:00Z","end_local":"2024-05-26T17:00:00","updated":"2024-06-12T20:16:00Z"},{"title":"Ligue 1 - DSC vs Diambars","description":"Sourced from predicthq.com","category":"sports","start":"2024-05-26T17:00:00Z","geo":{"geometry":{"coordinates":[-17.467096926,14.731307903],"type":"Point"},"placekey":"@9wq-xz8-fs5","address":{"country_code":"SN","formatted_address":"Liberté 6 Extension Nord, face Camp Leclerc, Dakar, Senegal","locality":"Dakar","region":"Région de Dakar"}},"labels":["soccer","sport"],"duration":0,"start_local":"2024-05-26T17:00:00","end":"2024-05-26T17:00:00Z","end_local":"2024-05-26T17:00:00","updated":"2024-06-12T07:44:19Z"},{"title":"Ligue 1 - Stade de Mbour vs Pikine","description":"Sourced from predicthq.com","category":"sports","start":"2024-05-26T17:00:00Z","geo":{"geometry":{"coordinates":[-16.9731239,14.4296515],"type":"Point"},"placekey":"@9wr-6nk-tn5","address":{"country_code":"SN","formatted_address":"M'bour, Thiès, Senegal","locality":"M'bour","region":"Thiès"}},"labels":["soccer","sport"],"duration":0,"start_local":"2024-05-26T17:00:00","end":"2024-05-26T17:00:00Z","end_local":"2024-05-26T17:00:00","updated":"2024-06-11T22:04:08Z"},{"title":"Ligue 1 - La Linguère vs Sonacos","description":"Sourced from predicthq.com","category":"sports","start":"2024-05-26T17:00:00Z","geo":{"geometry":{"coordinates":[-16.487608551979065,16.008453739669235],"type":"Point"},"placekey":"@9v7-g4b-cbk","address":{"country_code":"SN","formatted_address":"Medina Courses, Champ de Courses, Saint-Louis, Senegal","locality":"Saint-Louis","region":"Région de Saint Louis"}},"labels":["soccer","sport"],"duration":0,"start_local":"2024-05-26T17:00:00","end":"2024-05-26T17:00:00Z","end_local":"2024-05-26T17:00:00","updated":"2024-06-12T05:28:11Z"},{"title":"Portes Ouvertes IMT DAKAR","description":"Sourced from predicthq.com - Venez découvrir le 1er groupe public d'écoles d'ingénieurs et managers français, installé à Dakar depuis 2019 !","category":"conferences","start":"2024-05-25T09:00:00Z","geo":{"geometry":{"coordinates":[-17.4555262,14.6872062],"type":"Point"},"placekey":"@9wq-xzk-z75","address":{"country_code":"SN","formatted_address":"Avenue Cheikh Anta Diop, Dakar, Senegal","locality":"Dakar","region":"Région de Dakar"}},"labels":["conference","education","family"],"duration":14400,"start_local":"2024-05-25T09:00:00","end":"2024-05-25T13:00:00Z","end_local":"2024-05-25T13:00:00","updated":"2024-06-05T16:32:34Z"},{"title":"Senegal  2024 ~ Dak'Art Festival","description":"Sourced from predicthq.com","category":"expos","start":"2024-05-24T19:00:00Z","geo":{"geometry":{"coordinates":[-17.4725,14.70012],"type":"Point"},"placekey":"@9wq-xxm-st9","address":{"country_code":"SN","formatted_address":"Dakar, Dakar Region, Senegal","locality":"Dakar","region":"Dakar Region"}},"labels":["expo"],"duration":666000,"start_local":"2024-05-24T19:00:00","end":"2024-06-01T12:00:00Z","end_local":"2024-06-01T12:00:00","updated":"2024-06-05T10:27:06Z"},{"title":"Salon senpharma 2024","description":"Sourced from predicthq.com - Le salon international du médicament, des dispositifs médicaux et de la parapharmacie de Dakar réouvre ses portes les 22, 23 et 24 Mai","category":"expos","start":"2024-05-22T09:00:00Z","geo":{"geometry":{"coordinates":[-17.4736755,14.7100158],"type":"Point"},"placekey":"@9wq-xxn-nnq","address":{"country_code":"SN","formatted_address":"Rue MZ 75, Dakar, Senegal","locality":"Dakar","region":"Région de Dakar"}},"labels":["expo","health"],"duration":212400,"start_local":"2024-05-22T09:00:00","end":"2024-05-24T20:00:00Z","end_local":"2024-05-24T20:00:00","updated":"2024-06-11T23:00:24Z"},{"title":"Odoo Roadshow  Dakar","description":"Sourced from predicthq.com - Discover Odoo with our experts and partners in Dakar","category":"conferences","start":"2024-05-21T18:00:00Z","geo":{"geometry":{"coordinates":[-17.473685,14.69502],"type":"Point"},"placekey":"@9wq-xxn-fzz","address":{"country_code":"SN","formatted_address":"Dakar, Dakar Region, Senegal","locality":"Dakar","region":"Dakar Region"}},"labels":["business","conference"],"duration":10800,"start_local":"2024-05-21T18:00:00","end":"2024-05-21T21:00:00Z","end_local":"2024-05-21T21:00:00","updated":"2024-06-05T04:30:24Z"},{"title":"Ked'Hackathon 2024","description":"Sourced from predicthq.com - Vous êtes passionné par la technologie, l'innovation et l’intelligence artificielle? \nVous êtes donc les bienvenues…","category":"festivals","start":"2024-05-20T07:00:00Z","geo":{"geometry":{"coordinates":[-12.1747077,12.5604607],"type":"Point"},"placekey":"@9x9-ysc-qfz","address":{"country_code":"SN","formatted_address":"Kedougou, Kédougou Region, Senegal","locality":"Kedougou","region":"Kédougou Region"}},"labels":["festival","science","technology"],"duration":558000,"start_local":"2024-05-20T07:00:00","end":"2024-05-26T18:00:00Z","end_local":"2024-05-26T18:00:00","updated":"2024-06-05T02:59:55Z"},{"title":"Ligue 1 - Casa Sport vs Stade de Mbour","description":"Sourced from predicthq.com","category":"sports","start":"2024-05-19T17:00:00Z","geo":{"geometry":{"coordinates":[-14.947223,12.9016087],"type":"Point"},"placekey":"@9v9-jt5-2ff","address":{"country_code":"SN","formatted_address":"W26V+FGW, Kolda, Senegal","locality":"Kolda","region":"Kolda Region"}},"labels":["soccer","sport"],"duration":0,"start_local":"2024-05-19T17:00:00","end":"2024-05-19T17:00:00Z","end_local":"2024-05-19T17:00:00","updated":"2024-06-12T06:51:45Z"},{"title":"Ligue 1 - Pikine vs Teungueth","description":"Sourced from predicthq.com","category":"sports","start":"2024-05-19T17:00:00Z","geo":{"geometry":{"coordinates":[-17.39295,14.7548516],"type":"Point"},"placekey":"@9wq-xqp-49z","address":{"country_code":"SN","formatted_address":"QJ34+WQ9, Pikine, Senegal","locality":"Pikine","region":"Dakar Region"}},"labels":["soccer","sport"],"duration":0,"start_local":"2024-05-19T17:00:00","end":"2024-05-19T17:00:00Z","end_local":"2024-05-19T17:00:00","updated":"2024-06-12T04:08:59Z"},{"title":"Ligue 1 - Jaraaf vs Jamono Fatick","description":"Sourced from predicthq.com","category":"sports","start":"2024-05-19T17:00:00Z","geo":{"geometry":{"coordinates":[-17.509755492210388,14.746943286556498],"type":"Point"},"placekey":"@9wq-y26-gc5","address":{"country_code":"SN","formatted_address":"Dakar, Senegal","locality":"Dakar","region":"Dakar Region"}},"labels":["soccer","sport"],"duration":0,"start_local":"2024-05-19T17:00:00","end":"2024-05-19T17:00:00Z","end_local":"2024-05-19T17:00:00","updated":"2024-06-12T12:46:44Z"},{"title":"Ligue 1 - Sonacos vs Ouakam","description":"Sourced from predicthq.com","category":"sports","start":"2024-05-19T17:00:00Z","geo":{"geometry":{"coordinates":[-16.944481453636058,14.76981338933677],"type":"Point"},"placekey":"@9wr-dch-y9z","address":{"country_code":"SN","formatted_address":"Q3C3+2WH, Thies, Senegal","locality":"Thiès","region":"Région de Thiès"}},"labels":["soccer","sport"],"duration":0,"start_local":"2024-05-19T17:00:00","end":"2024-05-19T17:00:00Z","end_local":"2024-05-19T17:00:00","updated":"2024-06-12T00:14:53Z"},{"title":"Ligue 1 - Gorée vs La Linguère","description":"Sourced from predicthq.com","category":"sports","start":"2024-05-18T17:00:00Z","geo":{"geometry":{"coordinates":[-17.467096926,14.731307903],"type":"Point"},"placekey":"@9wq-xz8-fs5","address":{"country_code":"SN","formatted_address":"Liberté 6 Extension Nord, face Camp Leclerc, Dakar, Senegal","locality":"Dakar","region":"Région de Dakar"}},"labels":["soccer","sport"],"duration":0,"start_local":"2024-05-18T17:00:00","end":"2024-05-18T17:00:00Z","end_local":"2024-05-18T17:00:00","updated":"2024-06-12T02:07:53Z"},{"title":"Ligue 1 - DSC vs Génération Foot","description":"Sourced from predicthq.com","category":"sports","start":"2024-05-18T17:00:00Z","geo":{"geometry":{"coordinates":[-17.3902424,14.7709953],"type":"Point"},"placekey":"@9wq-xqn-4sq","address":{"country_code":"SN","formatted_address":"QJC4+3Q2, Dakar, Senegal","locality":"Dakar","region":"Dakar Region"}},"labels":["soccer","sport"],"duration":0,"start_local":"2024-05-18T17:00:00","end":"2024-05-18T17:00:00Z","end_local":"2024-05-18T17:00:00","updated":"2024-06-12T07:10:38Z"},{"title":"Ligue 1 - Diambars vs Guédiawaye","description":"Sourced from predicthq.com","category":"sports","start":"2024-05-18T17:00:00Z","geo":{"geometry":{"coordinates":[-16.944481453636058,14.76981338933677],"type":"Point"},"placekey":"@9wr-dch-y9z","address":{"country_code":"SN","formatted_address":"Q3C3+2WH, Thies, Senegal","locality":"Thiès","region":"Région de Thiès"}},"labels":["soccer","sport"],"duration":0,"start_local":"2024-05-18T17:00:00","end":"2024-05-18T17:00:00Z","end_local":"2024-05-18T17:00:00","updated":"2024-06-12T08:32:24Z"},{"title":"RepaTalk #17- Comment se construire une réputation et se faire connaître ?","description":"Sourced from predicthq.com - Ibrahima Sylla a fondé Salam Transport en 2016, devenant le leader sénégalais des bus privés, visant l'expansion nationale et internationale","category":"conferences","start":"2024-05-17T18:30:00Z","geo":{"geometry":{"coordinates":[-17.5035533,14.7503231],"type":"Point"},"placekey":"@9wq-y26-hwk","address":{"country_code":"SN","formatted_address":"Dakar, Dakar Region, Senegal","locality":"Dakar","region":"Dakar Region"}},"labels":["business","conference"],"duration":12600,"start_local":"2024-05-17T18:30:00","end":"2024-05-17T22:00:00Z","end_local":"2024-05-17T22:00:00","updated":"2024-06-05T04:22:19Z"},{"title":"REUSSIR SON ENTRETIEN D'EMBAUCHE","description":"Sourced from predicthq.com - Viens apprendre à briller en entretien d'embauche le 15/05/2024 à 10h  avec une participation de 15 000 frs au 776919075","category":"conferences","start":"2024-05-15T10:00:00Z","geo":{"geometry":{"coordinates":[-17.4602919,14.7523942],"type":"Point"},"placekey":"@9wq-xz3-wrk","address":{"country_code":"SN","formatted_address":"Rue YF 441, Dakar, Senegal","locality":"Dakar","region":"Région de Dakar"}},"labels":["business","conference"],"duration":14400,"start_local":"2024-05-15T10:00:00","end":"2024-05-15T14:00:00Z","end_local":"2024-05-15T14:00:00","updated":"2024-06-05T19:52:40Z"},{"title":"Ligue 1 - Stade de Mbour vs Jaraaf","description":"Sourced from predicthq.com","category":"sports","start":"2024-05-13T17:00:00Z","geo":{"geometry":{"coordinates":[-16.9731239,14.4296515],"type":"Point"},"placekey":"@9wr-6nk-tn5","address":{"country_code":"SN","formatted_address":"M'bour, Thiès, Senegal","locality":"M'bour","region":"Thiès"}},"labels":["soccer","sport"],"duration":0,"start_local":"2024-05-13T17:00:00","end":"2024-05-13T17:00:00Z","end_local":"2024-05-13T17:00:00","updated":"2024-06-12T09:48:41Z"},{"title":"Ligue 1 - Génération Foot vs Pikine","description":"Sourced from predicthq.com","category":"sports","start":"2024-05-13T17:00:00Z","geo":{"geometry":{"coordinates":[-16.944481453636058,14.76981338933677],"type":"Point"},"placekey":"@9wr-dch-y9z","address":{"country_code":"SN","formatted_address":"Q3C3+2WH, Thies, Senegal","locality":"Thiès","region":"Région de Thiès"}},"labels":["soccer","sport"],"duration":0,"start_local":"2024-05-13T17:00:00","end":"2024-05-13T17:00:00Z","end_local":"2024-05-13T17:00:00","updated":"2024-06-12T09:29:52Z"},{"title":"Dakar Coaching Week (1ere édition en Afrique Francophone)","description":"Sourced from predicthq.com - Dakar Coaching Week (1ere édition en Afrique Francophone)","category":"conferences","start":"2024-05-13T08:30:00Z","geo":{"geometry":{"coordinates":[-17.4436805,14.6808329],"type":"Point"},"placekey":"@9wq-xzp-mhq","address":{"country_code":"SN","formatted_address":"Boulevard du General de Gaulle, Dakar, Senegal","locality":"Dakar","region":"Région de Dakar"}},"labels":["business","conference"],"duration":19800,"start_local":"2024-05-13T08:30:00","end":"2024-05-13T14:00:00Z","end_local":"2024-05-13T14:00:00","updated":"2024-06-05T09:31:45Z"},{"title":"Basketball Africa League - Group Stage - Douanes vs APR","description":"Sourced from predicthq.com","category":"sports","start":"2024-05-12T17:30:00Z","geo":{"geometry":{"coordinates":[-17.212528,14.733889],"type":"Point"},"placekey":"@9wr-dj5-6ff","address":{"country_code":"SN","formatted_address":"Rufisque, Senegal","locality":"Rufisque"}},"labels":["basketball","sport"],"duration":0,"start_local":"2024-05-12T17:30:00","end":"2024-05-12T17:30:00Z","end_local":"2024-05-12T17:30:00","updated":"2024-06-11T21:07:01Z"},{"title":"Ligue 1 - Guédiawaye vs DSC","description":"Sourced from predicthq.com","category":"sports","start":"2024-05-12T17:00:00Z","geo":{"geometry":{"coordinates":[-17.3902424,14.7709953],"type":"Point"},"placekey":"@9wq-xqn-4sq","address":{"country_code":"SN","formatted_address":"QJC4+3Q2, Dakar, Senegal","locality":"Dakar","region":"Dakar Region"}},"labels":["soccer","sport"],"duration":0,"start_local":"2024-05-12T17:00:00","end":"2024-05-12T17:00:00Z","end_local":"2024-05-12T17:00:00","updated":"2024-06-12T08:01:57Z"},{"title":"Ligue 1 - La Linguère vs Diambars","description":"Sourced from predicthq.com","category":"sports","start":"2024-05-12T17:00:00Z","geo":{"geometry":{"coordinates":[-16.487608551979065,16.008453739669235],"type":"Point"},"placekey":"@9v7-g4b-cbk","address":{"country_code":"SN","formatted_address":"Medina Courses, Champ de Courses, Saint-Louis, Senegal","locality":"Saint-Louis","region":"Région de Saint Louis"}},"labels":["soccer","sport"],"duration":0,"start_local":"2024-05-12T17:00:00","end":"2024-05-12T17:00:00Z","end_local":"2024-05-12T17:00:00","updated":"2024-06-12T06:33:05Z"},{"title":"Ligue 1 - Ouakam vs Gorée","description":"Sourced from predicthq.com","category":"sports","start":"2024-05-12T17:00:00Z","geo":{"geometry":{"coordinates":[-17.509755492210388,14.746943286556498],"type":"Point"},"placekey":"@9wq-y26-gc5","address":{"country_code":"SN","formatted_address":"Dakar, Senegal","locality":"Dakar","region":"Dakar Region"}},"labels":["soccer","sport"],"duration":0,"start_local":"2024-05-12T17:00:00","end":"2024-05-12T17:00:00Z","end_local":"2024-05-12T17:00:00","updated":"2024-06-12T07:28:10Z"},{"title":"Basketball Africa League - Group Stage - Rivers Hoopers vs Monastir","description":"Sourced from predicthq.com","category":"sports","start":"2024-05-12T14:30:00Z","geo":{"geometry":{"coordinates":[-17.212528,14.733889],"type":"Point"},"placekey":"@9wr-dj5-6ff","address":{"country_code":"SN","formatted_address":"Rufisque, Senegal","locality":"Rufisque"}},"labels":["basketball","sport"],"duration":0,"start_local":"2024-05-12T14:30:00","end":"2024-05-12T14:30:00Z","end_local":"2024-05-12T14:30:00","updated":"2024-06-12T10:31:10Z"},{"title":"Basketball Africa League - Group Stage - Monastir vs Douanes","description":"Sourced from predicthq.com","category":"sports","start":"2024-05-11T17:30:00Z","geo":{"geometry":{"coordinates":[-17.212528,14.733889],"type":"Point"},"placekey":"@9wr-dj5-6ff","address":{"country_code":"SN","formatted_address":"Rufisque, Senegal","locality":"Rufisque"}},"labels":["basketball","sport"],"duration":0,"start_local":"2024-05-11T17:30:00","end":"2024-05-11T17:30:00Z","end_local":"2024-05-11T17:30:00","updated":"2024-06-12T02:32:42Z"},{"title":"Ligue 1 - Jamono Fatick vs Sonacos","description":"Sourced from predicthq.com","category":"sports","start":"2024-05-11T17:00:00Z","geo":{"geometry":{"coordinates":[-16.412335045,14.338216629],"type":"Point"},"placekey":"@9wr-cnh-bhq","address":{"country_code":"SN","formatted_address":"Fatick, Senegal","locality":"Fatick","region":"Fatick Region"}},"labels":["soccer","sport"],"duration":0,"start_local":"2024-05-11T17:00:00","end":"2024-05-11T17:00:00Z","end_local":"2024-05-11T17:00:00","updated":"2024-06-12T08:21:43Z"},{"title":"Ligue 1 - Teungueth vs Casa Sport","description":"Sourced from predicthq.com","category":"sports","start":"2024-05-11T17:00:00Z","geo":{"geometry":{"coordinates":[-17.281086444854736,14.727322477691752],"type":"Point"},"placekey":"@9wq-xrt-q9f","address":{"country_code":"SN","formatted_address":"PPHF+PJ, Rufisque, Senegal","locality":"Rufisque","region":"Dakar Region"}},"labels":["soccer","sport"],"duration":0,"start_local":"2024-05-11T17:00:00","end":"2024-05-11T17:00:00Z","end_local":"2024-05-11T17:00:00","updated":"2024-06-12T16:53:57Z"},{"title":"Basketball Africa League - Group Stage - Rivers Hoopers vs APR","description":"Sourced from predicthq.com","category":"sports","start":"2024-05-11T14:30:00Z","geo":{"geometry":{"coordinates":[-17.212528,14.733889],"type":"Point"},"placekey":"@9wr-dj5-6ff","address":{"country_code":"SN","formatted_address":"Rufisque, Senegal","locality":"Rufisque"}},"labels":["basketball","sport"],"duration":0,"start_local":"2024-05-11T14:30:00","end":"2024-05-11T14:30:00Z","end_local":"2024-05-11T14:30:00","updated":"2024-06-11T21:29:56Z"},{"title":"Basketball Africa League - Group Stage - Rivers Hoopers vs Douanes","description":"Sourced from predicthq.com","category":"sports","start":"2024-05-09T19:00:00Z","geo":{"geometry":{"coordinates":[-17.212528,14.733889],"type":"Point"},"placekey":"@9wr-dj5-6ff","address":{"country_code":"SN","formatted_address":"Rufisque, Senegal","locality":"Rufisque"}},"labels":["basketball","sport"],"duration":0,"start_local":"2024-05-09T19:00:00","end":"2024-05-09T19:00:00Z","end_local":"2024-05-09T19:00:00","updated":"2024-06-12T09:50:04Z"},{"title":"Basketball Africa League - Group Stage - APR vs Monastir","description":"Sourced from predicthq.com","category":"sports","start":"2024-05-09T16:00:00Z","geo":{"geometry":{"coordinates":[-17.212528,14.733889],"type":"Point"},"placekey":"@9wr-dj5-6ff","address":{"country_code":"SN","formatted_address":"Rufisque, Senegal","locality":"Rufisque"}},"labels":["basketball","sport"],"duration":0,"start_local":"2024-05-09T16:00:00","end":"2024-05-09T16:00:00Z","end_local":"2024-05-09T16:00:00","updated":"2024-06-12T04:57:16Z"},{"title":"Gouvernance de l'enfance et dynamiques de pouvoir au Sénégal","description":"Sourced from predicthq.com - La conférence vise à contribuer aux efforts de plaidoyer à une meilleure gouvernance de l'enfance au Sénégal.","category":"conferences","start":"2024-05-08T14:30:00Z","geo":{"geometry":{"coordinates":[-17.471106,14.6910265],"type":"Point"},"placekey":"@9wq-xxm-zzz","address":{"country_code":"SN","formatted_address":"Rue Leon Gontron Damas, Dakar, Senegal","locality":"Dakar","region":"Région de Dakar"}},"labels":["community","conference"],"duration":9900,"start_local":"2024-05-08T14:30:00","end":"2024-05-08T17:15:00Z","end_local":"2024-05-08T17:15:00","updated":"2024-06-04T21:36:06Z"},{"title":"Basketball Africa League - Group Stage - APR vs Douanes","description":"Sourced from predicthq.com","category":"sports","start":"2024-05-07T19:00:00Z","geo":{"geometry":{"coordinates":[-17.212528,14.733889],"type":"Point"},"placekey":"@9wr-dj5-6ff","address":{"country_code":"SN","formatted_address":"Rufisque, Senegal","locality":"Rufisque"}},"labels":["basketball","sport"],"duration":0,"start_local":"2024-05-07T19:00:00","end":"2024-05-07T19:00:00Z","end_local":"2024-05-07T19:00:00","updated":"2024-06-12T07:13:10Z"},{"title":"Basketball Africa League - Group Stage - Monastir vs Rivers Hoopers","description":"Sourced from predicthq.com","category":"sports","start":"2024-05-07T16:00:00Z","geo":{"geometry":{"coordinates":[-17.212528,14.733889],"type":"Point"},"placekey":"@9wr-dj5-6ff","address":{"country_code":"SN","formatted_address":"Rufisque, Senegal","locality":"Rufisque"}},"labels":["basketball","sport"],"duration":0,"start_local":"2024-05-07T16:00:00","end":"2024-05-07T16:00:00Z","end_local":"2024-05-07T16:00:00","updated":"2024-06-11T23:56:12Z"},{"title":"Basketball Africa League - Group Stage - Douanes vs Monastir","description":"Sourced from predicthq.com","category":"sports","start":"2024-05-05T17:30:00Z","geo":{"geometry":{"coordinates":[-17.212528,14.733889],"type":"Point"},"placekey":"@9wr-dj5-6ff","address":{"country_code":"SN","formatted_address":"Rufisque, Senegal","locality":"Rufisque"}},"labels":["basketball","sport"],"duration":0,"start_local":"2024-05-05T17:30:00","end":"2024-05-05T17:30:00Z","end_local":"2024-05-05T17:30:00","updated":"2024-06-12T15:58:59Z"},{"title":"Ligue 1 - Casa Sport vs Pikine","description":"Sourced from predicthq.com","category":"sports","start":"2024-05-05T17:00:00Z","geo":{"geometry":{"coordinates":[-14.947223,12.9016087],"type":"Point"},"placekey":"@9v9-jt5-2ff","address":{"country_code":"SN","formatted_address":"W26V+FGW, Kolda, Senegal","locality":"Kolda","region":"Kolda Region"}},"labels":["soccer","sport"],"duration":0,"start_local":"2024-05-05T17:00:00","end":"2024-05-05T17:00:00Z","end_local":"2024-05-05T17:00:00","updated":"2024-06-12T04:05:42Z"},{"title":"Ligue 1 - Jaraaf vs Teungueth","description":"Sourced from predicthq.com","category":"sports","start":"2024-05-05T17:00:00Z","geo":{"geometry":{"coordinates":[-17.509755492210388,14.746943286556498],"type":"Point"},"placekey":"@9wq-y26-gc5","address":{"country_code":"SN","formatted_address":"Dakar, Senegal","locality":"Dakar","region":"Dakar Region"}},"labels":["soccer","sport"],"duration":0,"start_local":"2024-05-05T17:00:00","end":"2024-05-05T17:00:00Z","end_local":"2024-05-05T17:00:00","updated":"2024-06-12T04:54:39Z"},{"title":"Ligue 1 - Gorée vs Jamono Fatick","description":"Sourced from predicthq.com","category":"sports","start":"2024-05-05T17:00:00Z","geo":{"geometry":{"coordinates":[-17.467096926,14.731307903],"type":"Point"},"placekey":"@9wq-xz8-fs5","address":{"country_code":"SN","formatted_address":"Liberté 6 Extension Nord, face Camp Leclerc, Dakar, Senegal","locality":"Dakar","region":"Région de Dakar"}},"labels":["soccer","sport"],"duration":0,"start_local":"2024-05-05T17:00:00","end":"2024-05-05T17:00:00Z","end_local":"2024-05-05T17:00:00","updated":"2024-06-11T23:38:02Z"},{"title":"Ligue 1 - Sonacos vs Stade de Mbour","description":"Sourced from predicthq.com","category":"sports","start":"2024-05-05T17:00:00Z","geo":{"geometry":{"coordinates":[-16.944481453636058,14.76981338933677],"type":"Point"},"placekey":"@9wr-dch-y9z","address":{"country_code":"SN","formatted_address":"Q3C3+2WH, Thies, Senegal","locality":"Thiès","region":"Région de Thiès"}},"labels":["soccer","sport"],"duration":0,"start_local":"2024-05-05T17:00:00","end":"2024-05-05T17:00:00Z","end_local":"2024-05-05T17:00:00","updated":"2024-06-12T10:06:00Z"},{"title":"Ligue 1 - Guédiawaye vs Génération Foot","description":"Sourced from predicthq.com","category":"sports","start":"2024-05-05T17:00:00Z","geo":{"geometry":{"coordinates":[-17.3902424,14.7709953],"type":"Point"},"placekey":"@9wq-xqn-4sq","address":{"country_code":"SN","formatted_address":"QJC4+3Q2, Dakar, Senegal","locality":"Dakar","region":"Dakar Region"}},"labels":["soccer","sport"],"duration":0,"start_local":"2024-05-05T17:00:00","end":"2024-05-05T17:00:00Z","end_local":"2024-05-05T17:00:00","updated":"2024-06-12T16:13:59Z"},{"title":"Basketball Africa League - Group Stage - APR vs Rivers Hoopers","description":"Sourced from predicthq.com","category":"sports","start":"2024-05-05T14:30:00Z","geo":{"geometry":{"coordinates":[-17.212528,14.733889],"type":"Point"},"placekey":"@9wr-dj5-6ff","address":{"country_code":"SN","formatted_address":"Rufisque, Senegal","locality":"Rufisque"}},"labels":["basketball","sport"],"duration":0,"start_local":"2024-05-05T14:30:00","end":"2024-05-05T14:30:00Z","end_local":"2024-05-05T14:30:00","updated":"2024-06-12T07:33:58Z"},{"title":"10 Km de Dakar","description":"Sourced from predicthq.com","category":"sports","start":"2024-05-05T08:00:00Z","geo":{"geometry":{"coordinates":[-17.4676861,14.716677],"type":"Point"},"placekey":"@9wq-xz7-vpv","address":{"country_code":"SN","formatted_address":"Dakar, Dakar Region, Senegal","locality":"Dakar","region":"Dakar Region"}},"labels":["outdoor-sports","running","sport"],"duration":0,"start_local":"2024-05-05T08:00:00","end":"2024-05-05T08:00:00Z","end_local":"2024-05-05T08:00:00","updated":"2024-06-05T03:15:25Z"},{"title":"Basketball Africa League - Group Stage - Douanes vs Rivers Hoopers","description":"Sourced from predicthq.com","category":"sports","start":"2024-05-04T17:30:00Z","geo":{"geometry":{"coordinates":[-17.212528,14.733889],"type":"Point"},"placekey":"@9wr-dj5-6ff","address":{"country_code":"SN","formatted_address":"Rufisque, Senegal","locality":"Rufisque"}},"labels":["basketball","sport"],"duration":0,"start_local":"2024-05-04T17:30:00","end":"2024-05-04T17:30:00Z","end_local":"2024-05-04T17:30:00","updated":"2024-06-12T10:13:56Z"},{"title":"Ligue 1 - Diambars vs Ouakam","description":"Sourced from predicthq.com","category":"sports","start":"2024-05-04T17:00:00Z","geo":{"geometry":{"coordinates":[-16.944481453636058,14.76981338933677],"type":"Point"},"placekey":"@9wr-dch-y9z","address":{"country_code":"SN","formatted_address":"Q3C3+2WH, Thies, Senegal","locality":"Thiès","region":"Région de Thiès"}},"labels":["soccer","sport"],"duration":0,"start_local":"2024-05-04T17:00:00","end":"2024-05-04T17:00:00Z","end_local":"2024-05-04T17:00:00","updated":"2024-06-12T01:17:17Z"},{"title":"Ligue 1 - DSC vs La Linguère","description":"Sourced from predicthq.com","category":"sports","start":"2024-05-04T17:00:00Z","geo":{"geometry":{"coordinates":[-17.509755492210388,14.746943286556498],"type":"Point"},"placekey":"@9wq-y26-gc5","address":{"country_code":"SN","formatted_address":"Dakar, Senegal","locality":"Dakar","region":"Dakar Region"}},"labels":["soccer","sport"],"duration":0,"start_local":"2024-05-04T17:00:00","end":"2024-05-04T17:00:00Z","end_local":"2024-05-04T17:00:00","updated":"2024-06-12T09:15:27Z"},{"title":"Entreprendre dans les cultures urbaines  à la Maison des Cultures Urbaines","description":"Sourced from predicthq.com - Ne manquez pas l'événement Cultures Urbaines le 4/05 : clips de cypher, échanges artistiques entrepreneurs , rap live, et réseautage pro !","category":"conferences","start":"2024-05-04T15:00:00Z","geo":{"geometry":{"coordinates":[-17.49334,14.723979],"type":"Point"},"placekey":"@9wq-xz6-pn5","address":{"country_code":"SN","formatted_address":"Ouakam, Dakar, Senegal","locality":"Dakar","region":"Dakar Region"}},"labels":["community","conference"],"duration":12600,"start_local":"2024-05-04T15:00:00","end":"2024-05-04T18:30:00Z","end_local":"2024-05-04T18:30:00","updated":"2024-06-05T18:47:58Z"},{"title":"Basketball Africa League - Group Stage - Monastir vs APR","description":"Sourced from predicthq.com","category":"sports","start":"2024-05-04T14:30:00Z","geo":{"geometry":{"coordinates":[-17.212528,14.733889],"type":"Point"},"placekey":"@9wr-dj5-6ff","address":{"country_code":"SN","formatted_address":"Rufisque, Senegal","locality":"Rufisque"}},"labels":["basketball","sport"],"duration":0,"start_local":"2024-05-04T14:30:00","end":"2024-05-04T14:30:00Z","end_local":"2024-05-04T14:30:00","updated":"2024-06-12T01:24:31Z"},{"title":"Ligue 1 - Teungueth vs Sonacos","description":"Sourced from predicthq.com","category":"sports","start":"2024-04-28T17:00:00Z","geo":{"geometry":{"coordinates":[-17.281086444854736,14.727322477691752],"type":"Point"},"placekey":"@9wq-xrt-q9f","address":{"country_code":"SN","formatted_address":"PPHF+PJ, Rufisque, Senegal","locality":"Rufisque","region":"Dakar Region"}},"labels":["soccer","sport"],"duration":0,"start_local":"2024-04-28T17:00:00","end":"2024-04-28T17:00:00Z","end_local":"2024-04-28T17:00:00","updated":"2024-06-12T11:56:13Z"},{"title":"Ligue 1 - Génération Foot vs Casa Sport","description":"Sourced from predicthq.com","category":"sports","start":"2024-04-28T17:00:00Z","geo":{"geometry":{"coordinates":[-16.944481453636058,14.76981338933677],"type":"Point"},"placekey":"@9wr-dch-y9z","address":{"country_code":"SN","formatted_address":"Q3C3+2WH, Thies, Senegal","locality":"Thiès","region":"Région de Thiès"}},"labels":["soccer","sport"],"duration":0,"start_local":"2024-04-28T17:00:00","end":"2024-04-28T17:00:00Z","end_local":"2024-04-28T17:00:00","updated":"2024-06-12T02:59:46Z"},{"title":"Ligue 1 - Jamono Fatick vs Diambars","description":"Sourced from predicthq.com","category":"sports","start":"2024-04-28T17:00:00Z","geo":{"geometry":{"coordinates":[-16.412335045,14.338216629],"type":"Point"},"placekey":"@9wr-cnh-bhq","address":{"country_code":"SN","formatted_address":"Fatick, Senegal","locality":"Fatick","region":"Fatick Region"}},"labels":["soccer","sport"],"duration":0,"start_local":"2024-04-28T17:00:00","end":"2024-04-28T17:00:00Z","end_local":"2024-04-28T17:00:00","updated":"2024-06-12T00:30:40Z"},{"title":"Ligue 1 - Ouakam vs DSC","description":"Sourced from predicthq.com","category":"sports","start":"2024-04-28T17:00:00Z","geo":{"geometry":{"coordinates":[-17.509755492210388,14.746943286556498],"type":"Point"},"placekey":"@9wq-y26-gc5","address":{"country_code":"SN","formatted_address":"Dakar, Senegal","locality":"Dakar","region":"Dakar Region"}},"labels":["soccer","sport"],"duration":0,"start_local":"2024-04-28T17:00:00","end":"2024-04-28T17:00:00Z","end_local":"2024-04-28T17:00:00","updated":"2024-06-12T06:05:53Z"},{"title":"Ligue 1 - Stade de Mbour vs Gorée","description":"Sourced from predicthq.com","category":"sports","start":"2024-04-28T17:00:00Z","geo":{"geometry":{"coordinates":[-16.9731239,14.4296515],"type":"Point"},"placekey":"@9wr-6nk-tn5","address":{"country_code":"SN","formatted_address":"M'bour, Thiès, Senegal","locality":"M'bour","region":"Thiès"}},"labels":["soccer","sport"],"duration":0,"start_local":"2024-04-28T17:00:00","end":"2024-04-28T17:00:00Z","end_local":"2024-04-28T17:00:00","updated":"2024-06-11T21:23:40Z"},{"title":"Ligue 1 - La Linguère vs Guédiawaye","description":"Sourced from predicthq.com","category":"sports","start":"2024-04-28T17:00:00Z","geo":{"geometry":{"coordinates":[-16.487608551979065,16.008453739669235],"type":"Point"},"placekey":"@9v7-g4b-cbk","address":{"country_code":"SN","formatted_address":"Medina Courses, Champ de Courses, Saint-Louis, Senegal","locality":"Saint-Louis","region":"Région de Saint Louis"}},"labels":["soccer","sport"],"duration":0,"start_local":"2024-04-28T17:00:00","end":"2024-04-28T17:00:00Z","end_local":"2024-04-28T17:00:00","updated":"2024-06-11T21:47:11Z"},{"title":"Ligue 1 - Pikine vs Jaraaf","description":"Sourced from predicthq.com","category":"sports","start":"2024-04-28T17:00:00Z","geo":{"geometry":{"coordinates":[-17.39295,14.7548516],"type":"Point"},"placekey":"@9wq-xqp-49z","address":{"country_code":"SN","formatted_address":"QJ34+WQ9, Pikine, Senegal","locality":"Pikine","region":"Dakar Region"}},"labels":["soccer","sport"],"duration":0,"start_local":"2024-04-28T17:00:00","end":"2024-04-28T17:00:00Z","end_local":"2024-04-28T17:00:00","updated":"2024-06-12T01:34:53Z"},{"title":"LES RENCONTRES FISCALES DE DAKAR - EDITION 2024","description":"Sourced from predicthq.com - Le samedi 20 AVRIL 2024, l'Hôtel Radisson Blu de Dakar abritera la 4ème Edition des RENCONTRES FISCALES DE DAKAR.","category":"conferences","start":"2024-04-20T09:00:00Z","geo":{"geometry":{"coordinates":[-17.4730578,14.694667],"type":"Point"},"placekey":"@9wq-xxn-435","address":{"country_code":"SN","formatted_address":"Dakar, Dakar Region, Senegal","locality":"Dakar","region":"Dakar Region"}},"labels":["conference"],"duration":0,"start_local":"2024-04-20T09:00:00","end":"2024-04-20T09:00:00Z","end_local":"2024-04-20T09:00:00","updated":"2024-06-05T10:50:21Z"},{"title":"Exposition artisanale et Digitale","description":"Sourced from predicthq.com - Exposition des artisans ayant bénéficié d’une formation sur le numérique financée par le PNUD en collaboration avec le INOV'UP et 3FPT","category":"expos","start":"2024-04-19T16:00:00Z","geo":{"geometry":{"coordinates":[-17.4485779,14.7205752],"type":"Point"},"placekey":"@9wq-xz5-5pv","address":{"country_code":"SN","formatted_address":"Dakar, Dakar Region, Senegal","locality":"Dakar","region":"Dakar Region"}},"labels":["community","expo"],"duration":14400,"start_local":"2024-04-19T16:00:00","end":"2024-04-19T20:00:00Z","end_local":"2024-04-19T20:00:00","updated":"2024-06-05T15:07:10Z"},{"title":"Ligue 1 - Jaraaf vs Casa Sport","description":"Sourced from predicthq.com","category":"sports","start":"2024-04-14T16:30:00Z","geo":{"geometry":{"coordinates":[-17.509755492210388,14.746943286556498],"type":"Point"},"placekey":"@9wq-y26-gc5","address":{"country_code":"SN","formatted_address":"Dakar, Senegal","locality":"Dakar","region":"Dakar Region"}},"labels":["soccer","sport"],"duration":0,"start_local":"2024-04-14T16:30:00","end":"2024-04-14T16:30:00Z","end_local":"2024-04-14T16:30:00","updated":"2024-06-12T13:35:11Z"},{"title":"Ligue 1 - La Linguère vs Génération Foot","description":"Sourced from predicthq.com","category":"sports","start":"2024-04-14T16:30:00Z","geo":{"geometry":{"coordinates":[-16.487608551979065,16.008453739669235],"type":"Point"},"placekey":"@9v7-g4b-cbk","address":{"country_code":"SN","formatted_address":"Medina Courses, Champ de Courses, Saint-Louis, Senegal","locality":"Saint-Louis","region":"Région de Saint Louis"}},"labels":["soccer","sport"],"duration":0,"start_local":"2024-04-14T16:30:00","end":"2024-04-14T16:30:00Z","end_local":"2024-04-14T16:30:00","updated":"2024-06-12T00:59:15Z"},{"title":"Ligue 1 - Sonacos vs Pikine","description":"Sourced from predicthq.com","category":"sports","start":"2024-04-14T16:30:00Z","geo":{"geometry":{"coordinates":[-16.944481453636058,14.76981338933677],"type":"Point"},"placekey":"@9wr-dch-y9z","address":{"country_code":"SN","formatted_address":"Q3C3+2WH, Thies, Senegal","locality":"Thiès","region":"Région de Thiès"}},"labels":["soccer","sport"],"duration":0,"start_local":"2024-04-14T16:30:00","end":"2024-04-14T16:30:00Z","end_local":"2024-04-14T16:30:00","updated":"2024-06-12T07:40:46Z"},{"title":"Ligue 1 - Guédiawaye vs Ouakam","description":"Sourced from predicthq.com","category":"sports","start":"2024-04-14T16:30:00Z","geo":{"geometry":{"coordinates":[-17.3902424,14.7709953],"type":"Point"},"placekey":"@9wq-xqn-4sq","address":{"country_code":"SN","formatted_address":"QJC4+3Q2, Dakar, Senegal","locality":"Dakar","region":"Dakar Region"}},"labels":["soccer","sport"],"duration":0,"start_local":"2024-04-14T16:30:00","end":"2024-04-14T16:30:00Z","end_local":"2024-04-14T16:30:00","updated":"2024-06-12T07:35:45Z"},{"title":"Ligue 1 - Gorée vs Teungueth","description":"Sourced from predicthq.com","category":"sports","start":"2024-04-13T16:30:00Z","geo":{"geometry":{"coordinates":[-17.467096926,14.731307903],"type":"Point"},"placekey":"@9wq-xz8-fs5","address":{"country_code":"SN","formatted_address":"Liberté 6 Extension Nord, face Camp Leclerc, Dakar, Senegal","locality":"Dakar","region":"Région de Dakar"}},"labels":["soccer","sport"],"duration":0,"start_local":"2024-04-13T16:30:00","end":"2024-04-13T16:30:00Z","end_local":"2024-04-13T16:30:00","updated":"2024-06-12T11:45:10Z"},{"title":"Ligue 1 - Diambars vs Stade de Mbour","description":"Sourced from predicthq.com","category":"sports","start":"2024-04-13T16:30:00Z","geo":{"geometry":{"coordinates":[-16.944481453636058,14.76981338933677],"type":"Point"},"placekey":"@9wr-dch-y9z","address":{"country_code":"SN","formatted_address":"Q3C3+2WH, Thies, Senegal","locality":"Thiès","region":"Région de Thiès"}},"labels":["soccer","sport"],"duration":0,"start_local":"2024-04-13T16:30:00","end":"2024-04-13T16:30:00Z","end_local":"2024-04-13T16:30:00","updated":"2024-06-12T18:31:57Z"},{"title":"Ligue 1 - DSC vs Jamono Fatick","description":"Sourced from predicthq.com","category":"sports","start":"2024-04-13T16:30:00Z","geo":{"geometry":{"coordinates":[-17.509755492210388,14.746943286556498],"type":"Point"},"placekey":"@9wq-y26-gc5","address":{"country_code":"SN","formatted_address":"Dakar, Senegal","locality":"Dakar","region":"Dakar Region"}},"labels":["soccer","sport"],"duration":0,"start_local":"2024-04-13T16:30:00","end":"2024-04-13T16:30:00Z","end_local":"2024-04-13T16:30:00","updated":"2024-06-12T08:46:58Z"},{"title":"Ligue 1 - Teungueth vs Diambars","description":"Sourced from predicthq.com","category":"sports","start":"2024-04-07T16:30:00Z","geo":{"geometry":{"coordinates":[-17.281086444854736,14.727322477691752],"type":"Point"},"placekey":"@9wq-xrt-q9f","address":{"country_code":"SN","formatted_address":"PPHF+PJ, Rufisque, Senegal","locality":"Rufisque","region":"Dakar Region"}},"labels":["soccer","sport"],"duration":0,"start_local":"2024-04-07T16:30:00","end":"2024-04-07T16:30:00Z","end_local":"2024-04-07T16:30:00","updated":"2024-06-12T15:42:48Z"},{"title":"Ligue 1 - Ouakam vs La Linguère","description":"Sourced from predicthq.com","category":"sports","start":"2024-04-07T16:30:00Z","geo":{"geometry":{"coordinates":[-17.509755492210388,14.746943286556498],"type":"Point"},"placekey":"@9wq-y26-gc5","address":{"country_code":"SN","formatted_address":"Dakar, Senegal","locality":"Dakar","region":"Dakar Region"}},"labels":["soccer","sport"],"duration":0,"start_local":"2024-04-07T16:30:00","end":"2024-04-07T16:30:00Z","end_local":"2024-04-07T16:30:00","updated":"2024-06-12T14:28:53Z"},{"title":"Ligue 1 - Génération Foot vs Jaraaf","description":"Sourced from predicthq.com","category":"sports","start":"2024-04-07T16:30:00Z","geo":{"geometry":{"coordinates":[-16.944481453636058,14.76981338933677],"type":"Point"},"placekey":"@9wr-dch-y9z","address":{"country_code":"SN","formatted_address":"Q3C3+2WH, Thies, Senegal","locality":"Thiès","region":"Région de Thiès"}},"labels":["soccer","sport"],"duration":0,"start_local":"2024-04-07T16:30:00","end":"2024-04-07T16:30:00Z","end_local":"2024-04-07T16:30:00","updated":"2024-06-11T21:51:31Z"},{"title":"Ligue 1 - Stade de Mbour vs DSC","description":"Sourced from predicthq.com","category":"sports","start":"2024-04-07T16:30:00Z","geo":{"geometry":{"coordinates":[-16.9731239,14.4296515],"type":"Point"},"placekey":"@9wr-6nk-tn5","address":{"country_code":"SN","formatted_address":"M'bour, Thiès, Senegal","locality":"M'bour","region":"Thiès"}},"labels":["soccer","sport"],"duration":0,"start_local":"2024-04-07T16:30:00","end":"2024-04-07T16:30:00Z","end_local":"2024-04-07T16:30:00","updated":"2024-06-11T21:11:55Z"},{"title":"Ligue 1 - Casa Sport vs Sonacos","description":"Sourced from predicthq.com","category":"sports","start":"2024-04-07T16:30:00Z","geo":{"geometry":{"coordinates":[-14.947223,12.9016087],"type":"Point"},"placekey":"@9v9-jt5-2ff","address":{"country_code":"SN","formatted_address":"W26V+FGW, Kolda, Senegal","locality":"Kolda","region":"Kolda Region"}},"labels":["soccer","sport"],"duration":0,"start_local":"2024-04-07T16:30:00","end":"2024-04-07T16:30:00Z","end_local":"2024-04-07T16:30:00","updated":"2024-06-11T21:20:52Z"}]