[{"title":"GlobalLimits São Tomé - The Hemisphere Crossing","description":"Sourced from predicthq.com","category":"sports","start":"2024-08-09T00:00:00Z","geo":{"geometry":{"coordinates":[6.733343,0.3301924],"type":"Point"},"placekey":"@g4f-7wd-3qz","address":{"country_code":"ST","formatted_address":"São Tomé, Água Grande, Sao Tome and Principe","locality":"São Tomé","region":"Água Grande"}},"labels":["outdoor-sports","running","sport"],"duration":86399,"start_local":"2024-08-09T00:00:00","end":"2024-08-09T23:59:59Z","end_local":"2024-08-09T23:59:59","updated":"2024-06-04T10:04:12Z"},{"title":"DULLMEA @ Espaço CACAU","description":"Sourced from predicthq.com - Dullmea is a musician and composer exploring the endless possibilities for voice and electronics since 2016.","category":"concerts","start":"2024-07-25T19:00:00Z","geo":{"geometry":{"coordinates":[6.7373097,0.3437143],"type":"Point"},"placekey":"@g4f-7x3-f9f","address":{"country_code":"ST","formatted_address":"São Tomé, Água Grande, Sao Tome and Principe","locality":"São Tomé","region":"Água Grande"}},"labels":["concert","music"],"duration":3600,"start_local":"2024-07-25T19:00:00","end":"2024-07-25T20:00:00Z","end_local":"2024-07-25T20:00:00","updated":"2024-06-21T15:32:12Z"},{"title":"São Tomé Maratona","description":"Sourced from predicthq.com","category":"sports","start":"2024-06-30T00:00:00Z","geo":{"geometry":{"coordinates":[6.6491132,0.1333856],"type":"Point"},"placekey":"@g4f-4ws-pjv","address":{"country_code":"ST","formatted_address":"Sao Joao dos Angolares, Caué, Sao Tome and Principe","locality":"Sao Joao dos Angolares","region":"Caué"}},"labels":["marathon","outdoor-sports","running","sport"],"duration":86399,"start_local":"2024-06-30T00:00:00","end":"2024-06-30T23:59:59Z","end_local":"2024-06-30T23:59:59","updated":"2024-06-04T03:43:35Z"}]