[{"title":"GCE Annual Summit, IMPACT","description":"Sourced from predicthq.com - The \"GCE SUMMIT 2024: IMPACT - The Sustainable Firm of the Future\" is a global summit for leaders in the legal, accounting and technology.","category":"conferences","start":"2024-09-26T14:00:00Z","geo":{"geometry":{"coordinates":[-89.21304889999999,13.7075015],"type":"Point"},"placekey":"@d5v-cqv-psq","address":{"country_code":"SV","formatted_address":"San Salvador, San Salvador Department, El Salvador","locality":"San Salvador","region":"San Salvador Department"}},"labels":["business","conference"],"duration":205200,"start_local":"2024-09-26T08:00:00","end":"2024-09-28T23:00:00Z","end_local":"2024-09-28T17:00:00","updated":"2024-06-11T05:35:42Z"},{"title":"Esteman","description":"Sourced from predicthq.com","category":"concerts","start":"2024-09-22T01:00:00Z","geo":{"geometry":{"coordinates":[-89.1280556,13.6872763],"type":"Point"},"placekey":"@d5v-cq3-d5f","address":{"country_code":"SV","formatted_address":"MQV5+6F6, Calle Circunvalacion, San Salvador, El Salvador","locality":"San Salvador","region":"San Salvador Department"}},"labels":["concert","music"],"duration":0,"start_local":"2024-09-21T19:00:00","end":"2024-09-22T01:00:00Z","end_local":"2024-09-21T19:00:00","updated":"2024-06-10T23:50:27Z"},{"title":"Magno Evento El Salvador HCW","description":"Sourced from predicthq.com - No te puedes perder el evento más grande en El Salvador hasta el momento, habrá muchas sorpresas! No te lo puedes perder!","category":"conferences","start":"2024-08-04T17:00:00Z","geo":{"geometry":{"coordinates":[-89.24175579999999,13.69138],"type":"Point"},"placekey":"@d5v-2hs-2x5","address":{"country_code":"SV","formatted_address":"Avenida De La Revolucion, San Salvador, San Salvador Department, El Salvador","locality":"San Salvador","region":"San Salvador Department"}},"labels":["conference","health"],"duration":18000,"start_local":"2024-08-04T11:00:00","end":"2024-08-04T22:00:00Z","end_local":"2024-08-04T16:00:00","updated":"2024-06-20T09:58:22Z"},{"title":"Caloncho","description":"Sourced from predicthq.com","category":"concerts","start":"2024-08-04T01:00:00Z","geo":{"geometry":{"coordinates":[-89.23899,13.68874],"type":"Point"},"placekey":"@d5v-2hr-n89","address":{"country_code":"SV","formatted_address":"Colonia San Benito, Final Avenida la Revolución, San Salvador, El Salvador","locality":"San Salvador","region":"San Salvador"}},"labels":["concert","music"],"duration":0,"start_local":"2024-08-03T19:00:00","end":"2024-08-04T01:00:00Z","end_local":"2024-08-03T19:00:00","updated":"2024-06-11T00:05:42Z"},{"title":"Tech Day El Salvador","description":"Sourced from predicthq.com - En un mundo que cambia a diario, tenemos que estar siempre INNOVANDO","category":"conferences","start":"2024-07-24T14:00:00Z","geo":{"geometry":{"coordinates":[-89.24122679999999,13.7096142],"type":"Point"},"placekey":"@d5v-2hy-yqf","address":{"country_code":"SV","formatted_address":"89 Avenida Norte, San Salvador, San Salvador Department, El Salvador","locality":"San Salvador","region":"San Salvador Department"}},"labels":["conference","science","technology"],"duration":36000,"start_local":"2024-07-24T08:00:00","end":"2024-07-25T00:00:00Z","end_local":"2024-07-24T18:00:00","updated":"2024-05-23T04:55:47Z"},{"title":"Gondwana","description":"Sourced from predicthq.com","category":"concerts","start":"2024-07-21T01:00:00Z","geo":{"geometry":{"coordinates":[-89.2145,13.68127],"type":"Point"},"placekey":"@d5v-cp8-v9f","address":{"country_code":"SV","formatted_address":"Calle Final Diagonal Huizucar # 422 Colonia Monserrat, San Salvador, El Salvador","locality":"San Salvador","region":"San Salvador Department"}},"labels":["concert","music"],"duration":0,"start_local":"2024-07-20T19:00:00","end":"2024-07-21T01:00:00Z","end_local":"2024-07-20T19:00:00","updated":"2024-06-23T03:10:05Z"},{"title":"Inspector","description":"Sourced from predicthq.com","category":"concerts","start":"2024-07-20T03:00:00Z","geo":{"geometry":{"coordinates":[-89.2795682,13.6741722],"type":"Point"},"placekey":"@d5t-wwv-28v","address":{"country_code":"SV","formatted_address":"Auditorio ITCA, Santa Tecla, El Salvador","locality":"Santa Tecla","region":"La Libertad"}},"labels":["concert","music"],"duration":0,"start_local":"2024-07-19T21:00:00","end":"2024-07-20T03:00:00Z","end_local":"2024-07-19T21:00:00","updated":"2024-06-12T14:23:58Z"},{"title":"Friendlies Women - Friendlies 2 - El Salvador vs Peru","description":"Sourced from predicthq.com","category":"sports","start":"2024-07-17T01:30:00Z","geo":{"geometry":{"coordinates":[-89.2994132,13.6716505],"type":"Point"},"placekey":"@d5t-wwz-4jv","address":{"country_code":"SV","formatted_address":"Ave El Cipres 16, Santa Tecla, El Salvador","locality":"Santa Tecla","region":"La Libertad Department"}},"labels":["soccer","sport"],"duration":0,"start_local":"2024-07-16T19:30:00","end":"2024-07-17T01:30:00Z","end_local":"2024-07-16T19:30:00","updated":"2024-07-02T14:30:16Z"},{"title":"Finanzas para Médicos - 2da Edición","description":"Sourced from predicthq.com - ¿Eres médico y necesitas guía financiera? ¡Este evento es para ti! Te esperamos en Finanzas para Médicos","category":"conferences","start":"2024-07-16T00:30:00Z","geo":{"geometry":{"coordinates":[-89.2407814,13.6915645],"type":"Point"},"placekey":"@d5v-2hs-3yv","address":{"country_code":"SV","formatted_address":"San Salvador, San Salvador Department, El Salvador","locality":"San Salvador","region":"San Salvador Department"}},"labels":["business","conference"],"duration":7200,"start_local":"2024-07-15T18:30:00","end":"2024-07-16T02:30:00Z","end_local":"2024-07-15T20:30:00","updated":"2024-06-27T06:48:06Z"},{"title":"Friendlies Women - Friendlies 2 - El Salvador vs Peru","description":"Sourced from predicthq.com","category":"sports","start":"2024-07-14T01:00:00Z","geo":{"geometry":{"coordinates":[-89.2994132,13.6716505],"type":"Point"},"placekey":"@d5t-wwz-4jv","address":{"country_code":"SV","formatted_address":"Ave El Cipres 16, Santa Tecla, El Salvador","locality":"Santa Tecla","region":"La Libertad Department"}},"labels":["soccer","sport"],"duration":0,"start_local":"2024-07-13T19:00:00","end":"2024-07-14T01:00:00Z","end_local":"2024-07-13T19:00:00","updated":"2024-07-03T16:58:44Z"},{"title":"Reunión informativa: MBA de ISEADE-FEPADE","description":"Sourced from predicthq.com - Lidera el futuro empresarial estudiando tu MBA en el 2024","category":"conferences","start":"2024-07-13T15:00:00Z","geo":{"geometry":{"coordinates":[-89.25232190000001,13.6789106],"type":"Point"},"placekey":"@d5v-2hv-mff","address":{"country_code":"SV","formatted_address":"Ciudad Merliot, La Libertad Department, El Salvador","locality":"Ciudad Merliot","region":"La Libertad Department"}},"labels":["conference"],"duration":3600,"start_local":"2024-07-13T09:00:00","end":"2024-07-13T16:00:00Z","end_local":"2024-07-13T10:00:00","updated":"2024-07-04T00:29:43Z"},{"title":"Bitcoin Island","description":"Sourced from predicthq.com - Join us on Saturday, July 6th at La Pirraya for different activities happening.","category":"conferences","start":"2024-07-06T12:00:00Z","geo":{"geometry":{"coordinates":[-88.44335129999999,13.2004857],"type":"Point"},"placekey":"@d5v-9yy-x89","address":{"country_code":"SV","formatted_address":"Usulután, El Salvador","region":"Usulután"}},"labels":["conference","science","technology"],"duration":34200,"start_local":"2024-07-06T06:00:00","end":"2024-07-06T21:30:00Z","end_local":"2024-07-06T15:30:00","updated":"2024-06-27T03:41:50Z"},{"title":"LA CLAVE PARA QUE TRIUNFES EN EL 2024","description":"Sourced from predicthq.com - Descubre en este evento la clave para alcanzar el éxito en el 2024 y lograr todas tus metas. ¡No te lo puedes perder!","category":"conferences","start":"2024-06-29T20:00:00Z","geo":{"geometry":{"coordinates":[-89.23209130000001,13.7075633],"type":"Point"},"placekey":"@d5v-2hy-n3q","address":{"country_code":"SV","formatted_address":"75 Avenida Norte, San Salvador, El Salvador","locality":"San Salvador","region":"San Salvador"}},"labels":["business","conference"],"duration":7200,"start_local":"2024-06-29T14:00:00","end":"2024-06-29T22:00:00Z","end_local":"2024-06-29T16:00:00","updated":"2024-06-21T20:07:27Z"},{"title":"Reunión informativa: MBA de ISEADE-FEPADE","description":"Sourced from predicthq.com - Lidera el futuro empresarial estudiando tu MBA en el 2024","category":"conferences","start":"2024-06-29T15:00:00Z","geo":{"geometry":{"coordinates":[-89.25232190000001,13.6789106],"type":"Point"},"placekey":"@d5v-2hv-mff","address":{"country_code":"SV","formatted_address":"Ciudad Merliot, La Libertad Department, El Salvador","locality":"Ciudad Merliot","region":"La Libertad Department"}},"labels":["conference"],"duration":3600,"start_local":"2024-06-29T09:00:00","end":"2024-06-29T16:00:00Z","end_local":"2024-06-29T10:00:00","updated":"2024-06-29T15:04:43Z"},{"title":"AQUIHAYAQUIHAY","description":"Sourced from predicthq.com","category":"concerts","start":"2024-06-29T03:00:00Z","geo":{"geometry":{"coordinates":[-89.2370886,13.6973396],"type":"Point"},"placekey":"@d5v-2hs-tjv","address":{"country_code":"SV","formatted_address":"Calle La Mascota, San Salvador, El Salvador","locality":"San Salvador","region":"San Salvador"}},"labels":["concert","music"],"duration":0,"start_local":"2024-06-28T21:00:00","end":"2024-06-29T03:00:00Z","end_local":"2024-06-28T21:00:00","updated":"2024-06-11T03:33:48Z"},{"title":"Okupas","description":"Sourced from predicthq.com","category":"concerts","start":"2024-06-22T02:00:00Z","geo":{"geometry":{"coordinates":[-89.1897311,13.697993],"type":"Point"},"placekey":"@d5v-cqr-35z","address":{"country_code":"SV","formatted_address":"2a Calle Oriente, San Salvador, El Salvador","locality":"San Salvador","region":"San Salvador"}},"labels":["concert","music"],"duration":0,"start_local":"2024-06-21T20:00:00","end":"2024-06-22T02:00:00Z","end_local":"2024-06-21T20:00:00","updated":"2024-06-15T05:23:40Z"},{"title":"UNDERSTANDING EL SALVADOR'S RESIDENCE","description":"Sourced from predicthq.com - Let's dive into the rules of residency in El Salvador together! I'm here to help you create the best roadmap for your journey.","category":"conferences","start":"2024-06-18T16:00:00Z","geo":{"geometry":{"coordinates":[-89.2339721,13.7054274],"type":"Point"},"placekey":"@d5v-2hz-4y9","address":{"country_code":"SV","formatted_address":"San Salvador, El Salvador","locality":"San Salvador","region":"San Salvador"}},"labels":["community","conference"],"duration":3600,"start_local":"2024-06-18T10:00:00","end":"2024-06-18T17:00:00Z","end_local":"2024-06-18T11:00:00","updated":"2024-06-06T02:43:03Z"},{"title":"Reunión informativa: MBA de ISEADE-FEPADE","description":"Sourced from predicthq.com - Lidera el futuro empresarial estudiando tu MBA en el 2024","category":"conferences","start":"2024-06-08T15:00:00Z","geo":{"geometry":{"coordinates":[-89.25232190000001,13.6789106],"type":"Point"},"placekey":"@d5v-2hv-mff","address":{"country_code":"SV","formatted_address":"Ciudad Merliot, La Libertad Department, El Salvador","locality":"Ciudad Merliot","region":"La Libertad Department"}},"labels":["conference"],"duration":3600,"start_local":"2024-06-08T09:00:00","end":"2024-06-08T16:00:00Z","end_local":"2024-06-08T10:00:00","updated":"2024-06-06T02:25:15Z"},{"title":"Premiación del Concurso de Diseño Gráfico - Global Money Week 2024","description":"Sourced from predicthq.com - Les invitamos a la ceremonia de premiación del Concurso de Diseño Gráfico de Mi Banco, parte de la Global Money Week 2024.","category":"conferences","start":"2024-06-08T15:00:00Z","geo":{"geometry":{"coordinates":[-89.2431903,13.7066696],"type":"Point"},"placekey":"@d5v-2hr-4vz","address":{"country_code":"SV","formatted_address":"San Salvador, El Salvador","locality":"San Salvador","region":"San Salvador"}},"labels":["business","conference"],"duration":7200,"start_local":"2024-06-08T09:00:00","end":"2024-06-08T17:00:00Z","end_local":"2024-06-08T11:00:00","updated":"2024-05-30T02:59:44Z"},{"title":"Bitcoin Island","description":"Sourced from predicthq.com - Join us on Saturday, Jun 1st at La Pirraya for different activities happening.","category":"conferences","start":"2024-06-01T12:00:00Z","geo":{"geometry":{"coordinates":[-88.44335129999999,13.2004857],"type":"Point"},"placekey":"@d5v-9yy-x89","address":{"country_code":"SV","formatted_address":"Usulután, El Salvador","region":"Usulután"}},"labels":["conference","science","technology"],"duration":39600,"start_local":"2024-06-01T06:00:00","end":"2024-06-01T23:00:00Z","end_local":"2024-06-01T17:00:00","updated":"2024-06-04T08:32:11Z"},{"title":"Voces Libres: Datos y Narrativas Digitales para la Construcción del Futuro","description":"Sourced from predicthq.com - Evento gratuito sobre libertad de prensa, datos y narrativas digitales dirigido a jóvenes universitarios.","category":"conferences","start":"2024-05-28T14:00:00Z","geo":{"geometry":{"coordinates":[-89.21304889999999,13.7075015],"type":"Point"},"placekey":"@d5v-cqv-psq","address":{"country_code":"SV","formatted_address":"San Salvador, San Salvador Department, El Salvador","locality":"San Salvador","region":"San Salvador Department"}},"labels":["conference","science","technology"],"duration":14400,"start_local":"2024-05-28T08:00:00","end":"2024-05-28T18:00:00Z","end_local":"2024-05-28T12:00:00","updated":"2024-06-12T19:49:52Z"},{"title":"Primera Division - Clausura - Final - Alianza vs Municipal Limeño","description":"Sourced from predicthq.com","category":"sports","start":"2024-05-26T00:00:00Z","geo":{"geometry":{"coordinates":[-89.2226499,13.6810122],"type":"Point"},"placekey":"@d5v-cp9-7kf","address":{"country_code":"SV","formatted_address":"Calle Antigua a Huizucar, San Salvador, El Salvador","locality":"San Salvador","region":"San Salvador"}},"labels":["soccer","sport"],"duration":7223,"start_local":"2024-05-25T18:00:00","end":"2024-05-26T02:00:23Z","end_local":"2024-05-25T20:00:23","updated":"2024-06-05T03:58:01Z"},{"title":"Reserve League - Clausura - Final - Alianza U20 vs Platense U20","description":"Sourced from predicthq.com","category":"sports","start":"2024-05-25T20:00:00Z","geo":{"geometry":{"coordinates":[-89.2226499,13.6810122],"type":"Point"},"placekey":"@d5v-cp9-7kf","address":{"country_code":"SV","formatted_address":"Calle Antigua a Huizucar, San Salvador, El Salvador","locality":"San Salvador","region":"San Salvador"}},"labels":["soccer","sport"],"duration":0,"start_local":"2024-05-25T14:00:00","end":"2024-05-25T20:00:00Z","end_local":"2024-05-25T14:00:00","updated":"2024-06-11T21:19:21Z"},{"title":"Reunión informativa: MBA de ISEADE-FEPADE","description":"Sourced from predicthq.com - Lidera el futuro empresarial estudiando tu MBA en el 2024","category":"conferences","start":"2024-05-25T15:00:00Z","geo":{"geometry":{"coordinates":[-89.25232190000001,13.6789106],"type":"Point"},"placekey":"@d5v-2hv-mff","address":{"country_code":"SV","formatted_address":"Ciudad Merliot, La Libertad Department, El Salvador","locality":"Ciudad Merliot","region":"La Libertad Department"}},"labels":["conference"],"duration":3600,"start_local":"2024-05-25T09:00:00","end":"2024-05-25T16:00:00Z","end_local":"2024-05-25T10:00:00","updated":"2024-06-05T16:13:38Z"},{"title":"Primera Division - Clausura - Semi-finals - Alianza vs FAS","description":"Sourced from predicthq.com","category":"sports","start":"2024-05-22T02:00:00Z","geo":{"geometry":{"coordinates":[-89.2226499,13.6810122],"type":"Point"},"placekey":"@d5v-cp9-7kf","address":{"country_code":"SV","formatted_address":"Calle Antigua a Huizucar, San Salvador, El Salvador","locality":"San Salvador","region":"San Salvador"}},"labels":["soccer","sport"],"duration":7147,"start_local":"2024-05-21T20:00:00","end":"2024-05-22T03:59:07Z","end_local":"2024-05-21T21:59:07","updated":"2024-06-05T17:44:36Z"},{"title":"Reserve League - Clausura - Semi-finals - FAS U20 vs Platense U20","description":"Sourced from predicthq.com","category":"sports","start":"2024-05-19T20:00:00Z","geo":{"geometry":{"coordinates":[-89.5695111,13.9767498],"type":"Point"},"placekey":"@d5t-vyb-7dv","address":{"country_code":"SV","formatted_address":"Ave Fray Felipe De Jesus Moraga Sur 15, Santa Ana, El Salvador","locality":"Santa Ana","region":"Santa Ana Department"}},"labels":["soccer","sport"],"duration":0,"start_local":"2024-05-19T14:00:00","end":"2024-05-19T20:00:00Z","end_local":"2024-05-19T14:00:00","updated":"2024-06-12T04:30:30Z"},{"title":"SkaPank en Búhos Pizza","description":"Sourced from predicthq.com - ¡Ven a disfrutar de ska, punk y pizza en la noche de Búhos!","category":"concerts","start":"2024-05-19T02:30:00Z","geo":{"geometry":{"coordinates":[-89.20911,13.71182],"type":"Point"},"placekey":"@d5v-cr2-zpv","address":{"country_code":"SV","formatted_address":"PQ6R+P99, San Salvador, El Salvador","locality":"San Salvador","region":"San Salvador Department"}},"labels":["concert","music"],"duration":10800,"start_local":"2024-05-18T20:30:00","end":"2024-05-19T05:30:00Z","end_local":"2024-05-18T23:30:00","updated":"2024-06-02T02:53:53Z"},{"title":"Primera Division - Clausura - Semi-finals - FAS vs Alianza","description":"Sourced from predicthq.com","category":"sports","start":"2024-05-19T01:30:00Z","geo":{"geometry":{"coordinates":[-89.5695111,13.9767498],"type":"Point"},"placekey":"@d5t-vyb-7dv","address":{"country_code":"SV","formatted_address":"Ave Fray Felipe De Jesus Moraga Sur 15, Santa Ana, El Salvador","locality":"Santa Ana","region":"Santa Ana Department"}},"labels":["soccer","sport"],"duration":7135,"start_local":"2024-05-18T19:30:00","end":"2024-05-19T03:28:55Z","end_local":"2024-05-18T21:28:55","updated":"2024-06-05T02:00:01Z"},{"title":"Primera Division - Clausura - Semi-finals - Municipal Limeño vs Isidro Metapán","description":"Sourced from predicthq.com","category":"sports","start":"2024-05-19T01:30:00Z","geo":{"geometry":{"coordinates":[-87.8904117,13.6322553],"type":"Point"},"placekey":"@d5p-y4d-99f","address":{"country_code":"SV","formatted_address":"RN 18E, Santa Rosa de Lima, El Salvador","locality":"Santa Rosa de Lima","region":"La Unión Department"}},"labels":["soccer","sport"],"duration":7287,"start_local":"2024-05-18T19:30:00","end":"2024-05-19T03:31:27Z","end_local":"2024-05-18T21:31:27","updated":"2024-06-05T06:23:31Z"},{"title":"Congreso Mundial de Fe y Espiritualidad","description":"Sourced from predicthq.com - El Congreso Mundial de Fe y Espiritualidad es un espacio dedicado a explorar diferentes tradiciones, creencias y prácticas espirituales","category":"conferences","start":"2024-05-19T01:00:00Z","geo":{"geometry":{"coordinates":[-89.25147179999999,13.6640938],"type":"Point"},"placekey":"@d5t-wwx-f4v","address":{"country_code":"SV","formatted_address":"Antiguo Cuscatlán, La Libertad, El Salvador","locality":"Antiguo Cuscatlán","region":"La Libertad"}},"labels":["conference","religion"],"duration":97200,"start_local":"2024-05-18T19:00:00","end":"2024-05-20T04:00:00Z","end_local":"2024-05-19T22:00:00","updated":"2024-06-04T22:56:46Z"},{"title":"Transmetal and social s.s","description":"Sourced from predicthq.com","category":"concerts","start":"2024-05-18T21:00:00Z","geo":{"geometry":{"coordinates":[-89.20944,13.70956],"type":"Point"},"placekey":"@d5v-cqv-nt9","address":{"country_code":"SV","formatted_address":"Blvr. De Los Heroes, San Salvador, El Salvador","locality":"San Salvador","region":"San Salvador"}},"labels":["concert","music"],"duration":0,"start_local":"2024-05-18T15:00:00","end":"2024-05-18T21:00:00Z","end_local":"2024-05-18T15:00:00","updated":"2024-06-12T13:56:37Z"},{"title":"Reserve League - Clausura - Semi-finals - Alianza U20 vs Águila U20","description":"Sourced from predicthq.com","category":"sports","start":"2024-05-18T21:00:00Z","geo":{"geometry":{"coordinates":[-89.2226499,13.6810122],"type":"Point"},"placekey":"@d5v-cp9-7kf","address":{"country_code":"SV","formatted_address":"Calle Antigua a Huizucar, San Salvador, El Salvador","locality":"San Salvador","region":"San Salvador"}},"labels":["soccer","sport"],"duration":0,"start_local":"2024-05-18T15:00:00","end":"2024-05-18T21:00:00Z","end_local":"2024-05-18T15:00:00","updated":"2024-06-11T22:04:01Z"},{"title":"Primera Division - Clausura - Semi-finals - Isidro Metapán vs Municipal Limeño","description":"Sourced from predicthq.com","category":"sports","start":"2024-05-16T01:30:00Z","geo":{"geometry":{"coordinates":[-89.449203,14.3322306],"type":"Point"},"placekey":"@d5t-zpv-swk","address":{"country_code":"SV","formatted_address":"Metapan, Santa Ana Department, El Salvador","locality":"Metapan","region":"Santa Ana Department"}},"labels":["soccer","sport"],"duration":7225,"start_local":"2024-05-15T19:30:00","end":"2024-05-16T03:30:25Z","end_local":"2024-05-15T21:30:25","updated":"2024-05-24T23:31:14Z"},{"title":"Reserve League - Clausura - Semi-finals - Águila U20 vs Alianza U20","description":"Sourced from predicthq.com","category":"sports","start":"2024-05-15T18:00:00Z","geo":{"geometry":{"coordinates":[-88.2370993736107,13.520731404957523],"type":"Point"},"placekey":"@d5q-2g8-r6k","address":{"country_code":"SV","formatted_address":"GQC7+84H, Quelepa, El Salvador","locality":"Quelepa","region":"San Miguel Department"}},"labels":["soccer","sport"],"duration":0,"start_local":"2024-05-15T12:00:00","end":"2024-05-15T18:00:00Z","end_local":"2024-05-15T12:00:00","updated":"2024-06-12T08:40:34Z"},{"title":"Reserve League - Clausura - Semi-finals - Platense U20 vs FAS U20","description":"Sourced from predicthq.com","category":"sports","start":"2024-05-15T17:00:00Z","geo":{"geometry":{"coordinates":[-89.5695111,13.9767498],"type":"Point"},"placekey":"@d5t-vyb-7dv","address":{"country_code":"SV","formatted_address":"Ave Fray Felipe De Jesus Moraga Sur 15, Santa Ana, El Salvador","locality":"Santa Ana","region":"Santa Ana Department"}},"labels":["soccer","sport"],"duration":0,"start_local":"2024-05-15T11:00:00","end":"2024-05-15T17:00:00Z","end_local":"2024-05-15T11:00:00","updated":"2024-06-12T14:31:04Z"},{"title":"Primera Division - Clausura - Quarter-finals - Municipal Limeño vs Platense","description":"Sourced from predicthq.com","category":"sports","start":"2024-05-13T01:00:00Z","geo":{"geometry":{"coordinates":[-87.8904117,13.6322553],"type":"Point"},"placekey":"@d5p-y4d-99f","address":{"country_code":"SV","formatted_address":"RN 18E, Santa Rosa de Lima, El Salvador","locality":"Santa Rosa de Lima","region":"La Unión Department"}},"labels":["soccer","sport"],"duration":7859,"start_local":"2024-05-12T19:00:00","end":"2024-05-13T03:10:59Z","end_local":"2024-05-12T21:10:59","updated":"2024-06-05T05:38:02Z"},{"title":"Reserve League - Clausura - Quarter-finals - Platense U20 vs Dragón U20","description":"Sourced from predicthq.com","category":"sports","start":"2024-05-12T21:00:00Z","geo":{"geometry":{"coordinates":[-88.87158967668648,13.519615508322513],"type":"Point"},"placekey":"@d5v-97x-j9z","address":{"country_code":"SV","formatted_address":"G49H+W9M, Zacatecoluca, El Salvador","locality":"Zacatecoluca","region":"La Paz Department"}},"labels":["soccer","sport"],"duration":0,"start_local":"2024-05-12T15:00:00","end":"2024-05-12T21:00:00Z","end_local":"2024-05-12T15:00:00","updated":"2024-06-12T13:28:57Z"},{"title":"Primera Division - Clausura - Quarter-finals - Águila vs FAS","description":"Sourced from predicthq.com","category":"sports","start":"2024-05-12T21:00:00Z","geo":{"geometry":{"coordinates":[-88.1690809,13.4824791],"type":"Point"},"placekey":"@d5q-275-7wk","address":{"country_code":"SV","formatted_address":"FRJJ+X9V, San Miguel, El Salvador","locality":"San Miguel","region":"San Miguel Department"}},"labels":["soccer","sport"],"duration":7639,"start_local":"2024-05-12T15:00:00","end":"2024-05-12T23:07:19Z","end_local":"2024-05-12T17:07:19","updated":"2024-06-05T16:22:53Z"},{"title":"Primera Division - Clausura - Quarter-finals - Alianza vs Once Deportivo","description":"Sourced from predicthq.com","category":"sports","start":"2024-05-12T01:30:00Z","geo":{"geometry":{"coordinates":[-89.2226499,13.6810122],"type":"Point"},"placekey":"@d5v-cp9-7kf","address":{"country_code":"SV","formatted_address":"Calle Antigua a Huizucar, San Salvador, El Salvador","locality":"San Salvador","region":"San Salvador"}},"labels":["soccer","sport"],"duration":7254,"start_local":"2024-05-11T19:30:00","end":"2024-05-12T03:30:54Z","end_local":"2024-05-11T21:30:54","updated":"2024-06-05T08:04:57Z"},{"title":"Primera Division - Clausura - Quarter-finals - Firpo vs Isidro Metapán","description":"Sourced from predicthq.com","category":"sports","start":"2024-05-12T01:00:00Z","geo":{"geometry":{"coordinates":[-88.4381175,13.3493077],"type":"Point"},"placekey":"@d5v-bgc-gc5","address":{"country_code":"SV","formatted_address":"8HX6+PQ6, Usulutan, El Salvador","locality":"Usulutan","region":"Usulután Department"}},"labels":["soccer","sport"],"duration":7128,"start_local":"2024-05-11T19:00:00","end":"2024-05-12T02:58:48Z","end_local":"2024-05-11T20:58:48","updated":"2024-06-05T09:52:53Z"},{"title":"Accept","description":"Sourced from predicthq.com","category":"concerts","start":"2024-05-12T01:00:00Z","geo":{"geometry":{"coordinates":[-89.20789,13.69764],"type":"Point"},"placekey":"@d5v-cqv-skf","address":{"country_code":"SV","formatted_address":"6-10 Calle Pte., San Salvador, El Salvador","locality":"San Salvador","region":"San Salvador"}},"labels":["concert","music"],"duration":0,"start_local":"2024-05-11T19:00:00","end":"2024-05-12T01:00:00Z","end_local":"2024-05-11T19:00:00","updated":"2024-06-28T22:52:22Z"},{"title":"Reserve League - Clausura - Quarter-finals - FAS U20 vs Santa Tecla U20","description":"Sourced from predicthq.com","category":"sports","start":"2024-05-11T20:00:00Z","geo":{"geometry":{"coordinates":[-89.5695111,13.9767498],"type":"Point"},"placekey":"@d5t-vyb-7dv","address":{"country_code":"SV","formatted_address":"Ave Fray Felipe De Jesus Moraga Sur 15, Santa Ana, El Salvador","locality":"Santa Ana","region":"Santa Ana Department"}},"labels":["soccer","sport"],"duration":0,"start_local":"2024-05-11T14:00:00","end":"2024-05-11T20:00:00Z","end_local":"2024-05-11T14:00:00","updated":"2024-06-12T03:56:36Z"},{"title":"Reserve League - Clausura - Quarter-finals - Águila U20 vs Luis Ángel Firpo U20","description":"Sourced from predicthq.com","category":"sports","start":"2024-05-11T18:00:00Z","geo":{"geometry":{"coordinates":[-88.2370993736107,13.520731404957523],"type":"Point"},"placekey":"@d5q-2g8-r6k","address":{"country_code":"SV","formatted_address":"GQC7+84H, Quelepa, El Salvador","locality":"Quelepa","region":"San Miguel Department"}},"labels":["soccer","sport"],"duration":0,"start_local":"2024-05-11T12:00:00","end":"2024-05-11T18:00:00Z","end_local":"2024-05-11T12:00:00","updated":"2024-06-12T00:23:15Z"},{"title":"Reserve League - Clausura - Quarter-finals - Alianza U20 vs Isidro Metapán U20","description":"Sourced from predicthq.com","category":"sports","start":"2024-05-11T16:00:00Z","geo":{"geometry":{"coordinates":[-89.090525597,13.470601282],"type":"Point"},"placekey":"@d5v-ccs-w49","address":{"country_code":"SV","formatted_address":"FWC6+537 Contiguo a entrada principal del Estadio municipal de, San Luis Talpa, El Salvador","locality":"San Luis Talpa","region":"La Paz"}},"labels":["soccer","sport"],"duration":0,"start_local":"2024-05-11T10:00:00","end":"2024-05-11T16:00:00Z","end_local":"2024-05-11T10:00:00","updated":"2024-06-12T17:55:15Z"},{"title":"Miranda!","description":"Sourced from predicthq.com","category":"concerts","start":"2024-05-10T02:00:00Z","geo":{"geometry":{"coordinates":[-89.1280556,13.6872763],"type":"Point"},"placekey":"@d5v-cq3-d5f","address":{"country_code":"SV","formatted_address":"MQV5+6F6, Calle Circunvalacion, San Salvador, El Salvador","locality":"San Salvador","region":"San Salvador Department"}},"labels":["concert","music"],"duration":0,"start_local":"2024-05-09T20:00:00","end":"2024-05-10T02:00:00Z","end_local":"2024-05-09T20:00:00","updated":"2024-06-12T08:44:49Z"},{"title":"Primera Division - Clausura - Quarter-finals - FAS vs Águila","description":"Sourced from predicthq.com","category":"sports","start":"2024-05-10T01:30:00Z","geo":{"geometry":{"coordinates":[-89.5695111,13.9767498],"type":"Point"},"placekey":"@d5t-vyb-7dv","address":{"country_code":"SV","formatted_address":"Ave Fray Felipe De Jesus Moraga Sur 15, Santa Ana, El Salvador","locality":"Santa Ana","region":"Santa Ana Department"}},"labels":["soccer","sport"],"duration":7384,"start_local":"2024-05-09T19:30:00","end":"2024-05-10T03:33:04Z","end_local":"2024-05-09T21:33:04","updated":"2024-06-05T19:50:56Z"},{"title":"Águilas","description":"Sourced from predicthq.com","category":"concerts","start":"2024-05-10T01:30:00Z","geo":{"geometry":{"coordinates":[-89.56391,13.97783],"type":"Point"},"placekey":"@d5t-vyb-6zf","address":{"country_code":"SV","formatted_address":"Av, Estadio Óscar Quiteño, Ave Fray Felipe De Jesus Moraga Sur, Santa Ana, El Salvador","locality":"Santa Ana","region":"Santa Ana"}},"labels":["concert","music"],"duration":0,"start_local":"2024-05-09T19:30:00","end":"2024-05-10T01:30:00Z","end_local":"2024-05-09T19:30:00","updated":"2024-06-12T09:45:20Z"},{"title":"Primera Division - Clausura - Quarter-finals - Platense vs Municipal Limeño","description":"Sourced from predicthq.com","category":"sports","start":"2024-05-09T21:30:00Z","geo":{"geometry":{"coordinates":[-88.87158967668648,13.519615508322513],"type":"Point"},"placekey":"@d5v-97x-j9z","address":{"country_code":"SV","formatted_address":"G49H+W9M, Zacatecoluca, El Salvador","locality":"Zacatecoluca","region":"La Paz Department"}},"labels":["soccer","sport"],"duration":6858,"start_local":"2024-05-09T15:30:00","end":"2024-05-09T23:24:18Z","end_local":"2024-05-09T17:24:18","updated":"2024-06-04T21:54:57Z"},{"title":"Reserve League - Clausura - Quarter-finals - Dragón U20 vs Platense U20","description":"Sourced from predicthq.com","category":"sports","start":"2024-05-09T21:30:00Z","geo":{"geometry":{"coordinates":[-88.172266498,13.429499875],"type":"Point"},"placekey":"@d5q-3tm-x3q","address":{"country_code":"SV","formatted_address":"CRHH+Q4, San Miguel, El Salvador","locality":"San Miguel","region":"San Miguel Department"}},"labels":["soccer","sport"],"duration":0,"start_local":"2024-05-09T15:30:00","end":"2024-05-09T21:30:00Z","end_local":"2024-05-09T15:30:00","updated":"2024-06-12T03:04:00Z"},{"title":"Primera Division - Clausura - Quarter-finals - Once Deportivo vs Alianza","description":"Sourced from predicthq.com","category":"sports","start":"2024-05-09T21:30:00Z","geo":{"geometry":{"coordinates":[-89.84903991222382,13.927027803616781],"type":"Point"},"placekey":"@d5t-xwn-8gk","address":{"country_code":"SV","formatted_address":"W5G2+Q8H, Ahuachapan, El Salvador","locality":"Ahuachapan","region":"Ahuachapán Department"}},"labels":["soccer","sport"],"duration":6854,"start_local":"2024-05-09T15:30:00","end":"2024-05-09T23:24:14Z","end_local":"2024-05-09T17:24:14","updated":"2024-06-05T07:35:20Z"},{"title":"Primera Division - Clausura - Quarter-finals - Isidro Metapán vs Firpo","description":"Sourced from predicthq.com","category":"sports","start":"2024-05-09T01:30:00Z","geo":{"geometry":{"coordinates":[-89.449203,14.3322306],"type":"Point"},"placekey":"@d5t-zpv-swk","address":{"country_code":"SV","formatted_address":"Metapan, Santa Ana Department, El Salvador","locality":"Metapan","region":"Santa Ana Department"}},"labels":["soccer","sport"],"duration":7246,"start_local":"2024-05-08T19:30:00","end":"2024-05-09T03:30:46Z","end_local":"2024-05-08T21:30:46","updated":"2024-05-24T23:15:25Z"},{"title":"Reserve League - Clausura - Quarter-finals - Isidro Metapán U20 vs Alianza U20","description":"Sourced from predicthq.com","category":"sports","start":"2024-05-08T21:15:00Z","geo":{"geometry":{"coordinates":[-89.449203,14.3322306],"type":"Point"},"placekey":"@d5t-zpv-swk","address":{"country_code":"SV","formatted_address":"Metapan, Santa Ana Department, El Salvador","locality":"Metapan","region":"Santa Ana Department"}},"labels":["soccer","sport"],"duration":0,"start_local":"2024-05-08T15:15:00","end":"2024-05-08T21:15:00Z","end_local":"2024-05-08T15:15:00","updated":"2024-06-12T00:35:10Z"},{"title":"Reserve League - Clausura - Quarter-finals - Luis Ángel Firpo U20 vs Águila U20","description":"Sourced from predicthq.com","category":"sports","start":"2024-05-08T21:00:00Z","geo":{"geometry":{"coordinates":[-88.4381175,13.3493077],"type":"Point"},"placekey":"@d5v-bgc-gc5","address":{"country_code":"SV","formatted_address":"8HX6+PQ6, Usulutan, El Salvador","locality":"Usulutan","region":"Usulután Department"}},"labels":["soccer","sport"],"duration":0,"start_local":"2024-05-08T15:00:00","end":"2024-05-08T21:00:00Z","end_local":"2024-05-08T15:00:00","updated":"2024-06-12T19:04:42Z"},{"title":"Reserve League - Clausura - Quarter-finals - Santa Tecla U20 vs FAS U20","description":"Sourced from predicthq.com","category":"sports","start":"2024-05-08T21:00:00Z","geo":{"geometry":{"coordinates":[-89.2994132,13.6716505],"type":"Point"},"placekey":"@d5t-wwz-4jv","address":{"country_code":"SV","formatted_address":"Ave El Cipres 16, Santa Tecla, El Salvador","locality":"Santa Tecla","region":"La Libertad Department"}},"labels":["soccer","sport"],"duration":0,"start_local":"2024-05-08T15:00:00","end":"2024-05-08T21:00:00Z","end_local":"2024-05-08T15:00:00","updated":"2024-06-11T23:33:39Z"},{"title":"Reserve League - Clausura - Once Deportivo U20 vs Platense U20","description":"Sourced from predicthq.com","category":"sports","start":"2024-05-06T17:00:00Z","geo":{"geometry":{"coordinates":[-89.84903991222382,13.927027803616781],"type":"Point"},"placekey":"@d5t-xwn-8gk","address":{"country_code":"SV","formatted_address":"W5G2+Q8H, Ahuachapan, El Salvador","locality":"Ahuachapan","region":"Ahuachapán Department"}},"labels":["soccer","sport"],"duration":0,"start_local":"2024-05-06T11:00:00","end":"2024-05-06T17:00:00Z","end_local":"2024-05-06T11:00:00","updated":"2024-06-12T01:57:01Z"},{"title":"Primera Division - Clausura - FAS vs Águila","description":"Sourced from predicthq.com","category":"sports","start":"2024-05-04T21:15:00Z","geo":{"geometry":{"coordinates":[-89.5695111,13.9767498],"type":"Point"},"placekey":"@d5t-vyb-7dv","address":{"country_code":"SV","formatted_address":"Ave Fray Felipe De Jesus Moraga Sur 15, Santa Ana, El Salvador","locality":"Santa Ana","region":"Santa Ana Department"}},"labels":["soccer","sport"],"duration":7055,"start_local":"2024-05-04T15:15:00","end":"2024-05-04T23:12:35Z","end_local":"2024-05-04T17:12:35","updated":"2024-06-05T01:50:01Z"},{"title":"Primera Division - Clausura - Platense vs Firpo","description":"Sourced from predicthq.com","category":"sports","start":"2024-05-04T21:15:00Z","geo":{"geometry":{"coordinates":[-88.87158967668648,13.519615508322513],"type":"Point"},"placekey":"@d5v-97x-j9z","address":{"country_code":"SV","formatted_address":"G49H+W9M, Zacatecoluca, El Salvador","locality":"Zacatecoluca","region":"La Paz Department"}},"labels":["soccer","sport"],"duration":6925,"start_local":"2024-05-04T15:15:00","end":"2024-05-04T23:10:25Z","end_local":"2024-05-04T17:10:25","updated":"2024-06-05T08:26:05Z"},{"title":"Primera Division - Clausura - Fuerte San Francisco vs Once Deportivo","description":"Sourced from predicthq.com","category":"sports","start":"2024-05-04T21:15:00Z","geo":{"geometry":{"coordinates":[-88.08710450452425,13.66528244820085],"type":"Point"},"placekey":"@d5q-2n5-gff","address":{"country_code":"SV","formatted_address":"San Francisco Gotera, El Salvador","locality":"San Francisco Gotera"}},"labels":["soccer","sport"],"duration":6745,"start_local":"2024-05-04T15:15:00","end":"2024-05-04T23:07:25Z","end_local":"2024-05-04T17:07:25","updated":"2024-06-05T13:43:14Z"},{"title":"Primera Division - Clausura - Santa Tecla vs Jocoro","description":"Sourced from predicthq.com","category":"sports","start":"2024-05-04T21:15:00Z","geo":{"geometry":{"coordinates":[-89.2994132,13.6716505],"type":"Point"},"placekey":"@d5t-wwz-4jv","address":{"country_code":"SV","formatted_address":"Ave El Cipres 16, Santa Tecla, El Salvador","locality":"Santa Tecla","region":"La Libertad Department"}},"labels":["soccer","sport"],"duration":6755,"start_local":"2024-05-04T15:15:00","end":"2024-05-04T23:07:35Z","end_local":"2024-05-04T17:07:35","updated":"2024-06-12T00:34:16Z"},{"title":"Primera Division - Clausura - Dragón vs Isidro Metapán","description":"Sourced from predicthq.com","category":"sports","start":"2024-05-04T21:15:00Z","geo":{"geometry":{"coordinates":[-88.1690809,13.4824791],"type":"Point"},"placekey":"@d5q-275-7wk","address":{"country_code":"SV","formatted_address":"FRJJ+X9V, San Miguel, El Salvador","locality":"San Miguel","region":"San Miguel Department"}},"labels":["soccer","sport"],"duration":6790,"start_local":"2024-05-04T15:15:00","end":"2024-05-04T23:08:10Z","end_local":"2024-05-04T17:08:10","updated":"2024-06-05T12:14:46Z"},{"title":"Primera Division - Clausura - Municipal Limeño vs Alianza","description":"Sourced from predicthq.com","category":"sports","start":"2024-05-04T21:15:00Z","geo":{"geometry":{"coordinates":[-87.8904117,13.6322553],"type":"Point"},"placekey":"@d5p-y4d-99f","address":{"country_code":"SV","formatted_address":"RN 18E, Santa Rosa de Lima, El Salvador","locality":"Santa Rosa de Lima","region":"La Unión Department"}},"labels":["soccer","sport"],"duration":7089,"start_local":"2024-05-04T15:15:00","end":"2024-05-04T23:13:09Z","end_local":"2024-05-04T17:13:09","updated":"2024-06-05T20:47:33Z"},{"title":"Águilas","description":"Sourced from predicthq.com","category":"concerts","start":"2024-05-04T21:00:00Z","geo":{"geometry":{"coordinates":[-89.56391,13.97783],"type":"Point"},"placekey":"@d5t-vyb-6zf","address":{"country_code":"SV","formatted_address":"Av, Estadio Óscar Quiteño, Ave Fray Felipe De Jesus Moraga Sur, Santa Ana, El Salvador","locality":"Santa Ana","region":"Santa Ana"}},"labels":["concert","music"],"duration":0,"start_local":"2024-05-04T15:00:00","end":"2024-05-04T21:00:00Z","end_local":"2024-05-04T15:00:00","updated":"2024-06-12T13:06:32Z"},{"title":"Reserve League - Clausura - Municipal Limeño U20 vs Alianza U20","description":"Sourced from predicthq.com","category":"sports","start":"2024-05-04T18:00:00Z","geo":{"geometry":{"coordinates":[-87.8904117,13.6322553],"type":"Point"},"placekey":"@d5p-y4d-99f","address":{"country_code":"SV","formatted_address":"RN 18E, Santa Rosa de Lima, El Salvador","locality":"Santa Rosa de Lima","region":"La Unión Department"}},"labels":["soccer","sport"],"duration":0,"start_local":"2024-05-04T12:00:00","end":"2024-05-04T18:00:00Z","end_local":"2024-05-04T12:00:00","updated":"2024-06-12T00:54:41Z"},{"title":"Reserve League - Clausura - Platense U20 vs Luis Ángel Firpo U20","description":"Sourced from predicthq.com","category":"sports","start":"2024-05-04T18:00:00Z","geo":{"geometry":{"coordinates":[-88.87158967668648,13.519615508322513],"type":"Point"},"placekey":"@d5v-97x-j9z","address":{"country_code":"SV","formatted_address":"G49H+W9M, Zacatecoluca, El Salvador","locality":"Zacatecoluca","region":"La Paz Department"}},"labels":["soccer","sport"],"duration":0,"start_local":"2024-05-04T12:00:00","end":"2024-05-04T18:00:00Z","end_local":"2024-05-04T12:00:00","updated":"2024-06-12T01:28:27Z"},{"title":"Reserve League - Clausura - Santa Tecla U20 vs Jocoro U20","description":"Sourced from predicthq.com","category":"sports","start":"2024-05-04T18:00:00Z","geo":{"geometry":{"coordinates":[-89.2994132,13.6716505],"type":"Point"},"placekey":"@d5t-wwz-4jv","address":{"country_code":"SV","formatted_address":"Ave El Cipres 16, Santa Tecla, El Salvador","locality":"Santa Tecla","region":"La Libertad Department"}},"labels":["soccer","sport"],"duration":0,"start_local":"2024-05-04T12:00:00","end":"2024-05-04T18:00:00Z","end_local":"2024-05-04T12:00:00","updated":"2024-06-12T07:07:31Z"},{"title":"Reserve League - Clausura - Dragón U20 vs Isidro Metapán U20","description":"Sourced from predicthq.com","category":"sports","start":"2024-05-04T18:00:00Z","geo":{"geometry":{"coordinates":[-88.1690809,13.4824791],"type":"Point"},"placekey":"@d5q-275-7wk","address":{"country_code":"SV","formatted_address":"FRJJ+X9V, San Miguel, El Salvador","locality":"San Miguel","region":"San Miguel Department"}},"labels":["soccer","sport"],"duration":0,"start_local":"2024-05-04T12:00:00","end":"2024-05-04T18:00:00Z","end_local":"2024-05-04T12:00:00","updated":"2024-06-12T10:26:26Z"},{"title":"Reserve League - Clausura - Fuerte San Francisco U20 vs Once Deportivo U20","description":"Sourced from predicthq.com","category":"sports","start":"2024-05-04T18:00:00Z","geo":{"geometry":{"coordinates":[-88.08710450452425,13.66528244820085],"type":"Point"},"placekey":"@d5q-2n5-gff","address":{"country_code":"SV","formatted_address":"San Francisco Gotera, El Salvador","locality":"San Francisco Gotera"}},"labels":["soccer","sport"],"duration":0,"start_local":"2024-05-04T12:00:00","end":"2024-05-04T18:00:00Z","end_local":"2024-05-04T12:00:00","updated":"2024-06-11T21:17:05Z"},{"title":"Reserve League - Clausura - FAS U20 vs Águila U20","description":"Sourced from predicthq.com","category":"sports","start":"2024-05-04T18:00:00Z","geo":{"geometry":{"coordinates":[-89.5695111,13.9767498],"type":"Point"},"placekey":"@d5t-vyb-7dv","address":{"country_code":"SV","formatted_address":"Ave Fray Felipe De Jesus Moraga Sur 15, Santa Ana, El Salvador","locality":"Santa Ana","region":"Santa Ana Department"}},"labels":["soccer","sport"],"duration":0,"start_local":"2024-05-04T12:00:00","end":"2024-05-04T18:00:00Z","end_local":"2024-05-04T12:00:00","updated":"2024-06-11T22:06:28Z"},{"title":"Bitcoin Island","description":"Sourced from predicthq.com - Join us on Saturday, May 4th at La Pirraya for different activities happening.","category":"festivals","start":"2024-05-04T12:00:00Z","geo":{"geometry":{"coordinates":[-88.44335129999999,13.2004857],"type":"Point"},"placekey":"@d5v-9yy-x89","address":{"country_code":"SV","formatted_address":"Usulután, El Salvador","region":"Usulután"}},"labels":["festival","science","technology"],"duration":32400,"start_local":"2024-05-04T06:00:00","end":"2024-05-04T21:00:00Z","end_local":"2024-05-04T15:00:00","updated":"2024-06-05T05:58:08Z"},{"title":"Launch of the First Nahuat Dictionary from El Salvador made by a native speaker!","description":"Sourced from predicthq.com - ¡Ven a celebrar el lanzamiento del primer diccionario náhuatl de El Salvador hecho por un hablante nativo!","category":"conferences","start":"2024-05-03T15:00:00Z","geo":{"geometry":{"coordinates":[-89.7976588,13.7170676],"type":"Point"},"placekey":"@d5t-yqw-j9z","address":{"country_code":"SV","formatted_address":"Calle Ruben dario sur, Santo Domingo de Guzman, Sonsonate, El Salvador","locality":"Santo Domingo de Guzman","region":"Sonsonate"}},"labels":["community","conference"],"duration":5400,"start_local":"2024-05-03T09:00:00","end":"2024-05-03T16:30:00Z","end_local":"2024-05-03T10:30:00","updated":"2024-06-05T12:38:32Z"},{"title":"Primera Division - Clausura - Alianza vs FAS","description":"Sourced from predicthq.com","category":"sports","start":"2024-05-02T00:00:00Z","geo":{"geometry":{"coordinates":[-89.2226499,13.6810122],"type":"Point"},"placekey":"@d5v-cp9-7kf","address":{"country_code":"SV","formatted_address":"Calle Antigua a Huizucar, San Salvador, El Salvador","locality":"San Salvador","region":"San Salvador"}},"labels":["soccer","sport"],"duration":7398,"start_local":"2024-05-01T18:00:00","end":"2024-05-02T02:03:18Z","end_local":"2024-05-01T20:03:18","updated":"2024-06-05T05:59:42Z"},{"title":"Primera Division - Clausura - Dragón vs Once Deportivo","description":"Sourced from predicthq.com","category":"sports","start":"2024-05-01T21:30:00Z","geo":{"geometry":{"coordinates":[-88.1690809,13.4824791],"type":"Point"},"placekey":"@d5q-275-7wk","address":{"country_code":"SV","formatted_address":"FRJJ+X9V, San Miguel, El Salvador","locality":"San Miguel","region":"San Miguel Department"}},"labels":["soccer","sport"],"duration":6879,"start_local":"2024-05-01T15:30:00","end":"2024-05-01T23:24:39Z","end_local":"2024-05-01T17:24:39","updated":"2024-06-05T05:17:03Z"},{"title":"Primera Division - Clausura - Jocoro vs Firpo","description":"Sourced from predicthq.com","category":"sports","start":"2024-05-01T21:30:00Z","geo":{"geometry":{"coordinates":[-87.8904117,13.6322553],"type":"Point"},"placekey":"@d5p-y4d-99f","address":{"country_code":"SV","formatted_address":"RN 18E, Santa Rosa de Lima, El Salvador","locality":"Santa Rosa de Lima","region":"La Unión Department"}},"labels":["soccer","sport"],"duration":6750,"start_local":"2024-05-01T15:30:00","end":"2024-05-01T23:22:30Z","end_local":"2024-05-01T17:22:30","updated":"2024-06-05T00:31:13Z"},{"title":"Primera Division - Clausura - Santa Tecla vs Isidro Metapán","description":"Sourced from predicthq.com","category":"sports","start":"2024-05-01T21:30:00Z","geo":{"geometry":{"coordinates":[-89.2994132,13.6716505],"type":"Point"},"placekey":"@d5t-wwz-4jv","address":{"country_code":"SV","formatted_address":"Ave El Cipres 16, Santa Tecla, El Salvador","locality":"Santa Tecla","region":"La Libertad Department"}},"labels":["soccer","sport"],"duration":6760,"start_local":"2024-05-01T15:30:00","end":"2024-05-01T23:22:40Z","end_local":"2024-05-01T17:22:40","updated":"2024-06-12T11:38:46Z"},{"title":"Primera Division - Clausura - Platense vs Águila","description":"Sourced from predicthq.com","category":"sports","start":"2024-05-01T21:30:00Z","geo":{"geometry":{"coordinates":[-88.87158967668648,13.519615508322513],"type":"Point"},"placekey":"@d5v-97x-j9z","address":{"country_code":"SV","formatted_address":"G49H+W9M, Zacatecoluca, El Salvador","locality":"Zacatecoluca","region":"La Paz Department"}},"labels":["soccer","sport"],"duration":6884,"start_local":"2024-05-01T15:30:00","end":"2024-05-01T23:24:44Z","end_local":"2024-05-01T17:24:44","updated":"2024-06-05T02:24:38Z"},{"title":"Primera Division - Clausura - Fuerte San Francisco vs Municipal Limeño","description":"Sourced from predicthq.com","category":"sports","start":"2024-05-01T21:30:00Z","geo":{"geometry":{"coordinates":[-88.08710450452425,13.66528244820085],"type":"Point"},"placekey":"@d5q-2n5-gff","address":{"country_code":"SV","formatted_address":"San Francisco Gotera, El Salvador","locality":"San Francisco Gotera"}},"labels":["soccer","sport"],"duration":6851,"start_local":"2024-05-01T15:30:00","end":"2024-05-01T23:24:11Z","end_local":"2024-05-01T17:24:11","updated":"2024-06-05T03:53:03Z"},{"title":"Reserve League - Clausura - FAS U20 vs Alianza U20","description":"Sourced from predicthq.com","category":"sports","start":"2024-05-01T20:00:00Z","geo":{"geometry":{"coordinates":[-89.5695111,13.9767498],"type":"Point"},"placekey":"@d5t-vyb-7dv","address":{"country_code":"SV","formatted_address":"Ave Fray Felipe De Jesus Moraga Sur 15, Santa Ana, El Salvador","locality":"Santa Ana","region":"Santa Ana Department"}},"labels":["soccer","sport"],"duration":0,"start_local":"2024-05-01T14:00:00","end":"2024-05-01T20:00:00Z","end_local":"2024-05-01T14:00:00","updated":"2024-06-12T03:38:42Z"},{"title":"Reserve League - Clausura - Fuerte San Francisco U20 vs Municipal Limeño U20","description":"Sourced from predicthq.com","category":"sports","start":"2024-05-01T18:30:00Z","geo":{"geometry":{"coordinates":[-88.08710450452425,13.66528244820085],"type":"Point"},"placekey":"@d5q-2n5-gff","address":{"country_code":"SV","formatted_address":"San Francisco Gotera, El Salvador","locality":"San Francisco Gotera"}},"labels":["soccer","sport"],"duration":0,"start_local":"2024-05-01T12:30:00","end":"2024-05-01T18:30:00Z","end_local":"2024-05-01T12:30:00","updated":"2024-06-11T21:17:06Z"},{"title":"Reserve League - Clausura - Jocoro U20 vs Luis Ángel Firpo U20","description":"Sourced from predicthq.com","category":"sports","start":"2024-05-01T18:30:00Z","geo":{"geometry":{"coordinates":[-87.8904117,13.6322553],"type":"Point"},"placekey":"@d5p-y4d-99f","address":{"country_code":"SV","formatted_address":"RN 18E, Santa Rosa de Lima, El Salvador","locality":"Santa Rosa de Lima","region":"La Unión Department"}},"labels":["soccer","sport"],"duration":0,"start_local":"2024-05-01T12:30:00","end":"2024-05-01T18:30:00Z","end_local":"2024-05-01T12:30:00","updated":"2024-06-12T09:38:33Z"},{"title":"Reserve League - Clausura - Dragón U20 vs Once Deportivo U20","description":"Sourced from predicthq.com","category":"sports","start":"2024-05-01T18:30:00Z","geo":{"geometry":{"coordinates":[-88.1690809,13.4824791],"type":"Point"},"placekey":"@d5q-275-7wk","address":{"country_code":"SV","formatted_address":"FRJJ+X9V, San Miguel, El Salvador","locality":"San Miguel","region":"San Miguel Department"}},"labels":["soccer","sport"],"duration":0,"start_local":"2024-05-01T12:30:00","end":"2024-05-01T18:30:00Z","end_local":"2024-05-01T12:30:00","updated":"2024-06-12T05:25:40Z"},{"title":"Reserve League - Clausura - Platense U20 vs Águila U20","description":"Sourced from predicthq.com","category":"sports","start":"2024-05-01T17:30:00Z","geo":{"geometry":{"coordinates":[-88.87158967668648,13.519615508322513],"type":"Point"},"placekey":"@d5v-97x-j9z","address":{"country_code":"SV","formatted_address":"G49H+W9M, Zacatecoluca, El Salvador","locality":"Zacatecoluca","region":"La Paz Department"}},"labels":["soccer","sport"],"duration":0,"start_local":"2024-05-01T11:30:00","end":"2024-05-01T17:30:00Z","end_local":"2024-05-01T11:30:00","updated":"2024-06-12T12:16:27Z"},{"title":"Reserve League - Clausura - Santa Tecla U20 vs Isidro Metapán U20","description":"Sourced from predicthq.com","category":"sports","start":"2024-05-01T16:00:00Z","geo":{"geometry":{"coordinates":[-89.2994132,13.6716505],"type":"Point"},"placekey":"@d5t-wwz-4jv","address":{"country_code":"SV","formatted_address":"Ave El Cipres 16, Santa Tecla, El Salvador","locality":"Santa Tecla","region":"La Libertad Department"}},"labels":["soccer","sport"],"duration":0,"start_local":"2024-05-01T10:00:00","end":"2024-05-01T16:00:00Z","end_local":"2024-05-01T10:00:00","updated":"2024-06-12T04:00:32Z"},{"title":"Megadeth","description":"Sourced from predicthq.com","category":"concerts","start":"2024-05-01T01:00:00Z","geo":{"geometry":{"coordinates":[-89.2226499,13.6810122],"type":"Point"},"placekey":"@d5v-cp9-7kf","address":{"country_code":"SV","formatted_address":"Calle Antigua a Huizucar, San Salvador, El Salvador","locality":"San Salvador","region":"San Salvador"}},"labels":["concert","music"],"duration":0,"start_local":"2024-04-30T19:00:00","end":"2024-05-01T01:00:00Z","end_local":"2024-04-30T19:00:00","updated":"2024-06-26T23:21:02Z"},{"title":"Primera Division - Clausura - Águila vs Dragón","description":"Sourced from predicthq.com","category":"sports","start":"2024-04-28T21:30:00Z","geo":{"geometry":{"coordinates":[-88.1690809,13.4824791],"type":"Point"},"placekey":"@d5q-275-7wk","address":{"country_code":"SV","formatted_address":"FRJJ+X9V, San Miguel, El Salvador","locality":"San Miguel","region":"San Miguel Department"}},"labels":["soccer","sport"],"duration":7591,"start_local":"2024-04-28T15:30:00","end":"2024-04-28T23:36:31Z","end_local":"2024-04-28T17:36:31","updated":"2024-06-05T04:58:01Z"},{"title":"Primera Division - Clausura - Once Deportivo vs FAS","description":"Sourced from predicthq.com","category":"sports","start":"2024-04-28T21:00:00Z","geo":{"geometry":{"coordinates":[-89.84903991222382,13.927027803616781],"type":"Point"},"placekey":"@d5t-xwn-8gk","address":{"country_code":"SV","formatted_address":"W5G2+Q8H, Ahuachapan, El Salvador","locality":"Ahuachapan","region":"Ahuachapán Department"}},"labels":["soccer","sport"],"duration":7182,"start_local":"2024-04-28T15:00:00","end":"2024-04-28T22:59:42Z","end_local":"2024-04-28T16:59:42","updated":"2024-06-05T04:08:44Z"},{"title":"Reserve League - Clausura - Águila U20 vs Dragón U20","description":"Sourced from predicthq.com","category":"sports","start":"2024-04-28T18:30:00Z","geo":{"geometry":{"coordinates":[-88.1690809,13.4824791],"type":"Point"},"placekey":"@d5q-275-7wk","address":{"country_code":"SV","formatted_address":"FRJJ+X9V, San Miguel, El Salvador","locality":"San Miguel","region":"San Miguel Department"}},"labels":["soccer","sport"],"duration":0,"start_local":"2024-04-28T12:30:00","end":"2024-04-28T18:30:00Z","end_local":"2024-04-28T12:30:00","updated":"2024-06-11T22:54:28Z"},{"title":"Reserve League - Clausura - Once Deportivo U20 vs FAS U20","description":"Sourced from predicthq.com","category":"sports","start":"2024-04-28T17:00:00Z","geo":{"geometry":{"coordinates":[-89.84903991222382,13.927027803616781],"type":"Point"},"placekey":"@d5t-xwn-8gk","address":{"country_code":"SV","formatted_address":"W5G2+Q8H, Ahuachapan, El Salvador","locality":"Ahuachapan","region":"Ahuachapán Department"}},"labels":["soccer","sport"],"duration":0,"start_local":"2024-04-28T11:00:00","end":"2024-04-28T17:00:00Z","end_local":"2024-04-28T11:00:00","updated":"2024-06-12T05:31:36Z"},{"title":"Primera Division - Clausura - Firpo vs Santa Tecla","description":"Sourced from predicthq.com","category":"sports","start":"2024-04-28T01:00:00Z","geo":{"geometry":{"coordinates":[-88.4381175,13.3493077],"type":"Point"},"placekey":"@d5v-bgc-gc5","address":{"country_code":"SV","formatted_address":"8HX6+PQ6, Usulutan, El Salvador","locality":"Usulutan","region":"Usulután Department"}},"labels":["soccer","sport"],"duration":6919,"start_local":"2024-04-27T19:00:00","end":"2024-04-28T02:55:19Z","end_local":"2024-04-27T20:55:19","updated":"2024-06-04T22:23:16Z"},{"title":"Primera Division - Clausura - Isidro Metapán vs Platense","description":"Sourced from predicthq.com","category":"sports","start":"2024-04-28T01:00:00Z","geo":{"geometry":{"coordinates":[-89.449203,14.3322306],"type":"Point"},"placekey":"@d5t-zpv-swk","address":{"country_code":"SV","formatted_address":"Metapan, Santa Ana Department, El Salvador","locality":"Metapan","region":"Santa Ana Department"}},"labels":["soccer","sport"],"duration":7276,"start_local":"2024-04-27T19:00:00","end":"2024-04-28T03:01:16Z","end_local":"2024-04-27T21:01:16","updated":"2024-05-24T23:24:26Z"},{"title":"Primera Division - Clausura - Alianza vs Fuerte San Francisco","description":"Sourced from predicthq.com","category":"sports","start":"2024-04-28T01:00:00Z","geo":{"geometry":{"coordinates":[-89.2226499,13.6810122],"type":"Point"},"placekey":"@d5v-cp9-7kf","address":{"country_code":"SV","formatted_address":"Calle Antigua a Huizucar, San Salvador, El Salvador","locality":"San Salvador","region":"San Salvador"}},"labels":["soccer","sport"],"duration":6950,"start_local":"2024-04-27T19:00:00","end":"2024-04-28T02:55:50Z","end_local":"2024-04-27T20:55:50","updated":"2024-06-05T06:23:34Z"},{"title":"Primera Division - Clausura - Jocoro vs Municipal Limeño","description":"Sourced from predicthq.com","category":"sports","start":"2024-04-28T00:30:00Z","geo":{"geometry":{"coordinates":[-87.8904117,13.6322553],"type":"Point"},"placekey":"@d5p-y4d-99f","address":{"country_code":"SV","formatted_address":"RN 18E, Santa Rosa de Lima, El Salvador","locality":"Santa Rosa de Lima","region":"La Unión Department"}},"labels":["soccer","sport"],"duration":7085,"start_local":"2024-04-27T18:30:00","end":"2024-04-28T02:28:05Z","end_local":"2024-04-27T20:28:05","updated":"2024-06-05T03:19:46Z"},{"title":"Reserve League - Clausura - Luis Ángel Firpo U20 vs Santa Tecla U20","description":"Sourced from predicthq.com","category":"sports","start":"2024-04-27T22:00:00Z","geo":{"geometry":{"coordinates":[-88.4381175,13.3493077],"type":"Point"},"placekey":"@d5v-bgc-gc5","address":{"country_code":"SV","formatted_address":"8HX6+PQ6, Usulutan, El Salvador","locality":"Usulutan","region":"Usulután Department"}},"labels":["soccer","sport"],"duration":0,"start_local":"2024-04-27T16:00:00","end":"2024-04-27T22:00:00Z","end_local":"2024-04-27T16:00:00","updated":"2024-06-11T20:59:29Z"},{"title":"Reserve League - Clausura - Jocoro U20 vs Municipal Limeño U20","description":"Sourced from predicthq.com","category":"sports","start":"2024-04-27T21:30:00Z","geo":{"geometry":{"coordinates":[-87.8904117,13.6322553],"type":"Point"},"placekey":"@d5p-y4d-99f","address":{"country_code":"SV","formatted_address":"RN 18E, Santa Rosa de Lima, El Salvador","locality":"Santa Rosa de Lima","region":"La Unión Department"}},"labels":["soccer","sport"],"duration":0,"start_local":"2024-04-27T15:30:00","end":"2024-04-27T21:30:00Z","end_local":"2024-04-27T15:30:00","updated":"2024-06-11T23:18:37Z"},{"title":"Reserve League - Clausura - Isidro Metapán U20 vs Platense U20","description":"Sourced from predicthq.com","category":"sports","start":"2024-04-27T20:30:00Z","geo":{"geometry":{"coordinates":[-89.449203,14.3322306],"type":"Point"},"placekey":"@d5t-zpv-swk","address":{"country_code":"SV","formatted_address":"Metapan, Santa Ana Department, El Salvador","locality":"Metapan","region":"Santa Ana Department"}},"labels":["soccer","sport"],"duration":0,"start_local":"2024-04-27T14:30:00","end":"2024-04-27T20:30:00Z","end_local":"2024-04-27T14:30:00","updated":"2024-06-11T23:54:28Z"},{"title":"Reserve League - Clausura - Alianza U20 vs Fuerte San Francisco U20","description":"Sourced from predicthq.com","category":"sports","start":"2024-04-27T16:00:00Z","geo":{"geometry":{"coordinates":[-89.23798037168882,13.704002086188996],"type":"Point"},"placekey":"@d5v-2hz-6ff","address":{"country_code":"SV","formatted_address":"PQ36+PJ2 Federación Salvadoreña de Fútbol, San Salvador, El Salvador","locality":"San Salvador","region":"San Salvador"}},"labels":["soccer","sport"],"duration":0,"start_local":"2024-04-27T10:00:00","end":"2024-04-27T16:00:00Z","end_local":"2024-04-27T10:00:00","updated":"2024-06-12T02:43:02Z"},{"title":"Primera Division - Clausura - Águila vs Santa Tecla","description":"Sourced from predicthq.com","category":"sports","start":"2024-04-26T01:30:00Z","geo":{"geometry":{"coordinates":[-89.2226499,13.6810122],"type":"Point"},"placekey":"@d5v-cp9-7kf","address":{"country_code":"SV","formatted_address":"Calle Antigua a Huizucar, San Salvador, El Salvador","locality":"San Salvador","region":"San Salvador"}},"labels":["soccer","sport"],"duration":6931,"start_local":"2024-04-25T19:30:00","end":"2024-04-26T03:25:31Z","end_local":"2024-04-25T21:25:31","updated":"2024-06-05T08:45:03Z"},{"title":"MANÁ","description":"Sourced from predicthq.com - ¡OYE MI AMOR, NO ME DIGAS QUE NO!  Estamos muy emocionados por cantar este y todos los éxitos de Maná.","category":"concerts","start":"2024-04-25T23:00:00Z","geo":{"geometry":{"coordinates":[-89.2153659,13.6983143],"type":"Point"},"placekey":"@d5v-cqt-xt9","address":{"country_code":"SV","formatted_address":"49 Avenida Sur, San Salvador, El Salvador","locality":"San Salvador","region":"San Salvador"}},"labels":["concert","music"],"duration":0,"start_local":"2024-04-25T17:00:00","end":"2024-04-25T23:00:00Z","end_local":"2024-04-25T17:00:00","updated":"2024-06-28T04:42:05Z"},{"title":"Reserve League - Clausura - Municipal Limeño U20 vs Luis Ángel Firpo U20","description":"Sourced from predicthq.com","category":"sports","start":"2024-04-25T20:00:00Z","geo":{"geometry":{"coordinates":[-87.8904117,13.6322553],"type":"Point"},"placekey":"@d5p-y4d-99f","address":{"country_code":"SV","formatted_address":"RN 18E, Santa Rosa de Lima, El Salvador","locality":"Santa Rosa de Lima","region":"La Unión Department"}},"labels":["soccer","sport"],"duration":0,"start_local":"2024-04-25T14:00:00","end":"2024-04-25T20:00:00Z","end_local":"2024-04-25T14:00:00","updated":"2024-06-12T16:32:53Z"},{"title":"Primera Division - Clausura - Isidro Metapán vs Jocoro","description":"Sourced from predicthq.com","category":"sports","start":"2024-04-25T01:30:00Z","geo":{"geometry":{"coordinates":[-89.449203,14.3322306],"type":"Point"},"placekey":"@d5t-zpv-swk","address":{"country_code":"SV","formatted_address":"Metapan, Santa Ana Department, El Salvador","locality":"Metapan","region":"Santa Ana Department"}},"labels":["soccer","sport"],"duration":6577,"start_local":"2024-04-24T19:30:00","end":"2024-04-25T03:19:37Z","end_local":"2024-04-24T21:19:37","updated":"2024-05-24T23:24:02Z"},{"title":"Primera Division - Clausura - Municipal Limeño vs Firpo","description":"Sourced from predicthq.com","category":"sports","start":"2024-04-25T01:30:00Z","geo":{"geometry":{"coordinates":[-87.8904117,13.6322553],"type":"Point"},"placekey":"@d5p-y4d-99f","address":{"country_code":"SV","formatted_address":"RN 18E, Santa Rosa de Lima, El Salvador","locality":"Santa Rosa de Lima","region":"La Unión Department"}},"labels":["soccer","sport"],"duration":6740,"start_local":"2024-04-24T19:30:00","end":"2024-04-25T03:22:20Z","end_local":"2024-04-24T21:22:20","updated":"2024-06-05T04:40:41Z"},{"title":"Primera Division - Clausura - Alianza vs Dragón","description":"Sourced from predicthq.com","category":"sports","start":"2024-04-25T01:00:00Z","geo":{"geometry":{"coordinates":[-89.2226499,13.6810122],"type":"Point"},"placekey":"@d5v-cp9-7kf","address":{"country_code":"SV","formatted_address":"Calle Antigua a Huizucar, San Salvador, El Salvador","locality":"San Salvador","region":"San Salvador"}},"labels":["soccer","sport"],"duration":7021,"start_local":"2024-04-24T19:00:00","end":"2024-04-25T02:57:01Z","end_local":"2024-04-24T20:57:01","updated":"2024-06-05T01:22:08Z"},{"title":"Reserve League - Clausura - Isidro Metapán U20 vs Jocoro U20","description":"Sourced from predicthq.com","category":"sports","start":"2024-04-24T21:30:00Z","geo":{"geometry":{"coordinates":[-89.449203,14.3322306],"type":"Point"},"placekey":"@d5t-zpv-swk","address":{"country_code":"SV","formatted_address":"Metapan, Santa Ana Department, El Salvador","locality":"Metapan","region":"Santa Ana Department"}},"labels":["soccer","sport"],"duration":0,"start_local":"2024-04-24T15:30:00","end":"2024-04-24T21:30:00Z","end_local":"2024-04-24T15:30:00","updated":"2024-06-12T08:30:49Z"},{"title":"Primera Division - Clausura - Once Deportivo vs Platense","description":"Sourced from predicthq.com","category":"sports","start":"2024-04-24T21:30:00Z","geo":{"geometry":{"coordinates":[-89.84903991222382,13.927027803616781],"type":"Point"},"placekey":"@d5t-xwn-8gk","address":{"country_code":"SV","formatted_address":"W5G2+Q8H, Ahuachapan, El Salvador","locality":"Ahuachapan","region":"Ahuachapán Department"}},"labels":["soccer","sport"],"duration":7133,"start_local":"2024-04-24T15:30:00","end":"2024-04-24T23:28:53Z","end_local":"2024-04-24T17:28:53","updated":"2024-06-05T07:40:35Z"},{"title":"Primera Division - Clausura - Fuerte San Francisco vs FAS","description":"Sourced from predicthq.com","category":"sports","start":"2024-04-24T21:00:00Z","geo":{"geometry":{"coordinates":[-88.08710450452425,13.66528244820085],"type":"Point"},"placekey":"@d5q-2n5-gff","address":{"country_code":"SV","formatted_address":"San Francisco Gotera, El Salvador","locality":"San Francisco Gotera"}},"labels":["soccer","sport"],"duration":6890,"start_local":"2024-04-24T15:00:00","end":"2024-04-24T22:54:50Z","end_local":"2024-04-24T16:54:50","updated":"2024-06-05T01:55:47Z"},{"title":"Reserve League - Clausura - Águila U20 vs Santa Tecla U20","description":"Sourced from predicthq.com","category":"sports","start":"2024-04-24T21:00:00Z","geo":{"geometry":{"coordinates":[-88.2370993736107,13.520731404957523],"type":"Point"},"placekey":"@d5q-2g8-r6k","address":{"country_code":"SV","formatted_address":"GQC7+84H, Quelepa, El Salvador","locality":"Quelepa","region":"San Miguel Department"}},"labels":["soccer","sport"],"duration":0,"start_local":"2024-04-24T15:00:00","end":"2024-04-24T21:00:00Z","end_local":"2024-04-24T15:00:00","updated":"2024-06-12T17:21:33Z"},{"title":"Reserve League - Clausura - Fuerte San Francisco U20 vs FAS U20","description":"Sourced from predicthq.com","category":"sports","start":"2024-04-24T18:00:00Z","geo":{"geometry":{"coordinates":[-88.08710450452425,13.66528244820085],"type":"Point"},"placekey":"@d5q-2n5-gff","address":{"country_code":"SV","formatted_address":"San Francisco Gotera, El Salvador","locality":"San Francisco Gotera"}},"labels":["soccer","sport"],"duration":0,"start_local":"2024-04-24T12:00:00","end":"2024-04-24T18:00:00Z","end_local":"2024-04-24T12:00:00","updated":"2024-06-12T03:23:44Z"},{"title":"Reserve League - Clausura - Alianza U20 vs Dragón U20","description":"Sourced from predicthq.com","category":"sports","start":"2024-04-24T16:00:00Z","geo":{"geometry":{"coordinates":[-89.23798037168882,13.704002086188996],"type":"Point"},"placekey":"@d5v-2hz-6ff","address":{"country_code":"SV","formatted_address":"PQ36+PJ2 Federación Salvadoreña de Fútbol, San Salvador, El Salvador","locality":"San Salvador","region":"San Salvador"}},"labels":["soccer","sport"],"duration":0,"start_local":"2024-04-24T10:00:00","end":"2024-04-24T16:00:00Z","end_local":"2024-04-24T10:00:00","updated":"2024-06-12T15:47:43Z"},{"title":"Primera Division - Clausura - Platense vs Alianza","description":"Sourced from predicthq.com","category":"sports","start":"2024-04-21T21:30:00Z","geo":{"geometry":{"coordinates":[-88.87158967668648,13.519615508322513],"type":"Point"},"placekey":"@d5v-97x-j9z","address":{"country_code":"SV","formatted_address":"G49H+W9M, Zacatecoluca, El Salvador","locality":"Zacatecoluca","region":"La Paz Department"}},"labels":["soccer","sport"],"duration":7127,"start_local":"2024-04-21T15:30:00","end":"2024-04-21T23:28:47Z","end_local":"2024-04-21T17:28:47","updated":"2024-06-05T20:00:35Z"},{"title":"Primera Division - Clausura - Dragón vs Fuerte San Francisco","description":"Sourced from predicthq.com","category":"sports","start":"2024-04-21T21:30:00Z","geo":{"geometry":{"coordinates":[-88.1690809,13.4824791],"type":"Point"},"placekey":"@d5q-275-7wk","address":{"country_code":"SV","formatted_address":"FRJJ+X9V, San Miguel, El Salvador","locality":"San Miguel","region":"San Miguel Department"}},"labels":["soccer","sport"],"duration":7179,"start_local":"2024-04-21T15:30:00","end":"2024-04-21T23:29:39Z","end_local":"2024-04-21T17:29:39","updated":"2024-06-05T02:08:46Z"},{"title":"Primera Division - Clausura - Jocoro vs Águila","description":"Sourced from predicthq.com","category":"sports","start":"2024-04-21T21:30:00Z","geo":{"geometry":{"coordinates":[-87.8904117,13.6322553],"type":"Point"},"placekey":"@d5p-y4d-99f","address":{"country_code":"SV","formatted_address":"RN 18E, Santa Rosa de Lima, El Salvador","locality":"Santa Rosa de Lima","region":"La Unión Department"}},"labels":["soccer","sport"],"duration":6999,"start_local":"2024-04-21T15:30:00","end":"2024-04-21T23:26:39Z","end_local":"2024-04-21T17:26:39","updated":"2024-06-05T02:02:06Z"},{"title":"Primera Division - Clausura - Santa Tecla vs Once Deportivo","description":"Sourced from predicthq.com","category":"sports","start":"2024-04-21T21:30:00Z","geo":{"geometry":{"coordinates":[-89.2994132,13.6716505],"type":"Point"},"placekey":"@d5t-wwz-4jv","address":{"country_code":"SV","formatted_address":"Ave El Cipres 16, Santa Tecla, El Salvador","locality":"Santa Tecla","region":"La Libertad Department"}},"labels":["soccer","sport"],"duration":6993,"start_local":"2024-04-21T15:30:00","end":"2024-04-21T23:26:33Z","end_local":"2024-04-21T17:26:33","updated":"2024-06-12T09:40:58Z"},{"title":"Reserve League - Clausura - Jocoro U20 vs Águila U20","description":"Sourced from predicthq.com","category":"sports","start":"2024-04-21T18:30:00Z","geo":{"geometry":{"coordinates":[-87.8904117,13.6322553],"type":"Point"},"placekey":"@d5p-y4d-99f","address":{"country_code":"SV","formatted_address":"RN 18E, Santa Rosa de Lima, El Salvador","locality":"Santa Rosa de Lima","region":"La Unión Department"}},"labels":["soccer","sport"],"duration":0,"start_local":"2024-04-21T12:30:00","end":"2024-04-21T18:30:00Z","end_local":"2024-04-21T12:30:00","updated":"2024-06-12T09:05:33Z"},{"title":"Reserve League - Clausura - Dragón U20 vs Fuerte San Francisco U20","description":"Sourced from predicthq.com","category":"sports","start":"2024-04-21T18:30:00Z","geo":{"geometry":{"coordinates":[-88.1690809,13.4824791],"type":"Point"},"placekey":"@d5q-275-7wk","address":{"country_code":"SV","formatted_address":"FRJJ+X9V, San Miguel, El Salvador","locality":"San Miguel","region":"San Miguel Department"}},"labels":["soccer","sport"],"duration":0,"start_local":"2024-04-21T12:30:00","end":"2024-04-21T18:30:00Z","end_local":"2024-04-21T12:30:00","updated":"2024-06-12T11:52:15Z"},{"title":"Reserve League - Clausura - Santa Tecla U20 vs Once Deportivo U20","description":"Sourced from predicthq.com","category":"sports","start":"2024-04-21T18:00:00Z","geo":{"geometry":{"coordinates":[-89.2994132,13.6716505],"type":"Point"},"placekey":"@d5t-wwz-4jv","address":{"country_code":"SV","formatted_address":"Ave El Cipres 16, Santa Tecla, El Salvador","locality":"Santa Tecla","region":"La Libertad Department"}},"labels":["soccer","sport"],"duration":0,"start_local":"2024-04-21T12:00:00","end":"2024-04-21T18:00:00Z","end_local":"2024-04-21T12:00:00","updated":"2024-06-12T10:22:49Z"},{"title":"Reserve League - Clausura - Platense U20 vs Alianza U20","description":"Sourced from predicthq.com","category":"sports","start":"2024-04-21T17:00:00Z","geo":{"geometry":{"coordinates":[-88.87158967668648,13.519615508322513],"type":"Point"},"placekey":"@d5v-97x-j9z","address":{"country_code":"SV","formatted_address":"G49H+W9M, Zacatecoluca, El Salvador","locality":"Zacatecoluca","region":"La Paz Department"}},"labels":["soccer","sport"],"duration":0,"start_local":"2024-04-21T11:00:00","end":"2024-04-21T17:00:00Z","end_local":"2024-04-21T11:00:00","updated":"2024-06-12T07:48:33Z"},{"title":"Inflorescencia and Okupas","description":"Sourced from predicthq.com","category":"concerts","start":"2024-04-21T01:30:00Z","geo":{"geometry":{"coordinates":[-89.20911,13.71182],"type":"Point"},"placekey":"@d5v-cr2-zpv","address":{"country_code":"SV","formatted_address":"PQ6R+P99, San Salvador, El Salvador","locality":"San Salvador","region":"San Salvador Department"}},"labels":["concert","music"],"duration":0,"start_local":"2024-04-20T19:30:00","end":"2024-04-21T01:30:00Z","end_local":"2024-04-20T19:30:00","updated":"2024-06-12T15:40:13Z"},{"title":"Primera Division - Clausura - Municipal Limeño vs FAS","description":"Sourced from predicthq.com","category":"sports","start":"2024-04-21T01:00:00Z","geo":{"geometry":{"coordinates":[-87.8904117,13.6322553],"type":"Point"},"placekey":"@d5p-y4d-99f","address":{"country_code":"SV","formatted_address":"RN 18E, Santa Rosa de Lima, El Salvador","locality":"Santa Rosa de Lima","region":"La Unión Department"}},"labels":["soccer","sport"],"duration":7005,"start_local":"2024-04-20T19:00:00","end":"2024-04-21T02:56:45Z","end_local":"2024-04-20T20:56:45","updated":"2024-06-05T13:41:27Z"},{"title":"Primera Division - Clausura - Firpo vs Isidro Metapán","description":"Sourced from predicthq.com","category":"sports","start":"2024-04-21T01:00:00Z","geo":{"geometry":{"coordinates":[-88.4381175,13.3493077],"type":"Point"},"placekey":"@d5v-bgc-gc5","address":{"country_code":"SV","formatted_address":"8HX6+PQ6, Usulutan, El Salvador","locality":"Usulutan","region":"Usulután Department"}},"labels":["soccer","sport"],"duration":7086,"start_local":"2024-04-20T19:00:00","end":"2024-04-21T02:58:06Z","end_local":"2024-04-20T20:58:06","updated":"2024-06-05T01:59:22Z"},{"title":"Reserve League - Clausura - Luis Ángel Firpo U20 vs Isidro Metapán U20","description":"Sourced from predicthq.com","category":"sports","start":"2024-04-20T21:00:00Z","geo":{"geometry":{"coordinates":[-88.4381175,13.3493077],"type":"Point"},"placekey":"@d5v-bgc-gc5","address":{"country_code":"SV","formatted_address":"8HX6+PQ6, Usulutan, El Salvador","locality":"Usulutan","region":"Usulután Department"}},"labels":["soccer","sport"],"duration":0,"start_local":"2024-04-20T15:00:00","end":"2024-04-20T21:00:00Z","end_local":"2024-04-20T15:00:00","updated":"2024-06-12T01:14:27Z"},{"title":"Elaniin AI","description":"Sourced from predicthq.com - Elaniin AI es una oportunidad para explorar el impacto de la inteligencia artificial en nuestras vidas y cómo moldeará nuestro futuro.","category":"conferences","start":"2024-04-19T19:30:00Z","geo":{"geometry":{"coordinates":[-89.24122679999999,13.7096142],"type":"Point"},"placekey":"@d5v-2hy-yqf","address":{"country_code":"SV","formatted_address":"89 Avenida Norte, San Salvador, San Salvador Department, El Salvador","locality":"San Salvador","region":"San Salvador Department"}},"labels":["conference","science","technology"],"duration":0,"start_local":"2024-04-19T13:30:00","end":"2024-04-19T19:30:00Z","end_local":"2024-04-19T13:30:00","updated":"2024-06-05T12:31:26Z"},{"title":"Reserve League - Clausura - Municipal Limeño U20 vs FAS U20","description":"Sourced from predicthq.com","category":"sports","start":"2024-04-19T18:30:00Z","geo":{"geometry":{"coordinates":[-87.8904117,13.6322553],"type":"Point"},"placekey":"@d5p-y4d-99f","address":{"country_code":"SV","formatted_address":"RN 18E, Santa Rosa de Lima, El Salvador","locality":"Santa Rosa de Lima","region":"La Unión Department"}},"labels":["soccer","sport"],"duration":0,"start_local":"2024-04-19T12:30:00","end":"2024-04-19T18:30:00Z","end_local":"2024-04-19T12:30:00","updated":"2024-06-12T11:41:46Z"},{"title":"Diego Ojeda","description":"Sourced from predicthq.com","category":"concerts","start":"2024-04-19T02:00:00Z","geo":{"geometry":{"coordinates":[-89.2927474,13.6757783],"type":"Point"},"placekey":"@d5t-wwy-qpv","address":{"country_code":"SV","formatted_address":"Paseo Concepcion, entre 8ta av norte y 10a av norte casa 5-4, Santa Tecla, El Salvador","locality":"Santa Tecla","region":"La Libertad"}},"labels":["concert","music"],"duration":0,"start_local":"2024-04-18T20:00:00","end":"2024-04-19T02:00:00Z","end_local":"2024-04-18T20:00:00","updated":"2024-06-12T16:15:34Z"},{"title":"Ocean of emotions","description":"Sourced from predicthq.com - Dive into a whirlwind of feelings at Ocean of Emotions, where you'll navigate through a sea of emotions in a unique and immersive experience","category":"performing-arts","start":"2024-04-18T00:00:00Z","geo":{"geometry":{"coordinates":[-89.44218599999999,13.4956194],"type":"Point"},"placekey":"@d5t-w8m-nkf","address":{"country_code":"SV","formatted_address":"El Zonte, La Libertad Department, El Salvador","locality":"El Zonte","region":"La Libertad Department"}},"labels":["concert","music","performing-arts"],"duration":10800,"start_local":"2024-04-17T18:00:00","end":"2024-04-18T03:00:00Z","end_local":"2024-04-17T21:00:00","updated":"2024-06-05T14:06:12Z"},{"title":"Anthrax and Overkill","description":"Sourced from predicthq.com","category":"concerts","start":"2024-04-16T01:00:00Z","geo":{"geometry":{"coordinates":[-89.2795682,13.6741722],"type":"Point"},"placekey":"@d5t-wwv-28v","address":{"country_code":"SV","formatted_address":"Auditorio ITCA, Santa Tecla, El Salvador","locality":"Santa Tecla","region":"La Libertad"}},"labels":["concert","music"],"duration":0,"start_local":"2024-04-15T19:00:00","end":"2024-04-16T01:00:00Z","end_local":"2024-04-15T19:00:00","updated":"2024-06-12T14:31:55Z"},{"title":"Primera Division - Clausura - Municipal Limeño vs Isidro Metapán","description":"Sourced from predicthq.com","category":"sports","start":"2024-04-15T00:00:00Z","geo":{"geometry":{"coordinates":[-87.8904117,13.6322553],"type":"Point"},"placekey":"@d5p-y4d-99f","address":{"country_code":"SV","formatted_address":"RN 18E, Santa Rosa de Lima, El Salvador","locality":"Santa Rosa de Lima","region":"La Unión Department"}},"labels":["soccer","sport"],"duration":7010,"start_local":"2024-04-14T18:00:00","end":"2024-04-15T01:56:50Z","end_local":"2024-04-14T19:56:50","updated":"2024-06-05T07:49:12Z"},{"title":"Primera Division - Clausura - Fuerte San Francisco vs Platense","description":"Sourced from predicthq.com","category":"sports","start":"2024-04-14T21:00:00Z","geo":{"geometry":{"coordinates":[-88.08710450452425,13.66528244820085],"type":"Point"},"placekey":"@d5q-2n5-gff","address":{"country_code":"SV","formatted_address":"San Francisco Gotera, El Salvador","locality":"San Francisco Gotera"}},"labels":["soccer","sport"],"duration":6821,"start_local":"2024-04-14T15:00:00","end":"2024-04-14T22:53:41Z","end_local":"2024-04-14T16:53:41","updated":"2024-06-05T10:21:00Z"},{"title":"Primera Division - Clausura - Once Deportivo vs Jocoro","description":"Sourced from predicthq.com","category":"sports","start":"2024-04-14T21:00:00Z","geo":{"geometry":{"coordinates":[-89.84903991222382,13.927027803616781],"type":"Point"},"placekey":"@d5t-xwn-8gk","address":{"country_code":"SV","formatted_address":"W5G2+Q8H, Ahuachapan, El Salvador","locality":"Ahuachapan","region":"Ahuachapán Department"}},"labels":["soccer","sport"],"duration":6965,"start_local":"2024-04-14T15:00:00","end":"2024-04-14T22:56:05Z","end_local":"2024-04-14T16:56:05","updated":"2024-06-05T03:15:20Z"},{"title":"Reserve League - Clausura - Once Deportivo U20 vs Jocoro U20","description":"Sourced from predicthq.com","category":"sports","start":"2024-04-14T18:00:00Z","geo":{"geometry":{"coordinates":[-89.84903991222382,13.927027803616781],"type":"Point"},"placekey":"@d5t-xwn-8gk","address":{"country_code":"SV","formatted_address":"W5G2+Q8H, Ahuachapan, El Salvador","locality":"Ahuachapan","region":"Ahuachapán Department"}},"labels":["soccer","sport"],"duration":0,"start_local":"2024-04-14T12:00:00","end":"2024-04-14T18:00:00Z","end_local":"2024-04-14T12:00:00","updated":"2024-06-12T08:26:17Z"},{"title":"Dragon","description":"Sourced from predicthq.com","category":"concerts","start":"2024-04-14T01:30:00Z","geo":{"geometry":{"coordinates":[-89.56391,13.97783],"type":"Point"},"placekey":"@d5t-vyb-6zf","address":{"country_code":"SV","formatted_address":"Av, Estadio Óscar Quiteño, Ave Fray Felipe De Jesus Moraga Sur, Santa Ana, El Salvador","locality":"Santa Ana","region":"Santa Ana"}},"labels":["concert","music"],"duration":0,"start_local":"2024-04-13T19:30:00","end":"2024-04-14T01:30:00Z","end_local":"2024-04-13T19:30:00","updated":"2024-07-05T11:32:17Z"},{"title":"Primera Division - Clausura - FAS vs Dragón","description":"Sourced from predicthq.com","category":"sports","start":"2024-04-14T01:30:00Z","geo":{"geometry":{"coordinates":[-89.5695111,13.9767498],"type":"Point"},"placekey":"@d5t-vyb-7dv","address":{"country_code":"SV","formatted_address":"Ave Fray Felipe De Jesus Moraga Sur 15, Santa Ana, El Salvador","locality":"Santa Ana","region":"Santa Ana Department"}},"labels":["soccer","sport"],"duration":6939,"start_local":"2024-04-13T19:30:00","end":"2024-04-14T03:25:39Z","end_local":"2024-04-13T21:25:39","updated":"2024-06-05T07:22:39Z"},{"title":"2 Minutos","description":"Sourced from predicthq.com","category":"concerts","start":"2024-04-14T01:00:00Z","geo":{"geometry":{"coordinates":[-89.20789,13.69764],"type":"Point"},"placekey":"@d5v-cqv-skf","address":{"country_code":"SV","formatted_address":"6-10 Calle Pte., San Salvador, El Salvador","locality":"San Salvador","region":"San Salvador"}},"labels":["concert","music"],"duration":0,"start_local":"2024-04-13T19:00:00","end":"2024-04-14T01:00:00Z","end_local":"2024-04-13T19:00:00","updated":"2024-06-12T04:38:18Z"},{"title":"Primera Division - Clausura - Santa Tecla vs Alianza","description":"Sourced from predicthq.com","category":"sports","start":"2024-04-14T00:30:00Z","geo":{"geometry":{"coordinates":[-89.2994132,13.6716505],"type":"Point"},"placekey":"@d5t-wwz-4jv","address":{"country_code":"SV","formatted_address":"Ave El Cipres 16, Santa Tecla, El Salvador","locality":"Santa Tecla","region":"La Libertad Department"}},"labels":["soccer","sport"],"duration":6520,"start_local":"2024-04-13T18:30:00","end":"2024-04-14T02:18:40Z","end_local":"2024-04-13T20:18:40","updated":"2024-06-12T15:51:34Z"},{"title":"Primera Division - Clausura - Águila vs Firpo","description":"Sourced from predicthq.com","category":"sports","start":"2024-04-14T00:00:00Z","geo":{"geometry":{"coordinates":[-89.2226499,13.6810122],"type":"Point"},"placekey":"@d5v-cp9-7kf","address":{"country_code":"SV","formatted_address":"Calle Antigua a Huizucar, San Salvador, El Salvador","locality":"San Salvador","region":"San Salvador"}},"labels":["soccer","sport"],"duration":7626,"start_local":"2024-04-13T18:00:00","end":"2024-04-14T02:07:06Z","end_local":"2024-04-13T20:07:06","updated":"2024-06-04T23:07:29Z"},{"title":"Reserve League - Clausura - Águila U20 vs Luis Ángel Firpo U20","description":"Sourced from predicthq.com","category":"sports","start":"2024-04-13T21:00:00Z","geo":{"geometry":{"coordinates":[-88.2370993736107,13.520731404957523],"type":"Point"},"placekey":"@d5q-2g8-r6k","address":{"country_code":"SV","formatted_address":"GQC7+84H, Quelepa, El Salvador","locality":"Quelepa","region":"San Miguel Department"}},"labels":["soccer","sport"],"duration":0,"start_local":"2024-04-13T15:00:00","end":"2024-04-13T21:00:00Z","end_local":"2024-04-13T15:00:00","updated":"2024-06-12T05:59:04Z"},{"title":"Reserve League - Clausura - Santa Tecla U20 vs Alianza U20","description":"Sourced from predicthq.com","category":"sports","start":"2024-04-13T21:00:00Z","geo":{"geometry":{"coordinates":[-89.2994132,13.6716505],"type":"Point"},"placekey":"@d5t-wwz-4jv","address":{"country_code":"SV","formatted_address":"Ave El Cipres 16, Santa Tecla, El Salvador","locality":"Santa Tecla","region":"La Libertad Department"}},"labels":["soccer","sport"],"duration":0,"start_local":"2024-04-13T15:00:00","end":"2024-04-13T21:00:00Z","end_local":"2024-04-13T15:00:00","updated":"2024-06-12T11:41:28Z"},{"title":"Reserve League - Clausura - FAS U20 vs Dragón U20","description":"Sourced from predicthq.com","category":"sports","start":"2024-04-13T20:00:00Z","geo":{"geometry":{"coordinates":[-89.5695111,13.9767498],"type":"Point"},"placekey":"@d5t-vyb-7dv","address":{"country_code":"SV","formatted_address":"Ave Fray Felipe De Jesus Moraga Sur 15, Santa Ana, El Salvador","locality":"Santa Ana","region":"Santa Ana Department"}},"labels":["soccer","sport"],"duration":0,"start_local":"2024-04-13T14:00:00","end":"2024-04-13T20:00:00Z","end_local":"2024-04-13T14:00:00","updated":"2024-06-11T22:42:30Z"},{"title":"Reserve League - Clausura - Municipal Limeño U20 vs Isidro Metapán U20","description":"Sourced from predicthq.com","category":"sports","start":"2024-04-13T19:30:00Z","geo":{"geometry":{"coordinates":[-87.8904117,13.6322553],"type":"Point"},"placekey":"@d5p-y4d-99f","address":{"country_code":"SV","formatted_address":"RN 18E, Santa Rosa de Lima, El Salvador","locality":"Santa Rosa de Lima","region":"La Unión Department"}},"labels":["soccer","sport"],"duration":0,"start_local":"2024-04-13T13:30:00","end":"2024-04-13T19:30:00Z","end_local":"2024-04-13T13:30:00","updated":"2024-06-12T13:39:01Z"},{"title":"Reserve League - Clausura - Fuerte San Francisco U20 vs Platense U20","description":"Sourced from predicthq.com","category":"sports","start":"2024-04-13T18:00:00Z","geo":{"geometry":{"coordinates":[-88.08710450452425,13.66528244820085],"type":"Point"},"placekey":"@d5q-2n5-gff","address":{"country_code":"SV","formatted_address":"San Francisco Gotera, El Salvador","locality":"San Francisco Gotera"}},"labels":["soccer","sport"],"duration":0,"start_local":"2024-04-13T12:00:00","end":"2024-04-13T18:00:00Z","end_local":"2024-04-13T12:00:00","updated":"2024-06-12T01:32:38Z"},{"title":"Congresso Mundial de Espiritualidade","description":"Sourced from predicthq.com - Práctica que llevará a las personas a una conexión con el corazón de Dios y un conocimiento de su propósito","category":"conferences","start":"2024-04-13T00:00:00Z","geo":{"geometry":{"coordinates":[-89.237675,13.6926769],"type":"Point"},"placekey":"@d5v-2hr-r6k","address":{"country_code":"SV","formatted_address":"Av. Las Magnolias, San Salvador, San Salvador, El Salvador","locality":"San Salvador","region":"San Salvador"}},"labels":["conference","religion"],"duration":16200,"start_local":"2024-04-12T18:00:00","end":"2024-04-13T04:30:00Z","end_local":"2024-04-12T22:30:00","updated":"2024-05-27T00:15:28Z"},{"title":"Primera Division - Clausura - Isidro Metapán vs Águila","description":"Sourced from predicthq.com","category":"sports","start":"2024-04-11T01:30:00Z","geo":{"geometry":{"coordinates":[-89.449203,14.3322306],"type":"Point"},"placekey":"@d5t-zpv-swk","address":{"country_code":"SV","formatted_address":"Metapan, Santa Ana Department, El Salvador","locality":"Metapan","region":"Santa Ana Department"}},"labels":["soccer","sport"],"duration":7242,"start_local":"2024-04-10T19:30:00","end":"2024-04-11T03:30:42Z","end_local":"2024-04-10T21:30:42","updated":"2024-05-25T04:30:58Z"},{"title":"Primera Division - Clausura - Platense vs FAS","description":"Sourced from predicthq.com","category":"sports","start":"2024-04-10T21:30:00Z","geo":{"geometry":{"coordinates":[-88.87158967668648,13.519615508322513],"type":"Point"},"placekey":"@d5v-97x-j9z","address":{"country_code":"SV","formatted_address":"G49H+W9M, Zacatecoluca, El Salvador","locality":"Zacatecoluca","region":"La Paz Department"}},"labels":["soccer","sport"],"duration":7249,"start_local":"2024-04-10T15:30:00","end":"2024-04-10T23:30:49Z","end_local":"2024-04-10T17:30:49","updated":"2024-06-05T06:19:23Z"},{"title":"Primera Division - Clausura - Dragón vs Municipal Limeño","description":"Sourced from predicthq.com","category":"sports","start":"2024-04-10T21:30:00Z","geo":{"geometry":{"coordinates":[-88.1690809,13.4824791],"type":"Point"},"placekey":"@d5q-275-7wk","address":{"country_code":"SV","formatted_address":"FRJJ+X9V, San Miguel, El Salvador","locality":"San Miguel","region":"San Miguel Department"}},"labels":["soccer","sport"],"duration":7040,"start_local":"2024-04-10T15:30:00","end":"2024-04-10T23:27:20Z","end_local":"2024-04-10T17:27:20","updated":"2024-06-05T10:34:09Z"},{"title":"Primera Division - Clausura - Firpo vs Once Deportivo","description":"Sourced from predicthq.com","category":"sports","start":"2024-04-10T21:30:00Z","geo":{"geometry":{"coordinates":[-88.4381175,13.3493077],"type":"Point"},"placekey":"@d5v-bgc-gc5","address":{"country_code":"SV","formatted_address":"8HX6+PQ6, Usulutan, El Salvador","locality":"Usulutan","region":"Usulután Department"}},"labels":["soccer","sport"],"duration":7032,"start_local":"2024-04-10T15:30:00","end":"2024-04-10T23:27:12Z","end_local":"2024-04-10T17:27:12","updated":"2024-06-05T02:41:23Z"},{"title":"Reserve League - Clausura - Isidro Metapán U20 vs Águila U20","description":"Sourced from predicthq.com","category":"sports","start":"2024-04-10T21:30:00Z","geo":{"geometry":{"coordinates":[-89.449203,14.3322306],"type":"Point"},"placekey":"@d5t-zpv-swk","address":{"country_code":"SV","formatted_address":"Metapan, Santa Ana Department, El Salvador","locality":"Metapan","region":"Santa Ana Department"}},"labels":["soccer","sport"],"duration":0,"start_local":"2024-04-10T15:30:00","end":"2024-04-10T21:30:00Z","end_local":"2024-04-10T15:30:00","updated":"2024-06-12T08:26:07Z"},{"title":"Primera Division - Clausura - Jocoro vs Alianza","description":"Sourced from predicthq.com","category":"sports","start":"2024-04-10T21:15:00Z","geo":{"geometry":{"coordinates":[-88.02827534113919,13.615792565613935],"type":"Point"},"placekey":"@d5p-yf2-54v","address":{"country_code":"SV","formatted_address":"RN 18E, Jocoro, El Salvador","locality":"Jocoro","region":"Morazán Department"}},"labels":["soccer","sport"],"duration":6740,"start_local":"2024-04-10T15:15:00","end":"2024-04-10T23:07:20Z","end_local":"2024-04-10T17:07:20","updated":"2024-06-05T16:11:06Z"},{"title":"Primera Division - Clausura - Santa Tecla vs Fuerte San Francisco","description":"Sourced from predicthq.com","category":"sports","start":"2024-04-10T21:00:00Z","geo":{"geometry":{"coordinates":[-89.2994132,13.6716505],"type":"Point"},"placekey":"@d5t-wwz-4jv","address":{"country_code":"SV","formatted_address":"Ave El Cipres 16, Santa Tecla, El Salvador","locality":"Santa Tecla","region":"La Libertad Department"}},"labels":["soccer","sport"],"duration":6879,"start_local":"2024-04-10T15:00:00","end":"2024-04-10T22:54:39Z","end_local":"2024-04-10T16:54:39","updated":"2024-06-12T12:18:43Z"},{"title":"Reserve League - Clausura - Dragón U20 vs Municipal Limeño U20","description":"Sourced from predicthq.com","category":"sports","start":"2024-04-10T18:30:00Z","geo":{"geometry":{"coordinates":[-88.1690809,13.4824791],"type":"Point"},"placekey":"@d5q-275-7wk","address":{"country_code":"SV","formatted_address":"FRJJ+X9V, San Miguel, El Salvador","locality":"San Miguel","region":"San Miguel Department"}},"labels":["soccer","sport"],"duration":0,"start_local":"2024-04-10T12:30:00","end":"2024-04-10T18:30:00Z","end_local":"2024-04-10T12:30:00","updated":"2024-06-12T04:54:04Z"},{"title":"Reserve League - Clausura - Jocoro U20 vs Alianza U20","description":"Sourced from predicthq.com","category":"sports","start":"2024-04-10T18:00:00Z","geo":{"geometry":{"coordinates":[-88.02827534113919,13.615792565613935],"type":"Point"},"placekey":"@d5p-yf2-54v","address":{"country_code":"SV","formatted_address":"RN 18E, Jocoro, El Salvador","locality":"Jocoro","region":"Morazán Department"}},"labels":["soccer","sport"],"duration":0,"start_local":"2024-04-10T12:00:00","end":"2024-04-10T18:00:00Z","end_local":"2024-04-10T12:00:00","updated":"2024-06-12T00:08:52Z"},{"title":"Reserve League - Clausura - Santa Tecla U20 vs Fuerte San Francisco U20","description":"Sourced from predicthq.com","category":"sports","start":"2024-04-10T18:00:00Z","geo":{"geometry":{"coordinates":[-89.2994132,13.6716505],"type":"Point"},"placekey":"@d5t-wwz-4jv","address":{"country_code":"SV","formatted_address":"Ave El Cipres 16, Santa Tecla, El Salvador","locality":"Santa Tecla","region":"La Libertad Department"}},"labels":["soccer","sport"],"duration":0,"start_local":"2024-04-10T12:00:00","end":"2024-04-10T18:00:00Z","end_local":"2024-04-10T12:00:00","updated":"2024-06-12T02:39:09Z"},{"title":"Reserve League - Clausura - Platense U20 vs FAS U20","description":"Sourced from predicthq.com","category":"sports","start":"2024-04-10T17:00:00Z","geo":{"geometry":{"coordinates":[-88.87158967668648,13.519615508322513],"type":"Point"},"placekey":"@d5v-97x-j9z","address":{"country_code":"SV","formatted_address":"G49H+W9M, Zacatecoluca, El Salvador","locality":"Zacatecoluca","region":"La Paz Department"}},"labels":["soccer","sport"],"duration":0,"start_local":"2024-04-10T11:00:00","end":"2024-04-10T17:00:00Z","end_local":"2024-04-10T11:00:00","updated":"2024-06-12T19:31:29Z"},{"title":"Reserve League - Clausura - Luis Ángel Firpo U20 vs Once Deportivo U20","description":"Sourced from predicthq.com","category":"sports","start":"2024-04-10T17:00:00Z","geo":{"geometry":{"coordinates":[-88.4381175,13.3493077],"type":"Point"},"placekey":"@d5v-bgc-gc5","address":{"country_code":"SV","formatted_address":"8HX6+PQ6, Usulutan, El Salvador","locality":"Usulutan","region":"Usulután Department"}},"labels":["soccer","sport"],"duration":0,"start_local":"2024-04-10T11:00:00","end":"2024-04-10T17:00:00Z","end_local":"2024-04-10T11:00:00","updated":"2024-06-12T08:48:02Z"},{"title":"Primera Division - Clausura - Dragón vs Platense","description":"Sourced from predicthq.com","category":"sports","start":"2024-04-07T21:15:00Z","geo":{"geometry":{"coordinates":[-88.1690809,13.4824791],"type":"Point"},"placekey":"@d5q-275-7wk","address":{"country_code":"SV","formatted_address":"FRJJ+X9V, San Miguel, El Salvador","locality":"San Miguel","region":"San Miguel Department"}},"labels":["soccer","sport"],"duration":7420,"start_local":"2024-04-07T15:15:00","end":"2024-04-07T23:18:40Z","end_local":"2024-04-07T17:18:40","updated":"2024-06-05T09:32:50Z"},{"title":"Primera Division - Clausura - Once Deportivo vs Isidro Metapán","description":"Sourced from predicthq.com","category":"sports","start":"2024-04-07T21:00:00Z","geo":{"geometry":{"coordinates":[-89.84903991222382,13.927027803616781],"type":"Point"},"placekey":"@d5t-xwn-8gk","address":{"country_code":"SV","formatted_address":"W5G2+Q8H, Ahuachapan, El Salvador","locality":"Ahuachapan","region":"Ahuachapán Department"}},"labels":["soccer","sport"],"duration":6801,"start_local":"2024-04-07T15:00:00","end":"2024-04-07T22:53:21Z","end_local":"2024-04-07T16:53:21","updated":"2024-06-05T17:28:55Z"},{"title":"Primera Division - Clausura - Fuerte San Francisco vs Jocoro","description":"Sourced from predicthq.com","category":"sports","start":"2024-04-07T21:00:00Z","geo":{"geometry":{"coordinates":[-88.08710450452425,13.66528244820085],"type":"Point"},"placekey":"@d5q-2n5-gff","address":{"country_code":"SV","formatted_address":"San Francisco Gotera, El Salvador","locality":"San Francisco Gotera"}},"labels":["soccer","sport"],"duration":6795,"start_local":"2024-04-07T15:00:00","end":"2024-04-07T22:53:15Z","end_local":"2024-04-07T16:53:15","updated":"2024-06-05T02:06:04Z"},{"title":"Reserve League - Clausura - Dragón U20 vs Platense U20","description":"Sourced from predicthq.com","category":"sports","start":"2024-04-07T18:30:00Z","geo":{"geometry":{"coordinates":[-88.1690809,13.4824791],"type":"Point"},"placekey":"@d5q-275-7wk","address":{"country_code":"SV","formatted_address":"FRJJ+X9V, San Miguel, El Salvador","locality":"San Miguel","region":"San Miguel Department"}},"labels":["soccer","sport"],"duration":0,"start_local":"2024-04-07T12:30:00","end":"2024-04-07T18:30:00Z","end_local":"2024-04-07T12:30:00","updated":"2024-06-11T23:13:50Z"},{"title":"Reserve League - Clausura - Once Deportivo U20 vs Isidro Metapán U20","description":"Sourced from predicthq.com","category":"sports","start":"2024-04-07T18:00:00Z","geo":{"geometry":{"coordinates":[-89.84903991222382,13.927027803616781],"type":"Point"},"placekey":"@d5t-xwn-8gk","address":{"country_code":"SV","formatted_address":"W5G2+Q8H, Ahuachapan, El Salvador","locality":"Ahuachapan","region":"Ahuachapán Department"}},"labels":["soccer","sport"],"duration":0,"start_local":"2024-04-07T12:00:00","end":"2024-04-07T18:00:00Z","end_local":"2024-04-07T12:00:00","updated":"2024-06-12T13:53:15Z"},{"title":"Reserve League - Clausura - Municipal Limeño U20 vs Águila U20","description":"Sourced from predicthq.com","category":"sports","start":"2024-04-07T15:30:00Z","geo":{"geometry":{"coordinates":[-87.8904117,13.6322553],"type":"Point"},"placekey":"@d5p-y4d-99f","address":{"country_code":"SV","formatted_address":"RN 18E, Santa Rosa de Lima, El Salvador","locality":"Santa Rosa de Lima","region":"La Unión Department"}},"labels":["soccer","sport"],"duration":0,"start_local":"2024-04-07T09:30:00","end":"2024-04-07T15:30:00Z","end_local":"2024-04-07T09:30:00","updated":"2024-06-12T09:45:47Z"},{"title":"Primera Division - Clausura - FAS vs Santa Tecla","description":"Sourced from predicthq.com","category":"sports","start":"2024-04-07T01:30:00Z","geo":{"geometry":{"coordinates":[-89.5695111,13.9767498],"type":"Point"},"placekey":"@d5t-vyb-7dv","address":{"country_code":"SV","formatted_address":"Ave Fray Felipe De Jesus Moraga Sur 15, Santa Ana, El Salvador","locality":"Santa Ana","region":"Santa Ana Department"}},"labels":["soccer","sport"],"duration":7006,"start_local":"2024-04-06T19:30:00","end":"2024-04-07T03:26:46Z","end_local":"2024-04-06T21:26:46","updated":"2024-06-04T22:14:25Z"},{"title":"Primera Division - Clausura - Alianza vs Firpo","description":"Sourced from predicthq.com","category":"sports","start":"2024-04-07T01:00:00Z","geo":{"geometry":{"coordinates":[-89.2226499,13.6810122],"type":"Point"},"placekey":"@d5v-cp9-7kf","address":{"country_code":"SV","formatted_address":"Calle Antigua a Huizucar, San Salvador, El Salvador","locality":"San Salvador","region":"San Salvador"}},"labels":["soccer","sport"],"duration":7124,"start_local":"2024-04-06T19:00:00","end":"2024-04-07T02:58:44Z","end_local":"2024-04-06T20:58:44","updated":"2024-06-05T10:29:48Z"},{"title":"Primera Division - Clausura - Municipal Limeño vs Águila","description":"Sourced from predicthq.com","category":"sports","start":"2024-04-07T01:00:00Z","geo":{"geometry":{"coordinates":[-87.8904117,13.6322553],"type":"Point"},"placekey":"@d5p-y4d-99f","address":{"country_code":"SV","formatted_address":"RN 18E, Santa Rosa de Lima, El Salvador","locality":"Santa Rosa de Lima","region":"La Unión Department"}},"labels":["soccer","sport"],"duration":6897,"start_local":"2024-04-06T19:00:00","end":"2024-04-07T02:54:57Z","end_local":"2024-04-06T20:54:57","updated":"2024-06-05T06:49:14Z"},{"title":"Reserve League - Clausura - Alianza U20 vs Luis Ángel Firpo U20","description":"Sourced from predicthq.com","category":"sports","start":"2024-04-06T21:00:00Z","geo":{"geometry":{"coordinates":[-89.234257733,13.682271623],"type":"Point"},"placekey":"@d5v-2hr-tsq","address":{"country_code":"SV","formatted_address":"MQJ8+W7 San Salvador, El Salvador","locality":"San Salvador","region":"San Salvador Department"}},"labels":["soccer","sport"],"duration":0,"start_local":"2024-04-06T15:00:00","end":"2024-04-06T21:00:00Z","end_local":"2024-04-06T15:00:00","updated":"2024-06-12T05:35:51Z"},{"title":"Reserve League - Clausura - FAS U20 vs Santa Tecla U20","description":"Sourced from predicthq.com","category":"sports","start":"2024-04-06T20:00:00Z","geo":{"geometry":{"coordinates":[-89.5695111,13.9767498],"type":"Point"},"placekey":"@d5t-vyb-7dv","address":{"country_code":"SV","formatted_address":"Ave Fray Felipe De Jesus Moraga Sur 15, Santa Ana, El Salvador","locality":"Santa Ana","region":"Santa Ana Department"}},"labels":["soccer","sport"],"duration":0,"start_local":"2024-04-06T14:00:00","end":"2024-04-06T20:00:00Z","end_local":"2024-04-06T14:00:00","updated":"2024-06-12T02:19:49Z"}]