[{"title":"Eric Ragno - Keyboards / Rock Keyboard Player and Legends of Classic Rock","description":"Sourced from predicthq.com","category":"concerts","start":"2024-09-25T00:00:00Z","geo":{"geometry":{"coordinates":[-63.0471382,18.029583],"type":"Point"},"placekey":"@bs7-zwn-8qf","address":{"country_code":"SX","formatted_address":"Philipsburg, Sint Maarten, Sint Maarten (Dutch part)","locality":"Philipsburg","region":"Sint Maarten"}},"labels":["concert","music"],"duration":0,"start_local":"2024-09-24T20:00:00","end":"2024-09-25T00:00:00Z","end_local":"2024-09-24T20:00:00","updated":"2024-06-11T08:27:52Z"},{"title":"Eric Ragno - Keyboards / Rock Keyboard Player and Legends of Classic Rock","description":"Sourced from predicthq.com","category":"concerts","start":"2024-08-28T00:00:00Z","geo":{"geometry":{"coordinates":[-63.0471382,18.029583],"type":"Point"},"placekey":"@bs7-zwn-8qf","address":{"country_code":"SX","formatted_address":"Philipsburg, Sint Maarten, Sint Maarten (Dutch part)","locality":"Philipsburg","region":"Sint Maarten"}},"labels":["concert","music"],"duration":0,"start_local":"2024-08-27T20:00:00","end":"2024-08-28T00:00:00Z","end_local":"2024-08-27T20:00:00","updated":"2024-06-11T10:19:40Z"},{"title":"Election for Staten (Sint Maarten Parliament)","description":"Sourced from predicthq.com - Sint Maarten will hold a snap parliamentary election in August 2024.","category":"politics","start":"2024-08-19T00:00:00Z","geo":{"geometry":{"coordinates":[-63.05483,18.04248],"type":"Point"},"address":{"country_code":"SX","formatted_address":"Sint Maarten (Dutch part)"}},"labels":["election","parliament","politics"],"duration":86399,"start_local":"2024-08-19T00:00:00","end":"2024-08-19T23:59:59Z","end_local":"2024-08-19T23:59:59","updated":"2024-06-18T12:26:39Z"},{"title":"Eric Ragno - Keyboards / Rock Keyboard Player and Legends of Classic Rock","description":"Sourced from predicthq.com","category":"concerts","start":"2024-07-31T00:00:00Z","geo":{"geometry":{"coordinates":[-63.0471382,18.029583],"type":"Point"},"placekey":"@bs7-zwn-8qf","address":{"country_code":"SX","formatted_address":"Philipsburg, Sint Maarten, Sint Maarten (Dutch part)","locality":"Philipsburg","region":"Sint Maarten"}},"labels":["concert","music"],"duration":0,"start_local":"2024-07-30T20:00:00","end":"2024-07-31T00:00:00Z","end_local":"2024-07-30T20:00:00","updated":"2024-06-11T05:25:34Z"},{"title":"NIGY BOY & RENIGAD RDX LIVE ON STAGE","description":"Sourced from predicthq.com - Get ready for a wild night with NIGY BOY & RENIGAD on Friday, July 12th!","category":"concerts","start":"2024-07-12T12:00:00Z","geo":{"geometry":{"coordinates":[-63.0510245,18.0397307],"type":"Point"},"placekey":"@bs7-zwm-cqz","address":{"country_code":"SX","formatted_address":"A.T. Illidge Road, Philipsburg, Sint Maarten (Dutch part)","locality":"Philipsburg","region":"Sint Maarten"}},"labels":["concert","music"],"duration":14400,"start_local":"2024-07-12T08:00:00","end":"2024-07-12T16:00:00Z","end_local":"2024-07-12T12:00:00","updated":"2024-06-20T14:05:49Z"},{"title":"Eric Ragno - Keyboards / Rock Keyboard Player and Legends of Classic Rock","description":"Sourced from predicthq.com","category":"concerts","start":"2024-07-03T00:00:00Z","geo":{"geometry":{"coordinates":[-63.0471382,18.029583],"type":"Point"},"placekey":"@bs7-zwn-8qf","address":{"country_code":"SX","formatted_address":"Philipsburg, Sint Maarten, Sint Maarten (Dutch part)","locality":"Philipsburg","region":"Sint Maarten"}},"labels":["concert","music"],"duration":0,"start_local":"2024-07-02T20:00:00","end":"2024-07-03T00:00:00Z","end_local":"2024-07-02T20:00:00","updated":"2024-06-11T03:00:49Z"},{"title":"Eric Ragno - Keyboards / Rock Keyboard Player and Legends of Classic Rock","description":"Sourced from predicthq.com","category":"concerts","start":"2024-06-05T00:00:00Z","geo":{"geometry":{"coordinates":[-63.0471382,18.029583],"type":"Point"},"placekey":"@bs7-zwn-8qf","address":{"country_code":"SX","formatted_address":"Philipsburg, Sint Maarten, Sint Maarten (Dutch part)","locality":"Philipsburg","region":"Sint Maarten"}},"labels":["concert","music"],"duration":0,"start_local":"2024-06-04T20:00:00","end":"2024-06-05T00:00:00Z","end_local":"2024-06-04T20:00:00","updated":"2024-06-12T03:12:33Z"},{"title":"Boardwalk Triathlon","description":"Sourced from predicthq.com","category":"sports","start":"2024-06-02T04:00:00Z","geo":{"geometry":{"coordinates":[-63.0443355,18.022472],"type":"Point"},"placekey":"@bs7-zvx-btv","address":{"country_code":"SX","formatted_address":"Voorstraat, Philipsburg, Sint Maarten (Dutch part)","locality":"Philipsburg","region":"Sint Maarten"}},"labels":["bicycle","outdoor-sports","running","sport","triathlon"],"duration":86399,"start_local":"2024-06-02T00:00:00","end":"2024-06-03T03:59:59Z","end_local":"2024-06-02T23:59:59","updated":"2024-05-27T02:33:23Z"},{"title":"BDO Half Marathon","description":"Sourced from predicthq.com","category":"sports","start":"2024-05-05T10:00:00Z","geo":{"geometry":{"coordinates":[-63.0870675,18.0397673],"type":"Point"},"placekey":"@bs7-zwc-h89","address":{"country_code":"SX","formatted_address":"Union Road, Cole Bay, Sint Maarten (Dutch part)","locality":"Cole Bay","region":"Sint Maarten"}},"labels":["marathon","outdoor-sports","running","sport"],"duration":0,"start_local":"2024-05-05T06:00:00","end":"2024-05-05T10:00:00Z","end_local":"2024-05-05T06:00:00","updated":"2024-06-05T07:12:42Z"},{"title":"Release The Sound Music Summit 2024","description":"Sourced from predicthq.com - Get ready to experience this Kingdom music summit in 2024 where we release the sound and get back to the heart of worship together!","category":"conferences","start":"2024-05-04T13:00:00Z","geo":{"geometry":{"coordinates":[-63.048799,18.049781],"type":"Point"},"placekey":"@bs7-zwd-85f","address":{"country_code":"SX","formatted_address":"Philipsburg, Sint Maarten, Sint Maarten (Dutch part)","locality":"Philipsburg","region":"Sint Maarten"}},"labels":["conference","music"],"duration":28800,"start_local":"2024-05-04T09:00:00","end":"2024-05-04T21:00:00Z","end_local":"2024-05-04T17:00:00","updated":"2024-06-05T02:53:18Z"},{"title":"Cedric Gervais Live @ Roxxy Beach","description":"Sourced from predicthq.com - Welcome Cedric Gervais at Roxxy Beach on April 27th, 2024. Cedric will be performing for the first time ever on St. Maarten/St. Martin.","category":"concerts","start":"2024-04-27T21:00:00Z","geo":{"geometry":{"coordinates":[-63.09345680000001,18.0339461],"type":"Point"},"placekey":"@bs7-zwj-xh5","address":{"country_code":"SX","formatted_address":"Welfare Road, Simpson Bay, Sint Maarten (Dutch part)","locality":"Simpson Bay","region":"Sint Maarten"}},"labels":["concert","music"],"duration":0,"start_local":"2024-04-27T17:00:00","end":"2024-04-27T21:00:00Z","end_local":"2024-04-27T17:00:00","updated":"2024-06-12T15:18:33Z"},{"title":"Eric Ragno - Keyboards / Rock Keyboard Player and Legends of Classic Rock","description":"Sourced from predicthq.com","category":"concerts","start":"2024-04-09T00:00:00Z","geo":{"geometry":{"coordinates":[-63.0471382,18.029583],"type":"Point"},"placekey":"@bs7-zwn-8qf","address":{"country_code":"SX","formatted_address":"Philipsburg, Sint Maarten, Sint Maarten (Dutch part)","locality":"Philipsburg","region":"Sint Maarten"}},"labels":["concert","music"],"duration":0,"start_local":"2024-04-08T20:00:00","end":"2024-04-09T00:00:00Z","end_local":"2024-04-08T20:00:00","updated":"2024-06-11T23:12:03Z"}]