[{"title":"Turks & Caicos Race for the Conch EcoSeaSwim","description":"Sourced from predicthq.com","category":"sports","start":"2024-06-29T12:00:00Z","geo":{"geometry":{"coordinates":[-72.1682693,21.7997149],"type":"Point"},"placekey":"@96b-zn6-4sq","address":{"country_code":"TC","formatted_address":"Grace Bay TKCA 1ZZ, Turks and Caicos Islands","locality":"Grace Bay","postcode":"TKCA 1ZZ","region":"Caicos Islands"}},"labels":["outdoor-sports","running","sport"],"duration":0,"start_local":"2024-06-29T08:00:00","end":"2024-06-29T12:00:00Z","end_local":"2024-06-29T08:00:00","updated":"2024-06-04T01:41:52Z"},{"title":"The Brotherhood Brunch: A Celebration of Fatherhood","description":"Sourced from predicthq.com - Join us for The Brotherhood Brunch: A Celebration of Fatherhood an event dedicated to spotlighting the invaluable role of men and fathers!","category":"conferences","start":"2024-06-15T14:00:00Z","geo":{"geometry":{"coordinates":[-72.190581,21.7914629],"type":"Point"},"placekey":"@96b-zkh-6zf","address":{"country_code":"TC","formatted_address":"Princess Drive, The Bight Settlement TKCA 1ZZ, Turks and Caicos Islands","locality":"The Bight Settlement","postcode":"TKCA 1ZZ","region":"Caicos Islands"}},"labels":["conference","education","family"],"duration":10800,"start_local":"2024-06-15T10:00:00","end":"2024-06-15T17:00:00Z","end_local":"2024-06-15T13:00:00","updated":"2024-05-30T01:48:52Z"},{"title":"Pre- Mother's Day 1 Day Conference","description":"Sourced from predicthq.com - Get ready to celebrate motherhood at our Pre-Mother's Day 1 Day Conference, a day filled with inspiring talks, fun activities, and more.","category":"conferences","start":"2024-05-11T13:00:00Z","geo":{"geometry":{"coordinates":[-72.2168322,21.7776469],"type":"Point"},"placekey":"@95x-npr-f2k","address":{"country_code":"TC","formatted_address":"TKCA 1ZZ, Turks and Caicos Islands","postcode":"TKCA 1ZZ","region":"Caicos Islands"}},"labels":["conference"],"duration":21600,"start_local":"2024-05-11T09:00:00","end":"2024-05-11T19:00:00Z","end_local":"2024-05-11T15:00:00","updated":"2024-06-05T07:43:39Z"},{"title":"Community, Beautiful By Nature: A Festive Celebration","description":"Sourced from predicthq.com - Kick-off with the Parade of Nations, maypole plating, family fun games, entertainment and V6 BAND and much more!","category":"festivals","start":"2024-04-27T14:00:00Z","geo":{"geometry":{"coordinates":[-72.1763516,21.7907518],"type":"Point"},"placekey":"@96b-zn6-249","address":{"country_code":"TC","formatted_address":"Grace Bay TKCA 1ZZ, Turks and Caicos Islands","locality":"Grace Bay","postcode":"TKCA 1ZZ","region":"Caicos Islands"}},"labels":["community","festival"],"duration":46800,"start_local":"2024-04-27T10:00:00","end":"2024-04-28T03:00:00Z","end_local":"2024-04-27T23:00:00","updated":"2024-06-05T06:20:14Z"},{"title":"Theme: Empowerment: The Magic of Our Roots","description":"Sourced from predicthq.com - Come out and cheer for your favorite lady and representative! Who is going to be the Inaugural Miss and Teen One Nation TCI??","category":"conferences","start":"2024-04-26T23:00:00Z","geo":{"geometry":{"coordinates":[-72.1763516,21.7907518],"type":"Point"},"placekey":"@96b-zn6-249","address":{"country_code":"TC","formatted_address":"Grace Bay TKCA 1ZZ, Turks and Caicos Islands","locality":"Grace Bay","postcode":"TKCA 1ZZ","region":"Caicos Islands"}},"labels":["community","conference"],"duration":12600,"start_local":"2024-04-26T19:00:00","end":"2024-04-27T02:30:00Z","end_local":"2024-04-26T22:30:00","updated":"2024-06-04T22:09:29Z"},{"title":"Unity: Proud of Who We Are","description":"Sourced from predicthq.com - Get ready for a night of ENERGY, FIRE AND EXCITEMENT!!! You don't want to miss it!!! Be early to catch all that is planned just for YOU!","category":"community","start":"2024-04-25T23:00:00Z","geo":{"geometry":{"coordinates":[-72.1763516,21.7907518],"type":"Point"},"placekey":"@96b-zn6-249","address":{"country_code":"TC","formatted_address":"Grace Bay TKCA 1ZZ, Turks and Caicos Islands","locality":"Grace Bay","postcode":"TKCA 1ZZ","region":"Caicos Islands"}},"labels":["community"],"duration":12600,"start_local":"2024-04-25T19:00:00","end":"2024-04-26T02:30:00Z","end_local":"2024-04-25T22:30:00","updated":"2024-06-05T08:04:21Z"},{"title":"JADA KINGDOM & 450 Live Turks Caicos","description":"Sourced from predicthq.com - JADA KINGDOM & 450 performs Live in Turks & Caicos. Come see the hottest concert in Turks & Caicos for 2024","category":"concerts","start":"2024-04-20T00:00:00Z","geo":{"geometry":{"coordinates":[-72.2177804,21.7738577],"type":"Point"},"placekey":"@96b-zkf-brk","address":{"country_code":"TC","formatted_address":"Venetian Road Settlement TKCA 1ZZ, Turks and Caicos Islands","locality":"Venetian Road Settlement","postcode":"TKCA 1ZZ","region":"Caicos Islands"}},"labels":["concert","music"],"duration":25200,"start_local":"2024-04-19T20:00:00","end":"2024-04-20T07:00:00Z","end_local":"2024-04-20T03:00:00","updated":"2024-06-05T13:40:37Z"}]