[{"title":"FIJPNV TOGO 2024","description":"Sourced from predicthq.com - FIJPNV TOGO 2024: Celebrating Togolese culture, music, and food in a vibrant in-person event filled with joy and excitement!","category":"conferences","start":"2024-08-20T09:00:00Z","geo":{"geometry":{"coordinates":[1.1809715,9.560647099999999],"type":"Point"},"placekey":"@b8z-mp4-q75","address":{"country_code":"TG","formatted_address":"Kara, Kara Region, Togo","locality":"Kara","region":"Kara Region"}},"labels":["community","conference"],"duration":28800,"start_local":"2024-08-20T09:00:00","end":"2024-08-20T17:00:00Z","end_local":"2024-08-20T17:00:00","updated":"2024-07-04T07:48:47Z"},{"title":"Championnat National - Binah vs Entente II","description":"Sourced from predicthq.com","category":"sports","start":"2024-07-07T15:00:00Z","geo":{"geometry":{"coordinates":[1.1791527271270752,9.572599198436638],"type":"Point"},"placekey":"@b8z-n4d-5pv","address":{"country_code":"TG","formatted_address":"Unnamed Road, H5FH+4P7, Kara, Togo","locality":"Kara","region":"Kara Region"}},"labels":["soccer","sport"],"duration":0,"start_local":"2024-07-07T15:00:00","end":"2024-07-07T15:00:00Z","end_local":"2024-07-07T15:00:00","updated":"2024-07-05T11:50:16Z"},{"title":"Championnat National - OTR vs Kakadl","description":"Sourced from predicthq.com","category":"sports","start":"2024-07-07T15:00:00Z","geo":{"geometry":{"coordinates":[1.2151908874511719,6.126847152470958],"type":"Point"},"placekey":"@b8q-2fr-yvz","address":{"country_code":"TG","formatted_address":"228, Lomé, Togo","locality":"Lomé","region":"Région maritime"}},"labels":["soccer","sport"],"duration":0,"start_local":"2024-07-07T15:00:00","end":"2024-07-07T15:00:00Z","end_local":"2024-07-07T15:00:00","updated":"2024-07-05T17:17:16Z"},{"title":"Championnat National - Doumbé de Mango vs Barracuda","description":"Sourced from predicthq.com","category":"sports","start":"2024-07-07T15:00:00Z","geo":{"geometry":{"coordinates":[1.1296577355819863,7.5206794730870286],"type":"Point"},"placekey":"@b8z-5q3-bzf","address":{"country_code":"TG","formatted_address":"G4CH+7V7, Atakpame, Togo","locality":"Atakpame","region":"Plateaux Region"}},"labels":["soccer","sport"],"duration":0,"start_local":"2024-07-07T15:00:00","end":"2024-07-07T15:00:00Z","end_local":"2024-07-07T15:00:00","updated":"2024-07-05T17:39:30Z"},{"title":"Championnat National - Dynamic Togolais vs Unisport","description":"Sourced from predicthq.com","category":"sports","start":"2024-07-07T15:00:00Z","geo":{"geometry":{"coordinates":[1.2082386016845703,6.219966728998514],"type":"Point"},"placekey":"@b8n-jpg-wc5","address":{"country_code":"TG","formatted_address":"A côté de l'Eglise presbytérienne Agoè, 66C5+38Q, Lomé, Togo","locality":"Lomé","region":"Région maritime"}},"labels":["soccer","sport"],"duration":0,"start_local":"2024-07-07T15:00:00","end":"2024-07-07T15:00:00Z","end_local":"2024-07-07T15:00:00","updated":"2024-07-05T11:50:22Z"},{"title":"Championnat National - Semassi vs ASKO de Kara","description":"Sourced from predicthq.com","category":"sports","start":"2024-07-07T15:00:00Z","geo":{"geometry":{"coordinates":[1.1470788717269897,8.981551550267577],"type":"Point"},"placekey":"@b8y-f42-fvf","address":{"country_code":"TG","formatted_address":"Sokode, Togo","locality":"Sokode","region":"Centrale Region"}},"labels":["soccer","sport"],"duration":0,"start_local":"2024-07-07T15:00:00","end":"2024-07-07T15:00:00Z","end_local":"2024-07-07T15:00:00","updated":"2024-07-05T11:53:29Z"},{"title":"Championnat National - Espoir vs Tambo","description":"Sourced from predicthq.com","category":"sports","start":"2024-07-07T15:00:00Z","geo":{"geometry":{"coordinates":[1.2050360441207886,6.4310243104934806],"type":"Point"},"placekey":"@b8p-jg7-zj9","address":{"country_code":"TG","formatted_address":"Tsevie, Togo","locality":"Tsevie","region":"Maritime Region"}},"labels":["soccer","sport"],"duration":0,"start_local":"2024-07-07T15:00:00","end":"2024-07-07T15:00:00Z","end_local":"2024-07-07T15:00:00","updated":"2024-07-05T12:54:56Z"},{"title":"Championnat National - Gomido vs Kara","description":"Sourced from predicthq.com","category":"sports","start":"2024-07-07T15:00:00Z","geo":{"geometry":{"coordinates":[0.633562779,6.904696435],"type":"Point"},"placekey":"@b8p-ncr-7bk","address":{"country_code":"TG","formatted_address":"WJ3M+VC8, Kpalime, Togo","locality":"Kpalime","region":"Plateaux Region"}},"labels":["soccer","sport"],"duration":0,"start_local":"2024-07-07T15:00:00","end":"2024-07-07T15:00:00Z","end_local":"2024-07-07T15:00:00","updated":"2024-07-05T12:45:34Z"},{"title":"Championnat National - Kakadl vs Espoir","description":"Sourced from predicthq.com","category":"sports","start":"2024-07-01T15:00:00Z","geo":{"geometry":{"coordinates":[1.1791527271270752,9.572599198436638],"type":"Point"},"placekey":"@b8z-n4d-5pv","address":{"country_code":"TG","formatted_address":"Unnamed Road, H5FH+4P7, Kara, Togo","locality":"Kara","region":"Kara Region"}},"labels":["soccer","sport"],"duration":0,"start_local":"2024-07-01T15:00:00","end":"2024-07-01T15:00:00Z","end_local":"2024-07-01T15:00:00","updated":"2024-06-30T12:20:37Z"},{"title":"Championnat National - ASKO de Kara vs Binah","description":"Sourced from predicthq.com","category":"sports","start":"2024-06-30T15:00:00Z","geo":{"geometry":{"coordinates":[1.1791527271270752,9.572599198436638],"type":"Point"},"placekey":"@b8z-n4d-5pv","address":{"country_code":"TG","formatted_address":"Unnamed Road, H5FH+4P7, Kara, Togo","locality":"Kara","region":"Kara Region"}},"labels":["soccer","sport"],"duration":0,"start_local":"2024-06-30T15:00:00","end":"2024-06-30T15:00:00Z","end_local":"2024-06-30T15:00:00","updated":"2024-06-30T12:47:02Z"},{"title":"Championnat National - Tambo vs Gomido","description":"Sourced from predicthq.com","category":"sports","start":"2024-06-30T15:00:00Z","geo":{"geometry":{"coordinates":[1.1296577355819863,7.5206794730870286],"type":"Point"},"placekey":"@b8z-5q3-bzf","address":{"country_code":"TG","formatted_address":"G4CH+7V7, Atakpame, Togo","locality":"Atakpame","region":"Plateaux Region"}},"labels":["soccer","sport"],"duration":0,"start_local":"2024-06-30T15:00:00","end":"2024-06-30T15:00:00Z","end_local":"2024-06-30T15:00:00","updated":"2024-06-28T11:58:30Z"},{"title":"Championnat National - Barracuda vs Gbohloé-su des Lacs","description":"Sourced from predicthq.com","category":"sports","start":"2024-06-30T15:00:00Z","geo":{"geometry":{"coordinates":[1.2082386016845703,6.219966728998514],"type":"Point"},"placekey":"@b8n-jpg-wc5","address":{"country_code":"TG","formatted_address":"A côté de l'Eglise presbytérienne Agoè, 66C5+38Q, Lomé, Togo","locality":"Lomé","region":"Région maritime"}},"labels":["soccer","sport"],"duration":0,"start_local":"2024-06-30T15:00:00","end":"2024-06-30T15:00:00Z","end_local":"2024-06-30T15:00:00","updated":"2024-06-28T12:10:16Z"},{"title":"Championnat National - Entente II vs Doumbé de Mango","description":"Sourced from predicthq.com","category":"sports","start":"2024-06-30T15:00:00Z","geo":{"geometry":{"coordinates":[1.2151908874511719,6.126847152470958],"type":"Point"},"placekey":"@b8q-2fr-yvz","address":{"country_code":"TG","formatted_address":"228, Lomé, Togo","locality":"Lomé","region":"Région maritime"}},"labels":["soccer","sport"],"duration":0,"start_local":"2024-06-30T15:00:00","end":"2024-06-30T15:00:00Z","end_local":"2024-06-30T15:00:00","updated":"2024-06-28T12:24:19Z"},{"title":"Championnat National - Unisport vs OTR","description":"Sourced from predicthq.com","category":"sports","start":"2024-06-30T15:00:00Z","geo":{"geometry":{"coordinates":[1.1470788717269897,8.981551550267577],"type":"Point"},"placekey":"@b8y-f42-fvf","address":{"country_code":"TG","formatted_address":"Sokode, Togo","locality":"Sokode","region":"Centrale Region"}},"labels":["soccer","sport"],"duration":0,"start_local":"2024-06-30T15:00:00","end":"2024-06-30T15:00:00Z","end_local":"2024-06-30T15:00:00","updated":"2024-06-28T12:23:48Z"},{"title":"Championnat National - Gbikinti Bassar vs Semassi","description":"Sourced from predicthq.com","category":"sports","start":"2024-06-29T15:00:00Z","geo":{"geometry":{"coordinates":[1.190548219,9.550984352],"type":"Point"},"placekey":"@b8z-mnx-gx5","address":{"country_code":"TG","formatted_address":"Kara, Togo","locality":"Kara","region":"Kara Region"}},"labels":["soccer","sport"],"duration":0,"start_local":"2024-06-29T15:00:00","end":"2024-06-29T15:00:00Z","end_local":"2024-06-29T15:00:00","updated":"2024-06-28T12:25:41Z"},{"title":"Championnat National - Kara vs Dynamic Togolais","description":"Sourced from predicthq.com","category":"sports","start":"2024-06-29T15:00:00Z","geo":{"geometry":{"coordinates":[1.1470788717269897,8.981551550267577],"type":"Point"},"placekey":"@b8y-f42-fvf","address":{"country_code":"TG","formatted_address":"Sokode, Togo","locality":"Sokode","region":"Centrale Region"}},"labels":["soccer","sport"],"duration":0,"start_local":"2024-06-29T15:00:00","end":"2024-06-29T15:00:00Z","end_local":"2024-06-29T15:00:00","updated":"2024-06-28T12:37:25Z"},{"title":"CONFERENCE E-COMMERCE GRATUITE","description":"Sourced from predicthq.com - Viens assister à notre conférence gratuite sur l'e-commerce le 29 juin à 10h - ne manque pas cette opportunité!","category":"conferences","start":"2024-06-29T10:00:00Z","geo":{"geometry":{"coordinates":[1.2445182,6.1306535],"type":"Point"},"placekey":"@b8n-j6f-6ff","address":{"country_code":"TG","formatted_address":"Lomé, Maritime Region, Togo","locality":"Lomé","region":"Maritime Region"}},"labels":["business","conference"],"duration":23400,"start_local":"2024-06-29T10:00:00","end":"2024-06-29T16:30:00Z","end_local":"2024-06-29T16:30:00","updated":"2024-06-20T01:20:54Z"},{"title":"Championnat National - Doumbé de Mango vs Tambo","description":"Sourced from predicthq.com","category":"sports","start":"2024-06-27T15:00:00Z","geo":{"geometry":{"coordinates":[1.1791527271270752,9.572599198436638],"type":"Point"},"placekey":"@b8z-n4d-5pv","address":{"country_code":"TG","formatted_address":"Unnamed Road, H5FH+4P7, Kara, Togo","locality":"Kara","region":"Kara Region"}},"labels":["soccer","sport"],"duration":0,"start_local":"2024-06-27T15:00:00","end":"2024-06-27T15:00:00Z","end_local":"2024-06-27T15:00:00","updated":"2024-06-25T17:49:36Z"},{"title":"Championnat National - OTR vs Barracuda","description":"Sourced from predicthq.com","category":"sports","start":"2024-06-27T15:00:00Z","geo":{"geometry":{"coordinates":[1.205159746,6.155276138],"type":"Point"},"placekey":"@b8q-2hj-st9","address":{"country_code":"TG","formatted_address":"5644+42X, Lomé, Togo","locality":"Lomé","region":"Maritime Region"}},"labels":["soccer","sport"],"duration":0,"start_local":"2024-06-27T15:00:00","end":"2024-06-27T15:00:00Z","end_local":"2024-06-27T15:00:00","updated":"2024-06-25T18:41:03Z"},{"title":"Championnat National - Gomido vs Unisport","description":"Sourced from predicthq.com","category":"sports","start":"2024-06-27T14:00:00Z","geo":{"geometry":{"coordinates":[0.633562779,6.904696435],"type":"Point"},"placekey":"@b8p-ncr-7bk","address":{"country_code":"TG","formatted_address":"WJ3M+VC8, Kpalime, Togo","locality":"Kpalime","region":"Plateaux Region"}},"labels":["soccer","sport"],"duration":0,"start_local":"2024-06-27T14:00:00","end":"2024-06-27T14:00:00Z","end_local":"2024-06-27T14:00:00","updated":"2024-06-27T16:47:39Z"},{"title":"Championnat National - Binah vs Gbikinti Bassar","description":"Sourced from predicthq.com","category":"sports","start":"2024-06-26T15:00:00Z","geo":{"geometry":{"coordinates":[1.1791527271270752,9.572599198436638],"type":"Point"},"placekey":"@b8z-n4d-5pv","address":{"country_code":"TG","formatted_address":"Unnamed Road, H5FH+4P7, Kara, Togo","locality":"Kara","region":"Kara Region"}},"labels":["soccer","sport"],"duration":0,"start_local":"2024-06-26T15:00:00","end":"2024-06-26T15:00:00Z","end_local":"2024-06-26T15:00:00","updated":"2024-06-25T21:38:55Z"},{"title":"Championnat National - Dynamic Togolais vs ASKO de Kara","description":"Sourced from predicthq.com","category":"sports","start":"2024-06-26T15:00:00Z","geo":{"geometry":{"coordinates":[1.2082386016845703,6.219966728998514],"type":"Point"},"placekey":"@b8n-jpg-wc5","address":{"country_code":"TG","formatted_address":"A côté de l'Eglise presbytérienne Agoè, 66C5+38Q, Lomé, Togo","locality":"Lomé","region":"Région maritime"}},"labels":["soccer","sport"],"duration":0,"start_local":"2024-06-26T15:00:00","end":"2024-06-26T15:00:00Z","end_local":"2024-06-26T15:00:00","updated":"2024-06-25T23:05:10Z"},{"title":"Championnat National - Entente II vs Gbohloé-su des Lacs","description":"Sourced from predicthq.com","category":"sports","start":"2024-06-26T15:00:00Z","geo":{"geometry":{"coordinates":[1.205159746,6.155276138],"type":"Point"},"placekey":"@b8q-2hj-st9","address":{"country_code":"TG","formatted_address":"5644+42X, Lomé, Togo","locality":"Lomé","region":"Maritime Region"}},"labels":["soccer","sport"],"duration":0,"start_local":"2024-06-26T15:00:00","end":"2024-06-26T15:00:00Z","end_local":"2024-06-26T15:00:00","updated":"2024-06-25T18:50:21Z"},{"title":"Championnat National - Semassi vs Kakadl","description":"Sourced from predicthq.com","category":"sports","start":"2024-06-26T15:00:00Z","geo":{"geometry":{"coordinates":[1.1470788717269897,8.981551550267577],"type":"Point"},"placekey":"@b8y-f42-fvf","address":{"country_code":"TG","formatted_address":"Sokode, Togo","locality":"Sokode","region":"Centrale Region"}},"labels":["soccer","sport"],"duration":0,"start_local":"2024-06-26T15:00:00","end":"2024-06-26T15:00:00Z","end_local":"2024-06-26T15:00:00","updated":"2024-06-25T18:47:27Z"},{"title":"Championnat National - Espoir vs Kara","description":"Sourced from predicthq.com","category":"sports","start":"2024-06-26T15:00:00Z","geo":{"geometry":{"coordinates":[1.2050360441207886,6.4310243104934806],"type":"Point"},"placekey":"@b8p-jg7-zj9","address":{"country_code":"TG","formatted_address":"Tsevie, Togo","locality":"Tsevie","region":"Maritime Region"}},"labels":["soccer","sport"],"duration":0,"start_local":"2024-06-26T15:00:00","end":"2024-06-26T15:00:00Z","end_local":"2024-06-26T15:00:00","updated":"2024-06-25T23:01:54Z"},{"title":"Championnat National - Semassi vs Binah","description":"Sourced from predicthq.com","category":"sports","start":"2024-06-23T15:00:00Z","geo":{"geometry":{"coordinates":[1.1470788717269897,8.981551550267577],"type":"Point"},"placekey":"@b8y-f42-fvf","address":{"country_code":"TG","formatted_address":"Sokode, Togo","locality":"Sokode","region":"Centrale Region"}},"labels":["soccer","sport"],"duration":0,"start_local":"2024-06-23T15:00:00","end":"2024-06-23T15:00:00Z","end_local":"2024-06-23T15:00:00","updated":"2024-06-21T12:49:09Z"},{"title":"Championnat National - ASKO de Kara vs OTR","description":"Sourced from predicthq.com","category":"sports","start":"2024-06-23T15:00:00Z","geo":{"geometry":{"coordinates":[1.1791527271270752,9.572599198436638],"type":"Point"},"placekey":"@b8z-n4d-5pv","address":{"country_code":"TG","formatted_address":"Unnamed Road, H5FH+4P7, Kara, Togo","locality":"Kara","region":"Kara Region"}},"labels":["soccer","sport"],"duration":0,"start_local":"2024-06-23T15:00:00","end":"2024-06-23T15:00:00Z","end_local":"2024-06-23T15:00:00","updated":"2024-06-21T13:24:08Z"},{"title":"Championnat National - Gbohloé-su des Lacs vs Espoir","description":"Sourced from predicthq.com","category":"sports","start":"2024-06-23T15:00:00Z","geo":{"geometry":{"coordinates":[1.587957743,6.230035205],"type":"Point"},"placekey":"@b8n-bk8-m6k","address":{"country_code":"TG","formatted_address":"Quartier Kpota, Aného, Togo","locality":"Aného","region":"Région maritime"}},"labels":["soccer","sport"],"duration":0,"start_local":"2024-06-23T15:00:00","end":"2024-06-23T15:00:00Z","end_local":"2024-06-23T15:00:00","updated":"2024-06-21T16:28:21Z"},{"title":"Championnat National - Barracuda vs Gomido","description":"Sourced from predicthq.com","category":"sports","start":"2024-06-23T15:00:00Z","geo":{"geometry":{"coordinates":[1.2151908874511719,6.126847152470958],"type":"Point"},"placekey":"@b8q-2fr-yvz","address":{"country_code":"TG","formatted_address":"228, Lomé, Togo","locality":"Lomé","region":"Région maritime"}},"labels":["soccer","sport"],"duration":0,"start_local":"2024-06-23T15:00:00","end":"2024-06-23T15:00:00Z","end_local":"2024-06-23T15:00:00","updated":"2024-06-21T12:49:16Z"},{"title":"Championnat National - Tambo vs Entente II","description":"Sourced from predicthq.com","category":"sports","start":"2024-06-23T15:00:00Z","geo":{"geometry":{"coordinates":[1.1296577355819863,7.5206794730870286],"type":"Point"},"placekey":"@b8z-5q3-bzf","address":{"country_code":"TG","formatted_address":"G4CH+7V7, Atakpame, Togo","locality":"Atakpame","region":"Plateaux Region"}},"labels":["soccer","sport"],"duration":0,"start_local":"2024-06-23T15:00:00","end":"2024-06-23T15:00:00Z","end_local":"2024-06-23T15:00:00","updated":"2024-06-21T12:47:59Z"},{"title":"Championnat National - Kara vs Doumbé de Mango","description":"Sourced from predicthq.com","category":"sports","start":"2024-06-22T15:00:00Z","geo":{"geometry":{"coordinates":[1.1470788717269897,8.981551550267577],"type":"Point"},"placekey":"@b8y-f42-fvf","address":{"country_code":"TG","formatted_address":"Sokode, Togo","locality":"Sokode","region":"Centrale Region"}},"labels":["soccer","sport"],"duration":0,"start_local":"2024-06-22T15:00:00","end":"2024-06-22T15:00:00Z","end_local":"2024-06-22T15:00:00","updated":"2024-06-21T17:40:07Z"},{"title":"Championnat National - Kakadl vs Dynamic Togolais","description":"Sourced from predicthq.com","category":"sports","start":"2024-06-22T15:00:00Z","geo":{"geometry":{"coordinates":[1.1791527271270752,9.572599198436638],"type":"Point"},"placekey":"@b8z-n4d-5pv","address":{"country_code":"TG","formatted_address":"Unnamed Road, H5FH+4P7, Kara, Togo","locality":"Kara","region":"Kara Region"}},"labels":["soccer","sport"],"duration":0,"start_local":"2024-06-22T15:00:00","end":"2024-06-22T15:00:00Z","end_local":"2024-06-22T15:00:00","updated":"2024-06-21T13:48:21Z"},{"title":"Championnat National - Gbikinti Bassar vs Unisport","description":"Sourced from predicthq.com","category":"sports","start":"2024-06-21T15:00:00Z","geo":{"geometry":{"coordinates":[1.1791527271270752,9.572599198436638],"type":"Point"},"placekey":"@b8z-n4d-5pv","address":{"country_code":"TG","formatted_address":"Unnamed Road, H5FH+4P7, Kara, Togo","locality":"Kara","region":"Kara Region"}},"labels":["soccer","sport"],"duration":0,"start_local":"2024-06-21T15:00:00","end":"2024-06-21T15:00:00Z","end_local":"2024-06-21T15:00:00","updated":"2024-06-21T16:18:56Z"},{"title":"Championnat National - Espoir vs ASKO de Kara","description":"Sourced from predicthq.com","category":"sports","start":"2024-06-16T15:30:00Z","geo":{"geometry":{"coordinates":[1.2050360441207886,6.4310243104934806],"type":"Point"},"placekey":"@b8p-jg7-zj9","address":{"country_code":"TG","formatted_address":"Tsevie, Togo","locality":"Tsevie","region":"Maritime Region"}},"labels":["soccer","sport"],"duration":0,"start_local":"2024-06-16T15:30:00","end":"2024-06-16T15:30:00Z","end_local":"2024-06-16T15:30:00","updated":"2024-06-15T05:24:45Z"},{"title":"Championnat National - Gomido vs Gbikinti Bassar","description":"Sourced from predicthq.com","category":"sports","start":"2024-06-16T15:30:00Z","geo":{"geometry":{"coordinates":[0.633562779,6.904696435],"type":"Point"},"placekey":"@b8p-ncr-7bk","address":{"country_code":"TG","formatted_address":"WJ3M+VC8, Kpalime, Togo","locality":"Kpalime","region":"Plateaux Region"}},"labels":["soccer","sport"],"duration":0,"start_local":"2024-06-16T15:30:00","end":"2024-06-16T15:30:00Z","end_local":"2024-06-16T15:30:00","updated":"2024-06-15T06:06:19Z"},{"title":"Championnat National - Dynamic Togolais vs Tambo","description":"Sourced from predicthq.com","category":"sports","start":"2024-06-16T15:30:00Z","geo":{"geometry":{"coordinates":[1.2082386016845703,6.219966728998514],"type":"Point"},"placekey":"@b8n-jpg-wc5","address":{"country_code":"TG","formatted_address":"A côté de l'Eglise presbytérienne Agoè, 66C5+38Q, Lomé, Togo","locality":"Lomé","region":"Région maritime"}},"labels":["soccer","sport"],"duration":0,"start_local":"2024-06-16T15:30:00","end":"2024-06-16T15:30:00Z","end_local":"2024-06-16T15:30:00","updated":"2024-06-15T05:21:01Z"},{"title":"Championnat National - OTR vs Gbohloé-su des Lacs","description":"Sourced from predicthq.com","category":"sports","start":"2024-06-16T15:30:00Z","geo":{"geometry":{"coordinates":[1.2151908874511719,6.126847152470958],"type":"Point"},"placekey":"@b8q-2fr-yvz","address":{"country_code":"TG","formatted_address":"228, Lomé, Togo","locality":"Lomé","region":"Région maritime"}},"labels":["soccer","sport"],"duration":0,"start_local":"2024-06-16T15:30:00","end":"2024-06-16T15:30:00Z","end_local":"2024-06-16T15:30:00","updated":"2024-06-15T05:38:47Z"},{"title":"Championnat National - Binah vs Barracuda","description":"Sourced from predicthq.com","category":"sports","start":"2024-06-16T15:30:00Z","geo":{"geometry":{"coordinates":[1.1791527271270752,9.572599198436638],"type":"Point"},"placekey":"@b8z-n4d-5pv","address":{"country_code":"TG","formatted_address":"Unnamed Road, H5FH+4P7, Kara, Togo","locality":"Kara","region":"Kara Region"}},"labels":["soccer","sport"],"duration":0,"start_local":"2024-06-16T15:30:00","end":"2024-06-16T15:30:00Z","end_local":"2024-06-16T15:30:00","updated":"2024-06-15T05:29:24Z"},{"title":"Championnat National - Unisport vs Kakadl","description":"Sourced from predicthq.com","category":"sports","start":"2024-06-15T15:30:00Z","geo":{"geometry":{"coordinates":[1.1470788717269897,8.981551550267577],"type":"Point"},"placekey":"@b8y-f42-fvf","address":{"country_code":"TG","formatted_address":"Sokode, Togo","locality":"Sokode","region":"Centrale Region"}},"labels":["soccer","sport"],"duration":0,"start_local":"2024-06-15T15:30:00","end":"2024-06-15T15:30:00Z","end_local":"2024-06-15T15:30:00","updated":"2024-06-15T05:33:06Z"},{"title":"Championnat National - Doumbé de Mango vs Semassi","description":"Sourced from predicthq.com","category":"sports","start":"2024-06-15T15:30:00Z","geo":{"geometry":{"coordinates":[1.1791527271270752,9.572599198436638],"type":"Point"},"placekey":"@b8z-n4d-5pv","address":{"country_code":"TG","formatted_address":"Unnamed Road, H5FH+4P7, Kara, Togo","locality":"Kara","region":"Kara Region"}},"labels":["soccer","sport"],"duration":0,"start_local":"2024-06-15T15:30:00","end":"2024-06-15T15:30:00Z","end_local":"2024-06-15T15:30:00","updated":"2024-06-15T05:24:45Z"},{"title":"Championnat National - Entente II vs Kara","description":"Sourced from predicthq.com","category":"sports","start":"2024-06-15T15:30:00Z","geo":{"geometry":{"coordinates":[1.2151908874511719,6.126847152470958],"type":"Point"},"placekey":"@b8q-2fr-yvz","address":{"country_code":"TG","formatted_address":"228, Lomé, Togo","locality":"Lomé","region":"Région maritime"}},"labels":["soccer","sport"],"duration":0,"start_local":"2024-06-15T15:30:00","end":"2024-06-15T15:30:00Z","end_local":"2024-06-15T15:30:00","updated":"2024-06-15T05:56:12Z"},{"title":"Championnat National - Barracuda vs Entente II","description":"Sourced from predicthq.com","category":"sports","start":"2024-06-12T15:30:00Z","geo":{"geometry":{"coordinates":[1.2151908874511719,6.126847152470958],"type":"Point"},"placekey":"@b8q-2fr-yvz","address":{"country_code":"TG","formatted_address":"228, Lomé, Togo","locality":"Lomé","region":"Région maritime"}},"labels":["soccer","sport"],"duration":0,"start_local":"2024-06-12T15:30:00","end":"2024-06-12T15:30:00Z","end_local":"2024-06-12T15:30:00","updated":"2024-06-11T11:29:49Z"},{"title":"Championnat National - Semassi vs Dynamic Togolais","description":"Sourced from predicthq.com","category":"sports","start":"2024-06-12T15:30:00Z","geo":{"geometry":{"coordinates":[1.1470788717269897,8.981551550267577],"type":"Point"},"placekey":"@b8y-f42-fvf","address":{"country_code":"TG","formatted_address":"Sokode, Togo","locality":"Sokode","region":"Centrale Region"}},"labels":["soccer","sport"],"duration":0,"start_local":"2024-06-12T15:30:00","end":"2024-06-12T15:30:00Z","end_local":"2024-06-12T15:30:00","updated":"2024-06-11T12:03:45Z"},{"title":"Championnat National - Tambo vs Unisport","description":"Sourced from predicthq.com","category":"sports","start":"2024-06-12T15:30:00Z","geo":{"geometry":{"coordinates":[1.1296577355819863,7.5206794730870286],"type":"Point"},"placekey":"@b8z-5q3-bzf","address":{"country_code":"TG","formatted_address":"G4CH+7V7, Atakpame, Togo","locality":"Atakpame","region":"Plateaux Region"}},"labels":["soccer","sport"],"duration":0,"start_local":"2024-06-12T15:30:00","end":"2024-06-12T15:30:00Z","end_local":"2024-06-12T15:30:00","updated":"2024-06-11T11:45:15Z"},{"title":"Championnat National - Gbohloé-su des Lacs vs Doumbé de Mango","description":"Sourced from predicthq.com","category":"sports","start":"2024-06-12T15:30:00Z","geo":{"geometry":{"coordinates":[1.587957743,6.230035205],"type":"Point"},"placekey":"@b8n-bk8-m6k","address":{"country_code":"TG","formatted_address":"Quartier Kpota, Aného, Togo","locality":"Aného","region":"Région maritime"}},"labels":["soccer","sport"],"duration":0,"start_local":"2024-06-12T15:30:00","end":"2024-06-12T15:30:00Z","end_local":"2024-06-12T15:30:00","updated":"2024-06-11T11:49:04Z"},{"title":"Championnat National - Kakadl vs Binah","description":"Sourced from predicthq.com","category":"sports","start":"2024-06-12T15:30:00Z","geo":{"geometry":{"coordinates":[1.1791527271270752,9.572599198436638],"type":"Point"},"placekey":"@b8z-n4d-5pv","address":{"country_code":"TG","formatted_address":"Unnamed Road, H5FH+4P7, Kara, Togo","locality":"Kara","region":"Kara Region"}},"labels":["soccer","sport"],"duration":0,"start_local":"2024-06-12T15:30:00","end":"2024-06-12T15:30:00Z","end_local":"2024-06-12T15:30:00","updated":"2024-06-11T11:25:47Z"},{"title":"Championnat National - Kara vs OTR","description":"Sourced from predicthq.com","category":"sports","start":"2024-06-11T15:30:00Z","geo":{"geometry":{"coordinates":[1.1791527271270752,9.572599198436638],"type":"Point"},"placekey":"@b8z-n4d-5pv","address":{"country_code":"TG","formatted_address":"Unnamed Road, H5FH+4P7, Kara, Togo","locality":"Kara","region":"Kara Region"}},"labels":["soccer","sport"],"duration":0,"start_local":"2024-06-11T15:30:00","end":"2024-06-11T15:30:00Z","end_local":"2024-06-11T15:30:00","updated":"2024-06-11T11:45:19Z"},{"title":"Championnat National - ASKO de Kara vs Gomido","description":"Sourced from predicthq.com","category":"sports","start":"2024-06-11T15:30:00Z","geo":{"geometry":{"coordinates":[1.1470788717269897,8.981551550267577],"type":"Point"},"placekey":"@b8y-f42-fvf","address":{"country_code":"TG","formatted_address":"Sokode, Togo","locality":"Sokode","region":"Centrale Region"}},"labels":["soccer","sport"],"duration":0,"start_local":"2024-06-11T15:30:00","end":"2024-06-11T15:30:00Z","end_local":"2024-06-11T15:30:00","updated":"2024-06-11T11:45:15Z"},{"title":"Championnat National - Gbikinti Bassar vs Espoir","description":"Sourced from predicthq.com","category":"sports","start":"2024-06-10T15:30:00Z","geo":{"geometry":{"coordinates":[1.1791527271270752,9.572599198436638],"type":"Point"},"placekey":"@b8z-n4d-5pv","address":{"country_code":"TG","formatted_address":"Unnamed Road, H5FH+4P7, Kara, Togo","locality":"Kara","region":"Kara Region"}},"labels":["soccer","sport"],"duration":0,"start_local":"2024-06-10T15:30:00","end":"2024-06-10T15:30:00Z","end_local":"2024-06-10T15:30:00","updated":"2024-06-11T11:21:55Z"},{"title":"Championnat National - Gomido vs Espoir","description":"Sourced from predicthq.com","category":"sports","start":"2024-06-02T15:30:00Z","geo":{"geometry":{"coordinates":[0.633562779,6.904696435],"type":"Point"},"placekey":"@b8p-ncr-7bk","address":{"country_code":"TG","formatted_address":"WJ3M+VC8, Kpalime, Togo","locality":"Kpalime","region":"Plateaux Region"}},"labels":["soccer","sport"],"duration":0,"start_local":"2024-06-02T15:30:00","end":"2024-06-02T15:30:00Z","end_local":"2024-06-02T15:30:00","updated":"2024-06-11T22:22:16Z"},{"title":"Championnat National - Entente II vs Kakadl","description":"Sourced from predicthq.com","category":"sports","start":"2024-06-02T15:30:00Z","geo":{"geometry":{"coordinates":[1.205159746,6.155276138],"type":"Point"},"placekey":"@b8q-2hj-st9","address":{"country_code":"TG","formatted_address":"5644+42X, Lomé, Togo","locality":"Lomé","region":"Maritime Region"}},"labels":["soccer","sport"],"duration":0,"start_local":"2024-06-02T15:30:00","end":"2024-06-02T15:30:00Z","end_local":"2024-06-02T15:30:00","updated":"2024-06-12T02:21:00Z"},{"title":"Championnat National - Dynamic Togolais vs Gbikinti Bassar","description":"Sourced from predicthq.com","category":"sports","start":"2024-06-02T15:30:00Z","geo":{"geometry":{"coordinates":[1.2082386016845703,6.219966728998514],"type":"Point"},"placekey":"@b8n-jpg-wc5","address":{"country_code":"TG","formatted_address":"A côté de l'Eglise presbytérienne Agoè, 66C5+38Q, Lomé, Togo","locality":"Lomé","region":"Région maritime"}},"labels":["soccer","sport"],"duration":0,"start_local":"2024-06-02T15:30:00","end":"2024-06-02T15:30:00Z","end_local":"2024-06-02T15:30:00","updated":"2024-06-12T02:36:39Z"},{"title":"Championnat National - Unisport vs ASKO de Kara","description":"Sourced from predicthq.com","category":"sports","start":"2024-06-02T15:30:00Z","geo":{"geometry":{"coordinates":[1.1470788717269897,8.981551550267577],"type":"Point"},"placekey":"@b8y-f42-fvf","address":{"country_code":"TG","formatted_address":"Sokode, Togo","locality":"Sokode","region":"Centrale Region"}},"labels":["soccer","sport"],"duration":0,"start_local":"2024-06-02T15:30:00","end":"2024-06-02T15:30:00Z","end_local":"2024-06-02T15:30:00","updated":"2024-06-12T11:38:00Z"},{"title":"Championnat National - Kara vs Gbohloé-su des Lacs","description":"Sourced from predicthq.com","category":"sports","start":"2024-06-02T15:30:00Z","geo":{"geometry":{"coordinates":[1.1791527271270752,9.572599198436638],"type":"Point"},"placekey":"@b8z-n4d-5pv","address":{"country_code":"TG","formatted_address":"Unnamed Road, H5FH+4P7, Kara, Togo","locality":"Kara","region":"Kara Region"}},"labels":["soccer","sport"],"duration":0,"start_local":"2024-06-02T15:30:00","end":"2024-06-02T15:30:00Z","end_local":"2024-06-02T15:30:00","updated":"2024-06-11T21:26:08Z"},{"title":"Championnat National - OTR vs Semassi","description":"Sourced from predicthq.com","category":"sports","start":"2024-06-02T15:30:00Z","geo":{"geometry":{"coordinates":[1.2151908874511719,6.126847152470958],"type":"Point"},"placekey":"@b8q-2fr-yvz","address":{"country_code":"TG","formatted_address":"228, Lomé, Togo","locality":"Lomé","region":"Région maritime"}},"labels":["soccer","sport"],"duration":0,"start_local":"2024-06-02T15:30:00","end":"2024-06-02T15:30:00Z","end_local":"2024-06-02T15:30:00","updated":"2024-06-11T21:51:36Z"},{"title":"Championnat National - Doumbé de Mango vs Binah","description":"Sourced from predicthq.com","category":"sports","start":"2024-06-01T15:30:00Z","geo":{"geometry":{"coordinates":[1.1791527271270752,9.572599198436638],"type":"Point"},"placekey":"@b8z-n4d-5pv","address":{"country_code":"TG","formatted_address":"Unnamed Road, H5FH+4P7, Kara, Togo","locality":"Kara","region":"Kara Region"}},"labels":["soccer","sport"],"duration":0,"start_local":"2024-06-01T15:30:00","end":"2024-06-01T15:30:00Z","end_local":"2024-06-01T15:30:00","updated":"2024-06-12T12:32:08Z"},{"title":"Championnat National - Barracuda vs Tambo","description":"Sourced from predicthq.com","category":"sports","start":"2024-06-01T15:30:00Z","geo":{"geometry":{"coordinates":[1.2151908874511719,6.126847152470958],"type":"Point"},"placekey":"@b8q-2fr-yvz","address":{"country_code":"TG","formatted_address":"228, Lomé, Togo","locality":"Lomé","region":"Région maritime"}},"labels":["soccer","sport"],"duration":0,"start_local":"2024-06-01T15:30:00","end":"2024-06-01T15:30:00Z","end_local":"2024-06-01T15:30:00","updated":"2024-06-12T01:04:34Z"},{"title":"Lancement du logiciel de gestion commerciale WAKINGO","description":"Sourced from predicthq.com - Nous sommes ravis de vous annoncer le lancement officiel de notre nouveau logiciel de gestion commerciale.","category":"conferences","start":"2024-06-01T10:00:00Z","geo":{"geometry":{"coordinates":[1.2196502,6.129557699999999],"type":"Point"},"placekey":"@b8q-2fr-p5f","address":{"country_code":"TG","formatted_address":"Lomé, Maritime Region, Togo","locality":"Lomé","region":"Maritime Region"}},"labels":["conference","science","technology"],"duration":5400,"start_local":"2024-06-01T10:00:00","end":"2024-06-01T11:30:00Z","end_local":"2024-06-01T11:30:00","updated":"2024-05-30T01:04:44Z"},{"title":"Championnat National - Espoir vs Dynamic Togolais","description":"Sourced from predicthq.com","category":"sports","start":"2024-05-26T15:30:00Z","geo":{"geometry":{"coordinates":[1.2050360441207886,6.4310243104934806],"type":"Point"},"placekey":"@b8p-jg7-zj9","address":{"country_code":"TG","formatted_address":"Tsevie, Togo","locality":"Tsevie","region":"Maritime Region"}},"labels":["soccer","sport"],"duration":0,"start_local":"2024-05-26T15:30:00","end":"2024-05-26T15:30:00Z","end_local":"2024-05-26T15:30:00","updated":"2024-06-12T14:33:23Z"},{"title":"Championnat National - Gbohloé-su des Lacs vs Unisport","description":"Sourced from predicthq.com","category":"sports","start":"2024-05-26T15:30:00Z","geo":{"geometry":{"coordinates":[1.587957743,6.230035205],"type":"Point"},"placekey":"@b8n-bk8-m6k","address":{"country_code":"TG","formatted_address":"Quartier Kpota, Aného, Togo","locality":"Aného","region":"Région maritime"}},"labels":["soccer","sport"],"duration":0,"start_local":"2024-05-26T15:30:00","end":"2024-05-26T15:30:00Z","end_local":"2024-05-26T15:30:00","updated":"2024-06-11T21:34:16Z"},{"title":"Championnat National - ASKO de Kara vs Barracuda","description":"Sourced from predicthq.com","category":"sports","start":"2024-05-26T15:30:00Z","geo":{"geometry":{"coordinates":[1.1791527271270752,9.572599198436638],"type":"Point"},"placekey":"@b8z-n4d-5pv","address":{"country_code":"TG","formatted_address":"Unnamed Road, H5FH+4P7, Kara, Togo","locality":"Kara","region":"Kara Region"}},"labels":["soccer","sport"],"duration":0,"start_local":"2024-05-26T15:30:00","end":"2024-05-26T15:30:00Z","end_local":"2024-05-26T15:30:00","updated":"2024-06-12T01:59:43Z"},{"title":"Championnat National - Kakadl vs Gomido","description":"Sourced from predicthq.com","category":"sports","start":"2024-05-26T15:30:00Z","geo":{"geometry":{"coordinates":[1.1470788717269897,8.981551550267577],"type":"Point"},"placekey":"@b8y-f42-fvf","address":{"country_code":"TG","formatted_address":"Sokode, Togo","locality":"Sokode","region":"Centrale Region"}},"labels":["soccer","sport"],"duration":0,"start_local":"2024-05-26T15:30:00","end":"2024-05-26T15:30:00Z","end_local":"2024-05-26T15:30:00","updated":"2024-06-12T11:17:41Z"},{"title":"Championnat National - Tambo vs Kara","description":"Sourced from predicthq.com","category":"sports","start":"2024-05-26T15:30:00Z","geo":{"geometry":{"coordinates":[1.1296577355819863,7.5206794730870286],"type":"Point"},"placekey":"@b8z-5q3-bzf","address":{"country_code":"TG","formatted_address":"G4CH+7V7, Atakpame, Togo","locality":"Atakpame","region":"Plateaux Region"}},"labels":["soccer","sport"],"duration":0,"start_local":"2024-05-26T15:30:00","end":"2024-05-26T15:30:00Z","end_local":"2024-05-26T15:30:00","updated":"2024-06-12T05:45:20Z"},{"title":"Championnat National - Binah vs OTR","description":"Sourced from predicthq.com","category":"sports","start":"2024-05-25T15:30:00Z","geo":{"geometry":{"coordinates":[1.1791527271270752,9.572599198436638],"type":"Point"},"placekey":"@b8z-n4d-5pv","address":{"country_code":"TG","formatted_address":"Unnamed Road, H5FH+4P7, Kara, Togo","locality":"Kara","region":"Kara Region"}},"labels":["soccer","sport"],"duration":0,"start_local":"2024-05-25T15:30:00","end":"2024-05-25T15:30:00Z","end_local":"2024-05-25T15:30:00","updated":"2024-06-12T18:10:05Z"},{"title":"Championnat National - Semassi vs Entente II","description":"Sourced from predicthq.com","category":"sports","start":"2024-05-25T15:30:00Z","geo":{"geometry":{"coordinates":[1.1470788717269897,8.981551550267577],"type":"Point"},"placekey":"@b8y-f42-fvf","address":{"country_code":"TG","formatted_address":"Sokode, Togo","locality":"Sokode","region":"Centrale Region"}},"labels":["soccer","sport"],"duration":0,"start_local":"2024-05-25T15:30:00","end":"2024-05-25T15:30:00Z","end_local":"2024-05-25T15:30:00","updated":"2024-06-12T12:39:37Z"},{"title":"Championnat National - Gbikinti Bassar vs Doumbé de Mango","description":"Sourced from predicthq.com","category":"sports","start":"2024-05-24T15:30:00Z","geo":{"geometry":{"coordinates":[1.1470788717269897,8.981551550267577],"type":"Point"},"placekey":"@b8y-f42-fvf","address":{"country_code":"TG","formatted_address":"Sokode, Togo","locality":"Sokode","region":"Centrale Region"}},"labels":["soccer","sport"],"duration":0,"start_local":"2024-05-24T15:30:00","end":"2024-05-24T15:30:00Z","end_local":"2024-05-24T15:30:00","updated":"2024-06-12T04:16:48Z"},{"title":"Championnat National - Gomido vs Gbohloé-su des Lacs","description":"Sourced from predicthq.com","category":"sports","start":"2024-05-12T15:30:00Z","geo":{"geometry":{"coordinates":[0.633562779,6.904696435],"type":"Point"},"placekey":"@b8p-ncr-7bk","address":{"country_code":"TG","formatted_address":"WJ3M+VC8, Kpalime, Togo","locality":"Kpalime","region":"Plateaux Region"}},"labels":["soccer","sport"],"duration":0,"start_local":"2024-05-12T15:30:00","end":"2024-05-12T15:30:00Z","end_local":"2024-05-12T15:30:00","updated":"2024-06-12T10:14:53Z"},{"title":"Championnat National - Dynamic Togolais vs Binah","description":"Sourced from predicthq.com","category":"sports","start":"2024-05-12T15:30:00Z","geo":{"geometry":{"coordinates":[1.2082386016845703,6.219966728998514],"type":"Point"},"placekey":"@b8n-jpg-wc5","address":{"country_code":"TG","formatted_address":"A côté de l'Eglise presbytérienne Agoè, 66C5+38Q, Lomé, Togo","locality":"Lomé","region":"Région maritime"}},"labels":["soccer","sport"],"duration":0,"start_local":"2024-05-12T15:30:00","end":"2024-05-12T15:30:00Z","end_local":"2024-05-12T15:30:00","updated":"2024-06-12T00:17:52Z"},{"title":"Championnat National - Kara vs Semassi","description":"Sourced from predicthq.com","category":"sports","start":"2024-05-12T15:30:00Z","geo":{"geometry":{"coordinates":[1.1791527271270752,9.572599198436638],"type":"Point"},"placekey":"@b8z-n4d-5pv","address":{"country_code":"TG","formatted_address":"Unnamed Road, H5FH+4P7, Kara, Togo","locality":"Kara","region":"Kara Region"}},"labels":["soccer","sport"],"duration":0,"start_local":"2024-05-12T15:30:00","end":"2024-05-12T15:30:00Z","end_local":"2024-05-12T15:30:00","updated":"2024-06-12T06:35:03Z"},{"title":"Championnat National - Unisport vs Barracuda","description":"Sourced from predicthq.com","category":"sports","start":"2024-05-12T15:30:00Z","geo":{"geometry":{"coordinates":[1.1470788717269897,8.981551550267577],"type":"Point"},"placekey":"@b8y-f42-fvf","address":{"country_code":"TG","formatted_address":"Sokode, Togo","locality":"Sokode","region":"Centrale Region"}},"labels":["soccer","sport"],"duration":0,"start_local":"2024-05-12T15:30:00","end":"2024-05-12T15:30:00Z","end_local":"2024-05-12T15:30:00","updated":"2024-06-12T19:10:12Z"},{"title":"Championnat National - Espoir vs OTR","description":"Sourced from predicthq.com","category":"sports","start":"2024-05-12T15:30:00Z","geo":{"geometry":{"coordinates":[1.2050360441207886,6.4310243104934806],"type":"Point"},"placekey":"@b8p-jg7-zj9","address":{"country_code":"TG","formatted_address":"Tsevie, Togo","locality":"Tsevie","region":"Maritime Region"}},"labels":["soccer","sport"],"duration":0,"start_local":"2024-05-12T15:30:00","end":"2024-05-12T15:30:00Z","end_local":"2024-05-12T15:30:00","updated":"2024-06-12T02:03:47Z"},{"title":"Championnat National - Tambo vs ASKO de Kara","description":"Sourced from predicthq.com","category":"sports","start":"2024-05-12T15:30:00Z","geo":{"geometry":{"coordinates":[1.1296577355819863,7.5206794730870286],"type":"Point"},"placekey":"@b8z-5q3-bzf","address":{"country_code":"TG","formatted_address":"G4CH+7V7, Atakpame, Togo","locality":"Atakpame","region":"Plateaux Region"}},"labels":["soccer","sport"],"duration":0,"start_local":"2024-05-12T15:30:00","end":"2024-05-12T15:30:00Z","end_local":"2024-05-12T15:30:00","updated":"2024-06-11T21:34:57Z"},{"title":"Championnat National - Entente II vs Gbikinti Bassar","description":"Sourced from predicthq.com","category":"sports","start":"2024-05-11T15:30:00Z","geo":{"geometry":{"coordinates":[1.2151908874511719,6.126847152470958],"type":"Point"},"placekey":"@b8q-2fr-yvz","address":{"country_code":"TG","formatted_address":"228, Lomé, Togo","locality":"Lomé","region":"Région maritime"}},"labels":["soccer","sport"],"duration":0,"start_local":"2024-05-11T15:30:00","end":"2024-05-11T15:30:00Z","end_local":"2024-05-11T15:30:00","updated":"2024-06-12T16:42:19Z"},{"title":"Championnat National - Doumbé de Mango vs Kakadl","description":"Sourced from predicthq.com","category":"sports","start":"2024-05-11T15:30:00Z","geo":{"geometry":{"coordinates":[1.1791527271270752,9.572599198436638],"type":"Point"},"placekey":"@b8z-n4d-5pv","address":{"country_code":"TG","formatted_address":"Unnamed Road, H5FH+4P7, Kara, Togo","locality":"Kara","region":"Kara Region"}},"labels":["soccer","sport"],"duration":0,"start_local":"2024-05-11T15:30:00","end":"2024-05-11T15:30:00Z","end_local":"2024-05-11T15:30:00","updated":"2024-06-12T05:53:15Z"},{"title":"Championnat National - Semassi vs Espoir","description":"Sourced from predicthq.com","category":"sports","start":"2024-05-05T15:30:00Z","geo":{"geometry":{"coordinates":[1.1470788717269897,8.981551550267577],"type":"Point"},"placekey":"@b8y-f42-fvf","address":{"country_code":"TG","formatted_address":"Sokode, Togo","locality":"Sokode","region":"Centrale Region"}},"labels":["soccer","sport"],"duration":0,"start_local":"2024-05-05T15:30:00","end":"2024-05-05T15:30:00Z","end_local":"2024-05-05T15:30:00","updated":"2024-06-12T05:23:07Z"},{"title":"Championnat National - ASKO de Kara vs Kara","description":"Sourced from predicthq.com","category":"sports","start":"2024-05-05T15:30:00Z","geo":{"geometry":{"coordinates":[1.190548219,9.550984352],"type":"Point"},"placekey":"@b8z-mnx-gx5","address":{"country_code":"TG","formatted_address":"Kara, Togo","locality":"Kara","region":"Kara Region"}},"labels":["soccer","sport"],"duration":0,"start_local":"2024-05-05T15:30:00","end":"2024-05-05T15:30:00Z","end_local":"2024-05-05T15:30:00","updated":"2024-06-12T15:19:25Z"},{"title":"Championnat National - Entente II vs Unisport","description":"Sourced from predicthq.com","category":"sports","start":"2024-05-05T15:30:00Z","geo":{"geometry":{"coordinates":[1.2151908874511719,6.126847152470958],"type":"Point"},"placekey":"@b8q-2fr-yvz","address":{"country_code":"TG","formatted_address":"228, Lomé, Togo","locality":"Lomé","region":"Région maritime"}},"labels":["soccer","sport"],"duration":0,"start_local":"2024-05-05T15:30:00","end":"2024-05-05T15:30:00Z","end_local":"2024-05-05T15:30:00","updated":"2024-06-12T15:40:01Z"},{"title":"Championnat National - OTR vs Doumbé de Mango","description":"Sourced from predicthq.com","category":"sports","start":"2024-05-05T15:30:00Z","geo":{"geometry":{"coordinates":[1.205159746,6.155276138],"type":"Point"},"placekey":"@b8q-2hj-st9","address":{"country_code":"TG","formatted_address":"5644+42X, Lomé, Togo","locality":"Lomé","region":"Maritime Region"}},"labels":["soccer","sport"],"duration":0,"start_local":"2024-05-05T15:30:00","end":"2024-05-05T15:30:00Z","end_local":"2024-05-05T15:30:00","updated":"2024-06-11T20:58:31Z"},{"title":"Championnat National - Binah vs Gomido","description":"Sourced from predicthq.com","category":"sports","start":"2024-05-04T15:30:00Z","geo":{"geometry":{"coordinates":[1.190548219,9.550984352],"type":"Point"},"placekey":"@b8z-mnx-gx5","address":{"country_code":"TG","formatted_address":"Kara, Togo","locality":"Kara","region":"Kara Region"}},"labels":["soccer","sport"],"duration":0,"start_local":"2024-05-04T15:30:00","end":"2024-05-04T15:30:00Z","end_local":"2024-05-04T15:30:00","updated":"2024-06-12T19:04:23Z"},{"title":"Championnat National - Kakadl vs Gbohloé-su des Lacs","description":"Sourced from predicthq.com","category":"sports","start":"2024-05-04T15:30:00Z","geo":{"geometry":{"coordinates":[1.1470788717269897,8.981551550267577],"type":"Point"},"placekey":"@b8y-f42-fvf","address":{"country_code":"TG","formatted_address":"Sokode, Togo","locality":"Sokode","region":"Centrale Region"}},"labels":["soccer","sport"],"duration":0,"start_local":"2024-05-04T15:30:00","end":"2024-05-04T15:30:00Z","end_local":"2024-05-04T15:30:00","updated":"2024-06-12T05:01:38Z"},{"title":"Championnat National - Barracuda vs Dynamic Togolais","description":"Sourced from predicthq.com","category":"sports","start":"2024-05-04T15:30:00Z","geo":{"geometry":{"coordinates":[1.2151908874511719,6.126847152470958],"type":"Point"},"placekey":"@b8q-2fr-yvz","address":{"country_code":"TG","formatted_address":"228, Lomé, Togo","locality":"Lomé","region":"Région maritime"}},"labels":["soccer","sport"],"duration":0,"start_local":"2024-05-04T15:30:00","end":"2024-05-04T15:30:00Z","end_local":"2024-05-04T15:30:00","updated":"2024-06-12T04:27:24Z"},{"title":"Championnat National - Gbikinti Bassar vs Tambo","description":"Sourced from predicthq.com","category":"sports","start":"2024-05-03T15:30:00Z","geo":{"geometry":{"coordinates":[1.190548219,9.550984352],"type":"Point"},"placekey":"@b8z-mnx-gx5","address":{"country_code":"TG","formatted_address":"Kara, Togo","locality":"Kara","region":"Kara Region"}},"labels":["soccer","sport"],"duration":0,"start_local":"2024-05-03T15:30:00","end":"2024-05-03T15:30:00Z","end_local":"2024-05-03T15:30:00","updated":"2024-06-12T09:20:47Z"},{"title":"Election for Assemblée nationale (Togolese National Assembly)","description":"Sourced from predicthq.com - At Stake in this Election:\n\nAll 113 seats in the Togolese National Assembly\n\nOn 3 April 2024, President GNASSINGBÉ announced an indefinite postponement of elections amidst controversy over proposed constitutional reforms. The National Assembly approved the new Constitution on 25 March, but GNASSINGBÉ did not sign it and ordered a second reading and vote following public outcry. On 9 April 2024, the election was officially rescheduled for 29 April 2024.\nGovernment Structure: \n\nChief of State: President Faure GNASSINGBÉ (since 4 May 2005)\nHead of Government: Prime Minister Victoire Tomegah DOGBÉ (since 28 September 2020)\nAssembly: unicameral National Assembly (Assemblée Nationale) with 91 seats\n\nElectoral System: \n\nThe President is directly elected by plurality vote to serve unlimited 5-year terms. Future Following the new constitution of 2024, the presidential elections will be indirect, and the President will be limited to a single 6-year term.\nThe Prime Minister is appointed by the President.\nIn the National Assembly, 113 members are directly elected by closed-list proportional representation vote from multi-seat constituencies. All members elected in 2024 will now serve 6-year terms. There are no term limits.\n\nLast Election:\nIn the 2018 National Assembly election, the Union for the Republic won a majority with 59 of the 91 seats. Five additional parties and 18 independent candidates also won seats. Voter turnout was 59.25%.\nNew/Unique in this Election: \nOn 31 January 2024, the National Assembly passed a law increasing the number of seats from 91 to 113.\nOn 25 March 2024, the National Assembly approved a new Constitution that will drastically change the structure of the Togolese government, shifting from a semi-presidential to a parliamentary system. The new Constitution will significantly limit the powers of the President and change the presidential term from 5 years (unlimited) to a single term of 6 years. The President will be indirectly elected by the National Assembly and Senate rather than directly elected. In contrast, the parliamentary majority leader will be named to the new position of President of the Council of Ministers after each election, with no term limits. Members of the National Assembly and Senate (a body defined by the prior Constitution of 1992 but yet to be established) will serve 6-year terms (still without term limits) rather than 5-year terms. The new Constitution also restructures the judicial system and establishes a high authority for transparency and anti-corruption efforts.\nKey Deadlines:\n\nCandidate filing deadline: 6 March 2024\n\nMain Parties in this Election:\n\nUnion for the Republic / Union pour la République (UNIR)\n\nSeats won in last election: 59 out of 91\n\n\nUnion of Forces of Change / Union des Forces du Changement (UFC)\n\nSeats won in last election: 6 out of 91\n\n\nPatriotic Movement for Democracy and Development / Mouvement Patriotique pour la Démocratie et le Développement (MPDD)\n\nSeats won in last election: 3 out of 91\n\n\nNew Commitment Togo / Nouvel Engagement Togolais (NET)\n\nSeats won in last election: 3 out of 91\n\n\nDemocratic Pan-African Party / Parti Démocratique Panafricain (PDP)\n\nSeats won in last election: 1 out of 91\n\n\nMovement of Centrist Republicans / Mouvement des Républicains Centristes (MRC)\n\nSeats won in last election: 1 out of 91\n\n\n\nPopulation:\n\nPopulation: 8,848,700 (2022)\n\nGender Data:\n\nFemale Population: 4,400,470 (2022)\nCEDAW Status: Ratified (by accession) 26 September 1983\nGender Quota:  Yes, party lists for National Assembly elections must include equal numbers of men and women\nFemale Candidates in this election: Yes\nNumber of Female Legislators (pre-election): 17 out of 90 (18.9%) in the National Assembly\nHuman Development Index (HDI) Position: 0.547, Low, Rank 163 (2022)\nSocial Institutions and Gender Index (SIGI) Categorization: 36.8 \n\nDisability Data:\n\nCRPD Status: Signed 23 September 2008, Ratified 1 March 2011\nProjected population with a disability: 1,415,792 (2022 est.)\n\nIFES Resources:\n\nDoes IFES have a presence in Togo: No\nElection Access: Yes\nElection Judgements: Yes, 2 judgments and 4 resources","category":"politics","start":"2024-04-29T00:00:00Z","geo":{"geometry":{"coordinates":[0.824782,8.619543],"type":"Point"},"address":{"country_code":"TG","formatted_address":"Togo"}},"labels":["election","parliament","politics"],"duration":86399,"start_local":"2024-04-29T00:00:00","end":"2024-04-29T23:59:59Z","end_local":"2024-04-29T23:59:59","updated":"2024-06-12T08:56:54Z"},{"title":"WEST AFRICA FOOD FESTIVAL","description":"Sourced from predicthq.com","category":"festivals","start":"2024-04-27T00:00:00Z","geo":{"geometry":{"coordinates":[1.21792,6.12151],"type":"Point"},"placekey":"@b8q-2fr-cdv","address":{"country_code":"TG","formatted_address":"Lomé, Région maritime, Togo","locality":"Lomé","region":"Région maritime"}},"labels":["festival"],"duration":518399,"start_local":"2024-04-27T00:00:00","end":"2024-05-02T23:59:59Z","end_local":"2024-05-02T23:59:59","updated":"2024-06-05T05:26:51Z"},{"title":"Championnat National - Gbohloé-su des Lacs vs Semassi","description":"Sourced from predicthq.com","category":"sports","start":"2024-04-21T15:30:00Z","geo":{"geometry":{"coordinates":[1.1470788717269897,8.981551550267577],"type":"Point"},"placekey":"@b8y-f42-fvf","address":{"country_code":"TG","formatted_address":"Sokode, Togo","locality":"Sokode","region":"Centrale Region"}},"labels":["soccer","sport"],"duration":0,"start_local":"2024-04-21T15:30:00","end":"2024-04-21T15:30:00Z","end_local":"2024-04-21T15:30:00","updated":"2024-06-12T03:41:22Z"},{"title":"Championnat National - Tambo vs OTR","description":"Sourced from predicthq.com","category":"sports","start":"2024-04-21T15:30:00Z","geo":{"geometry":{"coordinates":[1.1296577355819863,7.5206794730870286],"type":"Point"},"placekey":"@b8z-5q3-bzf","address":{"country_code":"TG","formatted_address":"G4CH+7V7, Atakpame, Togo","locality":"Atakpame","region":"Plateaux Region"}},"labels":["soccer","sport"],"duration":0,"start_local":"2024-04-21T15:30:00","end":"2024-04-21T15:30:00Z","end_local":"2024-04-21T15:30:00","updated":"2024-06-12T07:24:03Z"},{"title":"Championnat National - Dynamic Togolais vs Doumbé de Mango","description":"Sourced from predicthq.com","category":"sports","start":"2024-04-21T15:30:00Z","geo":{"geometry":{"coordinates":[1.2082386016845703,6.219966728998514],"type":"Point"},"placekey":"@b8n-jpg-wc5","address":{"country_code":"TG","formatted_address":"A côté de l'Eglise presbytérienne Agoè, 66C5+38Q, Lomé, Togo","locality":"Lomé","region":"Région maritime"}},"labels":["soccer","sport"],"duration":0,"start_local":"2024-04-21T15:30:00","end":"2024-04-21T15:30:00Z","end_local":"2024-04-21T15:30:00","updated":"2024-06-12T18:03:51Z"},{"title":"Championnat National - Gomido vs Entente II","description":"Sourced from predicthq.com","category":"sports","start":"2024-04-21T15:30:00Z","geo":{"geometry":{"coordinates":[0.633562779,6.904696435],"type":"Point"},"placekey":"@b8p-ncr-7bk","address":{"country_code":"TG","formatted_address":"WJ3M+VC8, Kpalime, Togo","locality":"Kpalime","region":"Plateaux Region"}},"labels":["soccer","sport"],"duration":0,"start_local":"2024-04-21T15:30:00","end":"2024-04-21T15:30:00Z","end_local":"2024-04-21T15:30:00","updated":"2024-06-12T02:04:54Z"},{"title":"Championnat National - ASKO de Kara vs Kakadl","description":"Sourced from predicthq.com","category":"sports","start":"2024-04-21T15:30:00Z","geo":{"geometry":{"coordinates":[1.1791527271270752,9.572599198436638],"type":"Point"},"placekey":"@b8z-n4d-5pv","address":{"country_code":"TG","formatted_address":"Unnamed Road, H5FH+4P7, Kara, Togo","locality":"Kara","region":"Kara Region"}},"labels":["soccer","sport"],"duration":0,"start_local":"2024-04-21T15:30:00","end":"2024-04-21T15:30:00Z","end_local":"2024-04-21T15:30:00","updated":"2024-06-12T08:40:48Z"},{"title":"Championnat National - Espoir vs Barracuda","description":"Sourced from predicthq.com","category":"sports","start":"2024-04-21T15:30:00Z","geo":{"geometry":{"coordinates":[1.2050360441207886,6.4310243104934806],"type":"Point"},"placekey":"@b8p-jg7-zj9","address":{"country_code":"TG","formatted_address":"Tsevie, Togo","locality":"Tsevie","region":"Maritime Region"}},"labels":["soccer","sport"],"duration":0,"start_local":"2024-04-21T15:30:00","end":"2024-04-21T15:30:00Z","end_local":"2024-04-21T15:30:00","updated":"2024-06-12T13:37:26Z"},{"title":"Championnat National - Unisport vs Binah","description":"Sourced from predicthq.com","category":"sports","start":"2024-04-21T15:30:00Z","geo":{"geometry":{"coordinates":[1.587957743,6.230035205],"type":"Point"},"placekey":"@b8n-bk8-m6k","address":{"country_code":"TG","formatted_address":"Quartier Kpota, Aného, Togo","locality":"Aného","region":"Région maritime"}},"labels":["soccer","sport"],"duration":0,"start_local":"2024-04-21T15:30:00","end":"2024-04-21T15:30:00Z","end_local":"2024-04-21T15:30:00","updated":"2024-06-12T06:36:53Z"},{"title":"Championnat National - Kara vs Gbikinti Bassar","description":"Sourced from predicthq.com","category":"sports","start":"2024-04-20T15:30:00Z","geo":{"geometry":{"coordinates":[1.1791527271270752,9.572599198436638],"type":"Point"},"placekey":"@b8z-n4d-5pv","address":{"country_code":"TG","formatted_address":"Unnamed Road, H5FH+4P7, Kara, Togo","locality":"Kara","region":"Kara Region"}},"labels":["soccer","sport"],"duration":0,"start_local":"2024-04-20T15:30:00","end":"2024-04-20T15:30:00Z","end_local":"2024-04-20T15:30:00","updated":"2024-06-12T02:01:34Z"},{"title":"Championnat National - Entente II vs ASKO de Kara","description":"Sourced from predicthq.com","category":"sports","start":"2024-04-18T15:30:00Z","geo":{"geometry":{"coordinates":[1.2151908874511719,6.126847152470958],"type":"Point"},"placekey":"@b8q-2fr-yvz","address":{"country_code":"TG","formatted_address":"228, Lomé, Togo","locality":"Lomé","region":"Région maritime"}},"labels":["soccer","sport"],"duration":0,"start_local":"2024-04-18T15:30:00","end":"2024-04-18T15:30:00Z","end_local":"2024-04-18T15:30:00","updated":"2024-06-11T23:21:36Z"},{"title":"Championnat National - Barracuda vs Kakadl","description":"Sourced from predicthq.com","category":"sports","start":"2024-04-18T15:30:00Z","geo":{"geometry":{"coordinates":[1.205159746,6.155276138],"type":"Point"},"placekey":"@b8q-2hj-st9","address":{"country_code":"TG","formatted_address":"5644+42X, Lomé, Togo","locality":"Lomé","region":"Maritime Region"}},"labels":["soccer","sport"],"duration":0,"start_local":"2024-04-18T15:30:00","end":"2024-04-18T15:30:00Z","end_local":"2024-04-18T15:30:00","updated":"2024-06-11T23:57:57Z"},{"title":"Championnat National - Doumbé de Mango vs Espoir","description":"Sourced from predicthq.com","category":"sports","start":"2024-04-18T15:30:00Z","geo":{"geometry":{"coordinates":[1.1791527271270752,9.572599198436638],"type":"Point"},"placekey":"@b8z-n4d-5pv","address":{"country_code":"TG","formatted_address":"Unnamed Road, H5FH+4P7, Kara, Togo","locality":"Kara","region":"Kara Region"}},"labels":["soccer","sport"],"duration":0,"start_local":"2024-04-18T15:30:00","end":"2024-04-18T15:30:00Z","end_local":"2024-04-18T15:30:00","updated":"2024-06-12T00:13:38Z"},{"title":"Championnat National - Gomido vs Semassi","description":"Sourced from predicthq.com","category":"sports","start":"2024-04-17T15:30:00Z","geo":{"geometry":{"coordinates":[0.633562779,6.904696435],"type":"Point"},"placekey":"@b8p-ncr-7bk","address":{"country_code":"TG","formatted_address":"WJ3M+VC8, Kpalime, Togo","locality":"Kpalime","region":"Plateaux Region"}},"labels":["soccer","sport"],"duration":0,"start_local":"2024-04-17T15:30:00","end":"2024-04-17T15:30:00Z","end_local":"2024-04-17T15:30:00","updated":"2024-06-12T10:33:55Z"},{"title":"Championnat National - Unisport vs Kara","description":"Sourced from predicthq.com","category":"sports","start":"2024-04-17T15:30:00Z","geo":{"geometry":{"coordinates":[1.1470788717269897,8.981551550267577],"type":"Point"},"placekey":"@b8y-f42-fvf","address":{"country_code":"TG","formatted_address":"Sokode, Togo","locality":"Sokode","region":"Centrale Region"}},"labels":["soccer","sport"],"duration":0,"start_local":"2024-04-17T15:30:00","end":"2024-04-17T15:30:00Z","end_local":"2024-04-17T15:30:00","updated":"2024-06-12T15:43:42Z"},{"title":"Championnat National - Dynamic Togolais vs Gbohloé-su des Lacs","description":"Sourced from predicthq.com","category":"sports","start":"2024-04-17T15:30:00Z","geo":{"geometry":{"coordinates":[1.2082386016845703,6.219966728998514],"type":"Point"},"placekey":"@b8n-jpg-wc5","address":{"country_code":"TG","formatted_address":"A côté de l'Eglise presbytérienne Agoè, 66C5+38Q, Lomé, Togo","locality":"Lomé","region":"Région maritime"}},"labels":["soccer","sport"],"duration":0,"start_local":"2024-04-17T15:30:00","end":"2024-04-17T15:30:00Z","end_local":"2024-04-17T15:30:00","updated":"2024-06-12T15:50:46Z"},{"title":"Championnat National - OTR vs Gbikinti Bassar","description":"Sourced from predicthq.com","category":"sports","start":"2024-04-17T15:30:00Z","geo":{"geometry":{"coordinates":[1.2151908874511719,6.126847152470958],"type":"Point"},"placekey":"@b8q-2fr-yvz","address":{"country_code":"TG","formatted_address":"228, Lomé, Togo","locality":"Lomé","region":"Région maritime"}},"labels":["soccer","sport"],"duration":0,"start_local":"2024-04-17T15:30:00","end":"2024-04-17T15:30:00Z","end_local":"2024-04-17T15:30:00","updated":"2024-06-12T15:08:34Z"},{"title":"Championnat National - Binah vs Tambo","description":"Sourced from predicthq.com","category":"sports","start":"2024-04-17T15:30:00Z","geo":{"geometry":{"coordinates":[1.1791527271270752,9.572599198436638],"type":"Point"},"placekey":"@b8z-n4d-5pv","address":{"country_code":"TG","formatted_address":"Unnamed Road, H5FH+4P7, Kara, Togo","locality":"Kara","region":"Kara Region"}},"labels":["soccer","sport"],"duration":0,"start_local":"2024-04-17T15:30:00","end":"2024-04-17T15:30:00Z","end_local":"2024-04-17T15:30:00","updated":"2024-06-12T10:06:35Z"},{"title":"Championnat National - Gbohloé-su des Lacs vs Binah","description":"Sourced from predicthq.com","category":"sports","start":"2024-04-14T15:30:00Z","geo":{"geometry":{"coordinates":[1.587957743,6.230035205],"type":"Point"},"placekey":"@b8n-bk8-m6k","address":{"country_code":"TG","formatted_address":"Quartier Kpota, Aného, Togo","locality":"Aného","region":"Région maritime"}},"labels":["soccer","sport"],"duration":0,"start_local":"2024-04-14T15:30:00","end":"2024-04-14T15:30:00Z","end_local":"2024-04-14T15:30:00","updated":"2024-06-11T21:17:35Z"},{"title":"Championnat National - OTR vs Dynamic Togolais","description":"Sourced from predicthq.com","category":"sports","start":"2024-04-14T15:30:00Z","geo":{"geometry":{"coordinates":[1.2151908874511719,6.126847152470958],"type":"Point"},"placekey":"@b8q-2fr-yvz","address":{"country_code":"TG","formatted_address":"228, Lomé, Togo","locality":"Lomé","region":"Région maritime"}},"labels":["soccer","sport"],"duration":0,"start_local":"2024-04-14T15:30:00","end":"2024-04-14T15:30:00Z","end_local":"2024-04-14T15:30:00","updated":"2024-06-11T22:49:56Z"},{"title":"Championnat National - Semassi vs Unisport","description":"Sourced from predicthq.com","category":"sports","start":"2024-04-14T15:30:00Z","geo":{"geometry":{"coordinates":[1.1470788717269897,8.981551550267577],"type":"Point"},"placekey":"@b8y-f42-fvf","address":{"country_code":"TG","formatted_address":"Sokode, Togo","locality":"Sokode","region":"Centrale Region"}},"labels":["soccer","sport"],"duration":0,"start_local":"2024-04-14T15:30:00","end":"2024-04-14T15:30:00Z","end_local":"2024-04-14T15:30:00","updated":"2024-06-12T04:45:44Z"},{"title":"Championnat National - Espoir vs Entente II","description":"Sourced from predicthq.com","category":"sports","start":"2024-04-14T15:30:00Z","geo":{"geometry":{"coordinates":[1.2050360441207886,6.4310243104934806],"type":"Point"},"placekey":"@b8p-jg7-zj9","address":{"country_code":"TG","formatted_address":"Tsevie, Togo","locality":"Tsevie","region":"Maritime Region"}},"labels":["soccer","sport"],"duration":0,"start_local":"2024-04-14T15:30:00","end":"2024-04-14T15:30:00Z","end_local":"2024-04-14T15:30:00","updated":"2024-06-12T00:38:42Z"},{"title":"Championnat National - Kakadl vs Tambo","description":"Sourced from predicthq.com","category":"sports","start":"2024-04-14T15:30:00Z","geo":{"geometry":{"coordinates":[1.1791527271270752,9.572599198436638],"type":"Point"},"placekey":"@b8z-n4d-5pv","address":{"country_code":"TG","formatted_address":"Unnamed Road, H5FH+4P7, Kara, Togo","locality":"Kara","region":"Kara Region"}},"labels":["soccer","sport"],"duration":0,"start_local":"2024-04-14T15:30:00","end":"2024-04-14T15:30:00Z","end_local":"2024-04-14T15:30:00","updated":"2024-06-12T12:43:30Z"},{"title":"Championnat National - Kara vs Barracuda","description":"Sourced from predicthq.com","category":"sports","start":"2024-04-13T15:30:00Z","geo":{"geometry":{"coordinates":[1.1791527271270752,9.572599198436638],"type":"Point"},"placekey":"@b8z-n4d-5pv","address":{"country_code":"TG","formatted_address":"Unnamed Road, H5FH+4P7, Kara, Togo","locality":"Kara","region":"Kara Region"}},"labels":["soccer","sport"],"duration":0,"start_local":"2024-04-13T15:30:00","end":"2024-04-13T15:30:00Z","end_local":"2024-04-13T15:30:00","updated":"2024-06-12T04:41:35Z"},{"title":"Championnat National - Gbikinti Bassar vs ASKO de Kara","description":"Sourced from predicthq.com","category":"sports","start":"2024-04-13T15:30:00Z","geo":{"geometry":{"coordinates":[1.1470788717269897,8.981551550267577],"type":"Point"},"placekey":"@b8y-f42-fvf","address":{"country_code":"TG","formatted_address":"Sokode, Togo","locality":"Sokode","region":"Centrale Region"}},"labels":["soccer","sport"],"duration":0,"start_local":"2024-04-13T15:30:00","end":"2024-04-13T15:30:00Z","end_local":"2024-04-13T15:30:00","updated":"2024-06-12T07:34:17Z"},{"title":"Championnat National - Doumbé de Mango vs Gomido","description":"Sourced from predicthq.com","category":"sports","start":"2024-04-12T15:30:00Z","geo":{"geometry":{"coordinates":[1.1470788717269897,8.981551550267577],"type":"Point"},"placekey":"@b8y-f42-fvf","address":{"country_code":"TG","formatted_address":"Sokode, Togo","locality":"Sokode","region":"Centrale Region"}},"labels":["soccer","sport"],"duration":0,"start_local":"2024-04-12T15:30:00","end":"2024-04-12T15:30:00Z","end_local":"2024-04-12T15:30:00","updated":"2024-06-12T09:36:32Z"},{"title":"Championnat National - Unisport vs Espoir","description":"Sourced from predicthq.com","category":"sports","start":"2024-04-07T15:30:00Z","geo":{"geometry":{"coordinates":[1.1470788717269897,8.981551550267577],"type":"Point"},"placekey":"@b8y-f42-fvf","address":{"country_code":"TG","formatted_address":"Sokode, Togo","locality":"Sokode","region":"Centrale Region"}},"labels":["soccer","sport"],"duration":0,"start_local":"2024-04-07T15:30:00","end":"2024-04-07T15:30:00Z","end_local":"2024-04-07T15:30:00","updated":"2024-06-12T06:56:53Z"},{"title":"Championnat National - Binah vs Kara","description":"Sourced from predicthq.com","category":"sports","start":"2024-04-07T15:30:00Z","geo":{"geometry":{"coordinates":[1.1791527271270752,9.572599198436638],"type":"Point"},"placekey":"@b8z-n4d-5pv","address":{"country_code":"TG","formatted_address":"Unnamed Road, H5FH+4P7, Kara, Togo","locality":"Kara","region":"Kara Region"}},"labels":["soccer","sport"],"duration":0,"start_local":"2024-04-07T15:30:00","end":"2024-04-07T15:30:00Z","end_local":"2024-04-07T15:30:00","updated":"2024-06-12T05:24:19Z"},{"title":"Championnat National - Entente II vs Dynamic Togolais","description":"Sourced from predicthq.com","category":"sports","start":"2024-04-07T15:30:00Z","geo":{"geometry":{"coordinates":[1.2151908874511719,6.126847152470958],"type":"Point"},"placekey":"@b8q-2fr-yvz","address":{"country_code":"TG","formatted_address":"228, Lomé, Togo","locality":"Lomé","region":"Région maritime"}},"labels":["soccer","sport"],"duration":0,"start_local":"2024-04-07T15:30:00","end":"2024-04-07T15:30:00Z","end_local":"2024-04-07T15:30:00","updated":"2024-06-12T12:00:01Z"},{"title":"Championnat National - Tambo vs Gbohloé-su des Lacs","description":"Sourced from predicthq.com","category":"sports","start":"2024-04-07T15:30:00Z","geo":{"geometry":{"coordinates":[1.1296577355819863,7.5206794730870286],"type":"Point"},"placekey":"@b8z-5q3-bzf","address":{"country_code":"TG","formatted_address":"G4CH+7V7, Atakpame, Togo","locality":"Atakpame","region":"Plateaux Region"}},"labels":["soccer","sport"],"duration":0,"start_local":"2024-04-07T15:30:00","end":"2024-04-07T15:30:00Z","end_local":"2024-04-07T15:30:00","updated":"2024-06-12T16:12:43Z"},{"title":"Championnat National - Gomido vs OTR","description":"Sourced from predicthq.com","category":"sports","start":"2024-04-07T15:30:00Z","geo":{"geometry":{"coordinates":[0.633562779,6.904696435],"type":"Point"},"placekey":"@b8p-ncr-7bk","address":{"country_code":"TG","formatted_address":"WJ3M+VC8, Kpalime, Togo","locality":"Kpalime","region":"Plateaux Region"}},"labels":["soccer","sport"],"duration":0,"start_local":"2024-04-07T15:30:00","end":"2024-04-07T15:30:00Z","end_local":"2024-04-07T15:30:00","updated":"2024-06-12T07:43:26Z"}]