[{"title":"Vysshaya Liga - CSKA Pamir vs Panjsher","description":"Sourced from predicthq.com","category":"sports","start":"2024-06-30T14:00:00Z","geo":{"geometry":{"coordinates":[68.21622490882874,38.51761621713714],"type":"Point"},"placekey":"@567-h5r-hyv","address":{"country_code":"TJ","formatted_address":"G698+3J3, Tursunzoda, Tajikistan","locality":"Tursunzoda","region":"Districts of Republican Subordination"}},"labels":["soccer","sport"],"duration":0,"start_local":"2024-06-30T19:00:00","end":"2024-06-30T14:00:00Z","end_local":"2024-06-30T19:00:00","updated":"2024-06-27T21:46:05Z"},{"title":"Vysshaya Liga - Eskhata vs Khujand","description":"Sourced from predicthq.com","category":"sports","start":"2024-06-29T12:30:00Z","geo":{"geometry":{"coordinates":[69.61435317993164,40.29175298680189],"type":"Point"},"placekey":"@567-73v-p7q","address":{"country_code":"TJ","formatted_address":"7JR7+RMG, Khujand, Tajikistan","locality":"Khujand","region":"Sughd Province"}},"labels":["soccer","sport"],"duration":0,"start_local":"2024-06-29T17:30:00","end":"2024-06-29T12:30:00Z","end_local":"2024-06-29T17:30:00","updated":"2024-06-26T15:58:07Z"},{"title":"Vysshaya Liga - Kuktosh vs Khosilot Farkhor","description":"Sourced from predicthq.com","category":"sports","start":"2024-06-29T12:30:00Z","geo":{"geometry":{"coordinates":[69.39313530921936,37.49480092793861],"type":"Point"},"placekey":"@55x-rq4-hyv","address":{"country_code":"TJ","formatted_address":"Farkhar (Parkhar), Tajikistan","locality":"Farkhar (Parkhar)"}},"labels":["soccer","sport"],"duration":0,"start_local":"2024-06-29T17:30:00","end":"2024-06-29T12:30:00Z","end_local":"2024-06-29T17:30:00","updated":"2024-06-27T06:26:28Z"},{"title":"Vysshaya Liga - Ravshan vs Barkchi Hisar","description":"Sourced from predicthq.com","category":"sports","start":"2024-06-28T14:00:00Z","geo":{"geometry":{"coordinates":[69.80093836784363,37.91589891388987],"type":"Point"},"placekey":"@55x-59w-kxq","address":{"country_code":"TJ","formatted_address":"Kulob (Kulyab), Tajikistan","locality":"Kulob (Kulyab)"}},"labels":["soccer","sport"],"duration":0,"start_local":"2024-06-28T19:00:00","end":"2024-06-28T14:00:00Z","end_local":"2024-06-28T19:00:00","updated":"2024-06-26T15:49:17Z"},{"title":"Vysshaya Liga - Vakhsh Bokhtar vs Regar-TadAZ","description":"Sourced from predicthq.com","category":"sports","start":"2024-06-28T12:30:00Z","geo":{"geometry":{"coordinates":[68.7773323059082,37.831031030709624],"type":"Point"},"placekey":"@56c-nmp-54v","address":{"country_code":"TJ","formatted_address":"Qurghonteppa (Kurgan-Tyube), Tajikistan","locality":"Qurghonteppa (Kurgan-Tyube)"}},"labels":["soccer","sport"],"duration":0,"start_local":"2024-06-28T17:30:00","end":"2024-06-28T12:30:00Z","end_local":"2024-06-28T17:30:00","updated":"2024-06-28T11:19:56Z"},{"title":"Vysshaya Liga - Panjsher vs Istiklol","description":"Sourced from predicthq.com","category":"sports","start":"2024-06-26T14:00:00Z","geo":{"geometry":{"coordinates":[68.76936078071594,38.58584727357272],"type":"Point"},"placekey":"@567-j56-5cq","address":{"country_code":"TJ","formatted_address":"HQP9+8PW, Dushanbe, Tajikistan","locality":"Dushanbe","region":"Dushanbe"}},"labels":["soccer","sport"],"duration":0,"start_local":"2024-06-26T19:00:00","end":"2024-06-26T14:00:00Z","end_local":"2024-06-26T19:00:00","updated":"2024-06-26T13:49:05Z"},{"title":"Vysshaya Liga - Ravshan vs Istiklol","description":"Sourced from predicthq.com","category":"sports","start":"2024-06-23T14:00:00Z","geo":{"geometry":{"coordinates":[69.80093836784363,37.91589891388987],"type":"Point"},"placekey":"@55x-59w-kxq","address":{"country_code":"TJ","formatted_address":"Kulob (Kulyab), Tajikistan","locality":"Kulob (Kulyab)"}},"labels":["soccer","sport"],"duration":0,"start_local":"2024-06-23T19:00:00","end":"2024-06-23T14:00:00Z","end_local":"2024-06-23T19:00:00","updated":"2024-06-21T12:51:33Z"},{"title":"Vysshaya Liga - Istaravshan vs Regar-TadAZ","description":"Sourced from predicthq.com","category":"sports","start":"2024-06-23T12:30:00Z","geo":{"geometry":{"coordinates":[69.61435317993164,40.29175298680189],"type":"Point"},"placekey":"@567-73v-p7q","address":{"country_code":"TJ","formatted_address":"7JR7+RMG, Khujand, Tajikistan","locality":"Khujand","region":"Sughd Province"}},"labels":["soccer","sport"],"duration":0,"start_local":"2024-06-23T17:30:00","end":"2024-06-23T12:30:00Z","end_local":"2024-06-23T17:30:00","updated":"2024-06-21T15:40:53Z"},{"title":"Vysshaya Liga - CSKA Pamir vs Barkchi Hisar","description":"Sourced from predicthq.com","category":"sports","start":"2024-06-22T14:00:00Z","geo":{"geometry":{"coordinates":[68.21622490882874,38.51761621713714],"type":"Point"},"placekey":"@567-h5r-hyv","address":{"country_code":"TJ","formatted_address":"G698+3J3, Tursunzoda, Tajikistan","locality":"Tursunzoda","region":"Districts of Republican Subordination"}},"labels":["soccer","sport"],"duration":0,"start_local":"2024-06-22T19:00:00","end":"2024-06-22T14:00:00Z","end_local":"2024-06-22T19:00:00","updated":"2024-06-20T14:12:16Z"},{"title":"Vysshaya Liga - Panjsher vs Eskhata","description":"Sourced from predicthq.com","category":"sports","start":"2024-06-22T12:30:00Z","geo":{"geometry":{"coordinates":[69.39313530921936,37.49480092793861],"type":"Point"},"placekey":"@55x-rq4-hyv","address":{"country_code":"TJ","formatted_address":"Farkhar (Parkhar), Tajikistan","locality":"Farkhar (Parkhar)"}},"labels":["soccer","sport"],"duration":0,"start_local":"2024-06-22T17:30:00","end":"2024-06-22T12:30:00Z","end_local":"2024-06-22T17:30:00","updated":"2024-06-21T14:32:00Z"},{"title":"Vysshaya Liga - Vakhsh Bokhtar vs Khosilot Farkhor","description":"Sourced from predicthq.com","category":"sports","start":"2024-06-22T12:30:00Z","geo":{"geometry":{"coordinates":[68.7773323059082,37.831031030709624],"type":"Point"},"placekey":"@56c-nmp-54v","address":{"country_code":"TJ","formatted_address":"Qurghonteppa (Kurgan-Tyube), Tajikistan","locality":"Qurghonteppa (Kurgan-Tyube)"}},"labels":["soccer","sport"],"duration":0,"start_local":"2024-06-22T17:30:00","end":"2024-06-22T12:30:00Z","end_local":"2024-06-22T17:30:00","updated":"2024-06-21T17:27:17Z"},{"title":"Vysshaya Liga - Kuktosh vs Khujand","description":"Sourced from predicthq.com","category":"sports","start":"2024-06-21T12:30:00Z","geo":{"geometry":{"coordinates":[69.61435317993164,40.29175298680189],"type":"Point"},"placekey":"@567-73v-p7q","address":{"country_code":"TJ","formatted_address":"7JR7+RMG, Khujand, Tajikistan","locality":"Khujand","region":"Sughd Province"}},"labels":["soccer","sport"],"duration":0,"start_local":"2024-06-21T17:30:00","end":"2024-06-21T12:30:00Z","end_local":"2024-06-21T17:30:00","updated":"2024-06-20T11:47:45Z"},{"title":"Vysshaya Liga - Istiklol vs Barkchi Hisar","description":"Sourced from predicthq.com","category":"sports","start":"2024-06-19T14:00:00Z","geo":{"geometry":{"coordinates":[68.76936078071594,38.58584727357272],"type":"Point"},"placekey":"@567-j56-5cq","address":{"country_code":"TJ","formatted_address":"HQP9+8PW, Dushanbe, Tajikistan","locality":"Dushanbe","region":"Dushanbe"}},"labels":["soccer","sport"],"duration":0,"start_local":"2024-06-19T19:00:00","end":"2024-06-19T14:00:00Z","end_local":"2024-06-19T19:00:00","updated":"2024-06-19T18:31:21Z"},{"title":"Vysshaya Liga - Istiklol vs CSKA Pamir","description":"Sourced from predicthq.com","category":"sports","start":"2024-06-16T14:00:00Z","geo":{"geometry":{"coordinates":[68.76936078071594,38.58584727357272],"type":"Point"},"placekey":"@567-j56-5cq","address":{"country_code":"TJ","formatted_address":"HQP9+8PW, Dushanbe, Tajikistan","locality":"Dushanbe","region":"Dushanbe"}},"labels":["soccer","sport"],"duration":0,"start_local":"2024-06-16T19:00:00","end":"2024-06-16T14:00:00Z","end_local":"2024-06-16T19:00:00","updated":"2024-06-14T11:49:54Z"},{"title":"Vysshaya Liga - Regar-TadAZ vs Ravshan","description":"Sourced from predicthq.com","category":"sports","start":"2024-06-16T14:00:00Z","geo":{"geometry":{"coordinates":[68.21622490882874,38.51761621713714],"type":"Point"},"placekey":"@567-h5r-hyv","address":{"country_code":"TJ","formatted_address":"G698+3J3, Tursunzoda, Tajikistan","locality":"Tursunzoda","region":"Districts of Republican Subordination"}},"labels":["soccer","sport"],"duration":0,"start_local":"2024-06-16T19:00:00","end":"2024-06-16T14:00:00Z","end_local":"2024-06-16T19:00:00","updated":"2024-06-14T16:00:57Z"},{"title":"Vysshaya Liga - Eskhata vs Kuktosh","description":"Sourced from predicthq.com","category":"sports","start":"2024-06-16T12:30:00Z","geo":{"geometry":{"coordinates":[69.61435317993164,40.29175298680189],"type":"Point"},"placekey":"@567-73v-p7q","address":{"country_code":"TJ","formatted_address":"7JR7+RMG, Khujand, Tajikistan","locality":"Khujand","region":"Sughd Province"}},"labels":["soccer","sport"],"duration":0,"start_local":"2024-06-16T17:30:00","end":"2024-06-16T12:30:00Z","end_local":"2024-06-16T17:30:00","updated":"2024-06-14T13:27:35Z"},{"title":"Vysshaya Liga - Barkchi Hisar vs Panjsher","description":"Sourced from predicthq.com","category":"sports","start":"2024-06-15T14:00:00Z","geo":{"geometry":{"coordinates":[68.76936078071594,38.58584727357272],"type":"Point"},"placekey":"@567-j56-5cq","address":{"country_code":"TJ","formatted_address":"HQP9+8PW, Dushanbe, Tajikistan","locality":"Dushanbe","region":"Dushanbe"}},"labels":["soccer","sport"],"duration":0,"start_local":"2024-06-15T19:00:00","end":"2024-06-15T14:00:00Z","end_local":"2024-06-15T19:00:00","updated":"2024-06-14T16:05:15Z"},{"title":"Vysshaya Liga - Khujand vs Vakhsh Bokhtar","description":"Sourced from predicthq.com","category":"sports","start":"2024-06-15T12:30:00Z","geo":{"geometry":{"coordinates":[69.61435317993164,40.29175298680189],"type":"Point"},"placekey":"@567-73v-p7q","address":{"country_code":"TJ","formatted_address":"7JR7+RMG, Khujand, Tajikistan","locality":"Khujand","region":"Sughd Province"}},"labels":["soccer","sport"],"duration":0,"start_local":"2024-06-15T17:30:00","end":"2024-06-15T12:30:00Z","end_local":"2024-06-15T17:30:00","updated":"2024-06-14T11:49:08Z"},{"title":"Vysshaya Liga - Khosilot Farkhor vs Istaravshan","description":"Sourced from predicthq.com","category":"sports","start":"2024-06-15T12:30:00Z","geo":{"geometry":{"coordinates":[69.39313530921936,37.49480092793861],"type":"Point"},"placekey":"@55x-rq4-hyv","address":{"country_code":"TJ","formatted_address":"Farkhar (Parkhar), Tajikistan","locality":"Farkhar (Parkhar)"}},"labels":["soccer","sport"],"duration":0,"start_local":"2024-06-15T17:30:00","end":"2024-06-15T12:30:00Z","end_local":"2024-06-15T17:30:00","updated":"2024-06-14T16:09:29Z"},{"title":"AFC World Cup Qualifiers - 2nd Round - Tajikistan vs Pakistan","description":"Sourced from predicthq.com","category":"sports","start":"2024-06-11T15:00:00Z","geo":{"geometry":{"coordinates":[68.76936078071594,38.58584727357272],"type":"Point"},"placekey":"@567-j56-5cq","address":{"country_code":"TJ","formatted_address":"HQP9+8PW, Dushanbe, Tajikistan","locality":"Dushanbe","region":"Dushanbe"}},"labels":["soccer","sport"],"duration":6803,"start_local":"2024-06-11T20:00:00","end":"2024-06-11T16:53:23Z","end_local":"2024-06-11T21:53:23","updated":"2024-06-11T17:36:59Z"},{"title":"Vysshaya Liga - Vakhsh Bokhtar vs Kuktosh","description":"Sourced from predicthq.com","category":"sports","start":"2024-06-02T13:00:00Z","geo":{"geometry":{"coordinates":[68.76936078071594,38.58584727357272],"type":"Point"},"placekey":"@567-j56-5cq","address":{"country_code":"TJ","formatted_address":"HQP9+8PW, Dushanbe, Tajikistan","locality":"Dushanbe","region":"Dushanbe"}},"labels":["soccer","sport"],"duration":0,"start_local":"2024-06-02T18:00:00","end":"2024-06-02T13:00:00Z","end_local":"2024-06-02T18:00:00","updated":"2024-06-12T08:42:05Z"},{"title":"Vysshaya Liga - Ravshan vs Khosilot Farkhor","description":"Sourced from predicthq.com","category":"sports","start":"2024-06-02T12:00:00Z","geo":{"geometry":{"coordinates":[69.80093836784363,37.91589891388987],"type":"Point"},"placekey":"@55x-59w-kxq","address":{"country_code":"TJ","formatted_address":"Kulob (Kulyab), Tajikistan","locality":"Kulob (Kulyab)"}},"labels":["soccer","sport"],"duration":0,"start_local":"2024-06-02T17:00:00","end":"2024-06-02T12:00:00Z","end_local":"2024-06-02T17:00:00","updated":"2024-06-12T03:32:37Z"},{"title":"Vysshaya Liga - CSKA Pamir vs Regar-TadAZ","description":"Sourced from predicthq.com","category":"sports","start":"2024-06-01T13:00:00Z","geo":{"geometry":{"coordinates":[68.55649394141689,38.5493276114621],"type":"Point"},"placekey":"@567-h82-g8v","address":{"country_code":"TJ","formatted_address":"Hisor (Gissar), Tajikistan","locality":"Hisor (Gissar)"}},"labels":["soccer","sport"],"duration":0,"start_local":"2024-06-01T18:00:00","end":"2024-06-01T13:00:00Z","end_local":"2024-06-01T18:00:00","updated":"2024-06-11T21:21:08Z"},{"title":"Vysshaya Liga - Istaravshan vs Khujand","description":"Sourced from predicthq.com","category":"sports","start":"2024-06-01T12:00:00Z","geo":{"geometry":{"coordinates":[69.00893568992615,39.90140323794957],"type":"Point"},"placekey":"@566-yd2-vmk","address":{"country_code":"TJ","formatted_address":"W225+F8P, Ulitsa Dusti, Istaravshan, Tajikistan","locality":"Istaravshan","region":"Sughd Province"}},"labels":["soccer","sport"],"duration":0,"start_local":"2024-06-01T17:00:00","end":"2024-06-01T12:00:00Z","end_local":"2024-06-01T17:00:00","updated":"2024-06-12T05:28:30Z"},{"title":"Vysshaya Liga - Barkchi Hisar vs Eskhata","description":"Sourced from predicthq.com","category":"sports","start":"2024-05-31T13:00:00Z","geo":{"geometry":{"coordinates":[68.55649394141689,38.5493276114621],"type":"Point"},"placekey":"@567-h82-g8v","address":{"country_code":"TJ","formatted_address":"Hisor (Gissar), Tajikistan","locality":"Hisor (Gissar)"}},"labels":["soccer","sport"],"duration":0,"start_local":"2024-05-31T18:00:00","end":"2024-05-31T13:00:00Z","end_local":"2024-05-31T18:00:00","updated":"2024-06-12T05:06:09Z"},{"title":"Vysshaya Liga - Regar-TadAZ vs Panjsher","description":"Sourced from predicthq.com","category":"sports","start":"2024-05-26T13:00:00Z","geo":{"geometry":{"coordinates":[68.21622490882874,38.51761621713714],"type":"Point"},"placekey":"@567-h5r-hyv","address":{"country_code":"TJ","formatted_address":"G698+3J3, Tursunzoda, Tajikistan","locality":"Tursunzoda","region":"Districts of Republican Subordination"}},"labels":["soccer","sport"],"duration":0,"start_local":"2024-05-26T18:00:00","end":"2024-05-26T13:00:00Z","end_local":"2024-05-26T18:00:00","updated":"2024-06-12T03:42:56Z"},{"title":"Vysshaya Liga - Kuktosh vs Istaravshan","description":"Sourced from predicthq.com","category":"sports","start":"2024-05-25T13:00:00Z","geo":{"geometry":{"coordinates":[68.55649394141689,38.5493276114621],"type":"Point"},"placekey":"@567-h82-g8v","address":{"country_code":"TJ","formatted_address":"Hisor (Gissar), Tajikistan","locality":"Hisor (Gissar)"}},"labels":["soccer","sport"],"duration":0,"start_local":"2024-05-25T18:00:00","end":"2024-05-25T13:00:00Z","end_local":"2024-05-25T18:00:00","updated":"2024-06-12T02:57:10Z"},{"title":"Vysshaya Liga - Khujand vs Ravshan","description":"Sourced from predicthq.com","category":"sports","start":"2024-05-25T12:00:00Z","geo":{"geometry":{"coordinates":[69.61435317993164,40.29175298680189],"type":"Point"},"placekey":"@567-73v-p7q","address":{"country_code":"TJ","formatted_address":"7JR7+RMG, Khujand, Tajikistan","locality":"Khujand","region":"Sughd Province"}},"labels":["soccer","sport"],"duration":0,"start_local":"2024-05-25T17:00:00","end":"2024-05-25T12:00:00Z","end_local":"2024-05-25T17:00:00","updated":"2024-06-11T22:18:59Z"},{"title":"Vysshaya Liga - Khosilot Farkhor vs CSKA Pamir","description":"Sourced from predicthq.com","category":"sports","start":"2024-05-25T12:00:00Z","geo":{"geometry":{"coordinates":[69.39313530921936,37.49480092793861],"type":"Point"},"placekey":"@55x-rq4-hyv","address":{"country_code":"TJ","formatted_address":"Farkhar (Parkhar), Tajikistan","locality":"Farkhar (Parkhar)"}},"labels":["soccer","sport"],"duration":0,"start_local":"2024-05-25T17:00:00","end":"2024-05-25T12:00:00Z","end_local":"2024-05-25T17:00:00","updated":"2024-06-11T22:03:01Z"},{"title":"Vysshaya Liga - Eskhata vs Vakhsh Bokhtar","description":"Sourced from predicthq.com","category":"sports","start":"2024-05-24T12:00:00Z","geo":{"geometry":{"coordinates":[69.61435317993164,40.29175298680189],"type":"Point"},"placekey":"@567-73v-p7q","address":{"country_code":"TJ","formatted_address":"7JR7+RMG, Khujand, Tajikistan","locality":"Khujand","region":"Sughd Province"}},"labels":["soccer","sport"],"duration":0,"start_local":"2024-05-24T17:00:00","end":"2024-05-24T12:00:00Z","end_local":"2024-05-24T17:00:00","updated":"2024-06-11T22:45:37Z"},{"title":"Vysshaya Liga - Istiklol vs Eskhata","description":"Sourced from predicthq.com","category":"sports","start":"2024-05-19T13:00:00Z","geo":{"geometry":{"coordinates":[68.76936078071594,38.58584727357272],"type":"Point"},"placekey":"@567-j56-5cq","address":{"country_code":"TJ","formatted_address":"HQP9+8PW, Dushanbe, Tajikistan","locality":"Dushanbe","region":"Dushanbe"}},"labels":["soccer","sport"],"duration":0,"start_local":"2024-05-19T18:00:00","end":"2024-05-19T13:00:00Z","end_local":"2024-05-19T18:00:00","updated":"2024-06-11T21:18:12Z"},{"title":"Vysshaya Liga - Ravshan vs Kuktosh","description":"Sourced from predicthq.com","category":"sports","start":"2024-05-19T12:00:00Z","geo":{"geometry":{"coordinates":[69.80093836784363,37.91589891388987],"type":"Point"},"placekey":"@55x-59w-kxq","address":{"country_code":"TJ","formatted_address":"Kulob (Kulyab), Tajikistan","locality":"Kulob (Kulyab)"}},"labels":["soccer","sport"],"duration":0,"start_local":"2024-05-19T17:00:00","end":"2024-05-19T12:00:00Z","end_local":"2024-05-19T17:00:00","updated":"2024-06-11T23:52:53Z"},{"title":"Vysshaya Liga - Barkchi Hisar vs Regar-TadAZ","description":"Sourced from predicthq.com","category":"sports","start":"2024-05-18T15:00:00Z","geo":{"geometry":{"coordinates":[68.55649394141689,38.5493276114621],"type":"Point"},"placekey":"@567-h82-g8v","address":{"country_code":"TJ","formatted_address":"Hisor (Gissar), Tajikistan","locality":"Hisor (Gissar)"}},"labels":["soccer","sport"],"duration":0,"start_local":"2024-05-18T20:00:00","end":"2024-05-18T15:00:00Z","end_local":"2024-05-18T20:00:00","updated":"2024-06-12T05:00:16Z"},{"title":"Vysshaya Liga - Istaravshan vs Vakhsh Bokhtar","description":"Sourced from predicthq.com","category":"sports","start":"2024-05-18T12:00:00Z","geo":{"geometry":{"coordinates":[69.00893568992615,39.90140323794957],"type":"Point"},"placekey":"@566-yd2-vmk","address":{"country_code":"TJ","formatted_address":"W225+F8P, Ulitsa Dusti, Istaravshan, Tajikistan","locality":"Istaravshan","region":"Sughd Province"}},"labels":["soccer","sport"],"duration":0,"start_local":"2024-05-18T17:00:00","end":"2024-05-18T12:00:00Z","end_local":"2024-05-18T17:00:00","updated":"2024-06-11T21:08:17Z"},{"title":"Vysshaya Liga - CSKA Pamir vs Khujand","description":"Sourced from predicthq.com","category":"sports","start":"2024-05-17T15:00:00Z","geo":{"geometry":{"coordinates":[68.55649394141689,38.5493276114621],"type":"Point"},"placekey":"@567-h82-g8v","address":{"country_code":"TJ","formatted_address":"Hisor (Gissar), Tajikistan","locality":"Hisor (Gissar)"}},"labels":["soccer","sport"],"duration":0,"start_local":"2024-05-17T20:00:00","end":"2024-05-17T15:00:00Z","end_local":"2024-05-17T20:00:00","updated":"2024-06-12T14:28:36Z"},{"title":"Vysshaya Liga - Panjsher vs Khosilot Farkhor","description":"Sourced from predicthq.com","category":"sports","start":"2024-05-17T12:00:00Z","geo":{"geometry":{"coordinates":[69.39313530921936,37.49480092793861],"type":"Point"},"placekey":"@55x-rq4-hyv","address":{"country_code":"TJ","formatted_address":"Farkhar (Parkhar), Tajikistan","locality":"Farkhar (Parkhar)"}},"labels":["soccer","sport"],"duration":0,"start_local":"2024-05-17T17:00:00","end":"2024-05-17T12:00:00Z","end_local":"2024-05-17T17:00:00","updated":"2024-06-12T08:52:42Z"},{"title":"Vysshaya Liga - Vakhsh Bokhtar vs Ravshan","description":"Sourced from predicthq.com","category":"sports","start":"2024-05-15T13:00:00Z","geo":{"geometry":{"coordinates":[68.76936078071594,38.58584727357272],"type":"Point"},"placekey":"@567-j56-5cq","address":{"country_code":"TJ","formatted_address":"HQP9+8PW, Dushanbe, Tajikistan","locality":"Dushanbe","region":"Dushanbe"}},"labels":["soccer","sport"],"duration":0,"start_local":"2024-05-15T18:00:00","end":"2024-05-15T13:00:00Z","end_local":"2024-05-15T18:00:00","updated":"2024-06-12T10:02:53Z"},{"title":"Vysshaya Liga - Regar-TadAZ vs Istiklol","description":"Sourced from predicthq.com","category":"sports","start":"2024-05-15T13:00:00Z","geo":{"geometry":{"coordinates":[68.21622490882874,38.51761621713714],"type":"Point"},"placekey":"@567-h5r-hyv","address":{"country_code":"TJ","formatted_address":"G698+3J3, Tursunzoda, Tajikistan","locality":"Tursunzoda","region":"Districts of Republican Subordination"}},"labels":["soccer","sport"],"duration":0,"start_local":"2024-05-15T18:00:00","end":"2024-05-15T13:00:00Z","end_local":"2024-05-15T18:00:00","updated":"2024-06-12T06:40:39Z"},{"title":"Vysshaya Liga - Kuktosh vs CSKA Pamir","description":"Sourced from predicthq.com","category":"sports","start":"2024-05-12T13:00:00Z","geo":{"geometry":{"coordinates":[68.55649394141689,38.5493276114621],"type":"Point"},"placekey":"@567-h82-g8v","address":{"country_code":"TJ","formatted_address":"Hisor (Gissar), Tajikistan","locality":"Hisor (Gissar)"}},"labels":["soccer","sport"],"duration":0,"start_local":"2024-05-12T18:00:00","end":"2024-05-12T13:00:00Z","end_local":"2024-05-12T18:00:00","updated":"2024-06-11T22:38:55Z"},{"title":"Vysshaya Liga - Eskhata vs Istaravshan","description":"Sourced from predicthq.com","category":"sports","start":"2024-05-12T12:00:00Z","geo":{"geometry":{"coordinates":[69.61435317993164,40.29175298680189],"type":"Point"},"placekey":"@567-73v-p7q","address":{"country_code":"TJ","formatted_address":"7JR7+RMG, Khujand, Tajikistan","locality":"Khujand","region":"Sughd Province"}},"labels":["soccer","sport"],"duration":0,"start_local":"2024-05-12T17:00:00","end":"2024-05-12T12:00:00Z","end_local":"2024-05-12T17:00:00","updated":"2024-06-12T08:45:17Z"},{"title":"Vysshaya Liga - Khujand vs Panjsher","description":"Sourced from predicthq.com","category":"sports","start":"2024-05-10T12:00:00Z","geo":{"geometry":{"coordinates":[69.61435317993164,40.29175298680189],"type":"Point"},"placekey":"@567-73v-p7q","address":{"country_code":"TJ","formatted_address":"7JR7+RMG, Khujand, Tajikistan","locality":"Khujand","region":"Sughd Province"}},"labels":["soccer","sport"],"duration":0,"start_local":"2024-05-10T17:00:00","end":"2024-05-10T12:00:00Z","end_local":"2024-05-10T17:00:00","updated":"2024-06-12T01:49:22Z"},{"title":"Vysshaya Liga - Khosilot Farkhor vs Barkchi Hisar","description":"Sourced from predicthq.com","category":"sports","start":"2024-05-10T12:00:00Z","geo":{"geometry":{"coordinates":[69.39313530921936,37.49480092793861],"type":"Point"},"placekey":"@55x-rq4-hyv","address":{"country_code":"TJ","formatted_address":"Farkhar (Parkhar), Tajikistan","locality":"Farkhar (Parkhar)"}},"labels":["soccer","sport"],"duration":0,"start_local":"2024-05-10T17:00:00","end":"2024-05-10T12:00:00Z","end_local":"2024-05-10T17:00:00","updated":"2024-06-12T04:39:09Z"},{"title":"Vysshaya Liga - CSKA Pamir vs Vakhsh Bokhtar","description":"Sourced from predicthq.com","category":"sports","start":"2024-05-05T15:00:00Z","geo":{"geometry":{"coordinates":[68.55649394141689,38.5493276114621],"type":"Point"},"placekey":"@567-h82-g8v","address":{"country_code":"TJ","formatted_address":"Hisor (Gissar), Tajikistan","locality":"Hisor (Gissar)"}},"labels":["soccer","sport"],"duration":0,"start_local":"2024-05-05T20:00:00","end":"2024-05-05T15:00:00Z","end_local":"2024-05-05T20:00:00","updated":"2024-06-12T08:07:28Z"},{"title":"Vysshaya Liga - Barkchi Hisar vs Khujand","description":"Sourced from predicthq.com","category":"sports","start":"2024-05-05T12:00:00Z","geo":{"geometry":{"coordinates":[68.55649394141689,38.5493276114621],"type":"Point"},"placekey":"@567-h82-g8v","address":{"country_code":"TJ","formatted_address":"Hisor (Gissar), Tajikistan","locality":"Hisor (Gissar)"}},"labels":["soccer","sport"],"duration":0,"start_local":"2024-05-05T17:00:00","end":"2024-05-05T12:00:00Z","end_local":"2024-05-05T17:00:00","updated":"2024-06-12T09:03:02Z"},{"title":"Vysshaya Liga - Ravshan vs Istaravshan","description":"Sourced from predicthq.com","category":"sports","start":"2024-05-05T11:30:00Z","geo":{"geometry":{"coordinates":[69.80093836784363,37.91589891388987],"type":"Point"},"placekey":"@55x-59w-kxq","address":{"country_code":"TJ","formatted_address":"Kulob (Kulyab), Tajikistan","locality":"Kulob (Kulyab)"}},"labels":["soccer","sport"],"duration":0,"start_local":"2024-05-05T16:30:00","end":"2024-05-05T11:30:00Z","end_local":"2024-05-05T16:30:00","updated":"2024-06-12T17:48:51Z"},{"title":"Vysshaya Liga - Panjsher vs Kuktosh","description":"Sourced from predicthq.com","category":"sports","start":"2024-05-04T14:30:00Z","geo":{"geometry":{"coordinates":[68.55649394141689,38.5493276114621],"type":"Point"},"placekey":"@567-h82-g8v","address":{"country_code":"TJ","formatted_address":"Hisor (Gissar), Tajikistan","locality":"Hisor (Gissar)"}},"labels":["soccer","sport"],"duration":0,"start_local":"2024-05-04T19:30:00","end":"2024-05-04T14:30:00Z","end_local":"2024-05-04T19:30:00","updated":"2024-06-11T22:48:02Z"},{"title":"Vysshaya Liga - Istiklol vs Khosilot Farkhor","description":"Sourced from predicthq.com","category":"sports","start":"2024-05-04T10:00:00Z","geo":{"geometry":{"coordinates":[68.76936078071594,38.58584727357272],"type":"Point"},"placekey":"@567-j56-5cq","address":{"country_code":"TJ","formatted_address":"HQP9+8PW, Dushanbe, Tajikistan","locality":"Dushanbe","region":"Dushanbe"}},"labels":["soccer","sport"],"duration":0,"start_local":"2024-05-04T15:00:00","end":"2024-05-04T10:00:00Z","end_local":"2024-05-04T15:00:00","updated":"2024-06-12T11:38:59Z"},{"title":"Vysshaya Liga - Regar-TadAZ vs Eskhata","description":"Sourced from predicthq.com","category":"sports","start":"2024-05-03T13:00:00Z","geo":{"geometry":{"coordinates":[68.55649394141689,38.5493276114621],"type":"Point"},"placekey":"@567-h82-g8v","address":{"country_code":"TJ","formatted_address":"Hisor (Gissar), Tajikistan","locality":"Hisor (Gissar)"}},"labels":["soccer","sport"],"duration":0,"start_local":"2024-05-03T18:00:00","end":"2024-05-03T13:00:00Z","end_local":"2024-05-03T18:00:00","updated":"2024-06-12T11:35:54Z"},{"title":"Vysshaya Liga - Khujand vs Istiklol","description":"Sourced from predicthq.com","category":"sports","start":"2024-04-28T11:00:00Z","geo":{"geometry":{"coordinates":[69.61435317993164,40.29175298680189],"type":"Point"},"placekey":"@567-73v-p7q","address":{"country_code":"TJ","formatted_address":"7JR7+RMG, Khujand, Tajikistan","locality":"Khujand","region":"Sughd Province"}},"labels":["soccer","sport"],"duration":0,"start_local":"2024-04-28T16:00:00","end":"2024-04-28T11:00:00Z","end_local":"2024-04-28T16:00:00","updated":"2024-06-12T07:16:45Z"},{"title":"Vysshaya Liga - Vakhsh Bokhtar vs Panjsher","description":"Sourced from predicthq.com","category":"sports","start":"2024-04-27T13:00:00Z","geo":{"geometry":{"coordinates":[68.76936078071594,38.58584727357272],"type":"Point"},"placekey":"@567-j56-5cq","address":{"country_code":"TJ","formatted_address":"HQP9+8PW, Dushanbe, Tajikistan","locality":"Dushanbe","region":"Dushanbe"}},"labels":["soccer","sport"],"duration":0,"start_local":"2024-04-27T18:00:00","end":"2024-04-27T13:00:00Z","end_local":"2024-04-27T18:00:00","updated":"2024-06-12T08:54:29Z"},{"title":"Vysshaya Liga - Khosilot Farkhor vs Regar-TadAZ","description":"Sourced from predicthq.com","category":"sports","start":"2024-04-27T11:30:00Z","geo":{"geometry":{"coordinates":[69.39313530921936,37.49480092793861],"type":"Point"},"placekey":"@55x-rq4-hyv","address":{"country_code":"TJ","formatted_address":"Farkhar (Parkhar), Tajikistan","locality":"Farkhar (Parkhar)"}},"labels":["soccer","sport"],"duration":0,"start_local":"2024-04-27T16:30:00","end":"2024-04-27T11:30:00Z","end_local":"2024-04-27T16:30:00","updated":"2024-06-12T11:15:42Z"},{"title":"Vysshaya Liga - Eskhata vs Ravshan","description":"Sourced from predicthq.com","category":"sports","start":"2024-04-27T11:30:00Z","geo":{"geometry":{"coordinates":[69.61435317993164,40.29175298680189],"type":"Point"},"placekey":"@567-73v-p7q","address":{"country_code":"TJ","formatted_address":"7JR7+RMG, Khujand, Tajikistan","locality":"Khujand","region":"Sughd Province"}},"labels":["soccer","sport"],"duration":0,"start_local":"2024-04-27T16:30:00","end":"2024-04-27T11:30:00Z","end_local":"2024-04-27T16:30:00","updated":"2024-06-11T23:55:48Z"},{"title":"Vysshaya Liga - Kuktosh vs Barkchi Hisar","description":"Sourced from predicthq.com","category":"sports","start":"2024-04-26T13:00:00Z","geo":{"geometry":{"coordinates":[68.55649394141689,38.5493276114621],"type":"Point"},"placekey":"@567-h82-g8v","address":{"country_code":"TJ","formatted_address":"Hisor (Gissar), Tajikistan","locality":"Hisor (Gissar)"}},"labels":["soccer","sport"],"duration":0,"start_local":"2024-04-26T18:00:00","end":"2024-04-26T13:00:00Z","end_local":"2024-04-26T18:00:00","updated":"2024-06-11T21:27:38Z"},{"title":"Vysshaya Liga - Istaravshan vs CSKA Pamir","description":"Sourced from predicthq.com","category":"sports","start":"2024-04-26T11:30:00Z","geo":{"geometry":{"coordinates":[69.61435317993164,40.29175298680189],"type":"Point"},"placekey":"@567-73v-p7q","address":{"country_code":"TJ","formatted_address":"7JR7+RMG, Khujand, Tajikistan","locality":"Khujand","region":"Sughd Province"}},"labels":["soccer","sport"],"duration":0,"start_local":"2024-04-26T16:30:00","end":"2024-04-26T11:30:00Z","end_local":"2024-04-26T16:30:00","updated":"2024-06-11T21:39:45Z"},{"title":"Vysshaya Liga - Regar-TadAZ vs Khujand","description":"Sourced from predicthq.com","category":"sports","start":"2024-04-21T13:00:00Z","geo":{"geometry":{"coordinates":[68.55649394141689,38.5493276114621],"type":"Point"},"placekey":"@567-h82-g8v","address":{"country_code":"TJ","formatted_address":"Hisor (Gissar), Tajikistan","locality":"Hisor (Gissar)"}},"labels":["soccer","sport"],"duration":0,"start_local":"2024-04-21T18:00:00","end":"2024-04-21T13:00:00Z","end_local":"2024-04-21T18:00:00","updated":"2024-06-12T16:56:55Z"},{"title":"Vysshaya Liga - CSKA Pamir vs Ravshan","description":"Sourced from predicthq.com","category":"sports","start":"2024-04-20T15:00:00Z","geo":{"geometry":{"coordinates":[68.55649394141689,38.5493276114621],"type":"Point"},"placekey":"@567-h82-g8v","address":{"country_code":"TJ","formatted_address":"Hisor (Gissar), Tajikistan","locality":"Hisor (Gissar)"}},"labels":["soccer","sport"],"duration":0,"start_local":"2024-04-20T20:00:00","end":"2024-04-20T15:00:00Z","end_local":"2024-04-20T20:00:00","updated":"2024-06-12T18:11:17Z"},{"title":"Vysshaya Liga - Barkchi Hisar vs Vakhsh Bokhtar","description":"Sourced from predicthq.com","category":"sports","start":"2024-04-20T12:00:00Z","geo":{"geometry":{"coordinates":[68.55649394141689,38.5493276114621],"type":"Point"},"placekey":"@567-h82-g8v","address":{"country_code":"TJ","formatted_address":"Hisor (Gissar), Tajikistan","locality":"Hisor (Gissar)"}},"labels":["soccer","sport"],"duration":0,"start_local":"2024-04-20T17:00:00","end":"2024-04-20T12:00:00Z","end_local":"2024-04-20T17:00:00","updated":"2024-06-11T21:21:34Z"},{"title":"Vysshaya Liga - Panjsher vs Istaravshan","description":"Sourced from predicthq.com","category":"sports","start":"2024-04-19T14:00:00Z","geo":{"geometry":{"coordinates":[68.66330211045076,37.58536700403646],"type":"Point"},"placekey":"@56c-qbz-8gk","address":{"country_code":"TJ","formatted_address":"HMP7+48 Kolkhozabad, Tajikistan","locality":"Kolkhozabad","region":"Khatlon Province"}},"labels":["soccer","sport"],"duration":0,"start_local":"2024-04-19T19:00:00","end":"2024-04-19T14:00:00Z","end_local":"2024-04-19T19:00:00","updated":"2024-06-12T07:36:46Z"},{"title":"Vysshaya Liga - Khosilot Farkhor vs Eskhata","description":"Sourced from predicthq.com","category":"sports","start":"2024-04-19T11:30:00Z","geo":{"geometry":{"coordinates":[69.39313530921936,37.49480092793861],"type":"Point"},"placekey":"@55x-rq4-hyv","address":{"country_code":"TJ","formatted_address":"Farkhar (Parkhar), Tajikistan","locality":"Farkhar (Parkhar)"}},"labels":["soccer","sport"],"duration":0,"start_local":"2024-04-19T16:30:00","end":"2024-04-19T11:30:00Z","end_local":"2024-04-19T16:30:00","updated":"2024-06-11T22:19:03Z"},{"title":"Vysshaya Liga - Istaravshan vs Barkchi Hisar","description":"Sourced from predicthq.com","category":"sports","start":"2024-04-14T11:00:00Z","geo":{"geometry":{"coordinates":[69.61435317993164,40.29175298680189],"type":"Point"},"placekey":"@567-73v-p7q","address":{"country_code":"TJ","formatted_address":"7JR7+RMG, Khujand, Tajikistan","locality":"Khujand","region":"Sughd Province"}},"labels":["soccer","sport"],"duration":0,"start_local":"2024-04-14T16:00:00","end":"2024-04-14T11:00:00Z","end_local":"2024-04-14T16:00:00","updated":"2024-06-12T07:23:09Z"},{"title":"Vysshaya Liga - Ravshan vs Panjsher","description":"Sourced from predicthq.com","category":"sports","start":"2024-04-14T11:00:00Z","geo":{"geometry":{"coordinates":[69.80093836784363,37.91589891388987],"type":"Point"},"placekey":"@55x-59w-kxq","address":{"country_code":"TJ","formatted_address":"Kulob (Kulyab), Tajikistan","locality":"Kulob (Kulyab)"}},"labels":["soccer","sport"],"duration":0,"start_local":"2024-04-14T16:00:00","end":"2024-04-14T11:00:00Z","end_local":"2024-04-14T16:00:00","updated":"2024-06-12T10:33:15Z"},{"title":"Vysshaya Liga - Istiklol vs Vakhsh Bokhtar","description":"Sourced from predicthq.com","category":"sports","start":"2024-04-13T13:00:00Z","geo":{"geometry":{"coordinates":[68.76936078071594,38.58584727357272],"type":"Point"},"placekey":"@567-j56-5cq","address":{"country_code":"TJ","formatted_address":"HQP9+8PW, Dushanbe, Tajikistan","locality":"Dushanbe","region":"Dushanbe"}},"labels":["soccer","sport"],"duration":0,"start_local":"2024-04-13T18:00:00","end":"2024-04-13T13:00:00Z","end_local":"2024-04-13T18:00:00","updated":"2024-06-12T13:54:17Z"},{"title":"Vysshaya Liga - Eskhata vs CSKA Pamir","description":"Sourced from predicthq.com","category":"sports","start":"2024-04-13T11:00:00Z","geo":{"geometry":{"coordinates":[69.61435317993164,40.29175298680189],"type":"Point"},"placekey":"@567-73v-p7q","address":{"country_code":"TJ","formatted_address":"7JR7+RMG, Khujand, Tajikistan","locality":"Khujand","region":"Sughd Province"}},"labels":["soccer","sport"],"duration":0,"start_local":"2024-04-13T16:00:00","end":"2024-04-13T11:00:00Z","end_local":"2024-04-13T16:00:00","updated":"2024-06-12T07:54:35Z"},{"title":"Vysshaya Liga - Khujand vs Khosilot Farkhor","description":"Sourced from predicthq.com","category":"sports","start":"2024-04-12T11:00:00Z","geo":{"geometry":{"coordinates":[69.61435317993164,40.29175298680189],"type":"Point"},"placekey":"@567-73v-p7q","address":{"country_code":"TJ","formatted_address":"7JR7+RMG, Khujand, Tajikistan","locality":"Khujand","region":"Sughd Province"}},"labels":["soccer","sport"],"duration":0,"start_local":"2024-04-12T16:00:00","end":"2024-04-12T11:00:00Z","end_local":"2024-04-12T16:00:00","updated":"2024-06-12T02:17:18Z"},{"title":"Vysshaya Liga - Kuktosh vs Regar-TadAZ","description":"Sourced from predicthq.com","category":"sports","start":"2024-04-12T11:00:00Z","geo":{"geometry":{"coordinates":[68.55649394141689,38.5493276114621],"type":"Point"},"placekey":"@567-h82-g8v","address":{"country_code":"TJ","formatted_address":"Hisor (Gissar), Tajikistan","locality":"Hisor (Gissar)"}},"labels":["soccer","sport"],"duration":0,"start_local":"2024-04-12T16:00:00","end":"2024-04-12T11:00:00Z","end_local":"2024-04-12T16:00:00","updated":"2024-06-12T18:11:30Z"},{"title":"Vysshaya Liga - Khosilot Farkhor vs Kuktosh","description":"Sourced from predicthq.com","category":"sports","start":"2024-04-07T14:00:00Z","geo":{"geometry":{"coordinates":[68.55649394141689,38.5493276114621],"type":"Point"},"placekey":"@567-h82-g8v","address":{"country_code":"TJ","formatted_address":"Hisor (Gissar), Tajikistan","locality":"Hisor (Gissar)"}},"labels":["soccer","sport"],"duration":0,"start_local":"2024-04-07T19:00:00","end":"2024-04-07T14:00:00Z","end_local":"2024-04-07T19:00:00","updated":"2024-06-11T23:13:27Z"},{"title":"Vysshaya Liga - Panjsher vs CSKA Pamir","description":"Sourced from predicthq.com","category":"sports","start":"2024-04-07T11:00:00Z","geo":{"geometry":{"coordinates":[68.55649394141689,38.5493276114621],"type":"Point"},"placekey":"@567-h82-g8v","address":{"country_code":"TJ","formatted_address":"Hisor (Gissar), Tajikistan","locality":"Hisor (Gissar)"}},"labels":["soccer","sport"],"duration":0,"start_local":"2024-04-07T16:00:00","end":"2024-04-07T11:00:00Z","end_local":"2024-04-07T16:00:00","updated":"2024-06-12T19:15:28Z"},{"title":"Vysshaya Liga - Istiklol vs Istaravshan","description":"Sourced from predicthq.com","category":"sports","start":"2024-04-07T11:00:00Z","geo":{"geometry":{"coordinates":[68.76936078071594,38.58584727357272],"type":"Point"},"placekey":"@567-j56-5cq","address":{"country_code":"TJ","formatted_address":"HQP9+8PW, Dushanbe, Tajikistan","locality":"Dushanbe","region":"Dushanbe"}},"labels":["soccer","sport"],"duration":0,"start_local":"2024-04-07T16:00:00","end":"2024-04-07T11:00:00Z","end_local":"2024-04-07T16:00:00","updated":"2024-06-12T10:42:46Z"}]