[{"title":"AFC World Cup Qualifiers - 2nd Round - Turkmenistan vs Hong Kong, China","description":"Sourced from predicthq.com","category":"sports","start":"2024-06-11T15:00:00Z","geo":{"geometry":{"coordinates":[58.3502554893,37.9280354672],"type":"Point"},"placekey":"@696-nqz-5j9","address":{"country_code":"TM","formatted_address":"744000 Aşgabat\nTürkmenistan","postcode":"744000","locality":"Aşgabat","region":"Ahal welaýaty"}},"labels":["soccer","sport"],"duration":6901,"start_local":"2024-06-11T20:00:00","end":"2024-06-11T16:55:01Z","end_local":"2024-06-11T21:55:01","updated":"2024-06-13T00:11:57Z"},{"title":"Ýokary Liga - Nebitçi vs Energetik","description":"Sourced from predicthq.com","category":"sports","start":"2024-05-25T13:00:00Z","geo":{"geometry":{"coordinates":[54.349559,39.5441077],"type":"Point"},"placekey":"@69h-9ck-rrk","address":{"country_code":"TM","formatted_address":"Balkanabat, Turkmenistan","locality":"Balkanabat","region":"Balkan"}},"labels":["soccer","sport"],"duration":0,"start_local":"2024-05-25T18:00:00","end":"2024-05-25T13:00:00Z","end_local":"2024-05-25T18:00:00","updated":"2024-06-12T02:55:38Z"},{"title":"Ýokary Liga - Altyn Asyr vs Merw","description":"Sourced from predicthq.com","category":"sports","start":"2024-05-25T12:00:00Z","geo":{"geometry":{"coordinates":[58.196581839,38.046148394],"type":"Point"},"placekey":"@696-nkd-m8v","address":{"country_code":"TM","formatted_address":"Büzmeýin (Abadan), Aşgabat (Ashgabat), Turkmenistan","locality":"Aşgabat (Ashgabat)"}},"labels":["soccer","sport"],"duration":0,"start_local":"2024-05-25T17:00:00","end":"2024-05-25T12:00:00Z","end_local":"2024-05-25T17:00:00","updated":"2024-06-11T20:52:25Z"},{"title":"Ýokary Liga - Ahal vs Köpetdag","description":"Sourced from predicthq.com","category":"sports","start":"2024-05-25T12:00:00Z","geo":{"geometry":{"coordinates":[58.3437056,37.9457945],"type":"Point"},"placekey":"@696-nqz-gp9","address":{"country_code":"TM","formatted_address":"Aşgabat, Turkmenistan","locality":"Aşgabat","region":"Aşgabat"}},"labels":["soccer","sport"],"duration":0,"start_local":"2024-05-25T17:00:00","end":"2024-05-25T12:00:00Z","end_local":"2024-05-25T17:00:00","updated":"2024-06-12T02:31:47Z"},{"title":"Ýokary Liga - Arkadag vs Şagadam","description":"Sourced from predicthq.com","category":"sports","start":"2024-05-25T11:00:00Z","geo":{"geometry":{"coordinates":[58.081044897,38.060173719],"type":"Point"},"placekey":"@696-m7j-mc5","address":{"country_code":"TM","formatted_address":"Arkadag şäheri, Turkmenistan","locality":"Arkadag şäheri"}},"labels":["soccer","sport"],"duration":0,"start_local":"2024-05-25T16:00:00","end":"2024-05-25T11:00:00Z","end_local":"2024-05-25T16:00:00","updated":"2024-06-12T12:12:27Z"},{"title":"Ýokary Liga - Aşgabat vs Ahal","description":"Sourced from predicthq.com","category":"sports","start":"2024-05-22T12:00:00Z","geo":{"geometry":{"coordinates":[58.3437056,37.9457945],"type":"Point"},"placekey":"@696-nqz-gp9","address":{"country_code":"TM","formatted_address":"Aşgabat, Turkmenistan","locality":"Aşgabat","region":"Aşgabat"}},"labels":["soccer","sport"],"duration":0,"start_local":"2024-05-22T17:00:00","end":"2024-05-22T12:00:00Z","end_local":"2024-05-22T17:00:00","updated":"2024-06-12T06:35:30Z"},{"title":"Ýokary Liga - Köpetdag vs Nebitçi","description":"Sourced from predicthq.com","category":"sports","start":"2024-05-22T12:00:00Z","geo":{"geometry":{"coordinates":[58.3702326,37.9493838],"type":"Point"},"placekey":"@696-nr2-qcq","address":{"country_code":"TM","formatted_address":"W9XC+P3Q, Ashgabat, Turkmenistan","locality":"Ashgabat","region":"Ashgabat"}},"labels":["soccer","sport"],"duration":0,"start_local":"2024-05-22T17:00:00","end":"2024-05-22T12:00:00Z","end_local":"2024-05-22T17:00:00","updated":"2024-06-12T00:42:04Z"},{"title":"Ýokary Liga - Energetik vs Altyn Asyr","description":"Sourced from predicthq.com","category":"sports","start":"2024-05-22T12:00:00Z","geo":{"geometry":{"coordinates":[61.81532084941864,37.61241691668083],"type":"Point"},"placekey":"@8bt-3v6-5pv","address":{"country_code":"TM","formatted_address":"HRQR+6VH, Mary, Turkmenistan","locality":"Mary","region":"Mary"}},"labels":["soccer","sport"],"duration":0,"start_local":"2024-05-22T17:00:00","end":"2024-05-22T12:00:00Z","end_local":"2024-05-22T17:00:00","updated":"2024-06-12T09:35:26Z"},{"title":"Ýokary Liga - Merw vs Arkadag","description":"Sourced from predicthq.com","category":"sports","start":"2024-05-22T11:30:00Z","geo":{"geometry":{"coordinates":[61.8455708026886,37.6073088862369],"type":"Point"},"placekey":"@8bt-3ty-5vf","address":{"country_code":"TM","formatted_address":"Mary, Turkmenistan","locality":"Mary","region":"Mary"}},"labels":["soccer","sport"],"duration":0,"start_local":"2024-05-22T16:30:00","end":"2024-05-22T11:30:00Z","end_local":"2024-05-22T16:30:00","updated":"2024-06-12T11:13:01Z"},{"title":"Ýokary Liga - Nebitçi vs Aşgabat","description":"Sourced from predicthq.com","category":"sports","start":"2024-05-18T13:00:00Z","geo":{"geometry":{"coordinates":[54.349559,39.5441077],"type":"Point"},"placekey":"@69h-9ck-rrk","address":{"country_code":"TM","formatted_address":"Balkanabat, Turkmenistan","locality":"Balkanabat","region":"Balkan"}},"labels":["soccer","sport"],"duration":0,"start_local":"2024-05-18T18:00:00","end":"2024-05-18T13:00:00Z","end_local":"2024-05-18T18:00:00","updated":"2024-06-11T21:36:49Z"},{"title":"Ýokary Liga - Şagadam vs Merw","description":"Sourced from predicthq.com","category":"sports","start":"2024-05-18T12:00:00Z","geo":{"geometry":{"coordinates":[52.98773646354675,40.014558853471456],"type":"Point"},"placekey":"@69j-dn6-j5f","address":{"country_code":"TM","formatted_address":"Türkmenbaşy, Turkmenistan","locality":"Türkmenbaşy"}},"labels":["soccer","sport"],"duration":0,"start_local":"2024-05-18T17:00:00","end":"2024-05-18T12:00:00Z","end_local":"2024-05-18T17:00:00","updated":"2024-06-12T07:27:51Z"},{"title":"Ýokary Liga - Altyn Asyr vs Köpetdag","description":"Sourced from predicthq.com","category":"sports","start":"2024-05-18T12:00:00Z","geo":{"geometry":{"coordinates":[58.196581839,38.046148394],"type":"Point"},"placekey":"@696-nkd-m8v","address":{"country_code":"TM","formatted_address":"Büzmeýin (Abadan), Aşgabat (Ashgabat), Turkmenistan","locality":"Aşgabat (Ashgabat)"}},"labels":["soccer","sport"],"duration":0,"start_local":"2024-05-18T17:00:00","end":"2024-05-18T12:00:00Z","end_local":"2024-05-18T17:00:00","updated":"2024-06-12T01:34:44Z"},{"title":"Ýokary Liga - Arkadag vs Energetik","description":"Sourced from predicthq.com","category":"sports","start":"2024-05-18T11:00:00Z","geo":{"geometry":{"coordinates":[58.081044897,38.060173719],"type":"Point"},"placekey":"@696-m7j-mc5","address":{"country_code":"TM","formatted_address":"Arkadag şäheri, Turkmenistan","locality":"Arkadag şäheri"}},"labels":["soccer","sport"],"duration":0,"start_local":"2024-05-18T16:00:00","end":"2024-05-18T11:00:00Z","end_local":"2024-05-18T16:00:00","updated":"2024-06-12T19:46:52Z"},{"title":"Ýokary Liga - Energetik vs Şagadam","description":"Sourced from predicthq.com","category":"sports","start":"2024-05-15T12:00:00Z","geo":{"geometry":{"coordinates":[61.81532084941864,37.61241691668083],"type":"Point"},"placekey":"@8bt-3v6-5pv","address":{"country_code":"TM","formatted_address":"HRQR+6VH, Mary, Turkmenistan","locality":"Mary","region":"Mary"}},"labels":["soccer","sport"],"duration":0,"start_local":"2024-05-15T17:00:00","end":"2024-05-15T12:00:00Z","end_local":"2024-05-15T17:00:00","updated":"2024-06-12T01:35:17Z"},{"title":"Ýokary Liga - Aşgabat vs Altyn Asyr","description":"Sourced from predicthq.com","category":"sports","start":"2024-05-15T12:00:00Z","geo":{"geometry":{"coordinates":[58.3437056,37.9457945],"type":"Point"},"placekey":"@696-nqz-gp9","address":{"country_code":"TM","formatted_address":"Aşgabat, Turkmenistan","locality":"Aşgabat","region":"Aşgabat"}},"labels":["soccer","sport"],"duration":0,"start_local":"2024-05-15T17:00:00","end":"2024-05-15T12:00:00Z","end_local":"2024-05-15T17:00:00","updated":"2024-06-12T08:10:24Z"},{"title":"Ýokary Liga - Ahal vs Nebitçi","description":"Sourced from predicthq.com","category":"sports","start":"2024-05-14T12:00:00Z","geo":{"geometry":{"coordinates":[58.3437056,37.9457945],"type":"Point"},"placekey":"@696-nqz-gp9","address":{"country_code":"TM","formatted_address":"Aşgabat, Turkmenistan","locality":"Aşgabat","region":"Aşgabat"}},"labels":["soccer","sport"],"duration":0,"start_local":"2024-05-14T17:00:00","end":"2024-05-14T12:00:00Z","end_local":"2024-05-14T17:00:00","updated":"2024-06-12T08:42:55Z"},{"title":"Ýokary Liga - Şagadam vs Köpetdag","description":"Sourced from predicthq.com","category":"sports","start":"2024-05-11T12:30:00Z","geo":{"geometry":{"coordinates":[52.98773646354675,40.014558853471456],"type":"Point"},"placekey":"@69j-dn6-j5f","address":{"country_code":"TM","formatted_address":"Türkmenbaşy, Turkmenistan","locality":"Türkmenbaşy"}},"labels":["soccer","sport"],"duration":0,"start_local":"2024-05-11T17:30:00","end":"2024-05-11T12:30:00Z","end_local":"2024-05-11T17:30:00","updated":"2024-06-12T00:47:46Z"},{"title":"Ýokary Liga - Arkadag vs Aşgabat","description":"Sourced from predicthq.com","category":"sports","start":"2024-05-11T12:30:00Z","geo":{"geometry":{"coordinates":[58.081044897,38.060173719],"type":"Point"},"placekey":"@696-m7j-mc5","address":{"country_code":"TM","formatted_address":"Arkadag şäheri, Turkmenistan","locality":"Arkadag şäheri"}},"labels":["soccer","sport"],"duration":0,"start_local":"2024-05-11T17:30:00","end":"2024-05-11T12:30:00Z","end_local":"2024-05-11T17:30:00","updated":"2024-06-12T03:20:15Z"},{"title":"Ýokary Liga - Merw vs Energetik","description":"Sourced from predicthq.com","category":"sports","start":"2024-05-11T12:30:00Z","geo":{"geometry":{"coordinates":[61.8455708026886,37.6073088862369],"type":"Point"},"placekey":"@8bt-3ty-5vf","address":{"country_code":"TM","formatted_address":"Mary, Turkmenistan","locality":"Mary","region":"Mary"}},"labels":["soccer","sport"],"duration":0,"start_local":"2024-05-11T17:30:00","end":"2024-05-11T12:30:00Z","end_local":"2024-05-11T17:30:00","updated":"2024-06-12T03:46:31Z"},{"title":"Ýokary Liga - Altyn Asyr vs Ahal","description":"Sourced from predicthq.com","category":"sports","start":"2024-05-11T12:00:00Z","geo":{"geometry":{"coordinates":[58.196581839,38.046148394],"type":"Point"},"placekey":"@696-nkd-m8v","address":{"country_code":"TM","formatted_address":"Büzmeýin (Abadan), Aşgabat (Ashgabat), Turkmenistan","locality":"Aşgabat (Ashgabat)"}},"labels":["soccer","sport"],"duration":0,"start_local":"2024-05-11T17:00:00","end":"2024-05-11T12:00:00Z","end_local":"2024-05-11T17:00:00","updated":"2024-06-12T04:34:32Z"},{"title":"Ýokary Liga - Nebitçi vs Altyn Asyr","description":"Sourced from predicthq.com","category":"sports","start":"2024-05-08T13:00:00Z","geo":{"geometry":{"coordinates":[54.349559,39.5441077],"type":"Point"},"placekey":"@69h-9ck-rrk","address":{"country_code":"TM","formatted_address":"Balkanabat, Turkmenistan","locality":"Balkanabat","region":"Balkan"}},"labels":["soccer","sport"],"duration":0,"start_local":"2024-05-08T18:00:00","end":"2024-05-08T13:00:00Z","end_local":"2024-05-08T18:00:00","updated":"2024-06-11T23:54:17Z"},{"title":"Ýokary Liga - Ahal vs Arkadag","description":"Sourced from predicthq.com","category":"sports","start":"2024-05-08T12:00:00Z","geo":{"geometry":{"coordinates":[58.3437056,37.9457945],"type":"Point"},"placekey":"@696-nqz-gp9","address":{"country_code":"TM","formatted_address":"Aşgabat, Turkmenistan","locality":"Aşgabat","region":"Aşgabat"}},"labels":["soccer","sport"],"duration":0,"start_local":"2024-05-08T17:00:00","end":"2024-05-08T12:00:00Z","end_local":"2024-05-08T17:00:00","updated":"2024-06-12T11:17:40Z"},{"title":"Ýokary Liga - Köpetdag vs Merw","description":"Sourced from predicthq.com","category":"sports","start":"2024-05-08T12:00:00Z","geo":{"geometry":{"coordinates":[58.3702326,37.9493838],"type":"Point"},"placekey":"@696-nr2-qcq","address":{"country_code":"TM","formatted_address":"W9XC+P3Q, Ashgabat, Turkmenistan","locality":"Ashgabat","region":"Ashgabat"}},"labels":["soccer","sport"],"duration":0,"start_local":"2024-05-08T17:00:00","end":"2024-05-08T12:00:00Z","end_local":"2024-05-08T17:00:00","updated":"2024-06-12T02:07:19Z"},{"title":"Ýokary Liga - Aşgabat vs Şagadam","description":"Sourced from predicthq.com","category":"sports","start":"2024-05-07T12:00:00Z","geo":{"geometry":{"coordinates":[58.3437056,37.9457945],"type":"Point"},"placekey":"@696-nqz-gp9","address":{"country_code":"TM","formatted_address":"Aşgabat, Turkmenistan","locality":"Aşgabat","region":"Aşgabat"}},"labels":["soccer","sport"],"duration":0,"start_local":"2024-05-07T17:00:00","end":"2024-05-07T12:00:00Z","end_local":"2024-05-07T17:00:00","updated":"2024-06-12T00:23:20Z"},{"title":"Ýokary Liga - Şagadam vs Ahal","description":"Sourced from predicthq.com","category":"sports","start":"2024-05-04T12:30:00Z","geo":{"geometry":{"coordinates":[52.98773646354675,40.014558853471456],"type":"Point"},"placekey":"@69j-dn6-j5f","address":{"country_code":"TM","formatted_address":"Türkmenbaşy, Turkmenistan","locality":"Türkmenbaşy"}},"labels":["soccer","sport"],"duration":0,"start_local":"2024-05-04T17:30:00","end":"2024-05-04T12:30:00Z","end_local":"2024-05-04T17:30:00","updated":"2024-06-12T05:10:24Z"},{"title":"Ýokary Liga - Nebitçi vs Arkadag","description":"Sourced from predicthq.com","category":"sports","start":"2024-05-04T12:00:00Z","geo":{"geometry":{"coordinates":[54.349559,39.5441077],"type":"Point"},"placekey":"@69h-9ck-rrk","address":{"country_code":"TM","formatted_address":"Balkanabat, Turkmenistan","locality":"Balkanabat","region":"Balkan"}},"labels":["soccer","sport"],"duration":0,"start_local":"2024-05-04T17:00:00","end":"2024-05-04T12:00:00Z","end_local":"2024-05-04T17:00:00","updated":"2024-06-12T19:03:20Z"},{"title":"Ýokary Liga - Merw vs Aşgabat","description":"Sourced from predicthq.com","category":"sports","start":"2024-05-04T12:00:00Z","geo":{"geometry":{"coordinates":[61.8455708026886,37.6073088862369],"type":"Point"},"placekey":"@8bt-3ty-5vf","address":{"country_code":"TM","formatted_address":"Mary, Turkmenistan","locality":"Mary","region":"Mary"}},"labels":["soccer","sport"],"duration":0,"start_local":"2024-05-04T17:00:00","end":"2024-05-04T12:00:00Z","end_local":"2024-05-04T17:00:00","updated":"2024-06-11T23:47:11Z"},{"title":"Ýokary Liga - Energetik vs Köpetdag","description":"Sourced from predicthq.com","category":"sports","start":"2024-05-04T11:00:00Z","geo":{"geometry":{"coordinates":[61.81532084941864,37.61241691668083],"type":"Point"},"placekey":"@8bt-3v6-5pv","address":{"country_code":"TM","formatted_address":"HRQR+6VH, Mary, Turkmenistan","locality":"Mary","region":"Mary"}},"labels":["soccer","sport"],"duration":0,"start_local":"2024-05-04T16:00:00","end":"2024-05-04T11:00:00Z","end_local":"2024-05-04T16:00:00","updated":"2024-06-12T18:54:13Z"},{"title":"Ýokary Liga - Nebitçi vs Şagadam","description":"Sourced from predicthq.com","category":"sports","start":"2024-05-01T13:00:00Z","geo":{"geometry":{"coordinates":[54.349559,39.5441077],"type":"Point"},"placekey":"@69h-9ck-rrk","address":{"country_code":"TM","formatted_address":"Balkanabat, Turkmenistan","locality":"Balkanabat","region":"Balkan"}},"labels":["soccer","sport"],"duration":0,"start_local":"2024-05-01T18:00:00","end":"2024-05-01T13:00:00Z","end_local":"2024-05-01T18:00:00","updated":"2024-06-12T08:23:08Z"},{"title":"Ýokary Liga - Ahal vs Merw","description":"Sourced from predicthq.com","category":"sports","start":"2024-05-01T12:00:00Z","geo":{"geometry":{"coordinates":[58.3437056,37.9457945],"type":"Point"},"placekey":"@696-nqz-gp9","address":{"country_code":"TM","formatted_address":"Aşgabat, Turkmenistan","locality":"Aşgabat","region":"Aşgabat"}},"labels":["soccer","sport"],"duration":0,"start_local":"2024-05-01T17:00:00","end":"2024-05-01T12:00:00Z","end_local":"2024-05-01T17:00:00","updated":"2024-06-12T00:05:55Z"},{"title":"Ýokary Liga - Altyn Asyr vs Arkadag","description":"Sourced from predicthq.com","category":"sports","start":"2024-05-01T12:00:00Z","geo":{"geometry":{"coordinates":[58.196581839,38.046148394],"type":"Point"},"placekey":"@696-nkd-m8v","address":{"country_code":"TM","formatted_address":"Büzmeýin (Abadan), Aşgabat (Ashgabat), Turkmenistan","locality":"Aşgabat (Ashgabat)"}},"labels":["soccer","sport"],"duration":0,"start_local":"2024-05-01T17:00:00","end":"2024-05-01T12:00:00Z","end_local":"2024-05-01T17:00:00","updated":"2024-06-12T03:32:20Z"},{"title":"Ýokary Liga - Aşgabat vs Energetik","description":"Sourced from predicthq.com","category":"sports","start":"2024-04-30T12:00:00Z","geo":{"geometry":{"coordinates":[58.3437056,37.9457945],"type":"Point"},"placekey":"@696-nqz-gp9","address":{"country_code":"TM","formatted_address":"Aşgabat, Turkmenistan","locality":"Aşgabat","region":"Aşgabat"}},"labels":["soccer","sport"],"duration":0,"start_local":"2024-04-30T17:00:00","end":"2024-04-30T12:00:00Z","end_local":"2024-04-30T17:00:00","updated":"2024-06-12T17:26:46Z"},{"title":"Ýokary Liga - Şagadam vs Altyn Asyr","description":"Sourced from predicthq.com","category":"sports","start":"2024-04-24T12:30:00Z","geo":{"geometry":{"coordinates":[52.98773646354675,40.014558853471456],"type":"Point"},"placekey":"@69j-dn6-j5f","address":{"country_code":"TM","formatted_address":"Türkmenbaşy, Turkmenistan","locality":"Türkmenbaşy"}},"labels":["soccer","sport"],"duration":0,"start_local":"2024-04-24T17:30:00","end":"2024-04-24T12:30:00Z","end_local":"2024-04-24T17:30:00","updated":"2024-06-12T14:13:43Z"},{"title":"Ýokary Liga - Köpetdag vs Aşgabat","description":"Sourced from predicthq.com","category":"sports","start":"2024-04-24T12:00:00Z","geo":{"geometry":{"coordinates":[58.3702326,37.9493838],"type":"Point"},"placekey":"@696-nr2-qcq","address":{"country_code":"TM","formatted_address":"W9XC+P3Q, Ashgabat, Turkmenistan","locality":"Ashgabat","region":"Ashgabat"}},"labels":["soccer","sport"],"duration":0,"start_local":"2024-04-24T17:00:00","end":"2024-04-24T12:00:00Z","end_local":"2024-04-24T17:00:00","updated":"2024-06-12T18:43:43Z"},{"title":"Ýokary Liga - Energetik vs Ahal","description":"Sourced from predicthq.com","category":"sports","start":"2024-04-24T11:00:00Z","geo":{"geometry":{"coordinates":[61.81532084941864,37.61241691668083],"type":"Point"},"placekey":"@8bt-3v6-5pv","address":{"country_code":"TM","formatted_address":"HRQR+6VH, Mary, Turkmenistan","locality":"Mary","region":"Mary"}},"labels":["soccer","sport"],"duration":0,"start_local":"2024-04-24T16:00:00","end":"2024-04-24T11:00:00Z","end_local":"2024-04-24T16:00:00","updated":"2024-06-11T23:35:04Z"},{"title":"Ýokary Liga - Merw vs Nebitçi","description":"Sourced from predicthq.com","category":"sports","start":"2024-04-23T12:00:00Z","geo":{"geometry":{"coordinates":[61.8455708026886,37.6073088862369],"type":"Point"},"placekey":"@8bt-3ty-5vf","address":{"country_code":"TM","formatted_address":"Mary, Turkmenistan","locality":"Mary","region":"Mary"}},"labels":["soccer","sport"],"duration":0,"start_local":"2024-04-23T17:00:00","end":"2024-04-23T12:00:00Z","end_local":"2024-04-23T17:00:00","updated":"2024-06-12T03:23:30Z"},{"title":"Ýokary Liga - Şagadam vs Arkadag","description":"Sourced from predicthq.com","category":"sports","start":"2024-04-20T12:00:00Z","geo":{"geometry":{"coordinates":[52.98773646354675,40.014558853471456],"type":"Point"},"placekey":"@69j-dn6-j5f","address":{"country_code":"TM","formatted_address":"Türkmenbaşy, Turkmenistan","locality":"Türkmenbaşy"}},"labels":["soccer","sport"],"duration":0,"start_local":"2024-04-20T17:00:00","end":"2024-04-20T12:00:00Z","end_local":"2024-04-20T17:00:00","updated":"2024-06-12T02:09:03Z"},{"title":"Ýokary Liga - Energetik vs Nebitçi","description":"Sourced from predicthq.com","category":"sports","start":"2024-04-20T11:15:00Z","geo":{"geometry":{"coordinates":[61.81532084941864,37.61241691668083],"type":"Point"},"placekey":"@8bt-3v6-5pv","address":{"country_code":"TM","formatted_address":"HRQR+6VH, Mary, Turkmenistan","locality":"Mary","region":"Mary"}},"labels":["soccer","sport"],"duration":0,"start_local":"2024-04-20T16:15:00","end":"2024-04-20T11:15:00Z","end_local":"2024-04-20T16:15:00","updated":"2024-06-12T06:12:02Z"},{"title":"Ýokary Liga - Merw vs Altyn Asyr","description":"Sourced from predicthq.com","category":"sports","start":"2024-04-20T11:00:00Z","geo":{"geometry":{"coordinates":[61.8455708026886,37.6073088862369],"type":"Point"},"placekey":"@8bt-3ty-5vf","address":{"country_code":"TM","formatted_address":"Mary, Turkmenistan","locality":"Mary","region":"Mary"}},"labels":["soccer","sport"],"duration":0,"start_local":"2024-04-20T16:00:00","end":"2024-04-20T11:00:00Z","end_local":"2024-04-20T16:00:00","updated":"2024-06-12T16:32:15Z"},{"title":"Ýokary Liga - Köpetdag vs Ahal","description":"Sourced from predicthq.com","category":"sports","start":"2024-04-20T11:00:00Z","geo":{"geometry":{"coordinates":[58.3702326,37.9493838],"type":"Point"},"placekey":"@696-nr2-qcq","address":{"country_code":"TM","formatted_address":"W9XC+P3Q, Ashgabat, Turkmenistan","locality":"Ashgabat","region":"Ashgabat"}},"labels":["soccer","sport"],"duration":0,"start_local":"2024-04-20T16:00:00","end":"2024-04-20T11:00:00Z","end_local":"2024-04-20T16:00:00","updated":"2024-06-12T03:10:32Z"},{"title":"Ýokary Liga - Arkadag vs Merw","description":"Sourced from predicthq.com","category":"sports","start":"2024-04-17T12:00:00Z","geo":{"geometry":{"coordinates":[58.081044897,38.060173719],"type":"Point"},"placekey":"@696-m7j-mc5","address":{"country_code":"TM","formatted_address":"Arkadag şäheri, Turkmenistan","locality":"Arkadag şäheri"}},"labels":["soccer","sport"],"duration":0,"start_local":"2024-04-17T17:00:00","end":"2024-04-17T12:00:00Z","end_local":"2024-04-17T17:00:00","updated":"2024-06-12T03:19:40Z"},{"title":"Ýokary Liga - Ahal vs Aşgabat","description":"Sourced from predicthq.com","category":"sports","start":"2024-04-17T11:30:00Z","geo":{"geometry":{"coordinates":[57.96257972717285,38.14997282339404],"type":"Point"},"placekey":"@695-yt4-5zz","address":{"country_code":"TM","formatted_address":"Abadan, Turkmenistan","locality":"Abadan"}},"labels":["soccer","sport"],"duration":0,"start_local":"2024-04-17T16:30:00","end":"2024-04-17T11:30:00Z","end_local":"2024-04-17T16:30:00","updated":"2024-06-11T22:33:42Z"},{"title":"Ýokary Liga - Altyn Asyr vs Energetik","description":"Sourced from predicthq.com","category":"sports","start":"2024-04-17T11:30:00Z","geo":{"geometry":{"coordinates":[58.196581839,38.046148394],"type":"Point"},"placekey":"@696-nkd-m8v","address":{"country_code":"TM","formatted_address":"Büzmeýin (Abadan), Aşgabat (Ashgabat), Turkmenistan","locality":"Aşgabat (Ashgabat)"}},"labels":["soccer","sport"],"duration":0,"start_local":"2024-04-17T16:30:00","end":"2024-04-17T11:30:00Z","end_local":"2024-04-17T16:30:00","updated":"2024-06-12T04:34:30Z"},{"title":"Ýokary Liga - Nebitçi vs Köpetdag","description":"Sourced from predicthq.com","category":"sports","start":"2024-04-17T11:00:00Z","geo":{"geometry":{"coordinates":[54.349559,39.5441077],"type":"Point"},"placekey":"@69h-9ck-rrk","address":{"country_code":"TM","formatted_address":"Balkanabat, Turkmenistan","locality":"Balkanabat","region":"Balkan"}},"labels":["soccer","sport"],"duration":0,"start_local":"2024-04-17T16:00:00","end":"2024-04-17T11:00:00Z","end_local":"2024-04-17T16:00:00","updated":"2024-06-12T06:54:41Z"},{"title":"Ýokary Liga - Köpetdag vs Altyn Asyr","description":"Sourced from predicthq.com","category":"sports","start":"2024-04-13T12:00:00Z","geo":{"geometry":{"coordinates":[58.3702326,37.9493838],"type":"Point"},"placekey":"@696-nr2-qcq","address":{"country_code":"TM","formatted_address":"W9XC+P3Q, Ashgabat, Turkmenistan","locality":"Ashgabat","region":"Ashgabat"}},"labels":["soccer","sport"],"duration":0,"start_local":"2024-04-13T17:00:00","end":"2024-04-13T12:00:00Z","end_local":"2024-04-13T17:00:00","updated":"2024-06-11T21:07:51Z"},{"title":"Ýokary Liga - Aşgabat vs Nebitçi","description":"Sourced from predicthq.com","category":"sports","start":"2024-04-13T11:00:00Z","geo":{"geometry":{"coordinates":[57.96257972717285,38.14997282339404],"type":"Point"},"placekey":"@695-yt4-5zz","address":{"country_code":"TM","formatted_address":"Abadan, Turkmenistan","locality":"Abadan"}},"labels":["soccer","sport"],"duration":0,"start_local":"2024-04-13T16:00:00","end":"2024-04-13T11:00:00Z","end_local":"2024-04-13T16:00:00","updated":"2024-06-12T06:05:08Z"},{"title":"Ýokary Liga - Merw vs Şagadam","description":"Sourced from predicthq.com","category":"sports","start":"2024-04-13T11:00:00Z","geo":{"geometry":{"coordinates":[61.8455708026886,37.6073088862369],"type":"Point"},"placekey":"@8bt-3ty-5vf","address":{"country_code":"TM","formatted_address":"Mary, Turkmenistan","locality":"Mary","region":"Mary"}},"labels":["soccer","sport"],"duration":0,"start_local":"2024-04-13T16:00:00","end":"2024-04-13T11:00:00Z","end_local":"2024-04-13T16:00:00","updated":"2024-06-12T10:09:57Z"},{"title":"Ýokary Liga - Energetik vs Arkadag","description":"Sourced from predicthq.com","category":"sports","start":"2024-04-13T10:00:00Z","geo":{"geometry":{"coordinates":[61.81532084941864,37.61241691668083],"type":"Point"},"placekey":"@8bt-3v6-5pv","address":{"country_code":"TM","formatted_address":"HRQR+6VH, Mary, Turkmenistan","locality":"Mary","region":"Mary"}},"labels":["soccer","sport"],"duration":0,"start_local":"2024-04-13T15:00:00","end":"2024-04-13T10:00:00Z","end_local":"2024-04-13T15:00:00","updated":"2024-06-12T11:32:36Z"}]