[{"title":"Futures of Education Culture and Nature Tanzania Conference","description":"Sourced from predicthq.com","category":"conferences","start":"2024-10-03T06:00:00Z","geo":{"geometry":{"coordinates":[35.686666,-7.762702],"type":"Point"},"placekey":"@hww-g6g-wzf","address":{"country_code":"TZ","formatted_address":"Iringa, Iringa Region, Tanzania, United Republic of","locality":"Iringa","region":"Iringa Region"}},"labels":["conference"],"duration":118800,"start_local":"2024-10-03T09:00:00","end":"2024-10-04T15:00:00Z","end_local":"2024-10-04T18:00:00","updated":"2024-06-14T11:43:55Z"},{"title":"Tanzania Health Summit","description":"Sourced from predicthq.com","category":"conferences","start":"2024-09-30T21:00:00Z","geo":{"geometry":{"coordinates":[39.2921311,-6.8110559],"type":"Point"},"placekey":"@ff4-3y8-789","address":{"country_code":"TZ","formatted_address":"Shaaban Robert Street, Dar es Salaam, Ilala, Tanzania, United Republic of","locality":"Dar es Salaam","region":"Ilala"}},"labels":["conference"],"duration":259199,"start_local":"2024-10-01T00:00:00","end":"2024-10-03T20:59:59Z","end_local":"2024-10-03T23:59:59","updated":"2024-06-01T09:09:53Z"},{"title":"12TH INTERNATIONAL/INDEPENDENT  SCHOOLS EDUCATION FAIR (ISEF)DAR ES SALAAM-","description":"Sourced from predicthq.com - ISEF is a platform that connects leading international/independent schools with families seeking quality global education.","category":"expos","start":"2024-09-28T07:00:00Z","geo":{"geometry":{"coordinates":[39.29005509999999,-6.8119096],"type":"Point"},"placekey":"@ff4-3y8-7t9","address":{"country_code":"TZ","formatted_address":"Mirambo Street, Dar es Salaam, Dar es Salam, Tanzania, United Republic of","locality":"Dar es Salaam","region":"Dar es Salam"}},"labels":["education","expo","family"],"duration":27000,"start_local":"2024-09-28T10:00:00","end":"2024-09-28T14:30:00Z","end_local":"2024-09-28T17:30:00","updated":"2024-06-04T03:42:31Z"},{"title":"Tanzania International Manufacturers Expo","description":"Sourced from predicthq.com","category":"expos","start":"2024-09-25T21:00:00Z","geo":{"geometry":{"coordinates":[39.2697,-6.822],"type":"Point"},"placekey":"@ff4-42d-8sq","address":{"country_code":"TZ","formatted_address":"Muheza, Dar es Salaam, Dar es Salam, Tanzania, United Republic of","locality":"Dar es Salaam","region":"Dar es Salam"}},"labels":["expo"],"duration":345599,"start_local":"2024-09-26T00:00:00","end":"2024-09-29T20:59:59Z","end_local":"2024-09-29T23:59:59","updated":"2024-05-27T03:00:21Z"},{"title":"Afriwood East Africa","description":"Sourced from predicthq.com","category":"expos","start":"2024-09-25T06:00:00Z","geo":{"geometry":{"coordinates":[39.280724,-6.80526],"type":"Point"},"placekey":"@ff4-3y6-zvf","address":{"country_code":"TZ","formatted_address":"Malik Rd, Dar es Salaam, Tanzania","locality":"Dar es Salaam","region":"Dar es Salam"}},"labels":["expo"],"duration":205200,"start_local":"2024-09-25T09:00:00","end":"2024-09-27T15:00:00Z","end_local":"2024-09-27T18:00:00","updated":"2024-06-04T14:14:51Z"},{"title":"MINExpo Africa","description":"Sourced from predicthq.com","category":"expos","start":"2024-09-25T06:00:00Z","geo":{"geometry":{"coordinates":[39.280724,-6.80526],"type":"Point"},"placekey":"@ff4-3y6-zvf","address":{"country_code":"TZ","formatted_address":"Malik Rd, Dar es Salaam, Tanzania","locality":"Dar es Salaam","region":"Dar es Salam"}},"labels":["expo"],"duration":205200,"start_local":"2024-09-25T09:00:00","end":"2024-09-27T15:00:00Z","end_local":"2024-09-27T18:00:00","updated":"2024-06-04T10:28:33Z"},{"title":"Lightexpo Tanzania","description":"Sourced from predicthq.com","category":"expos","start":"2024-09-25T06:00:00Z","geo":{"geometry":{"coordinates":[39.280724,-6.80526],"type":"Point"},"placekey":"@ff4-3y6-zvf","address":{"country_code":"TZ","formatted_address":"Malik Rd, Dar es Salaam, Tanzania","locality":"Dar es Salaam","region":"Dar es Salam"}},"labels":["expo"],"duration":205200,"start_local":"2024-09-25T09:00:00","end":"2024-09-27T15:00:00Z","end_local":"2024-09-27T18:00:00","updated":"2024-06-25T20:26:45Z"},{"title":"Solar Africa","description":"Sourced from predicthq.com","category":"expos","start":"2024-09-25T06:00:00Z","geo":{"geometry":{"coordinates":[39.280724,-6.80526],"type":"Point"},"placekey":"@ff4-3y6-zvf","address":{"country_code":"TZ","formatted_address":"Malik Rd, Dar es Salaam, Tanzania","locality":"Dar es Salaam","region":"Dar es Salam"}},"labels":["expo"],"duration":205200,"start_local":"2024-09-25T09:00:00","end":"2024-09-27T15:00:00Z","end_local":"2024-09-27T18:00:00","updated":"2024-06-04T10:27:32Z"},{"title":"8th Power & Energy Tanzania 2024","description":"Sourced from predicthq.com","category":"expos","start":"2024-09-24T21:00:00Z","geo":{"geometry":{"coordinates":[39.2808578,-6.8052322],"type":"Point"},"placekey":"@ff4-3y6-zzz","address":{"country_code":"TZ","formatted_address":"Magore Street, Dar es Salaam, Dar es Salam, Tanzania, United Republic of","locality":"Dar es Salaam","region":"Dar es Salam"}},"labels":["environment","expo","industrial","technology"],"duration":259199,"start_local":"2024-09-25T00:00:00","end":"2024-09-27T20:59:59Z","end_local":"2024-09-27T23:59:59","updated":"2024-06-04T10:29:21Z"},{"title":"ROOFEXPO TANZANIA","description":"Sourced from predicthq.com","category":"expos","start":"2024-09-24T21:00:00Z","geo":{"geometry":{"coordinates":[39.280724,-6.80526],"type":"Point"},"placekey":"@ff4-3y6-zvf","address":{"country_code":"TZ","formatted_address":"Malik Rd, Dar es Salaam, Tanzania","locality":"Dar es Salaam","region":"Dar es Salam"}},"labels":["expo"],"duration":259199,"start_local":"2024-09-25T00:00:00","end":"2024-09-27T20:59:59Z","end_local":"2024-09-27T23:59:59","updated":"2024-06-04T10:33:28Z"},{"title":"SOLAREXPO TANZANIA","description":"Sourced from predicthq.com","category":"expos","start":"2024-09-24T21:00:00Z","geo":{"geometry":{"coordinates":[39.280724,-6.80526],"type":"Point"},"placekey":"@ff4-3y6-zvf","address":{"country_code":"TZ","formatted_address":"Malik Rd, Dar es Salaam, Tanzania","locality":"Dar es Salaam","region":"Dar es Salam"}},"labels":["expo"],"duration":259199,"start_local":"2024-09-25T00:00:00","end":"2024-09-27T20:59:59Z","end_local":"2024-09-27T23:59:59","updated":"2024-06-16T05:45:19Z"},{"title":"Power & Energy Africa","description":"Sourced from predicthq.com","category":"expos","start":"2024-09-24T21:00:00Z","geo":{"geometry":{"coordinates":[39.280724,-6.80526],"type":"Point"},"placekey":"@ff4-3y6-zvf","address":{"country_code":"TZ","formatted_address":"Malik Rd, Dar es Salaam, Tanzania","locality":"Dar es Salaam","region":"Dar es Salam"}},"labels":["expo"],"duration":259199,"start_local":"2024-09-25T00:00:00","end":"2024-09-27T20:59:59Z","end_local":"2024-09-27T23:59:59","updated":"2024-05-28T12:46:50Z"},{"title":"International Conference on Green Computing and Engineering Technologies","description":"Sourced from predicthq.com","category":"conferences","start":"2024-09-18T06:00:00Z","geo":{"geometry":{"coordinates":[39.205241,-6.035953],"type":"Point"},"placekey":"@ff4-2nz-3dv","address":{"country_code":"TZ","formatted_address":"Selem, Mjini Magharibi Region, Tanzania, United Republic of","locality":"Selem","region":"Mjini Magharibi Region"}},"labels":["conference"],"duration":118800,"start_local":"2024-09-18T09:00:00","end":"2024-09-19T15:00:00Z","end_local":"2024-09-19T18:00:00","updated":"2024-05-27T04:29:54Z"},{"title":"8th Afriwood Tanzania 2024","description":"Sourced from predicthq.com","category":"expos","start":"2024-09-11T21:00:00Z","geo":{"geometry":{"coordinates":[39.2808578,-6.8052322],"type":"Point"},"placekey":"@ff4-3y6-zzz","address":{"country_code":"TZ","formatted_address":"Magore Street, Dar es Salaam, Dar es Salam, Tanzania, United Republic of","locality":"Dar es Salaam","region":"Dar es Salam"}},"labels":["business","expo","furniture","industrial","technology"],"duration":259199,"start_local":"2024-09-12T00:00:00","end":"2024-09-14T20:59:59Z","end_local":"2024-09-14T23:59:59","updated":"2024-06-25T04:56:36Z"},{"title":"WATERTECH TANZANIA","description":"Sourced from predicthq.com","category":"expos","start":"2024-09-11T21:00:00Z","geo":{"geometry":{"coordinates":[39.280724,-6.80526],"type":"Point"},"placekey":"@ff4-3y6-zvf","address":{"country_code":"TZ","formatted_address":"Malik Rd, Dar es Salaam, Tanzania","locality":"Dar es Salaam","region":"Dar es Salam"}},"labels":["expo"],"duration":259199,"start_local":"2024-09-12T00:00:00","end":"2024-09-14T20:59:59Z","end_local":"2024-09-14T23:59:59","updated":"2024-05-27T18:25:59Z"},{"title":"CLIMEXPO TANZANIA","description":"Sourced from predicthq.com","category":"expos","start":"2024-09-11T21:00:00Z","geo":{"geometry":{"coordinates":[39.280724,-6.80526],"type":"Point"},"placekey":"@ff4-3y6-zvf","address":{"country_code":"TZ","formatted_address":"Malik Rd, Dar es Salaam, Tanzania","locality":"Dar es Salaam","region":"Dar es Salam"}},"labels":["expo"],"duration":259199,"start_local":"2024-09-12T00:00:00","end":"2024-09-14T20:59:59Z","end_local":"2024-09-14T23:59:59","updated":"2024-06-30T03:53:24Z"},{"title":"25th Buildexpo Tanzania 2024","description":"Sourced from predicthq.com","category":"expos","start":"2024-09-11T21:00:00Z","geo":{"geometry":{"coordinates":[39.2808578,-6.8052322],"type":"Point"},"placekey":"@ff4-3y6-zzz","address":{"country_code":"TZ","formatted_address":"Magore Street, Dar es Salaam, Dar es Salam, Tanzania, United Republic of","locality":"Dar es Salaam","region":"Dar es Salam"}},"labels":["construction","expo","industrial"],"duration":259199,"start_local":"2024-09-12T00:00:00","end":"2024-09-14T20:59:59Z","end_local":"2024-09-14T23:59:59","updated":"2024-06-25T20:04:41Z"},{"title":"African Borderlands Research Network Annual Meeting And Conference","description":"Sourced from predicthq.com","category":"conferences","start":"2024-09-11T06:00:00Z","geo":{"geometry":{"coordinates":[36.786698,-2.547894],"type":"Point"},"placekey":"@fbr-jjg-54v","address":{"country_code":"TZ","formatted_address":"A104, Namanga, Arusha Region, Tanzania, United Republic of","locality":"Namanga","region":"Arusha Region"}},"labels":["conference"],"duration":205200,"start_local":"2024-09-11T09:00:00","end":"2024-09-13T15:00:00Z","end_local":"2024-09-13T18:00:00","updated":"2024-05-31T23:01:37Z"},{"title":"Oil & Gas Tanzania","description":"Sourced from predicthq.com","category":"expos","start":"2024-09-11T06:00:00Z","geo":{"geometry":{"coordinates":[39.280724,-6.80526],"type":"Point"},"placekey":"@ff4-3y6-zvf","address":{"country_code":"TZ","formatted_address":"Malik Rd, Dar es Salaam, Tanzania","locality":"Dar es Salaam","region":"Dar es Salam"}},"labels":["expo"],"duration":118800,"start_local":"2024-09-11T09:00:00","end":"2024-09-12T15:00:00Z","end_local":"2024-09-12T18:00:00","updated":"2024-06-04T01:54:22Z"},{"title":"Tanzania Energy Congress","description":"Sourced from predicthq.com","category":"conferences","start":"2024-09-10T21:00:00Z","geo":{"geometry":{"coordinates":[39.2921311,-6.8110559],"type":"Point"},"placekey":"@ff4-3y8-789","address":{"country_code":"TZ","formatted_address":"Shaaban Robert Street, Dar es Salaam, Ilala, Tanzania, United Republic of","locality":"Dar es Salaam","region":"Ilala"}},"labels":["conference"],"duration":172799,"start_local":"2024-09-11T00:00:00","end":"2024-09-12T20:59:59Z","end_local":"2024-09-12T23:59:59","updated":"2024-05-31T23:21:12Z"},{"title":"THE BATA MSITUNI FESTIVAL","description":"Sourced from predicthq.com - The 3 Days and 2 nights of Nature, Music and culture celebrations done in the Forest venues. Evolve in Music, Nature & Culture festival.","category":"festivals","start":"2024-09-06T07:00:00Z","geo":{"geometry":{"coordinates":[39.0736263,-6.909644499999999],"type":"Point"},"placekey":"@ff4-53s-r6k","address":{"country_code":"TZ","formatted_address":"Kisarawe, Pwani Region, Tanzania, United Republic of","locality":"Kisarawe","region":"Pwani Region"}},"labels":["community","festival"],"duration":50160,"start_local":"2024-09-06T10:00:00","end":"2024-09-06T20:56:00Z","end_local":"2024-09-06T23:56:00","updated":"2024-06-04T00:44:01Z"},{"title":"Tour de Kili","description":"Sourced from predicthq.com","category":"sports","start":"2024-08-31T21:00:00Z","geo":{"geometry":{"coordinates":[34.888822,-6.369028],"type":"Point"},"placekey":"@hwf-95j-92k","address":{"country_code":"TZ","formatted_address":"Nkunjila, Mkoa wa Singida, Tanzania, United Republic of","locality":"Nkunjila","region":"Mkoa wa Singida"}},"labels":["outdoor-sports","running","sport"],"duration":86399,"start_local":"2024-09-01T00:00:00","end":"2024-09-01T20:59:59Z","end_local":"2024-09-01T23:59:59","updated":"2024-06-04T11:13:02Z"},{"title":"Kilimanjaro Trail Run","description":"Sourced from predicthq.com","category":"sports","start":"2024-08-31T02:30:00Z","geo":{"geometry":{"coordinates":[37.3556273,-3.0674247],"type":"Point"},"placekey":"@fbs-q8z-73q","address":{"country_code":"TZ","formatted_address":"Gilman's Point, Kilimanjaro Region, Tanzania, United Republic of","locality":"Gilman's Point","region":"Kilimanjaro Region"}},"labels":["outdoor-sports","running","sport"],"duration":0,"start_local":"2024-08-31T05:30:00","end":"2024-08-31T02:30:00Z","end_local":"2024-08-31T05:30:00","updated":"2024-06-02T00:48:00Z"},{"title":"Medical & Lab East Africa","description":"Sourced from predicthq.com","category":"expos","start":"2024-08-29T06:00:00Z","geo":{"geometry":{"coordinates":[39.280724,-6.80526],"type":"Point"},"placekey":"@ff4-3y6-zvf","address":{"country_code":"TZ","formatted_address":"Malik Rd, Dar es Salaam, Tanzania","locality":"Dar es Salaam","region":"Dar es Salam"}},"labels":["expo"],"duration":205200,"start_local":"2024-08-29T09:00:00","end":"2024-08-31T15:00:00Z","end_local":"2024-08-31T18:00:00","updated":"2024-05-28T14:43:34Z"},{"title":"Pharmatech & Health East Africa","description":"Sourced from predicthq.com","category":"expos","start":"2024-08-28T21:00:00Z","geo":{"geometry":{"coordinates":[39.280724,-6.80526],"type":"Point"},"placekey":"@ff4-3y6-zvf","address":{"country_code":"TZ","formatted_address":"Malik Rd, Dar es Salaam, Tanzania","locality":"Dar es Salaam","region":"Dar es Salam"}},"labels":["expo"],"duration":259199,"start_local":"2024-08-29T00:00:00","end":"2024-08-31T20:59:59Z","end_local":"2024-08-31T23:59:59","updated":"2024-06-16T04:59:14Z"},{"title":"Kilimanjaro hiking adventure retreat!","description":"Sourced from predicthq.com","category":"community","start":"2024-08-21T16:00:00Z","geo":{"geometry":{"coordinates":[37.35563,-3.06742],"type":"Point"},"placekey":"@fbs-q8z-73q","address":{"country_code":"TZ","formatted_address":"Gilman's Point, Kilimanjaro Region, Tanzania, United Republic of","locality":"Gilman's Point","region":"Kilimanjaro Region"}},"labels":["community","health"],"duration":874800,"start_local":"2024-08-21T19:00:00","end":"2024-08-31T19:00:00Z","end_local":"2024-08-31T22:00:00","updated":"2024-06-04T08:21:11Z"},{"title":"Kilimasai Marathon+safari","description":"Sourced from predicthq.com","category":"sports","start":"2024-07-30T06:00:00Z","geo":{"geometry":{"coordinates":[37.0843734,-2.9868423],"type":"Point"},"placekey":"@fbr-nkf-649","address":{"country_code":"TZ","formatted_address":"Matadi, Mkoa wa Kilimanjaro, Tanzania, United Republic of","locality":"Matadi","region":"Mkoa wa Kilimanjaro"}},"labels":["marathon","outdoor-sports","running","sport"],"duration":0,"start_local":"2024-07-30T09:00:00","end":"2024-07-30T06:00:00Z","end_local":"2024-07-30T09:00:00","updated":"2024-06-04T00:25:14Z"},{"title":"9th International Conference on Transportation","description":"Sourced from predicthq.com - ICTA International Secretariat is inviting you to the 9th International Conference on Sustainable Transportation (ICTA2024), Arusha,Tanzania","category":"conferences","start":"2024-07-29T05:00:00Z","geo":{"geometry":{"coordinates":[36.70657010000001,-3.370714],"type":"Point"},"placekey":"@hwj-pjn-wp9","address":{"country_code":"TZ","formatted_address":"Arusha, Arusha Region, Tanzania, United Republic of","locality":"Arusha","region":"Arusha Region"}},"labels":["business","conference"],"duration":163800,"start_local":"2024-07-29T08:00:00","end":"2024-07-31T02:30:00Z","end_local":"2024-07-31T05:30:00","updated":"2024-06-04T06:26:47Z"},{"title":"Afro World Agri Food Conference Exhibition and Awards","description":"Sourced from predicthq.com","category":"expos","start":"2024-07-28T21:00:00Z","geo":{"geometry":{"coordinates":[39.280724,-6.80526],"type":"Point"},"placekey":"@ff4-3y6-zvf","address":{"country_code":"TZ","formatted_address":"Malik Rd, Dar es Salaam, Tanzania","locality":"Dar es Salaam","region":"Dar es Salam"}},"labels":["expo"],"duration":259199,"start_local":"2024-07-29T00:00:00","end":"2024-07-31T20:59:59Z","end_local":"2024-07-31T23:59:59","updated":"2024-06-16T01:20:29Z"},{"title":"3rd ABC ANNUAL SYMPOSIUM  2024 ON THE FUTURE OF TRADE","description":"Sourced from predicthq.com - ABC Annual Symposium brings about 600+ attendees and speakers every year to discuss law, innovation, technology, and trade.","category":"conferences","start":"2024-07-26T05:00:00Z","geo":{"geometry":{"coordinates":[39.2196418,-6.7726935],"type":"Point"},"placekey":"@ff4-5bw-4jv","address":{"country_code":"TZ","formatted_address":"Dar es Salaam, Dar es Salam, Tanzania, United Republic of","locality":"Dar es Salaam","region":"Dar es Salam"}},"labels":["conference","science","technology"],"duration":28800,"start_local":"2024-07-26T08:00:00","end":"2024-07-26T13:00:00Z","end_local":"2024-07-26T16:00:00","updated":"2024-06-11T06:23:20Z"},{"title":"Kilimasai Marathon Tanzania","description":"Sourced from predicthq.com","category":"sports","start":"2024-07-25T21:00:00Z","geo":{"geometry":{"coordinates":[36.6829927,-3.3869254],"type":"Point"},"placekey":"@hwj-pjq-tvz","address":{"country_code":"TZ","formatted_address":"Arusha, Arusha Region, Tanzania, United Republic of","locality":"Arusha","region":"Arusha Region"}},"labels":["marathon","outdoor-sports","running","sport"],"duration":86399,"start_local":"2024-07-26T00:00:00","end":"2024-07-26T20:59:59Z","end_local":"2024-07-26T23:59:59","updated":"2024-06-17T07:20:19Z"},{"title":"Annual Conference Of The International Society For Academics In Research","description":"Sourced from predicthq.com","category":"conferences","start":"2024-07-23T21:00:00Z","geo":{"geometry":{"coordinates":[39.220649,-6.215659],"type":"Point"},"placekey":"@ff4-34r-hh5","address":{"country_code":"TZ","formatted_address":"Zanzibar, Mjini Magharibi Region, Tanzania, United Republic of","locality":"Zanzibar","region":"Mjini Magharibi Region"}},"labels":["conference"],"duration":259199,"start_local":"2024-07-24T00:00:00","end":"2024-07-26T20:59:59Z","end_local":"2024-07-26T23:59:59","updated":"2024-06-30T04:10:57Z"},{"title":"Serengeti Migration Marathon","description":"Sourced from predicthq.com","category":"sports","start":"2024-07-13T03:30:00Z","geo":{"geometry":{"coordinates":[34.6690605,-1.8413007],"type":"Point"},"placekey":"@fbv-xw9-y9z","address":{"country_code":"TZ","formatted_address":"Mugumu, Mara Region, Tanzania, United Republic of","locality":"Mugumu","region":"Mara Region"}},"labels":["marathon","outdoor-sports","running","sport"],"duration":0,"start_local":"2024-07-13T06:30:00","end":"2024-07-13T03:30:00Z","end_local":"2024-07-13T06:30:00","updated":"2024-06-10T23:58:31Z"},{"title":"2024 Africa Evidence Summit","description":"Sourced from predicthq.com - The Center for Effective Global Action (CEGA) will hold its 12th annual Africa Evidence Summit in Dar es Salaam, Tanzania from July 10-11th.","category":"conferences","start":"2024-07-10T06:00:00Z","geo":{"geometry":{"coordinates":[39.2921311,-6.8110559],"type":"Point"},"placekey":"@ff4-3y8-789","address":{"country_code":"TZ","formatted_address":"Shaaban Robert Street, Dar es Salaam, Ilala, Tanzania, United Republic of","locality":"Dar es Salaam","region":"Ilala"}},"labels":["conference"],"duration":118800,"start_local":"2024-07-10T09:00:00","end":"2024-07-11T15:00:00Z","end_local":"2024-07-11T18:00:00","updated":"2024-06-04T02:16:19Z"},{"title":"The Uhuru Con 2024","description":"Sourced from predicthq.com - Theme: Creative Sparks: Unleashing Youth Innovation and Imagination","category":"conferences","start":"2024-07-06T06:00:00Z","geo":{"geometry":{"coordinates":[39.2941126,-6.813583],"type":"Point"},"placekey":"@ff4-3yf-kfz","address":{"country_code":"TZ","formatted_address":"Shaaban Robert Street, Dar es Salaam, Dar es Salam, Tanzania, United Republic of","locality":"Dar es Salaam","region":"Dar es Salam"}},"labels":["conference"],"duration":27000,"start_local":"2024-07-06T09:00:00","end":"2024-07-06T13:30:00Z","end_local":"2024-07-06T16:30:00","updated":"2024-06-04T01:11:40Z"},{"title":"THE 48TH DAR ES SALAAM INTERNATIONAL TRADE FAIR (DITF) 2024","description":"Sourced from predicthq.com","category":"expos","start":"2024-06-27T21:00:00Z","geo":{"geometry":{"coordinates":[39.2705333,-6.7803676],"type":"Point"},"placekey":"@ff4-3yw-grk","address":{"country_code":"TZ","formatted_address":"Manara Street, Dar es Salaam, Dar es Salam, Tanzania, United Republic of","locality":"Dar es Salaam","region":"Dar es Salam"}},"labels":["agriculture","expo","food","health","industrial","medical","packaging","technology"],"duration":1382399,"start_local":"2024-06-28T00:00:00","end":"2024-07-13T20:59:59Z","end_local":"2024-07-13T23:59:59","updated":"2024-06-04T00:11:33Z"},{"title":"DITF","description":"Sourced from predicthq.com - DITF is an exciting expo event held at the Mwalimu J.K. Nyerere Trade Fair Grounds, showcasing a diverse range of industries and businesses. Attendees can explore innovative products, connect with industry experts, and gain valuable insights into the latest trends and technologies.","category":"expos","start":"2024-06-27T21:00:00Z","geo":{"geometry":{"coordinates":[39.2075871,-6.8666445],"type":"Point"},"placekey":"@ff4-3rs-vfz","address":{"country_code":"TZ","formatted_address":"Julius K. Nyerere Road, Dar es Salaam, Dar es Salam, Tanzania, United Republic of","locality":"Dar es Salaam","region":"Dar es Salam"}},"labels":["expo","product"],"duration":1382399,"start_local":"2024-06-28T00:00:00","end":"2024-07-13T20:59:59Z","end_local":"2024-07-13T23:59:59","updated":"2024-06-10T23:54:44Z"},{"title":"Salmin Swaggz","description":"Sourced from predicthq.com","category":"concerts","start":"2024-06-21T20:00:00Z","geo":{"geometry":{"coordinates":[39.27565,-6.75382],"type":"Point"},"placekey":"@ff4-3zh-kpv","address":{"country_code":"TZ","formatted_address":"67WG+F7C, Chole Rd, Dar es Salaam, Tanzania","locality":"Dar es Salaam","region":"Dar es Salam"}},"labels":["concert","music"],"duration":0,"start_local":"2024-06-21T23:00:00","end":"2024-06-21T20:00:00Z","end_local":"2024-06-21T23:00:00","updated":"2024-07-05T20:02:12Z"},{"title":"Mt. Kilimanjaro Marathon","description":"Sourced from predicthq.com","category":"sports","start":"2024-06-15T21:00:00Z","geo":{"geometry":{"coordinates":[37.34296,-3.338543],"type":"Point"},"placekey":"@fbs-nxf-vpv","address":{"country_code":"TZ","formatted_address":"Majengo, Kilimanjaro Region, Tanzania, United Republic of","locality":"Majengo","region":"Kilimanjaro Region"}},"labels":["marathon","outdoor-sports","running","sport"],"duration":86399,"start_local":"2024-06-16T00:00:00","end":"2024-06-16T20:59:59Z","end_local":"2024-06-16T23:59:59","updated":"2024-06-04T02:11:27Z"},{"title":"Political Ecology Network Conference","description":"Sourced from predicthq.com","category":"conferences","start":"2024-06-10T06:00:00Z","geo":{"geometry":{"coordinates":[35.824825,-6.214202],"type":"Point"},"placekey":"@hwv-sp2-3dv","address":{"country_code":"TZ","formatted_address":"Dodoma Region, Tanzania, United Republic of","region":"Dodoma Region"}},"labels":["conference"],"duration":205200,"start_local":"2024-06-10T09:00:00","end":"2024-06-12T15:00:00Z","end_local":"2024-06-12T18:00:00","updated":"2024-05-31T23:01:39Z"},{"title":"PowerTech Africa","description":"Sourced from predicthq.com","category":"conferences","start":"2024-06-09T21:00:00Z","geo":{"geometry":{"coordinates":[39.290447,-6.817343],"type":"Point"},"placekey":"@ff4-3yf-jqf","address":{"country_code":"TZ","formatted_address":"Dar es Salaam, Dar es Salam, Tanzania, United Republic of","locality":"Dar es Salaam","region":"Dar es Salam"}},"labels":["conference"],"duration":86399,"start_local":"2024-06-10T00:00:00","end":"2024-06-10T20:59:59Z","end_local":"2024-06-10T23:59:59","updated":"2024-07-02T17:36:38Z"},{"title":"KARIBU / KILIFAIR 2024 - Travel and Tourism Tanzania","description":"Sourced from predicthq.com","category":"expos","start":"2024-06-06T21:00:00Z","geo":{"geometry":{"coordinates":[36.6130811,-3.3642999],"type":"Point"},"placekey":"@hwj-m7h-syv","address":{"country_code":"TZ","formatted_address":"Olasiti, Arusha Region, Tanzania, United Republic of","locality":"Olasiti","region":"Arusha Region"}},"labels":["business","expo","product","tourism","travel"],"duration":259199,"start_local":"2024-06-07T00:00:00","end":"2024-06-09T20:59:59Z","end_local":"2024-06-09T23:59:59","updated":"2024-06-04T00:57:24Z"},{"title":"KARIBU-KILIFAIR","description":"Sourced from predicthq.com","category":"expos","start":"2024-06-06T21:00:00Z","geo":{"geometry":{"coordinates":[36.677213,-3.398146],"type":"Point"},"placekey":"@hwj-mpr-t7q","address":{"country_code":"TZ","formatted_address":"Arusha, Arusha Region, Tanzania, United Republic of","locality":"Arusha","region":"Arusha Region"}},"labels":["expo"],"duration":259199,"start_local":"2024-06-07T00:00:00","end":"2024-06-09T20:59:59Z","end_local":"2024-06-09T23:59:59","updated":"2024-05-31T23:08:43Z"},{"title":"Friendlies Women - Friendlies 2 - Tanzania vs Mali","description":"Sourced from predicthq.com","category":"sports","start":"2024-05-31T16:00:00Z","geo":{"geometry":{"coordinates":[39.223518457,-6.970510714],"type":"Point"},"placekey":"@ff4-3qn-649","address":{"country_code":"TZ","formatted_address":"Chamanze, Mbagala, Tanzania, United Republic of","locality":"Mbagala"}},"labels":["soccer","sport"],"duration":0,"start_local":"2024-05-31T19:00:00","end":"2024-05-31T16:00:00Z","end_local":"2024-05-31T19:00:00","updated":"2024-06-12T13:07:35Z"},{"title":"Friendlies Women - Friendlies 2 - Seychelles vs South Sudan","description":"Sourced from predicthq.com","category":"sports","start":"2024-05-31T13:00:00Z","geo":{"geometry":{"coordinates":[39.223518457,-6.970510714],"type":"Point"},"placekey":"@ff4-3qn-649","address":{"country_code":"TZ","formatted_address":"Chamanze, Mbagala, Tanzania, United Republic of","locality":"Mbagala"}},"labels":["soccer","sport"],"duration":0,"start_local":"2024-05-31T16:00:00","end":"2024-05-31T13:00:00Z","end_local":"2024-05-31T16:00:00","updated":"2024-06-12T14:10:30Z"},{"title":"Friendlies Women - Friendlies 2 - Tanzania vs South Sudan","description":"Sourced from predicthq.com","category":"sports","start":"2024-05-29T16:00:00Z","geo":{"geometry":{"coordinates":[39.223518457,-6.970510714],"type":"Point"},"placekey":"@ff4-3qn-649","address":{"country_code":"TZ","formatted_address":"Chamanze, Mbagala, Tanzania, United Republic of","locality":"Mbagala"}},"labels":["soccer","sport"],"duration":0,"start_local":"2024-05-29T19:00:00","end":"2024-05-29T16:00:00Z","end_local":"2024-05-29T19:00:00","updated":"2024-06-12T05:22:35Z"},{"title":"Friendlies Women - Friendlies 2 - Mali vs Seychelles","description":"Sourced from predicthq.com","category":"sports","start":"2024-05-29T13:00:00Z","geo":{"geometry":{"coordinates":[39.223518457,-6.970510714],"type":"Point"},"placekey":"@ff4-3qn-649","address":{"country_code":"TZ","formatted_address":"Chamanze, Mbagala, Tanzania, United Republic of","locality":"Mbagala"}},"labels":["soccer","sport"],"duration":0,"start_local":"2024-05-29T16:00:00","end":"2024-05-29T13:00:00Z","end_local":"2024-05-29T16:00:00","updated":"2024-06-12T02:18:12Z"},{"title":"TANZANIA INTERNATION YOUTH TOURISM SUMMIT","description":"Sourced from predicthq.com - Hey there! Get ready for the Tanzania International Youth Tourism Summit, where young minds come together to explore and promote tourism in","category":"conferences","start":"2024-05-23T05:00:00Z","geo":{"geometry":{"coordinates":[39.2828218,-6.8526425],"type":"Point"},"placekey":"@ff4-42m-z9f","address":{"country_code":"TZ","formatted_address":"Liliondo Street, Dar es Salaam, Dar es Salam, Tanzania, United Republic of","locality":"Dar es Salaam","region":"Dar es Salam"}},"labels":["conference","outdoor"],"duration":360000,"start_local":"2024-05-23T08:00:00","end":"2024-05-27T09:00:00Z","end_local":"2024-05-27T12:00:00","updated":"2024-06-04T22:20:50Z"},{"title":"Odoo Roadshow - Dar Es Salaam","description":"Sourced from predicthq.com - Are you tired of complicated software and using multiple apps to run your business? Letâ€™s simplify everything with Odoo!","category":"conferences","start":"2024-04-25T15:00:00Z","geo":{"geometry":{"coordinates":[39.2921311,-6.8110559],"type":"Point"},"placekey":"@ff4-3y8-789","address":{"country_code":"TZ","formatted_address":"Shaaban Robert Street, Dar es Salaam, Ilala, Tanzania, United Republic of","locality":"Dar es Salaam","region":"Ilala"}},"labels":["business","conference"],"duration":10800,"start_local":"2024-04-25T18:00:00","end":"2024-04-25T18:00:00Z","end_local":"2024-04-25T21:00:00","updated":"2024-06-04T11:52:25Z"},{"title":"East African Battery Minerals Summit","description":"Sourced from predicthq.com","category":"conferences","start":"2024-04-24T06:00:00Z","geo":{"geometry":{"coordinates":[39.21276,-6.114467],"type":"Point"},"placekey":"@ff4-2mw-d9z","address":{"country_code":"TZ","formatted_address":"Zanzibar, Mkoa wa Mjini Magharibi, Tanzania, United Republic of","locality":"Zanzibar","region":"Mkoa wa Mjini Magharibi"}},"labels":["conference"],"duration":118800,"start_local":"2024-04-24T09:00:00","end":"2024-04-25T15:00:00Z","end_local":"2024-04-25T18:00:00","updated":"2024-05-28T02:30:00Z"},{"title":"The Rangeland Society of Tanzania Scientific Conference","description":"Sourced from predicthq.com","category":"conferences","start":"2024-04-15T06:00:00Z","geo":{"geometry":{"coordinates":[37.660026,-6.802196],"type":"Point"},"placekey":"@ff4-djv-vpv","address":{"country_code":"TZ","formatted_address":"Morogoro, Morogoro Region, Tanzania, United Republic of","locality":"Morogoro","region":"Morogoro Region"}},"labels":["conference"],"duration":118800,"start_local":"2024-04-15T09:00:00","end":"2024-04-16T15:00:00Z","end_local":"2024-04-16T18:00:00","updated":"2024-06-05T21:21:30Z"},{"title":"Blockchain in Dar","description":"Sourced from predicthq.com - Come join us at Blockchain in Dar for a deep dive into the world of blockchain technology and its business opportunities","category":"conferences","start":"2024-04-13T10:00:00Z","geo":{"geometry":{"coordinates":[39.241261,-6.774619],"type":"Point"},"placekey":"@ff4-3yr-rtv","address":{"country_code":"TZ","formatted_address":"COSTECH, Dar es Salaam, Tanzania, United Republic of","locality":"Dar es Salaam","region":"Dar es Salaam"}},"labels":["conference","science","technology"],"duration":14400,"start_local":"2024-04-13T13:00:00","end":"2024-04-13T14:00:00Z","end_local":"2024-04-13T17:00:00","updated":"2024-06-05T08:22:44Z"},{"title":"WomenLift Health Global Conference","description":"Sourced from predicthq.com","category":"conferences","start":"2024-04-05T21:00:00Z","geo":{"geometry":{"coordinates":[39.2921311,-6.8110559],"type":"Point"},"placekey":"@ff4-3y8-789","address":{"country_code":"TZ","formatted_address":"Shaaban Robert Street, Dar es Salaam, Ilala, Tanzania, United Republic of","locality":"Dar es Salaam","region":"Ilala"}},"labels":["conference"],"duration":259199,"start_local":"2024-04-06T00:00:00","end":"2024-04-08T20:59:59Z","end_local":"2024-04-08T23:59:59","updated":"2024-06-04T07:34:32Z"},{"title":"MT. KILIMANJARO EXPEDITION: THE ROOF OF AFRICA","description":"Sourced from predicthq.com","category":"community","start":"2024-04-01T12:00:00Z","geo":{"geometry":{"coordinates":[36.68299,-3.38693],"type":"Point"},"placekey":"@hwj-pjq-tvz","address":{"country_code":"TZ","formatted_address":"Arusha, Arusha Region, Tanzania, United Republic of","locality":"Arusha","region":"Arusha Region"}},"labels":["community","health"],"duration":518400,"start_local":"2024-04-01T15:00:00","end":"2024-04-07T12:00:00Z","end_local":"2024-04-07T15:00:00","updated":"2024-06-05T07:48:37Z"}]