[{"title":"Source of the Nile Trail Run Challenge","description":"Sourced from predicthq.com","category":"sports","start":"2024-09-07T21:00:00Z","geo":{"geometry":{"coordinates":[33.1833333,0.4666667],"type":"Point"},"placekey":"@cx3-rcv-j7q","address":{"country_code":"UG","formatted_address":"Kimaka, Mkoa wa Mashariki, Uganda","locality":"Kimaka","region":"Mkoa wa Mashariki"}},"labels":["outdoor-sports","running","sport"],"duration":86399,"start_local":"2024-09-08T00:00:00","end":"2024-09-08T20:59:59Z","end_local":"2024-09-08T23:59:59","updated":"2024-06-04T05:28:41Z"},{"title":"Africa Student Education Fair","description":"Sourced from predicthq.com","category":"expos","start":"2024-09-06T06:00:00Z","geo":{"geometry":{"coordinates":[32.582067,0.317144],"type":"Point"},"placekey":"@cx2-hjy-cdv","address":{"country_code":"UG","formatted_address":"Ternan Ave, Kampala, Uganda","locality":"Kampala","region":"Central Region"}},"labels":["expo"],"duration":118800,"start_local":"2024-09-06T09:00:00","end":"2024-09-07T15:00:00Z","end_local":"2024-09-07T18:00:00","updated":"2024-05-28T09:36:02Z"},{"title":"Acidic Vokoz","description":"Sourced from predicthq.com","category":"concerts","start":"2024-08-30T13:00:00Z","geo":{"geometry":{"coordinates":[32.5833321,0.3166667],"type":"Point"},"placekey":"@cx2-hjy-7nq","address":{"country_code":"UG","formatted_address":"Ternan Avenue, Kampala, Uganda","locality":"Kampala","region":"Central Region"}},"labels":["concert","music"],"duration":0,"start_local":"2024-08-30T16:00:00","end":"2024-08-30T13:00:00Z","end_local":"2024-08-30T16:00:00","updated":"2024-06-23T01:51:56Z"},{"title":"EAST AFRICA FOOD & BEVERAGES EXPO","description":"Sourced from predicthq.com - The Expo is a gateway to EAC member states to the growing food & beverages market that will gather the highest quality products and services","category":"expos","start":"2024-08-29T04:30:00Z","geo":{"geometry":{"coordinates":[32.5650054,0.3155897999999999],"type":"Point"},"placekey":"@cx2-hjx-3bk","address":{"country_code":"UG","formatted_address":"Kampala, Central Region, Uganda","locality":"Kampala","region":"Central Region"}},"labels":["expo","food"],"duration":217800,"start_local":"2024-08-29T07:30:00","end":"2024-08-31T17:00:00Z","end_local":"2024-08-31T20:00:00","updated":"2024-06-30T09:06:51Z"},{"title":"Foodpro Uganda","description":"Sourced from predicthq.com","category":"expos","start":"2024-08-14T21:00:00Z","geo":{"geometry":{"coordinates":[32.6100815,0.3281426],"type":"Point"},"placekey":"@cx3-tps-4vz","address":{"country_code":"UG","formatted_address":"8JH6+53G, Kampala, Uganda","locality":"Kampala","region":"Central Region"}},"labels":["expo"],"duration":259199,"start_local":"2024-08-15T00:00:00","end":"2024-08-17T20:59:59Z","end_local":"2024-08-17T23:59:59","updated":"2024-06-23T01:33:41Z"},{"title":"Uganda Agritech International Expo","description":"Sourced from predicthq.com","category":"expos","start":"2024-08-14T21:00:00Z","geo":{"geometry":{"coordinates":[32.6100815,0.3281426],"type":"Point"},"placekey":"@cx3-tps-4vz","address":{"country_code":"UG","formatted_address":"8JH6+53G, Kampala, Uganda","locality":"Kampala","region":"Central Region"}},"labels":["expo"],"duration":259199,"start_local":"2024-08-15T00:00:00","end":"2024-08-17T20:59:59Z","end_local":"2024-08-17T23:59:59","updated":"2024-06-16T02:36:59Z"},{"title":"drake annex and drake annex","description":"Sourced from predicthq.com","category":"concerts","start":"2024-08-08T15:30:00Z","geo":{"geometry":{"coordinates":[32.6157684,0.350605],"type":"Point"},"placekey":"@cx3-tpp-t5f","address":{"country_code":"UG","formatted_address":"Kampala, Central Region, Uganda","locality":"Kampala","region":"Central Region"}},"labels":["concert","music"],"duration":0,"start_local":"2024-08-08T18:30:00","end":"2024-08-08T15:30:00Z","end_local":"2024-08-08T18:30:00","updated":"2024-06-16T02:47:23Z"},{"title":"Uganda Buildcon International Expo","description":"Sourced from predicthq.com","category":"expos","start":"2024-08-07T21:00:00Z","geo":{"geometry":{"coordinates":[32.6100815,0.3281426],"type":"Point"},"placekey":"@cx3-tps-4vz","address":{"country_code":"UG","formatted_address":"8JH6+53G, Kampala, Uganda","locality":"Kampala","region":"Central Region"}},"labels":["expo"],"duration":259199,"start_local":"2024-08-08T00:00:00","end":"2024-08-10T20:59:59Z","end_local":"2024-08-10T23:59:59","updated":"2024-06-14T14:50:32Z"},{"title":"Odoo Roadshow Kampala","description":"Sourced from predicthq.com - Discover Odoo with our experts and partners in Kampala !","category":"conferences","start":"2024-08-01T15:00:00Z","geo":{"geometry":{"coordinates":[32.590118,0.320657],"type":"Point"},"placekey":"@cx3-tps-835","address":{"country_code":"UG","formatted_address":"Plot 64, 88 Yusuf Lule Road, Kampala, Uganda","locality":"Kampala","region":"Central Region"}},"labels":["business","conference"],"duration":10800,"start_local":"2024-08-01T18:00:00","end":"2024-08-01T18:00:00Z","end_local":"2024-08-01T21:00:00","updated":"2024-06-27T07:31:44Z"},{"title":"Africa Cup - Final - Winner Semi-final 1 vs Winner Semi-final 2","description":"Sourced from predicthq.com","category":"sports","start":"2024-07-28T13:00:00Z","geo":{"geometry":{"coordinates":[32.65887367537554,0.3473825062656645],"type":"Point"},"placekey":"@cx3-tnq-3t9","address":{"country_code":"UG","formatted_address":"Kampala, Central Region, Uganda","locality":"Kampala","region":"Central Region"}},"labels":["rugby","sport"],"duration":0,"start_local":"2024-07-28T16:00:00","end":"2024-07-28T13:00:00Z","end_local":"2024-07-28T16:00:00","updated":"2024-06-26T15:52:30Z"},{"title":"Africa Cup - 3rd Place Final - Loser Semi-final 1 vs Loser Semi-final 2","description":"Sourced from predicthq.com","category":"sports","start":"2024-07-28T11:00:00Z","geo":{"geometry":{"coordinates":[32.65887367537554,0.3473825062656645],"type":"Point"},"placekey":"@cx3-tnq-3t9","address":{"country_code":"UG","formatted_address":"Kampala, Central Region, Uganda","locality":"Kampala","region":"Central Region"}},"labels":["rugby","sport"],"duration":0,"start_local":"2024-07-28T14:00:00","end":"2024-07-28T11:00:00Z","end_local":"2024-07-28T14:00:00","updated":"2024-07-05T23:03:49Z"},{"title":"Africa Cup - 5th Place Final - Winner 5th Place Play-off 1 vs Winner 5th Place Play-off 2","description":"Sourced from predicthq.com","category":"sports","start":"2024-07-28T09:00:00Z","geo":{"geometry":{"coordinates":[32.65887367537554,0.3473825062656645],"type":"Point"},"placekey":"@cx3-tnq-3t9","address":{"country_code":"UG","formatted_address":"Kampala, Central Region, Uganda","locality":"Kampala","region":"Central Region"}},"labels":["rugby","sport"],"duration":0,"start_local":"2024-07-28T12:00:00","end":"2024-07-28T09:00:00Z","end_local":"2024-07-28T12:00:00","updated":"2024-06-27T11:32:12Z"},{"title":"Africa Cup - 7th Place Final - Loser 5th Place Play-off 1 vs Loser 5th Place Play-off 2","description":"Sourced from predicthq.com","category":"sports","start":"2024-07-28T07:00:00Z","geo":{"geometry":{"coordinates":[32.65887367537554,0.3473825062656645],"type":"Point"},"placekey":"@cx3-tnq-3t9","address":{"country_code":"UG","formatted_address":"Kampala, Central Region, Uganda","locality":"Kampala","region":"Central Region"}},"labels":["rugby","sport"],"duration":0,"start_local":"2024-07-28T10:00:00","end":"2024-07-28T07:00:00Z","end_local":"2024-07-28T10:00:00","updated":"2024-06-27T11:38:28Z"},{"title":"Africa Cup - Semi-finals - Winner Namibia / Burkina Faso vs Winner Zimbabwe / Uganda","description":"Sourced from predicthq.com","category":"sports","start":"2024-07-24T13:00:00Z","geo":{"geometry":{"coordinates":[32.65887367537554,0.3473825062656645],"type":"Point"},"placekey":"@cx3-tnq-3t9","address":{"country_code":"UG","formatted_address":"Kampala, Central Region, Uganda","locality":"Kampala","region":"Central Region"}},"labels":["rugby","sport"],"duration":0,"start_local":"2024-07-24T16:00:00","end":"2024-07-24T13:00:00Z","end_local":"2024-07-24T16:00:00","updated":"2024-06-24T02:36:24Z"},{"title":"Africa Cup - Semi-finals - Winner Kenya / Senegal vs Winner Algeria / Côte d'Ivoire","description":"Sourced from predicthq.com","category":"sports","start":"2024-07-24T11:00:00Z","geo":{"geometry":{"coordinates":[32.65887367537554,0.3473825062656645],"type":"Point"},"placekey":"@cx3-tnq-3t9","address":{"country_code":"UG","formatted_address":"Kampala, Central Region, Uganda","locality":"Kampala","region":"Central Region"}},"labels":["rugby","sport"],"duration":0,"start_local":"2024-07-24T14:00:00","end":"2024-07-24T11:00:00Z","end_local":"2024-07-24T14:00:00","updated":"2024-06-23T22:39:54Z"},{"title":"Africa Cup - 5th Place Play-off - Loser Namibia / Burkina Faso vs Loser  Zimbabwe / Uganda","description":"Sourced from predicthq.com","category":"sports","start":"2024-07-24T09:00:00Z","geo":{"geometry":{"coordinates":[32.65887367537554,0.3473825062656645],"type":"Point"},"placekey":"@cx3-tnq-3t9","address":{"country_code":"UG","formatted_address":"Kampala, Central Region, Uganda","locality":"Kampala","region":"Central Region"}},"labels":["rugby","sport"],"duration":0,"start_local":"2024-07-24T12:00:00","end":"2024-07-24T09:00:00Z","end_local":"2024-07-24T12:00:00","updated":"2024-06-29T05:09:10Z"},{"title":"Africa Cup - 5th Place Play-off - Loser Kenya / Senegal vs Loser Algeria / Côte d'Ivoire","description":"Sourced from predicthq.com","category":"sports","start":"2024-07-24T07:00:00Z","geo":{"geometry":{"coordinates":[32.65887367537554,0.3473825062656645],"type":"Point"},"placekey":"@cx3-tnq-3t9","address":{"country_code":"UG","formatted_address":"Kampala, Central Region, Uganda","locality":"Kampala","region":"Central Region"}},"labels":["rugby","sport"],"duration":0,"start_local":"2024-07-24T10:00:00","end":"2024-07-24T07:00:00Z","end_local":"2024-07-24T10:00:00","updated":"2024-06-23T23:52:22Z"},{"title":"AdCon","description":"Sourced from predicthq.com - AdCon: A gathering of advertising professionals to share knowledge, network, and learn about the latest trends in the industry.","category":"conferences","start":"2024-07-22T07:00:00Z","geo":{"geometry":{"coordinates":[32.54409620000001,0.3068381],"type":"Point"},"placekey":"@cx3-hk2-mc5","address":{"country_code":"UG","formatted_address":"Kintu Road, Kampala, Uganda","locality":"Kampala","region":"Central Region"}},"labels":["business","conference"],"duration":7200,"start_local":"2024-07-22T10:00:00","end":"2024-07-22T09:00:00Z","end_local":"2024-07-22T12:00:00","updated":"2024-06-04T04:03:15Z"},{"title":"Africa Cup - Quarter-finals - Zimbabwe vs Uganda","description":"Sourced from predicthq.com","category":"sports","start":"2024-07-20T13:00:00Z","geo":{"geometry":{"coordinates":[32.65887367537554,0.3473825062656645],"type":"Point"},"placekey":"@cx3-tnq-3t9","address":{"country_code":"UG","formatted_address":"Kampala, Central Region, Uganda","locality":"Kampala","region":"Central Region"}},"labels":["rugby","sport"],"duration":0,"start_local":"2024-07-20T16:00:00","end":"2024-07-20T13:00:00Z","end_local":"2024-07-20T16:00:00","updated":"2024-06-24T02:38:33Z"},{"title":"Africa Cup - Quarter-finals - Algeria vs Côte d'Ivoire","description":"Sourced from predicthq.com","category":"sports","start":"2024-07-20T11:00:00Z","geo":{"geometry":{"coordinates":[32.65887367537554,0.3473825062656645],"type":"Point"},"placekey":"@cx3-tnq-3t9","address":{"country_code":"UG","formatted_address":"Kampala, Central Region, Uganda","locality":"Kampala","region":"Central Region"}},"labels":["rugby","sport"],"duration":0,"start_local":"2024-07-20T14:00:00","end":"2024-07-20T11:00:00Z","end_local":"2024-07-20T14:00:00","updated":"2024-06-27T11:40:09Z"},{"title":"Africa Cup - Quarter-finals - Namibia vs Burkina Faso","description":"Sourced from predicthq.com","category":"sports","start":"2024-07-20T07:00:00Z","geo":{"geometry":{"coordinates":[32.65887367537554,0.3473825062656645],"type":"Point"},"placekey":"@cx3-tnq-3t9","address":{"country_code":"UG","formatted_address":"Kampala, Central Region, Uganda","locality":"Kampala","region":"Central Region"}},"labels":["rugby","sport"],"duration":0,"start_local":"2024-07-20T10:00:00","end":"2024-07-20T07:00:00Z","end_local":"2024-07-20T10:00:00","updated":"2024-06-23T23:11:00Z"},{"title":"ELDERY RUN  EVENT","description":"Sourced from predicthq.com - TO HONOR AND SUPPORT THEELDERLY COMMUNITY WHILEPROMOTING HEALTHY AGING AND INTERGENERATIONAL CONNECTION.","category":"community","start":"2024-07-15T07:00:00Z","geo":{"geometry":{"coordinates":[31.77653089999999,0.9081081],"type":"Point"},"placekey":"@cx3-p79-zxq","address":{"country_code":"UG","formatted_address":"Kiboga, Central Region, Uganda","locality":"Kiboga","region":"Central Region"}},"labels":["community","sport"],"duration":7200,"start_local":"2024-07-15T10:00:00","end":"2024-07-15T09:00:00Z","end_local":"2024-07-15T12:00:00","updated":"2024-05-30T03:53:44Z"},{"title":"Afri Art Fashion Show 24\"","description":"Sourced from predicthq.com - Get ready to experience a vibrant showcase of African art and fashion at the Afri Art Fashion Show!","category":"concerts","start":"2024-07-13T07:00:00Z","geo":{"geometry":{"coordinates":[32.6069259,0.3211813],"type":"Point"},"placekey":"@cx3-tps-3bk","address":{"country_code":"UG","formatted_address":"Old Port Bell Road, Kampala, Uganda","locality":"Kampala","region":"Central Region"}},"labels":["concert","fashion","music"],"duration":28800,"start_local":"2024-07-13T10:00:00","end":"2024-07-13T15:00:00Z","end_local":"2024-07-13T18:00:00","updated":"2024-05-23T04:12:53Z"},{"title":"Conference on Innovations in Tuberculosis","description":"Sourced from predicthq.com","category":"conferences","start":"2024-07-03T06:00:00Z","geo":{"geometry":{"coordinates":[32.620639,0.238589],"type":"Point"},"placekey":"@cx2-hk7-hh5","address":{"country_code":"UG","formatted_address":"Wavamunno Rd, Kampala, Uganda","locality":"Kampala","region":"Central Region"}},"labels":["conference"],"duration":118800,"start_local":"2024-07-03T09:00:00","end":"2024-07-04T15:00:00Z","end_local":"2024-07-04T18:00:00","updated":"2024-06-30T06:56:40Z"},{"title":"Sports Betting East Africa+","description":"Sourced from predicthq.com","category":"conferences","start":"2024-06-30T21:00:00Z","geo":{"geometry":{"coordinates":[32.599902,0.34979],"type":"Point"},"placekey":"@cx3-tpq-3wk","address":{"country_code":"UG","formatted_address":"plot 63 Old Kira Rd, Kampala, Uganda","locality":"Kampala","region":"Central Region"}},"labels":["conference"],"duration":259199,"start_local":"2024-07-01T00:00:00","end":"2024-07-03T20:59:59Z","end_local":"2024-07-03T23:59:59","updated":"2024-06-30T04:20:16Z"},{"title":"ABUNDANT LIFE","description":"Sourced from predicthq.com - Join us for a day of inspiration, growth, and joy as we explore how to live a life full of abundance and fulfillment in God!","category":"conferences","start":"2024-06-29T09:00:00Z","geo":{"geometry":{"coordinates":[32.5485491,0.3161194],"type":"Point"},"placekey":"@cx3-hk3-7wk","address":{"country_code":"UG","formatted_address":"Kiwewa Lane, Kampala, Uganda","locality":"Kampala","region":"Central Region"}},"labels":["conference","religion"],"duration":10800,"start_local":"2024-06-29T12:00:00","end":"2024-06-29T12:00:00Z","end_local":"2024-06-29T15:00:00","updated":"2024-06-20T09:41:12Z"},{"title":"Conference","description":"Sourced from predicthq.com - The meaning of ESCHATOLOGY is a branch of theology concerned with the final events in the history of the world or of humankind.","category":"conferences","start":"2024-06-27T14:00:00Z","geo":{"geometry":{"coordinates":[32.55686629999999,0.2533177],"type":"Point"},"placekey":"@cx2-hkm-dd9","address":{"country_code":"UG","formatted_address":"Nfufu Road, Kampala, Uganda","locality":"Kampala","region":"Central Region"}},"labels":["business","conference"],"duration":97260,"start_local":"2024-06-27T17:00:00","end":"2024-06-28T17:01:00Z","end_local":"2024-06-28T20:01:00","updated":"2024-06-28T01:31:17Z"},{"title":"Prayer Conference","description":"Sourced from predicthq.com - Join us for a powerful day of spiritual connection, reflection, and community at Conference Prayer!","category":"conferences","start":"2024-06-17T07:00:00Z","geo":{"geometry":{"coordinates":[32.55686629999999,0.2533177],"type":"Point"},"placekey":"@cx2-hkm-dd9","address":{"country_code":"UG","formatted_address":"Nfufu Road, Kampala, Uganda","locality":"Kampala","region":"Central Region"}},"labels":["conference","religion"],"duration":7200,"start_local":"2024-06-17T10:00:00","end":"2024-06-17T09:00:00Z","end_local":"2024-06-17T12:00:00","updated":"2024-06-04T02:10:33Z"},{"title":"Training on Project Management","description":"Sourced from predicthq.com","category":"expos","start":"2024-06-16T21:00:00Z","geo":{"geometry":{"coordinates":[32.578202,0.318472],"type":"Point"},"placekey":"@cx3-hj9-zs5","address":{"country_code":"UG","formatted_address":"Lumumba Avenue, Kampala, Uganda","locality":"Kampala","region":"Central Region"}},"labels":["expo"],"duration":431999,"start_local":"2024-06-17T00:00:00","end":"2024-06-21T20:59:59Z","end_local":"2024-06-21T23:59:59","updated":"2024-05-27T23:56:13Z"},{"title":"Uganda International Marathon","description":"Sourced from predicthq.com","category":"sports","start":"2024-05-30T21:00:00Z","geo":{"geometry":{"coordinates":[31.7537404,-0.3267383],"type":"Point"},"placekey":"@cx4-39d-kmk","address":{"country_code":"UG","formatted_address":"Masaka, Central Region, Uganda","locality":"Masaka","region":"Central Region"}},"labels":["marathon","outdoor-sports","running","sport"],"duration":86399,"start_local":"2024-05-31T00:00:00","end":"2024-05-31T20:59:59Z","end_local":"2024-05-31T23:59:59","updated":"2024-06-05T00:47:11Z"},{"title":"FoodPack East Africa","description":"Sourced from predicthq.com","category":"expos","start":"2024-05-24T21:00:00Z","geo":{"geometry":{"coordinates":[32.609415,0.328062],"type":"Point"},"placekey":"@cx3-tps-4vz","address":{"country_code":"UG","formatted_address":"Kampala, Central Region, Uganda","locality":"Kampala","region":"Central Region"}},"labels":["expo"],"duration":259199,"start_local":"2024-05-25T00:00:00","end":"2024-05-27T20:59:59Z","end_local":"2024-05-27T23:59:59","updated":"2024-06-16T04:59:33Z"},{"title":"Pearl Of Africa Tourism Expo","description":"Sourced from predicthq.com","category":"expos","start":"2024-05-23T06:00:00Z","geo":{"geometry":{"coordinates":[32.624156,0.238495],"type":"Point"},"placekey":"@cx2-hk7-j5f","address":{"country_code":"UG","formatted_address":"1047, 1049 Wavamunno Rd, Kampala, Uganda","locality":"Kampala","region":"Central Region"}},"labels":["expo"],"duration":205200,"start_local":"2024-05-23T09:00:00","end":"2024-05-25T15:00:00Z","end_local":"2024-05-25T18:00:00","updated":"2024-05-31T22:54:33Z"},{"title":"Premier League - Wakiso Giants vs UPDF","description":"Sourced from predicthq.com","category":"sports","start":"2024-05-18T12:00:00Z","geo":{"geometry":{"coordinates":[32.47374496299369,0.4007711017811551],"type":"Point"},"placekey":"@cx3-hmb-vs5","address":{"country_code":"UG","formatted_address":"Wakiso, Uganda","locality":"Wakiso","region":"Central Region"}},"labels":["soccer","sport"],"duration":0,"start_local":"2024-05-18T15:00:00","end":"2024-05-18T12:00:00Z","end_local":"2024-05-18T15:00:00","updated":"2024-06-12T03:47:40Z"},{"title":"Premier League - NEC vs SC Villa","description":"Sourced from predicthq.com","category":"sports","start":"2024-05-18T12:00:00Z","geo":{"geometry":{"coordinates":[32.606947124004364,0.3278177972379245],"type":"Point"},"placekey":"@cx3-tps-4y9","address":{"country_code":"UG","formatted_address":"Kampala, Uganda","locality":"Kampala","region":"Central Region"}},"labels":["soccer","sport"],"duration":0,"start_local":"2024-05-18T15:00:00","end":"2024-05-18T12:00:00Z","end_local":"2024-05-18T15:00:00","updated":"2024-06-12T06:05:21Z"},{"title":"Premier League - Busoga United vs BUL","description":"Sourced from predicthq.com","category":"sports","start":"2024-05-18T12:00:00Z","geo":{"geometry":{"coordinates":[33.16901206444,0.441422863923],"type":"Point"},"placekey":"@cx3-rcy-wzf","address":{"country_code":"UG","formatted_address":"Njeru, Uganda","locality":"Njeru"}},"labels":["soccer","sport"],"duration":0,"start_local":"2024-05-18T15:00:00","end":"2024-05-18T12:00:00Z","end_local":"2024-05-18T15:00:00","updated":"2024-06-12T05:10:40Z"},{"title":"Premier League - Kitara vs Gaddafi","description":"Sourced from predicthq.com","category":"sports","start":"2024-05-18T12:00:00Z","geo":{"geometry":{"coordinates":[31.720468997955322,1.6852570947923693],"type":"Point"},"placekey":"@cxc-tbp-ckf","address":{"country_code":"UG","formatted_address":"MPM9+XR9, Masindi, Uganda","locality":"Masindi","region":"Western Region"}},"labels":["soccer","sport"],"duration":0,"start_local":"2024-05-18T15:00:00","end":"2024-05-18T12:00:00Z","end_local":"2024-05-18T15:00:00","updated":"2024-06-12T08:24:23Z"},{"title":"Premier League - Vipers vs Mbarara City","description":"Sourced from predicthq.com","category":"sports","start":"2024-05-18T12:00:00Z","geo":{"geometry":{"coordinates":[32.53225837221372,0.19769507052001714],"type":"Point"},"placekey":"@cx2-hht-xbk","address":{"country_code":"UG","formatted_address":"Entebbe Road, Kitende, Uganda","locality":"Kitende"}},"labels":["soccer","sport"],"duration":0,"start_local":"2024-05-18T15:00:00","end":"2024-05-18T12:00:00Z","end_local":"2024-05-18T15:00:00","updated":"2024-06-12T18:59:54Z"},{"title":"Premier League - URA vs Bright Stars","description":"Sourced from predicthq.com","category":"sports","start":"2024-05-18T12:00:00Z","geo":{"geometry":{"coordinates":[32.54838109,0.284109143],"type":"Point"},"placekey":"@cx2-hjz-p9z","address":{"country_code":"UG","formatted_address":"7GMX+M8G, Road, Kampala, Uganda","locality":"Kampala","region":"Central Region"}},"labels":["soccer","sport"],"duration":0,"start_local":"2024-05-18T15:00:00","end":"2024-05-18T12:00:00Z","end_local":"2024-05-18T15:00:00","updated":"2024-06-11T23:32:29Z"},{"title":"Premier League - Maroons vs KCCA","description":"Sourced from predicthq.com","category":"sports","start":"2024-05-18T12:00:00Z","geo":{"geometry":{"coordinates":[32.64081001281738,0.2997730406614576],"type":"Point"},"placekey":"@cx3-tpm-k75","address":{"country_code":"UG","formatted_address":"7JXR+QHV, Kampala, Uganda","locality":"Kampala","region":"Central Region"}},"labels":["soccer","sport"],"duration":0,"start_local":"2024-05-18T15:00:00","end":"2024-05-18T12:00:00Z","end_local":"2024-05-18T15:00:00","updated":"2024-06-12T02:46:45Z"},{"title":"Rugby League Women's Internationals - Friendlies - Uganda vs Kenya","description":"Sourced from predicthq.com","category":"sports","start":"2024-05-18T11:00:00Z","geo":{"geometry":{"coordinates":[32.56196798969064,0.32194289849846625],"type":"Point"},"placekey":"@cx2-hjw-vfz","address":{"country_code":"UG","formatted_address":"Grace Road, Kampala, Uganda","locality":"Kampala","region":"Central Region"}},"labels":["rugby","sport"],"duration":0,"start_local":"2024-05-18T14:00:00","end":"2024-05-18T11:00:00Z","end_local":"2024-05-18T14:00:00","updated":"2024-06-12T05:52:29Z"},{"title":"Special Needs Workshop: Home and Community Interventions","description":"Sourced from predicthq.com - Come and get TIPS for Supporting Children with Special Needs with Home and Community-based Interventions.","category":"conferences","start":"2024-05-18T06:00:00Z","geo":{"geometry":{"coordinates":[32.6132358,0.3655396],"type":"Point"},"placekey":"@cx3-trc-8y9","address":{"country_code":"UG","formatted_address":"Ntinda Kigowa Road, Kampala, Uganda","locality":"Kampala","region":"Central Region"}},"labels":["conference","health"],"duration":10800,"start_local":"2024-05-18T09:00:00","end":"2024-05-18T09:00:00Z","end_local":"2024-05-18T12:00:00","updated":"2024-06-05T00:47:56Z"},{"title":"Paper and Tissue Uganda","description":"Sourced from predicthq.com","category":"expos","start":"2024-05-16T06:00:00Z","geo":{"geometry":{"coordinates":[32.6100815,0.3281426],"type":"Point"},"placekey":"@cx3-tps-4vz","address":{"country_code":"UG","formatted_address":"8JH6+53G, Kampala, Uganda","locality":"Kampala","region":"Central Region"}},"labels":["expo"],"duration":205200,"start_local":"2024-05-16T09:00:00","end":"2024-05-18T15:00:00Z","end_local":"2024-05-18T18:00:00","updated":"2024-06-12T00:27:45Z"},{"title":"Foodpack Africa Uganda","description":"Sourced from predicthq.com","category":"expos","start":"2024-05-16T06:00:00Z","geo":{"geometry":{"coordinates":[32.609415,0.328062],"type":"Point"},"placekey":"@cx3-tps-4vz","address":{"country_code":"UG","formatted_address":"Kampala, Central Region, Uganda","locality":"Kampala","region":"Central Region"}},"labels":["expo"],"duration":205200,"start_local":"2024-05-16T09:00:00","end":"2024-05-18T15:00:00Z","end_local":"2024-05-18T18:00:00","updated":"2024-07-06T04:54:37Z"},{"title":"InterplastPack Uganda","description":"Sourced from predicthq.com","category":"expos","start":"2024-05-16T06:00:00Z","geo":{"geometry":{"coordinates":[32.609415,0.328062],"type":"Point"},"placekey":"@cx3-tps-4vz","address":{"country_code":"UG","formatted_address":"Kampala, Central Region, Uganda","locality":"Kampala","region":"Central Region"}},"labels":["expo"],"duration":205200,"start_local":"2024-05-16T09:00:00","end":"2024-05-18T15:00:00Z","end_local":"2024-05-18T18:00:00","updated":"2024-06-05T02:20:27Z"},{"title":"INTERPLAST - PACK AFRICA 2024","description":"Sourced from predicthq.com","category":"expos","start":"2024-05-15T21:00:00Z","geo":{"geometry":{"coordinates":[32.569419,0.3083621],"type":"Point"},"placekey":"@cx2-hjw-8vz","address":{"country_code":"UG","formatted_address":"Mwanga II Road, Kampala, Uganda","locality":"Kampala","region":"Central Region"}},"labels":["business","environment","expo","print","product"],"duration":259199,"start_local":"2024-05-16T00:00:00","end":"2024-05-18T20:59:59Z","end_local":"2024-05-18T23:59:59","updated":"2024-06-05T02:19:22Z"},{"title":"Foodpack East Africa 2024","description":"Sourced from predicthq.com","category":"expos","start":"2024-05-15T21:00:00Z","geo":{"geometry":{"coordinates":[32.569419,0.3083621],"type":"Point"},"placekey":"@cx2-hjw-8vz","address":{"country_code":"UG","formatted_address":"Mwanga II Road, Kampala, Uganda","locality":"Kampala","region":"Central Region"}},"labels":["business","expo","food"],"duration":259199,"start_local":"2024-05-16T00:00:00","end":"2024-05-18T20:59:59Z","end_local":"2024-05-18T23:59:59","updated":"2024-06-05T02:25:40Z"},{"title":"AGRO & POULTRY AFRICA 2024","description":"Sourced from predicthq.com","category":"expos","start":"2024-05-15T21:00:00Z","geo":{"geometry":{"coordinates":[32.569419,0.3083621],"type":"Point"},"placekey":"@cx2-hjw-8vz","address":{"country_code":"UG","formatted_address":"Mwanga II Road, Kampala, Uganda","locality":"Kampala","region":"Central Region"}},"labels":["agriculture","expo","food","horticulture"],"duration":259199,"start_local":"2024-05-16T00:00:00","end":"2024-05-18T20:59:59Z","end_local":"2024-05-18T23:59:59","updated":"2024-06-05T08:45:09Z"},{"title":"Grains Africa - International Trade Show on Grains & Technology","description":"Sourced from predicthq.com","category":"expos","start":"2024-05-15T21:00:00Z","geo":{"geometry":{"coordinates":[32.6100815,0.3281426],"type":"Point"},"placekey":"@cx3-tps-4vz","address":{"country_code":"UG","formatted_address":"8JH6+53G, Kampala, Uganda","locality":"Kampala","region":"Central Region"}},"labels":["expo"],"duration":259199,"start_local":"2024-05-16T00:00:00","end":"2024-05-18T20:59:59Z","end_local":"2024-05-18T23:59:59","updated":"2024-07-02T04:43:21Z"},{"title":"Interplast-Pack Africa","description":"Sourced from predicthq.com","category":"expos","start":"2024-05-15T21:00:00Z","geo":{"geometry":{"coordinates":[32.6100815,0.3281426],"type":"Point"},"placekey":"@cx3-tps-4vz","address":{"country_code":"UG","formatted_address":"8JH6+53G, Kampala, Uganda","locality":"Kampala","region":"Central Region"}},"labels":["expo"],"duration":259199,"start_local":"2024-05-16T00:00:00","end":"2024-05-18T20:59:59Z","end_local":"2024-05-18T23:59:59","updated":"2024-06-12T07:37:40Z"},{"title":"Paper & Tissue Africa 2024","description":"Sourced from predicthq.com","category":"expos","start":"2024-05-15T21:00:00Z","geo":{"geometry":{"coordinates":[32.569419,0.3083621],"type":"Point"},"placekey":"@cx2-hjw-8vz","address":{"country_code":"UG","formatted_address":"Mwanga II Road, Kampala, Uganda","locality":"Kampala","region":"Central Region"}},"labels":["expo","industrial","print","product","technology"],"duration":259199,"start_local":"2024-05-16T00:00:00","end":"2024-05-18T20:59:59Z","end_local":"2024-05-18T23:59:59","updated":"2024-06-05T02:19:21Z"},{"title":"Agro & Poultry Africa","description":"Sourced from predicthq.com","category":"expos","start":"2024-05-15T21:00:00Z","geo":{"geometry":{"coordinates":[32.609415,0.328062],"type":"Point"},"placekey":"@cx3-tps-4vz","address":{"country_code":"UG","formatted_address":"Kampala, Central Region, Uganda","locality":"Kampala","region":"Central Region"}},"labels":["expo"],"duration":259199,"start_local":"2024-05-16T00:00:00","end":"2024-05-18T20:59:59Z","end_local":"2024-05-18T23:59:59","updated":"2024-06-05T02:20:04Z"},{"title":"Premier League - Gaddafi vs Express","description":"Sourced from predicthq.com","category":"sports","start":"2024-05-15T13:00:00Z","geo":{"geometry":{"coordinates":[33.203067,0.451979],"type":"Point"},"placekey":"@cx3-rcw-ndv","address":{"country_code":"UG","formatted_address":"Jinja, Uganda","locality":"Jinja","region":"Eastern Region"}},"labels":["soccer","sport"],"duration":0,"start_local":"2024-05-15T16:00:00","end":"2024-05-15T13:00:00Z","end_local":"2024-05-15T16:00:00","updated":"2024-06-11T23:19:50Z"},{"title":"Premier League - Bright Stars vs Kitara","description":"Sourced from predicthq.com","category":"sports","start":"2024-05-14T13:00:00Z","geo":{"geometry":{"coordinates":[32.4612313,0.4010429],"type":"Point"},"placekey":"@cx3-hmj-pgk","address":{"country_code":"UG","formatted_address":"9FX6+XR, Wakiso, Uganda","locality":"Wakiso","region":"Central Region"}},"labels":["soccer","sport"],"duration":0,"start_local":"2024-05-14T16:00:00","end":"2024-05-14T13:00:00Z","end_local":"2024-05-14T16:00:00","updated":"2024-06-12T11:41:44Z"},{"title":"Premier League - SC Villa vs URA","description":"Sourced from predicthq.com","category":"sports","start":"2024-05-14T13:00:00Z","geo":{"geometry":{"coordinates":[32.54838109,0.284109143],"type":"Point"},"placekey":"@cx2-hjz-p9z","address":{"country_code":"UG","formatted_address":"7GMX+M8G, Road, Kampala, Uganda","locality":"Kampala","region":"Central Region"}},"labels":["soccer","sport"],"duration":0,"start_local":"2024-05-14T16:00:00","end":"2024-05-14T13:00:00Z","end_local":"2024-05-14T16:00:00","updated":"2024-06-12T17:04:18Z"},{"title":"Premier League - UPDF vs Maroons","description":"Sourced from predicthq.com","category":"sports","start":"2024-05-14T13:00:00Z","geo":{"geometry":{"coordinates":[32.54160046577,0.5811925397],"type":"Point"},"placekey":"@cx3-hsv-v9f","address":{"country_code":"UG","formatted_address":"HGJR+9JX, Bombo, Uganda","locality":"Bombo","region":"Central Region"}},"labels":["soccer","sport"],"duration":0,"start_local":"2024-05-14T16:00:00","end":"2024-05-14T13:00:00Z","end_local":"2024-05-14T16:00:00","updated":"2024-06-11T21:34:09Z"},{"title":"Premier League - KCCA vs Wakiso Giants","description":"Sourced from predicthq.com","category":"sports","start":"2024-05-14T13:00:00Z","geo":{"geometry":{"coordinates":[32.606947124004364,0.3278177972379245],"type":"Point"},"placekey":"@cx3-tps-4y9","address":{"country_code":"UG","formatted_address":"Kampala, Uganda","locality":"Kampala","region":"Central Region"}},"labels":["soccer","sport"],"duration":0,"start_local":"2024-05-14T16:00:00","end":"2024-05-14T13:00:00Z","end_local":"2024-05-14T16:00:00","updated":"2024-06-12T10:32:42Z"},{"title":"Premier League - Busoga United vs Vipers","description":"Sourced from predicthq.com","category":"sports","start":"2024-05-14T13:00:00Z","geo":{"geometry":{"coordinates":[33.16901206444,0.441422863923],"type":"Point"},"placekey":"@cx3-rcy-wzf","address":{"country_code":"UG","formatted_address":"Njeru, Uganda","locality":"Njeru"}},"labels":["soccer","sport"],"duration":0,"start_local":"2024-05-14T16:00:00","end":"2024-05-14T13:00:00Z","end_local":"2024-05-14T16:00:00","updated":"2024-06-12T04:51:45Z"},{"title":"Premier League - Mbarara City vs BUL","description":"Sourced from predicthq.com","category":"sports","start":"2024-05-14T13:00:00Z","geo":{"geometry":{"coordinates":[30.64702311978226,-0.6106411751517244],"type":"Point"},"placekey":"@cx8-c72-j9z","address":{"country_code":"UG","formatted_address":"9JQW+RHP, Mbarara, Uganda","locality":"Mbarara","region":"Western Region"}},"labels":["soccer","sport"],"duration":0,"start_local":"2024-05-14T16:00:00","end":"2024-05-14T13:00:00Z","end_local":"2024-05-14T16:00:00","updated":"2024-06-12T09:46:23Z"},{"title":"Premier League - Express vs NEC","description":"Sourced from predicthq.com","category":"sports","start":"2024-05-13T13:00:00Z","geo":{"geometry":{"coordinates":[32.54838109,0.284109143],"type":"Point"},"placekey":"@cx2-hjz-p9z","address":{"country_code":"UG","formatted_address":"7GMX+M8G, Road, Kampala, Uganda","locality":"Kampala","region":"Central Region"}},"labels":["soccer","sport"],"duration":0,"start_local":"2024-05-13T16:00:00","end":"2024-05-13T13:00:00Z","end_local":"2024-05-13T16:00:00","updated":"2024-06-12T16:42:08Z"},{"title":"Premier League - NEC vs Vipers","description":"Sourced from predicthq.com","category":"sports","start":"2024-05-11T13:00:00Z","geo":{"geometry":{"coordinates":[32.606947124004364,0.3278177972379245],"type":"Point"},"placekey":"@cx3-tps-4y9","address":{"country_code":"UG","formatted_address":"Kampala, Uganda","locality":"Kampala","region":"Central Region"}},"labels":["soccer","sport"],"duration":0,"start_local":"2024-05-11T16:00:00","end":"2024-05-11T13:00:00Z","end_local":"2024-05-11T16:00:00","updated":"2024-06-12T06:14:43Z"},{"title":"Premier League - UPDF vs SC Villa","description":"Sourced from predicthq.com","category":"sports","start":"2024-05-11T13:00:00Z","geo":{"geometry":{"coordinates":[32.54160046577,0.5811925397],"type":"Point"},"placekey":"@cx3-hsv-v9f","address":{"country_code":"UG","formatted_address":"HGJR+9JX, Bombo, Uganda","locality":"Bombo","region":"Central Region"}},"labels":["soccer","sport"],"duration":0,"start_local":"2024-05-11T16:00:00","end":"2024-05-11T13:00:00Z","end_local":"2024-05-11T16:00:00","updated":"2024-06-12T07:36:51Z"},{"title":"Premier League - Maroons vs Bright Stars","description":"Sourced from predicthq.com","category":"sports","start":"2024-05-11T13:00:00Z","geo":{"geometry":{"coordinates":[32.64081001281738,0.2997730406614576],"type":"Point"},"placekey":"@cx3-tpm-k75","address":{"country_code":"UG","formatted_address":"7JXR+QHV, Kampala, Uganda","locality":"Kampala","region":"Central Region"}},"labels":["soccer","sport"],"duration":0,"start_local":"2024-05-11T16:00:00","end":"2024-05-11T13:00:00Z","end_local":"2024-05-11T16:00:00","updated":"2024-06-12T14:24:04Z"},{"title":"Premier League - BUL vs Gaddafi","description":"Sourced from predicthq.com","category":"sports","start":"2024-05-11T13:00:00Z","geo":{"geometry":{"coordinates":[33.16901206444,0.441422863923],"type":"Point"},"placekey":"@cx3-rcy-wzf","address":{"country_code":"UG","formatted_address":"Njeru, Uganda","locality":"Njeru"}},"labels":["soccer","sport"],"duration":0,"start_local":"2024-05-11T16:00:00","end":"2024-05-11T13:00:00Z","end_local":"2024-05-11T16:00:00","updated":"2024-06-11T21:46:56Z"},{"title":"Premier League - Wakiso Giants vs Mbarara City","description":"Sourced from predicthq.com","category":"sports","start":"2024-05-11T13:00:00Z","geo":{"geometry":{"coordinates":[32.47374496299369,0.4007711017811551],"type":"Point"},"placekey":"@cx3-hmb-vs5","address":{"country_code":"UG","formatted_address":"Wakiso, Uganda","locality":"Wakiso","region":"Central Region"}},"labels":["soccer","sport"],"duration":0,"start_local":"2024-05-11T16:00:00","end":"2024-05-11T13:00:00Z","end_local":"2024-05-11T16:00:00","updated":"2024-06-12T11:54:31Z"},{"title":"Premier League - Kitara vs Busoga United","description":"Sourced from predicthq.com","category":"sports","start":"2024-05-11T13:00:00Z","geo":{"geometry":{"coordinates":[31.720468997955322,1.6852570947923693],"type":"Point"},"placekey":"@cxc-tbp-ckf","address":{"country_code":"UG","formatted_address":"MPM9+XR9, Masindi, Uganda","locality":"Masindi","region":"Western Region"}},"labels":["soccer","sport"],"duration":0,"start_local":"2024-05-11T16:00:00","end":"2024-05-11T13:00:00Z","end_local":"2024-05-11T16:00:00","updated":"2024-06-12T07:10:21Z"},{"title":"Lil Meek DC, D'mighty Kim, Milton Kizzy, and 4 others","description":"Sourced from predicthq.com","category":"concerts","start":"2024-05-10T17:00:00Z","geo":{"geometry":{"coordinates":[32.6056824,0.2846496],"type":"Point"},"placekey":"@cx2-hjq-pvz","address":{"country_code":"UG","formatted_address":"Kampala, Central Region, Uganda","locality":"Kampala","region":"Central Region"}},"labels":["concert","music"],"duration":0,"start_local":"2024-05-10T20:00:00","end":"2024-05-10T17:00:00Z","end_local":"2024-05-10T20:00:00","updated":"2024-06-12T13:51:24Z"},{"title":"East Africa Carbon Markets Forum","description":"Sourced from predicthq.com","category":"conferences","start":"2024-05-09T06:00:00Z","geo":{"geometry":{"coordinates":[32.587699,0.328063],"type":"Point"},"placekey":"@cx3-tps-ysq","address":{"country_code":"UG","formatted_address":"Upper Kololo Terrace, Kampala, Uganda","locality":"Kampala","region":"Central Region"}},"labels":["conference"],"duration":118800,"start_local":"2024-05-09T09:00:00","end":"2024-05-10T15:00:00Z","end_local":"2024-05-10T18:00:00","updated":"2024-05-21T04:31:37Z"},{"title":"Premier League - Vipers vs Express","description":"Sourced from predicthq.com","category":"sports","start":"2024-05-08T16:00:00Z","geo":{"geometry":{"coordinates":[32.53225837221372,0.19769507052001714],"type":"Point"},"placekey":"@cx2-hht-xbk","address":{"country_code":"UG","formatted_address":"Entebbe Road, Kitende, Uganda","locality":"Kitende"}},"labels":["soccer","sport"],"duration":0,"start_local":"2024-05-08T19:00:00","end":"2024-05-08T16:00:00Z","end_local":"2024-05-08T19:00:00","updated":"2024-06-11T21:23:20Z"},{"title":"Premier League - SC Villa vs Wakiso Giants","description":"Sourced from predicthq.com","category":"sports","start":"2024-05-08T13:00:00Z","geo":{"geometry":{"coordinates":[32.54838109,0.284109143],"type":"Point"},"placekey":"@cx2-hjz-p9z","address":{"country_code":"UG","formatted_address":"7GMX+M8G, Road, Kampala, Uganda","locality":"Kampala","region":"Central Region"}},"labels":["soccer","sport"],"duration":0,"start_local":"2024-05-08T16:00:00","end":"2024-05-08T13:00:00Z","end_local":"2024-05-08T16:00:00","updated":"2024-06-12T19:07:40Z"},{"title":"Premier League - Bright Stars vs NEC","description":"Sourced from predicthq.com","category":"sports","start":"2024-05-08T13:00:00Z","geo":{"geometry":{"coordinates":[32.4612313,0.4010429],"type":"Point"},"placekey":"@cx3-hmj-pgk","address":{"country_code":"UG","formatted_address":"9FX6+XR, Wakiso, Uganda","locality":"Wakiso","region":"Central Region"}},"labels":["soccer","sport"],"duration":0,"start_local":"2024-05-08T16:00:00","end":"2024-05-08T13:00:00Z","end_local":"2024-05-08T16:00:00","updated":"2024-06-12T02:03:35Z"},{"title":"Premier League - KCCA vs UPDF","description":"Sourced from predicthq.com","category":"sports","start":"2024-05-07T16:00:00Z","geo":{"geometry":{"coordinates":[32.606947124004364,0.3278177972379245],"type":"Point"},"placekey":"@cx3-tps-4y9","address":{"country_code":"UG","formatted_address":"Kampala, Uganda","locality":"Kampala","region":"Central Region"}},"labels":["soccer","sport"],"duration":0,"start_local":"2024-05-07T19:00:00","end":"2024-05-07T16:00:00Z","end_local":"2024-05-07T19:00:00","updated":"2024-06-12T10:16:26Z"},{"title":"Premier League - Mbarara City vs URA","description":"Sourced from predicthq.com","category":"sports","start":"2024-05-07T13:00:00Z","geo":{"geometry":{"coordinates":[30.64702311978226,-0.6106411751517244],"type":"Point"},"placekey":"@cx8-c72-j9z","address":{"country_code":"UG","formatted_address":"9JQW+RHP, Mbarara, Uganda","locality":"Mbarara","region":"Western Region"}},"labels":["soccer","sport"],"duration":0,"start_local":"2024-05-07T16:00:00","end":"2024-05-07T13:00:00Z","end_local":"2024-05-07T16:00:00","updated":"2024-06-12T02:15:40Z"},{"title":"Premier League - Gaddafi vs Maroons","description":"Sourced from predicthq.com","category":"sports","start":"2024-05-07T13:00:00Z","geo":{"geometry":{"coordinates":[33.203067,0.451979],"type":"Point"},"placekey":"@cx3-rcw-ndv","address":{"country_code":"UG","formatted_address":"Jinja, Uganda","locality":"Jinja","region":"Eastern Region"}},"labels":["soccer","sport"],"duration":0,"start_local":"2024-05-07T16:00:00","end":"2024-05-07T13:00:00Z","end_local":"2024-05-07T16:00:00","updated":"2024-06-12T13:06:40Z"},{"title":"Premier League - Express vs Busoga United","description":"Sourced from predicthq.com","category":"sports","start":"2024-05-05T12:00:00Z","geo":{"geometry":{"coordinates":[32.54838109,0.284109143],"type":"Point"},"placekey":"@cx2-hjz-p9z","address":{"country_code":"UG","formatted_address":"7GMX+M8G, Road, Kampala, Uganda","locality":"Kampala","region":"Central Region"}},"labels":["soccer","sport"],"duration":0,"start_local":"2024-05-05T15:00:00","end":"2024-05-05T12:00:00Z","end_local":"2024-05-05T15:00:00","updated":"2024-06-12T02:37:40Z"},{"title":"International School of Uganda (ISU)","description":"Sourced from predicthq.com","category":"festivals","start":"2024-05-03T21:00:00Z","geo":{"geometry":{"coordinates":[32.5636011,0.2338145],"type":"Point"},"placekey":"@cx2-hhb-6tv","address":{"country_code":"UG","formatted_address":"Plot 272 Entebbe Rd, Kampala, Uganda","locality":"Kampala","region":"Mkoa wa Kati"}},"labels":["festival","music"],"duration":86399,"start_local":"2024-05-04T00:00:00","end":"2024-05-04T20:59:59Z","end_local":"2024-05-04T23:59:59","updated":"2024-06-12T09:08:42Z"},{"title":"Premier League - UPDF vs Bright Stars","description":"Sourced from predicthq.com","category":"sports","start":"2024-05-02T13:00:00Z","geo":{"geometry":{"coordinates":[32.54160046577,0.5811925397],"type":"Point"},"placekey":"@cx3-hsv-v9f","address":{"country_code":"UG","formatted_address":"HGJR+9JX, Bombo, Uganda","locality":"Bombo","region":"Central Region"}},"labels":["soccer","sport"],"duration":0,"start_local":"2024-05-02T16:00:00","end":"2024-05-02T13:00:00Z","end_local":"2024-05-02T16:00:00","updated":"2024-06-11T23:58:51Z"},{"title":"Premier League - Wakiso Giants vs Gaddafi","description":"Sourced from predicthq.com","category":"sports","start":"2024-05-02T13:00:00Z","geo":{"geometry":{"coordinates":[32.47374496299369,0.4007711017811551],"type":"Point"},"placekey":"@cx3-hmb-vs5","address":{"country_code":"UG","formatted_address":"Wakiso, Uganda","locality":"Wakiso","region":"Central Region"}},"labels":["soccer","sport"],"duration":0,"start_local":"2024-05-02T16:00:00","end":"2024-05-02T13:00:00Z","end_local":"2024-05-02T16:00:00","updated":"2024-06-12T06:33:02Z"},{"title":"Introduction to Decentralized Data Storage","description":"Sourced from predicthq.com - Come learn about how decentralized data storage works and why it's changing the game in the tech world!","category":"conferences","start":"2024-05-02T11:00:00Z","geo":{"geometry":{"coordinates":[30.6605405,-0.6083391],"type":"Point"},"placekey":"@cx8-c72-3yv","address":{"country_code":"UG","formatted_address":"Mbarara, Western Region, Uganda","locality":"Mbarara","region":"Western Region"}},"labels":["conference","science","technology"],"duration":7200,"start_local":"2024-05-02T14:00:00","end":"2024-05-02T13:00:00Z","end_local":"2024-05-02T16:00:00","updated":"2024-06-05T19:49:57Z"},{"title":"Premier League - KCCA vs SC Villa","description":"Sourced from predicthq.com","category":"sports","start":"2024-05-01T16:00:00Z","geo":{"geometry":{"coordinates":[32.657901,0.3469118],"type":"Point"},"placekey":"@cx3-tnq-2rk","address":{"country_code":"UG","formatted_address":"8MW5+RPH Mandela National stadium, Kampala, Uganda","locality":"Kampala","region":"Central Region"}},"labels":["soccer","sport"],"duration":0,"start_local":"2024-05-01T19:00:00","end":"2024-05-01T16:00:00Z","end_local":"2024-05-01T19:00:00","updated":"2024-06-12T09:02:27Z"},{"title":"Premier League - BUL vs Vipers","description":"Sourced from predicthq.com","category":"sports","start":"2024-05-01T13:00:00Z","geo":{"geometry":{"coordinates":[32.657901,0.3469118],"type":"Point"},"placekey":"@cx3-tnq-2rk","address":{"country_code":"UG","formatted_address":"8MW5+RPH Mandela National stadium, Kampala, Uganda","locality":"Kampala","region":"Central Region"}},"labels":["soccer","sport"],"duration":0,"start_local":"2024-05-01T16:00:00","end":"2024-05-01T13:00:00Z","end_local":"2024-05-01T16:00:00","updated":"2024-06-12T09:10:13Z"},{"title":"ADUNGU TALE MUSICAL","description":"Sourced from predicthq.com - Wewe ni mtengenezaji wa tukio la ADUNGU TALE MUSICAL - jisikie kama unaenda kwenye hadithi ya kipekee ya muziki na utamaduni!","category":"performing-arts","start":"2024-05-01T04:00:00Z","geo":{"geometry":{"coordinates":[32.5890541,0.3158392],"type":"Point"},"placekey":"@cx2-hjy-8d9","address":{"country_code":"UG","formatted_address":"De winton Street, Kampala, Uganda","locality":"Kampala","region":"Central Region"}},"labels":["concert","music","performing-arts"],"duration":491400,"start_local":"2024-05-01T07:00:00","end":"2024-05-06T20:30:00Z","end_local":"2024-05-06T23:30:00","updated":"2024-06-05T08:29:39Z"},{"title":"Premier League - URA vs Busoga United","description":"Sourced from predicthq.com","category":"sports","start":"2024-04-30T13:00:00Z","geo":{"geometry":{"coordinates":[32.47374496299369,0.4007711017811551],"type":"Point"},"placekey":"@cx3-hmb-vs5","address":{"country_code":"UG","formatted_address":"Wakiso, Uganda","locality":"Wakiso","region":"Central Region"}},"labels":["soccer","sport"],"duration":0,"start_local":"2024-04-30T16:00:00","end":"2024-04-30T13:00:00Z","end_local":"2024-04-30T16:00:00","updated":"2024-06-12T07:10:08Z"},{"title":"Premier League - Kitara vs Mbarara City","description":"Sourced from predicthq.com","category":"sports","start":"2024-04-30T13:00:00Z","geo":{"geometry":{"coordinates":[31.720468997955322,1.6852570947923693],"type":"Point"},"placekey":"@cxc-tbp-ckf","address":{"country_code":"UG","formatted_address":"MPM9+XR9, Masindi, Uganda","locality":"Masindi","region":"Western Region"}},"labels":["soccer","sport"],"duration":0,"start_local":"2024-04-30T16:00:00","end":"2024-04-30T13:00:00Z","end_local":"2024-04-30T16:00:00","updated":"2024-06-12T19:42:22Z"},{"title":"We prepare","description":"Sourced from predicthq.com - Get ready to roll up your sleeves and dive into some hands-on activities and workshops at our event \"We prepare\"!","category":"conferences","start":"2024-04-30T07:00:00Z","geo":{"geometry":{"coordinates":[31.0851019,2.4778169],"type":"Point"},"placekey":"@cxd-xqh-j5f","address":{"country_code":"UG","formatted_address":"Nebbi, Northern Region, Uganda","locality":"Nebbi","region":"Northern Region"}},"labels":["business","conference"],"duration":7200,"start_local":"2024-04-30T10:00:00","end":"2024-04-30T09:00:00Z","end_local":"2024-04-30T12:00:00","updated":"2024-06-05T05:05:57Z"},{"title":"Student","description":"Sourced from predicthq.com - ¡Ven y únete a la diversión en nuestro evento de Estudiante, lleno de actividades emocionantes y oportunidades de aprendizaje!","category":"conferences","start":"2024-04-28T07:00:00Z","geo":{"geometry":{"coordinates":[32.5266698,0.2972025],"type":"Point"},"placekey":"@cx3-hk6-3kf","address":{"country_code":"UG","formatted_address":"Kampala, Central Region, Uganda","locality":"Kampala","region":"Central Region"}},"labels":["conference"],"duration":7200,"start_local":"2024-04-28T10:00:00","end":"2024-04-28T09:00:00Z","end_local":"2024-04-28T12:00:00","updated":"2024-06-05T18:26:02Z"},{"title":"Premier League - Busoga United vs Wakiso Giants","description":"Sourced from predicthq.com","category":"sports","start":"2024-04-26T13:00:00Z","geo":{"geometry":{"coordinates":[33.16901206444,0.441422863923],"type":"Point"},"placekey":"@cx3-rcy-wzf","address":{"country_code":"UG","formatted_address":"Njeru, Uganda","locality":"Njeru"}},"labels":["soccer","sport"],"duration":0,"start_local":"2024-04-26T16:00:00","end":"2024-04-26T13:00:00Z","end_local":"2024-04-26T16:00:00","updated":"2024-06-12T11:43:40Z"},{"title":"Premier League - Mbarara City vs UPDF","description":"Sourced from predicthq.com","category":"sports","start":"2024-04-26T13:00:00Z","geo":{"geometry":{"coordinates":[30.64702311978226,-0.6106411751517244],"type":"Point"},"placekey":"@cx8-c72-j9z","address":{"country_code":"UG","formatted_address":"9JQW+RHP, Mbarara, Uganda","locality":"Mbarara","region":"Western Region"}},"labels":["soccer","sport"],"duration":0,"start_local":"2024-04-26T16:00:00","end":"2024-04-26T13:00:00Z","end_local":"2024-04-26T16:00:00","updated":"2024-06-12T12:48:12Z"},{"title":"Premier League - Gaddafi vs SC Villa","description":"Sourced from predicthq.com","category":"sports","start":"2024-04-25T13:00:00Z","geo":{"geometry":{"coordinates":[33.203067,0.451979],"type":"Point"},"placekey":"@cx3-rcw-ndv","address":{"country_code":"UG","formatted_address":"Jinja, Uganda","locality":"Jinja","region":"Eastern Region"}},"labels":["soccer","sport"],"duration":0,"start_local":"2024-04-25T16:00:00","end":"2024-04-25T13:00:00Z","end_local":"2024-04-25T16:00:00","updated":"2024-06-11T23:17:34Z"},{"title":"Premier League - Bright Stars vs KCCA","description":"Sourced from predicthq.com","category":"sports","start":"2024-04-25T13:00:00Z","geo":{"geometry":{"coordinates":[32.4612313,0.4010429],"type":"Point"},"placekey":"@cx3-hmj-pgk","address":{"country_code":"UG","formatted_address":"9FX6+XR, Wakiso, Uganda","locality":"Wakiso","region":"Central Region"}},"labels":["soccer","sport"],"duration":0,"start_local":"2024-04-25T16:00:00","end":"2024-04-25T13:00:00Z","end_local":"2024-04-25T16:00:00","updated":"2024-06-12T13:59:56Z"},{"title":"Premier League - NEC vs BUL","description":"Sourced from predicthq.com","category":"sports","start":"2024-04-24T16:00:00Z","geo":{"geometry":{"coordinates":[32.606947124004364,0.3278177972379245],"type":"Point"},"placekey":"@cx3-tps-4y9","address":{"country_code":"UG","formatted_address":"Kampala, Uganda","locality":"Kampala","region":"Central Region"}},"labels":["soccer","sport"],"duration":0,"start_local":"2024-04-24T19:00:00","end":"2024-04-24T16:00:00Z","end_local":"2024-04-24T19:00:00","updated":"2024-06-12T00:06:00Z"},{"title":"Premier League - Express vs Kitara","description":"Sourced from predicthq.com","category":"sports","start":"2024-04-24T13:00:00Z","geo":{"geometry":{"coordinates":[32.54838109,0.284109143],"type":"Point"},"placekey":"@cx2-hjz-p9z","address":{"country_code":"UG","formatted_address":"7GMX+M8G, Road, Kampala, Uganda","locality":"Kampala","region":"Central Region"}},"labels":["soccer","sport"],"duration":0,"start_local":"2024-04-24T16:00:00","end":"2024-04-24T13:00:00Z","end_local":"2024-04-24T16:00:00","updated":"2024-06-12T02:42:42Z"},{"title":"Premier League - Vipers vs Maroons","description":"Sourced from predicthq.com","category":"sports","start":"2024-04-23T16:00:00Z","geo":{"geometry":{"coordinates":[32.53225837221372,0.19769507052001714],"type":"Point"},"placekey":"@cx2-hht-xbk","address":{"country_code":"UG","formatted_address":"Entebbe Road, Kitende, Uganda","locality":"Kitende"}},"labels":["soccer","sport"],"duration":0,"start_local":"2024-04-23T19:00:00","end":"2024-04-23T16:00:00Z","end_local":"2024-04-23T19:00:00","updated":"2024-06-12T03:12:35Z"},{"title":"Premier League - SC Villa vs Bright Stars","description":"Sourced from predicthq.com","category":"sports","start":"2024-04-21T12:00:00Z","geo":{"geometry":{"coordinates":[32.54838109,0.284109143],"type":"Point"},"placekey":"@cx2-hjz-p9z","address":{"country_code":"UG","formatted_address":"7GMX+M8G, Road, Kampala, Uganda","locality":"Kampala","region":"Central Region"}},"labels":["soccer","sport"],"duration":0,"start_local":"2024-04-21T15:00:00","end":"2024-04-21T12:00:00Z","end_local":"2024-04-21T15:00:00","updated":"2024-06-12T15:17:25Z"},{"title":"Premier League - BUL vs Express","description":"Sourced from predicthq.com","category":"sports","start":"2024-04-20T13:00:00Z","geo":{"geometry":{"coordinates":[33.16901206444,0.441422863923],"type":"Point"},"placekey":"@cx3-rcy-wzf","address":{"country_code":"UG","formatted_address":"Njeru, Uganda","locality":"Njeru"}},"labels":["soccer","sport"],"duration":0,"start_local":"2024-04-20T16:00:00","end":"2024-04-20T13:00:00Z","end_local":"2024-04-20T16:00:00","updated":"2024-06-12T04:53:06Z"},{"title":"Premier League - Kitara vs Vipers","description":"Sourced from predicthq.com","category":"sports","start":"2024-04-19T13:00:00Z","geo":{"geometry":{"coordinates":[31.720468997955322,1.6852570947923693],"type":"Point"},"placekey":"@cxc-tbp-ckf","address":{"country_code":"UG","formatted_address":"MPM9+XR9, Masindi, Uganda","locality":"Masindi","region":"Western Region"}},"labels":["soccer","sport"],"duration":0,"start_local":"2024-04-19T16:00:00","end":"2024-04-19T13:00:00Z","end_local":"2024-04-19T16:00:00","updated":"2024-06-12T01:43:40Z"},{"title":"Premier League - KCCA vs Mbarara City","description":"Sourced from predicthq.com","category":"sports","start":"2024-04-18T16:00:00Z","geo":{"geometry":{"coordinates":[32.606947124004364,0.3278177972379245],"type":"Point"},"placekey":"@cx3-tps-4y9","address":{"country_code":"UG","formatted_address":"Kampala, Uganda","locality":"Kampala","region":"Central Region"}},"labels":["soccer","sport"],"duration":0,"start_local":"2024-04-18T19:00:00","end":"2024-04-18T16:00:00Z","end_local":"2024-04-18T19:00:00","updated":"2024-06-12T14:35:09Z"},{"title":"Premier League - Maroons vs Busoga United","description":"Sourced from predicthq.com","category":"sports","start":"2024-04-18T13:00:00Z","geo":{"geometry":{"coordinates":[32.64081001281738,0.2997730406614576],"type":"Point"},"placekey":"@cx3-tpm-k75","address":{"country_code":"UG","formatted_address":"7JXR+QHV, Kampala, Uganda","locality":"Kampala","region":"Central Region"}},"labels":["soccer","sport"],"duration":0,"start_local":"2024-04-18T16:00:00","end":"2024-04-18T13:00:00Z","end_local":"2024-04-18T16:00:00","updated":"2024-06-12T06:01:33Z"},{"title":"Foundations for Learning (F4L) Conference","description":"Sourced from predicthq.com","category":"conferences","start":"2024-04-17T06:00:00Z","geo":{"geometry":{"coordinates":[32.587699,0.328063],"type":"Point"},"placekey":"@cx3-tps-ysq","address":{"country_code":"UG","formatted_address":"Upper Kololo Terrace, Kampala, Uganda","locality":"Kampala","region":"Central Region"}},"labels":["conference"],"duration":205200,"start_local":"2024-04-17T09:00:00","end":"2024-04-19T15:00:00Z","end_local":"2024-04-19T18:00:00","updated":"2024-07-02T17:14:00Z"},{"title":"Premier League - UPDF vs Gaddafi","description":"Sourced from predicthq.com","category":"sports","start":"2024-04-16T13:00:00Z","geo":{"geometry":{"coordinates":[32.54160046577,0.5811925397],"type":"Point"},"placekey":"@cx3-hsv-v9f","address":{"country_code":"UG","formatted_address":"HGJR+9JX, Bombo, Uganda","locality":"Bombo","region":"Central Region"}},"labels":["soccer","sport"],"duration":0,"start_local":"2024-04-16T16:00:00","end":"2024-04-16T13:00:00Z","end_local":"2024-04-16T16:00:00","updated":"2024-06-12T06:40:23Z"},{"title":"Premier League - URA vs NEC","description":"Sourced from predicthq.com","category":"sports","start":"2024-04-16T13:00:00Z","geo":{"geometry":{"coordinates":[32.47374496299369,0.4007711017811551],"type":"Point"},"placekey":"@cx3-hmb-vs5","address":{"country_code":"UG","formatted_address":"Wakiso, Uganda","locality":"Wakiso","region":"Central Region"}},"labels":["soccer","sport"],"duration":0,"start_local":"2024-04-16T16:00:00","end":"2024-04-16T13:00:00Z","end_local":"2024-04-16T16:00:00","updated":"2024-06-12T07:51:04Z"},{"title":"The Inaugural Professorial Lecture Meeting","description":"Sourced from predicthq.com","category":"conferences","start":"2024-04-16T06:00:00Z","geo":{"geometry":{"coordinates":[30.654498,-0.607151],"type":"Point"},"placekey":"@cx8-c72-hkf","address":{"country_code":"UG","formatted_address":"Mbarara, Western Region, Uganda","locality":"Mbarara","region":"Western Region"}},"labels":["conference"],"duration":32400,"start_local":"2024-04-16T09:00:00","end":"2024-04-16T15:00:00Z","end_local":"2024-04-16T18:00:00","updated":"2024-06-01T04:55:59Z"},{"title":"Toastmasters D114 Division F Conference","description":"Sourced from predicthq.com - The Division F Toastmasters Conference is a one-of-a-kind event that showcases captivating public speaking contests designed to inspire.","category":"conferences","start":"2024-04-13T05:30:00Z","geo":{"geometry":{"coordinates":[32.5940047,0.3198943],"type":"Point"},"placekey":"@cx3-tps-8d9","address":{"country_code":"UG","formatted_address":"Hotel Africana, Plot 2-4 Wampewo Ave, Kampala, Uganda","locality":"Kampala","region":"Central Region"}},"labels":["business","conference"],"duration":30600,"start_local":"2024-04-13T08:30:00","end":"2024-04-13T14:00:00Z","end_local":"2024-04-13T17:00:00","updated":"2024-06-05T14:27:34Z"},{"title":"Premier League - SC Villa vs Vipers","description":"Sourced from predicthq.com","category":"sports","start":"2024-04-09T13:00:00Z","geo":{"geometry":{"coordinates":[32.54838109,0.284109143],"type":"Point"},"placekey":"@cx2-hjz-p9z","address":{"country_code":"UG","formatted_address":"7GMX+M8G, Road, Kampala, Uganda","locality":"Kampala","region":"Central Region"}},"labels":["soccer","sport"],"duration":0,"start_local":"2024-04-09T16:00:00","end":"2024-04-09T13:00:00Z","end_local":"2024-04-09T16:00:00","updated":"2024-06-12T06:56:37Z"}]