[{"title":"Male","description":"Sourced from predicthq.com","category":"concerts","start":"2024-07-02T18:00:00Z","geo":{"geometry":{"coordinates":[12.4533892,41.902916],"type":"Point"},"placekey":"@4ys-f9b-52k","address":{"country_code":"VA","formatted_address":"Via dell'Aquilone, 00120 Città del Vaticano, Holy See (Vatican City State)","locality":"Città del Vaticano","postcode":"00120"}},"labels":["concert","music"],"duration":0,"start_local":"2024-07-02T20:00:00","end":"2024-07-02T18:00:00Z","end_local":"2024-07-02T20:00:00","updated":"2024-06-30T09:52:07Z"},{"title":"Boostaro Reviews: ConSumer RePorts, Side EffEcts, RefUnd PoLicy, & ExPert AdviCe|","description":"Sourced from predicthq.com - Get ready for Boostaro Reviews: a deep dive into consumer reports, side effects, refund policies, and expert advice - don't miss out!","category":"conferences","start":"2024-07-02T08:00:00Z","geo":{"geometry":{"coordinates":[12.453389,41.902916],"type":"Point"},"placekey":"@4ys-f9b-52k","address":{"country_code":"VA","formatted_address":"Via dell'Aquilone, 00120 Città del Vaticano, Holy See (Vatican City State)","locality":"Città del Vaticano","postcode":"00120"}},"labels":["conference","science","technology"],"duration":7200,"start_local":"2024-07-02T10:00:00","end":"2024-07-02T10:00:00Z","end_local":"2024-07-02T12:00:00","updated":"2024-05-30T04:09:58Z"},{"title":"TILVIDØR","description":"Sourced from predicthq.com","category":"concerts","start":"2024-06-06T18:00:00Z","geo":{"geometry":{"coordinates":[12.4533892,41.902916],"type":"Point"},"placekey":"@4ys-f9b-52k","address":{"country_code":"VA","formatted_address":"Via dell'Aquilone, 00120 Città del Vaticano, Holy See (Vatican City State)","locality":"Città del Vaticano","postcode":"00120"}},"labels":["concert","music"],"duration":0,"start_local":"2024-06-06T20:00:00","end":"2024-06-06T18:00:00Z","end_local":"2024-06-06T20:00:00","updated":"2024-06-12T07:10:31Z"},{"title":"World Children's Day","description":"Sourced from predicthq.com - Organized by the Vatican, and sponsored by the Dicastery for Culture and Education the Catholic Church's World Children's Day holds its inaugural event in 2024. Pope Francis invites thousands of boys and girls from all over the world flock to Vatican City for a great gathering of music, testimony, and more.","category":"festivals","start":"2024-05-24T22:00:00Z","geo":{"geometry":{"coordinates":[12.453389,41.902916],"type":"Point"},"placekey":"@4ys-f9b-52k","address":{"country_code":"VA","formatted_address":"Via dell'Aquilone, 00120 Città del Vaticano, Holy See (Vatican City State)","locality":"Città del Vaticano","postcode":"00120"}},"labels":["community","festival"],"duration":172799,"start_local":"2024-05-25T00:00:00","end":"2024-05-26T21:59:59Z","end_local":"2024-05-26T23:59:59","updated":"2024-06-04T22:33:09Z"}]