[{"title":"Glamishness St Vincent 2024","description":"Sourced from predicthq.com - A Different Glam Bar experience for VINCY MAS.","category":"festivals","start":"2024-07-08T10:00:00Z","geo":{"geometry":{"coordinates":[-61.2020079,13.1355822],"type":"Point"},"placekey":"@bsm-pq2-yn5","address":{"country_code":"VC","formatted_address":"Arnos Vale, St. George, Saint Vincent and the Grenadines","locality":"Arnos Vale","region":"St. George"}},"labels":["fashion","festival"],"duration":115200,"start_local":"2024-07-08T06:00:00","end":"2024-07-09T18:00:00Z","end_local":"2024-07-09T14:00:00","updated":"2024-06-04T08:04:56Z"},{"title":"PUMPCATION ST VINCENT 2024","description":"Sourced from predicthq.com - ST VINCENT CARNIVAL 2024.","category":"festivals","start":"2024-07-05T19:00:00Z","geo":{"geometry":{"coordinates":[-61.2020079,13.1355822],"type":"Point"},"placekey":"@bsm-pq2-yn5","address":{"country_code":"VC","formatted_address":"Arnos Vale, St. George, Saint Vincent and the Grenadines","locality":"Arnos Vale","region":"St. George"}},"labels":["festival","outdoor"],"duration":417600,"start_local":"2024-07-05T15:00:00","end":"2024-07-10T15:00:00Z","end_local":"2024-07-10T11:00:00","updated":"2024-06-04T05:27:05Z"},{"title":"Afghanistan vs Bangladesh","description":"Sourced from predicthq.com","category":"sports","start":"2024-06-25T00:30:00Z","geo":{"geometry":{"coordinates":[-61.212385,13.1413953],"type":"Point"},"placekey":"@bsm-ppv-5zz","address":{"country_code":"VC","formatted_address":"Kingstown, Saint Vincent and the Grenadines","locality":"Kingstown"}},"labels":["cricket","sport"],"duration":16627,"start_local":"2024-06-24T20:30:00","end":"2024-06-25T05:07:07Z","end_local":"2024-06-25T01:07:07","updated":"2024-06-26T01:13:49Z"},{"title":"Afghanistan vs Australia","description":"Sourced from predicthq.com","category":"sports","start":"2024-06-23T00:30:00Z","geo":{"geometry":{"coordinates":[-61.212385,13.1413953],"type":"Point"},"placekey":"@bsm-ppv-5zz","address":{"country_code":"VC","formatted_address":"Kingstown, Saint Vincent and the Grenadines","locality":"Kingstown"}},"labels":["cricket","sport"],"duration":12545,"start_local":"2024-06-22T20:30:00","end":"2024-06-23T03:59:05Z","end_local":"2024-06-22T23:59:05","updated":"2024-06-24T15:20:23Z"},{"title":"Bangladesh vs Nepal","description":"Sourced from predicthq.com","category":"sports","start":"2024-06-16T23:30:00Z","geo":{"geometry":{"coordinates":[-61.212385,13.1413953],"type":"Point"},"placekey":"@bsm-ppv-5zz","address":{"country_code":"VC","formatted_address":"Kingstown, Saint Vincent and the Grenadines","locality":"Kingstown"}},"labels":["cricket","sport"],"duration":12334,"start_local":"2024-06-16T19:30:00","end":"2024-06-17T02:55:34Z","end_local":"2024-06-16T22:55:34","updated":"2024-06-17T23:41:38Z"},{"title":"Phoenix T-Shirt Band 2024","description":"Sourced from predicthq.com - Get ready for the ultimate t-shirt band experience in Phoenix 2024 - it's gonna be lit!","category":"performing-arts","start":"2024-06-15T20:00:00Z","geo":{"geometry":{"coordinates":[-61.2467004,13.288235],"type":"Point"},"placekey":"@bsm-p75-qzz","address":{"country_code":"VC","formatted_address":"Chateaubelair, Saint David, Saint Vincent and the Grenadines","locality":"Chateaubelair","region":"Saint David"}},"labels":["concert","music","performing-arts"],"duration":21600,"start_local":"2024-06-15T16:00:00","end":"2024-06-16T02:00:00Z","end_local":"2024-06-15T22:00:00","updated":"2024-06-13T02:54:06Z"},{"title":"South Africa vs Nepal","description":"Sourced from predicthq.com","category":"sports","start":"2024-06-14T23:30:00Z","geo":{"geometry":{"coordinates":[-61.212385,13.1413953],"type":"Point"},"placekey":"@bsm-ppv-5zz","address":{"country_code":"VC","formatted_address":"Kingstown, Saint Vincent and the Grenadines","locality":"Kingstown"}},"labels":["cricket","sport"],"duration":12058,"start_local":"2024-06-14T19:30:00","end":"2024-06-15T02:50:58Z","end_local":"2024-06-14T22:50:58","updated":"2024-06-15T23:33:23Z"},{"title":"Bangladesh vs Netherlands","description":"Sourced from predicthq.com","category":"sports","start":"2024-06-13T14:30:00Z","geo":{"geometry":{"coordinates":[-61.212385,13.1413953],"type":"Point"},"placekey":"@bsm-ppv-5zz","address":{"country_code":"VC","formatted_address":"Kingstown, Saint Vincent and the Grenadines","locality":"Kingstown"}},"labels":["cricket","sport"],"duration":13085,"start_local":"2024-06-13T10:30:00","end":"2024-06-13T18:08:05Z","end_local":"2024-06-13T14:08:05","updated":"2024-06-14T17:38:49Z"},{"title":"Saint Vincent & The Grenadines PROPHETIC Invasion","description":"Sourced from predicthq.com - John Enumah Ministries presents to you INTEGRITY, PURPOSE & POWER @St Vincent & the Grenadines; Apostolic Invasion with Apostle John Enumah!","category":"conferences","start":"2024-05-24T22:00:00Z","geo":{"geometry":{"coordinates":[-61.221751,13.1534027],"type":"Point"},"placekey":"@bsm-ppw-xwk","address":{"country_code":"VC","formatted_address":"Richmond Hill Road, Kingstown, Saint Vincent and the Grenadines","locality":"Kingstown","region":"St. George"}},"labels":["conference","religion"],"duration":14400,"start_local":"2024-05-24T18:00:00","end":"2024-05-25T02:00:00Z","end_local":"2024-05-24T22:00:00","updated":"2024-06-05T17:43:58Z"},{"title":"Windward Islands Volcanoes vs Nepal","description":"Sourced from predicthq.com","category":"sports","start":"2024-05-18T14:30:00Z","geo":{"geometry":{"coordinates":[-61.212385,13.1413953],"type":"Point"},"placekey":"@bsm-ppv-5zz","address":{"country_code":"VC","formatted_address":"Kingstown, Saint Vincent and the Grenadines","locality":"Kingstown"}},"labels":["cricket","sport"],"duration":0,"start_local":"2024-05-18T10:30:00","end":"2024-05-18T14:30:00Z","end_local":"2024-05-18T10:30:00","updated":"2024-06-05T00:43:29Z"},{"title":"Windward Islands Volcanoes vs Nepal","description":"Sourced from predicthq.com","category":"sports","start":"2024-05-16T14:30:00Z","geo":{"geometry":{"coordinates":[-61.212385,13.1413953],"type":"Point"},"placekey":"@bsm-ppv-5zz","address":{"country_code":"VC","formatted_address":"Kingstown, Saint Vincent and the Grenadines","locality":"Kingstown"}},"labels":["cricket","sport"],"duration":0,"start_local":"2024-05-16T10:30:00","end":"2024-05-16T14:30:00Z","end_local":"2024-05-16T10:30:00","updated":"2024-06-05T11:45:32Z"},{"title":"Windward Islands Volcanoes vs Nepal","description":"Sourced from predicthq.com","category":"sports","start":"2024-05-14T14:30:00Z","geo":{"geometry":{"coordinates":[-61.212385,13.1413953],"type":"Point"},"placekey":"@bsm-ppv-5zz","address":{"country_code":"VC","formatted_address":"Kingstown, Saint Vincent and the Grenadines","locality":"Kingstown"}},"labels":["cricket","sport"],"duration":0,"start_local":"2024-05-14T10:30:00","end":"2024-05-14T14:30:00Z","end_local":"2024-05-14T10:30:00","updated":"2024-06-05T11:49:55Z"},{"title":"Friendlies - Friendlies 3 - St. Vincent / Grenadines vs Dominica","description":"Sourced from predicthq.com","category":"sports","start":"2024-05-05T20:00:00Z","geo":{"geometry":{"coordinates":[-61.229419112205505,13.158460921933836],"type":"Point"},"placekey":"@bsm-ppw-rzf","address":{"country_code":"VC","formatted_address":"Victoria Park, Kingstown, St Vincent and the Grenadines","locality":"Kingstown","region":"St. George"}},"labels":["soccer","sport"],"duration":0,"start_local":"2024-05-05T16:00:00","end":"2024-05-05T20:00:00Z","end_local":"2024-05-05T16:00:00","updated":"2024-06-12T18:08:47Z"},{"title":"Friendlies - Friendlies 3 - St. Vincent / Grenadines vs Dominica","description":"Sourced from predicthq.com","category":"sports","start":"2024-05-02T23:00:00Z","geo":{"geometry":{"coordinates":[-61.229419112205505,13.158460921933836],"type":"Point"},"placekey":"@bsm-ppw-rzf","address":{"country_code":"VC","formatted_address":"Victoria Park, Kingstown, St Vincent and the Grenadines","locality":"Kingstown","region":"St. George"}},"labels":["soccer","sport"],"duration":0,"start_local":"2024-05-02T19:00:00","end":"2024-05-02T23:00:00Z","end_local":"2024-05-02T19:00:00","updated":"2024-06-12T07:42:03Z"},{"title":"PhilMOMthropy Conference","description":"Sourced from predicthq.com - PhilMOMthropy conference will amplify opportunities for women of color-led organizations to elevate ways to build sustainable organizations.","category":"conferences","start":"2024-04-27T20:00:00Z","geo":{"geometry":{"coordinates":[-61.2656685,13.1931588],"type":"Point"},"placekey":"@bsm-pqb-rp9","address":{"country_code":"VC","formatted_address":"Buccament, St. Andrew, Saint Vincent and the Grenadines","locality":"Buccament","region":"St. Andrew"}},"labels":["conference","fundraiser"],"duration":234000,"start_local":"2024-04-27T16:00:00","end":"2024-04-30T13:00:00Z","end_local":"2024-04-30T09:00:00","updated":"2024-06-05T04:52:33Z"}]