[{"title":"Sour Splash 2024","description":"Sourced from predicthq.com - Get ready for Sour Splash 2024! BVI Ultimate Day Fete!","category":"festivals","start":"2024-08-04T18:00:00Z","geo":{"geometry":{"coordinates":[-64.6184657,18.4286115],"type":"Point"},"placekey":"@96y-cr2-jgk","address":{"country_code":"VG","formatted_address":"Main Street, Road Town, Virgin Islands, British","locality":"Road Town","region":"Tortola"}},"labels":["festival","music"],"duration":25200,"start_local":"2024-08-04T14:00:00","end":"2024-08-05T01:00:00Z","end_local":"2024-08-04T21:00:00","updated":"2024-06-27T01:45:12Z"},{"title":"Virgin Islands Music Festival","description":"Sourced from predicthq.com - Come join us for a weekend filled with incredible music and good vibes in Road Town, Tortola!","category":"festivals","start":"2024-05-24T23:00:00Z","geo":{"geometry":{"coordinates":[-64.6184657,18.4286115],"type":"Point"},"placekey":"@96y-cr2-jgk","address":{"country_code":"VG","formatted_address":"Main Street, Road Town, Virgin Islands, British","locality":"Road Town","region":"Tortola"}},"labels":["concert","music"],"duration":111600,"start_local":"2024-05-24T19:00:00","end":"2024-05-26T06:00:00Z","end_local":"2024-05-26T02:00:00","updated":"2024-06-12T04:38:12Z"},{"title":"Tortola Torture","description":"Sourced from predicthq.com","category":"sports","start":"2024-04-20T09:00:00Z","geo":{"geometry":{"coordinates":[-64.6332782,18.4334704],"type":"Point"},"placekey":"@96y-cqy-wzf","address":{"country_code":"VG","formatted_address":"Leonards, Tortola, Virgin Islands, British","locality":"Leonards","region":"Tortola"}},"labels":["outdoor-sports","running","sport"],"duration":0,"start_local":"2024-04-20T05:00:00","end":"2024-04-20T09:00:00Z","end_local":"2024-04-20T05:00:00","updated":"2024-06-05T02:06:49Z"}]