[{"title":"Eric Ragno - Keyboards / Rock Keyboard Player and Legends of Classic Rock","description":"Sourced from predicthq.com","category":"concerts","start":"2024-09-26T00:00:00Z","geo":{"geometry":{"coordinates":[-64.9307022,18.3418999],"type":"Point"},"placekey":"@96y-6xp-mrk","address":{"country_code":"VI","formatted_address":"Norre Gade, Charlotte Amalie, VI 00801, United States of America","locality":"Charlotte Amalie","postcode":"00801","region":"St. Thomas"}},"labels":["concert","music"],"duration":0,"start_local":"2024-09-25T20:00:00","end":"2024-09-26T00:00:00Z","end_local":"2024-09-25T20:00:00","updated":"2024-06-11T01:40:37Z"},{"title":"Jazz in the Park","description":"Sourced from predicthq.com - Get ready to chill out in the park with some smooth jazz tunes, good vibes, and great company at Jazz in the Park!","category":"performing-arts","start":"2024-09-21T22:00:00Z","geo":{"geometry":{"coordinates":[-64.9281017,18.3419048],"type":"Point"},"placekey":"@96y-7hx-jgk","address":{"country_code":"VI","formatted_address":"Norre Gade, Charlotte Amalie, VI 00802, United States of America","locality":"Charlotte Amalie","postcode":"00802","region":"St. Thomas"}},"labels":["concert","music","performing-arts"],"duration":14400,"start_local":"2024-09-21T18:00:00","end":"2024-09-22T02:00:00Z","end_local":"2024-09-21T22:00:00","updated":"2024-05-30T04:11:43Z"},{"title":"Living Hope Victory Run/Walk","description":"Sourced from predicthq.com","category":"sports","start":"2024-08-31T09:30:00Z","geo":{"geometry":{"coordinates":[-64.9204285,18.3324511],"type":"Point"},"placekey":"@96y-73p-xqz","address":{"country_code":"VI","formatted_address":"Charlotte Amalie East, VI 00802, United States of America","locality":"Charlotte Amalie East","postcode":"00802","region":"St. Thomas"}},"labels":["marathon","outdoor-sports","running","sport"],"duration":0,"start_local":"2024-08-31T05:30:00","end":"2024-08-31T09:30:00Z","end_local":"2024-08-31T05:30:00","updated":"2024-06-24T03:05:10Z"},{"title":"Eric Ragno - Keyboards / Rock Keyboard Player and Legends of Classic Rock","description":"Sourced from predicthq.com","category":"concerts","start":"2024-08-29T00:00:00Z","geo":{"geometry":{"coordinates":[-64.9307022,18.3418999],"type":"Point"},"placekey":"@96y-6xp-mrk","address":{"country_code":"VI","formatted_address":"Norre Gade, Charlotte Amalie, VI 00801, United States of America","locality":"Charlotte Amalie","postcode":"00801","region":"St. Thomas"}},"labels":["concert","music"],"duration":0,"start_local":"2024-08-28T20:00:00","end":"2024-08-29T00:00:00Z","end_local":"2024-08-28T20:00:00","updated":"2024-06-10T23:54:59Z"},{"title":"Freedom | The Worship Experience","description":"Sourced from predicthq.com - Join us for an unforgettable night of worship and praise, celebrating the freedom we have in Christ!","category":"concerts","start":"2024-08-24T22:00:00Z","geo":{"geometry":{"coordinates":[-64.9100895,18.3234512],"type":"Point"},"placekey":"@96y-73r-gc5","address":{"country_code":"VI","formatted_address":"Frenchman Bay Road, VI 00802, United States of America","postcode":"00802","region":"St. Thomas"}},"labels":["concert","music","religion"],"duration":14400,"start_local":"2024-08-24T18:00:00","end":"2024-08-25T02:00:00Z","end_local":"2024-08-24T22:00:00","updated":"2024-06-11T05:01:13Z"},{"title":"2024 SHRM Virgin Islands HR & Business Conference","description":"Sourced from predicthq.com - Join us at the 2024 SHRM VI HR & Business Conference for 2.5 days of top-tier insights, networking, and transformative discussions!","category":"conferences","start":"2024-08-20T12:30:00Z","geo":{"geometry":{"coordinates":[-64.9728447,18.3399234],"type":"Point"},"placekey":"@96y-6xx-xh5","address":{"country_code":"VI","formatted_address":"Charlotte Amalie West, VI 00802, United States of America","locality":"Charlotte Amalie West","postcode":"00802","region":"St. Thomas"}},"labels":["business","conference"],"duration":190800,"start_local":"2024-08-20T08:30:00","end":"2024-08-22T17:30:00Z","end_local":"2024-08-22T13:30:00","updated":"2024-06-06T04:11:11Z"},{"title":"Eric Ragno - Keyboards / Rock Keyboard Player and Legends of Classic Rock","description":"Sourced from predicthq.com","category":"concerts","start":"2024-08-01T00:00:00Z","geo":{"geometry":{"coordinates":[-64.9307022,18.3418999],"type":"Point"},"placekey":"@96y-6xp-mrk","address":{"country_code":"VI","formatted_address":"Norre Gade, Charlotte Amalie, VI 00801, United States of America","locality":"Charlotte Amalie","postcode":"00801","region":"St. Thomas"}},"labels":["concert","music"],"duration":0,"start_local":"2024-07-31T20:00:00","end":"2024-08-01T00:00:00Z","end_local":"2024-07-31T20:00:00","updated":"2024-06-11T03:36:09Z"},{"title":"Powder Fete","description":"Sourced from predicthq.com - Get ready to get messy at Powder Fete - a colorful and fun event you won't want to miss!","category":"festivals","start":"2024-07-27T23:00:00Z","geo":{"geometry":{"coordinates":[-64.8940946,18.3380965],"type":"Point"},"placekey":"@96y-7hz-mc5","address":{"country_code":"VI","formatted_address":"Anna's Retreat, VI 00802, United States of America","locality":"Anna's Retreat","postcode":"00802","region":"St. Thomas"}},"labels":["festival"],"duration":25200,"start_local":"2024-07-27T19:00:00","end":"2024-07-28T06:00:00Z","end_local":"2024-07-28T02:00:00","updated":"2024-05-23T03:34:34Z"},{"title":"VIRGIN ISLANDS AJE & OLOKUN FESTIVAL","description":"Sourced from predicthq.com - Join the Idinleke Atlanta Family as they pay homage to the great mysteries of the sea at the Aje & Olokun Festival in St. Croix, USVI.","category":"festivals","start":"2024-07-27T17:00:00Z","geo":{"geometry":{"coordinates":[-64.8823968,17.7146079],"type":"Point"},"placekey":"@96z-666-tvz","address":{"country_code":"VI","formatted_address":"Custom House Street East, Frederiksted, VI 00840, United States of America","locality":"Frederiksted","postcode":"00840","region":"St. Croix"}},"labels":["festival","religion"],"duration":18000,"start_local":"2024-07-27T13:00:00","end":"2024-07-27T22:00:00Z","end_local":"2024-07-27T18:00:00","updated":"2024-06-27T01:43:37Z"},{"title":"Regina Belle","description":"Sourced from predicthq.com - \"A Night Under The Stars” with Grammy Award Winner Regina Belle.  An Incredible Evening of Entertainment tailored for the Mature Adult!","category":"concerts","start":"2024-07-20T01:00:00Z","geo":{"geometry":{"coordinates":[-64.9332659,18.3406873],"type":"Point"},"placekey":"@96y-6xp-kvf","address":{"country_code":"VI","formatted_address":"Charlotte Amalie, VI 00801, United States of America","locality":"Charlotte Amalie","postcode":"00801","region":"St. Thomas"}},"labels":["concert","music"],"duration":10740,"start_local":"2024-07-19T21:00:00","end":"2024-07-20T03:59:00Z","end_local":"2024-07-19T23:59:00","updated":"2024-06-27T14:57:36Z"},{"title":"Women of Resilience Conference | July 19 | Antilles School | St. Thomas, VI","description":"Sourced from predicthq.com - The Women of Resilience Conference is  Friday, July 19, 2024 | Antilles School | Hosted by Notable Events by Janette","category":"conferences","start":"2024-07-19T13:00:00Z","geo":{"geometry":{"coordinates":[-64.9100895,18.3234512],"type":"Point"},"placekey":"@96y-73r-gc5","address":{"country_code":"VI","formatted_address":"Frenchman Bay Road, VI 00802, United States of America","postcode":"00802","region":"St. Thomas"}},"labels":["business","conference"],"duration":25200,"start_local":"2024-07-19T09:00:00","end":"2024-07-19T20:00:00Z","end_local":"2024-07-19T16:00:00","updated":"2024-06-11T10:44:59Z"},{"title":"GVI Cybersecurity Summit 2024","description":"Sourced from predicthq.com - Join us at the GVI Cybersecurity Summit 2024 to learn about the latest trends and innovations in the world of cybersecurity!","category":"conferences","start":"2024-07-15T13:00:00Z","geo":{"geometry":{"coordinates":[-64.9292601,18.3424542],"type":"Point"},"placekey":"@96y-7hx-jd9","address":{"country_code":"VI","formatted_address":"Kongens Gade, Charlotte Amalie, VI 00802, United States of America","locality":"Charlotte Amalie","postcode":"00802","region":"St. Thomas"}},"labels":["conference","science","technology"],"duration":21600,"start_local":"2024-07-15T09:00:00","end":"2024-07-15T19:00:00Z","end_local":"2024-07-15T15:00:00","updated":"2024-06-27T03:13:19Z"},{"title":"The Art of Healing for Cancer Survivors Exhibit & Silent Art Auction","description":"Sourced from predicthq.com - Join us for a powerful event showcasing the healing power of art for cancer survivors, featuring a silent art auction and inspiring exhibits","category":"expos","start":"2024-07-12T20:00:00Z","geo":{"geometry":{"coordinates":[-64.7052721,17.7439245],"type":"Point"},"placekey":"@96y-jw6-rtv","address":{"country_code":"VI","formatted_address":"Company Street, Christiansted, VI 00820, United States of America","locality":"Christiansted","postcode":"00820","region":"St. Croix"}},"labels":["expo","fundraiser"],"duration":10800,"start_local":"2024-07-12T16:00:00","end":"2024-07-12T23:00:00Z","end_local":"2024-07-12T19:00:00","updated":"2024-07-04T13:33:17Z"},{"title":"Comprehensive Cancer Control Summit","description":"Sourced from predicthq.com - Get ready for a jam-packed day of discussions, workshops, and networking opportunities to tackle all things related to comprehensive cancer","category":"conferences","start":"2024-07-10T12:00:00Z","geo":{"geometry":{"coordinates":[-64.9220612,18.3205224],"type":"Point"},"placekey":"@96y-73p-c3q","address":{"country_code":"VI","formatted_address":"Estate Bakkeroe, VI 00802, United States of America","postcode":"00802","region":"St. Thomas"}},"labels":["conference","health"],"duration":30600,"start_local":"2024-07-10T08:00:00","end":"2024-07-10T20:30:00Z","end_local":"2024-07-10T16:30:00","updated":"2024-07-03T19:17:49Z"},{"title":"How The Top 1% Of Leaders Manage Their Time Like Clockwork Using T5 System","description":"Sourced from predicthq.com - You will learn essential skills that will increase your productivity so you have more margin in your life and business.","category":"conferences","start":"2024-07-08T00:00:00Z","geo":{"geometry":{"coordinates":[-64.9307007,18.3419004],"type":"Point"},"placekey":"@96y-6xp-mrk","address":{"country_code":"VI","formatted_address":"Norre Gade, Charlotte Amalie, VI 00801, United States of America","locality":"Charlotte Amalie","postcode":"00801","region":"St. Thomas"}},"labels":["business","conference"],"duration":3600,"start_local":"2024-07-07T20:00:00","end":"2024-07-08T01:00:00Z","end_local":"2024-07-07T21:00:00","updated":"2024-06-20T12:29:48Z"},{"title":"Sunset Sounds","description":"Sourced from predicthq.com - Come join us at LOOPS Beach for an epic evening of Sunset Sounds, where you'll vibe to amazing music as the sun dips below the horizon","category":"concerts","start":"2024-07-07T21:00:00Z","geo":{"geometry":{"coordinates":[-64.87867179999999,17.7189709],"type":"Point"},"placekey":"@96z-66d-b6k","address":{"country_code":"VI","formatted_address":"La Grange Road, Frederiksted, VI 00840, United States of America","locality":"Frederiksted","postcode":"00840","region":"St. Croix"}},"labels":["concert","music"],"duration":9000,"start_local":"2024-07-07T17:00:00","end":"2024-07-07T23:30:00Z","end_local":"2024-07-07T19:30:00","updated":"2024-07-05T00:26:32Z"},{"title":"Mango Melee Tropical Fruit and Mango Festival 2024","description":"Sourced from predicthq.com - Come join us at the Mango Melee Tropical Fruit and Mango Festival 2024 for a fun-filled day celebrating all things mango and tropical fruit!","category":"festivals","start":"2024-07-07T15:00:00Z","geo":{"geometry":{"coordinates":[-64.83014370000001,17.7154112],"type":"Point"},"placekey":"@96z-6cq-k4v","address":{"country_code":"VI","formatted_address":"George Road, Frederiksted, VI 00840, United States of America","locality":"Frederiksted","postcode":"00840","region":"St. Croix"}},"labels":["festival","food"],"duration":28800,"start_local":"2024-07-07T11:00:00","end":"2024-07-07T23:00:00Z","end_local":"2024-07-07T19:00:00","updated":"2024-06-06T04:11:29Z"},{"title":"2024 USVI Stars & Stripes Poker Run","description":"Sourced from predicthq.com - The 2024 USVI Stars and Stripes Poker Run promises to be a fun-filled and unforgettable experience for all who attend.","category":"community","start":"2024-07-07T12:00:00Z","geo":{"geometry":{"coordinates":[-64.9201485,18.3364134],"type":"Point"},"placekey":"@96y-7hx-r6k","address":{"country_code":"VI","formatted_address":"Charlotte Amalie, VI 00802, United States of America","locality":"Charlotte Amalie","postcode":"00802","region":"St. Thomas"}},"labels":["community","outdoor","sport"],"duration":36000,"start_local":"2024-07-07T08:00:00","end":"2024-07-07T22:00:00Z","end_local":"2024-07-07T18:00:00","updated":"2024-06-04T08:59:52Z"},{"title":"R & B THURSDAYS","description":"Sourced from predicthq.com - Come on out and listen to sweet R & B music from the past to the present. Each and every Thursday night at Nirvana in downtown Christiansted","category":"concerts","start":"2024-07-05T01:00:00Z","geo":{"geometry":{"coordinates":[-64.7047284,17.7468464],"type":"Point"},"placekey":"@96y-jw6-pqf","address":{"country_code":"VI","formatted_address":"Strand Street, Christiansted, VI 00820, United States of America","locality":"Christiansted","postcode":"00820","region":"St. Croix"}},"labels":["concert","music"],"duration":18000,"start_local":"2024-07-04T21:00:00","end":"2024-07-05T06:00:00Z","end_local":"2024-07-05T02:00:00","updated":"2024-07-04T13:49:58Z"},{"title":"Eric Ragno - Keyboards / Rock Keyboard Player and Legends of Classic Rock","description":"Sourced from predicthq.com","category":"concerts","start":"2024-07-04T00:00:00Z","geo":{"geometry":{"coordinates":[-64.9307022,18.3418999],"type":"Point"},"placekey":"@96y-6xp-mrk","address":{"country_code":"VI","formatted_address":"Norre Gade, Charlotte Amalie, VI 00801, United States of America","locality":"Charlotte Amalie","postcode":"00801","region":"St. Thomas"}},"labels":["concert","music"],"duration":0,"start_local":"2024-07-03T20:00:00","end":"2024-07-04T00:00:00Z","end_local":"2024-07-03T20:00:00","updated":"2024-06-11T00:04:28Z"},{"title":"Emancipation Drum and Dance Circle","description":"Sourced from predicthq.com - Join theDembaya Arts Conservatory at our  Emancipation Bantaba, as we celebrate freedom through rhythm and movement!","category":"performing-arts","start":"2024-07-02T22:00:00Z","geo":{"geometry":{"coordinates":[-64.70178539999999,17.7469456],"type":"Point"},"placekey":"@96y-jw6-qpv","address":{"country_code":"VI","formatted_address":"Hospital Street, Christiansted, VI 00820, United States of America","locality":"Christiansted","postcode":"00820","region":"St. Croix"}},"labels":["concert","music","performing-arts"],"duration":7200,"start_local":"2024-07-02T18:00:00","end":"2024-07-03T00:00:00Z","end_local":"2024-07-02T20:00:00","updated":"2024-06-27T05:17:52Z"},{"title":"Sunset Sounds","description":"Sourced from predicthq.com - Come join us at LOOPS Beach for an epic evening of Sunset Sounds, where you'll vibe to amazing music as the sun dips below the horizon","category":"concerts","start":"2024-06-30T21:00:00Z","geo":{"geometry":{"coordinates":[-64.87867179999999,17.7189709],"type":"Point"},"placekey":"@96z-66d-b6k","address":{"country_code":"VI","formatted_address":"La Grange Road, Frederiksted, VI 00840, United States of America","locality":"Frederiksted","postcode":"00840","region":"St. Croix"}},"labels":["concert","music"],"duration":9000,"start_local":"2024-06-30T17:00:00","end":"2024-06-30T23:30:00Z","end_local":"2024-06-30T19:30:00","updated":"2024-06-27T19:38:46Z"},{"title":"INDEPENDENCE DAY RACES","description":"Sourced from predicthq.com - JUNE 30TH 2024, at 1:00 PM at the Clinton E. Phipps Racetrack.","category":"community","start":"2024-06-30T17:00:00Z","geo":{"geometry":{"coordinates":[-64.8784227,18.3178394],"type":"Point"},"placekey":"@96y-72q-y9z","address":{"country_code":"VI","formatted_address":"Estate Bovoni, VI 00802, United States of America","locality":"Estate Bovoni","postcode":"00802","region":"St. Thomas"}},"labels":["community","sport"],"duration":18000,"start_local":"2024-06-30T13:00:00","end":"2024-06-30T22:00:00Z","end_local":"2024-06-30T18:00:00","updated":"2024-06-20T15:06:50Z"},{"title":"SUMMER DRILL 2024","description":"Sourced from predicthq.com - Get ready to turn up the heat at Summer Drill 2024!","category":"concerts","start":"2024-06-30T01:00:00Z","geo":{"geometry":{"coordinates":[-64.7059208,17.7445481],"type":"Point"},"placekey":"@96y-jw6-r49","address":{"country_code":"VI","formatted_address":"Christiansted, VI 00820, United States of America","locality":"Christiansted","postcode":"00820","region":"St. Croix"}},"labels":["concert","music"],"duration":0,"start_local":"2024-06-29T21:00:00","end":"2024-06-30T01:00:00Z","end_local":"2024-06-29T21:00:00","updated":"2024-06-27T02:15:27Z"},{"title":"R & B THURSDAYS","description":"Sourced from predicthq.com - Come on out and listen to sweet R & B music from the past to the present. Each and every Thursday night at Nirvana in downtown Christiansted","category":"concerts","start":"2024-06-28T01:00:00Z","geo":{"geometry":{"coordinates":[-64.7047284,17.7468464],"type":"Point"},"placekey":"@96y-jw6-pqf","address":{"country_code":"VI","formatted_address":"Strand Street, Christiansted, VI 00820, United States of America","locality":"Christiansted","postcode":"00820","region":"St. Croix"}},"labels":["concert","music"],"duration":18000,"start_local":"2024-06-27T21:00:00","end":"2024-06-28T06:00:00Z","end_local":"2024-06-28T02:00:00","updated":"2024-06-28T02:27:43Z"},{"title":"Dinner w/a Doctor Featuring: Dr. Frank Odlum - Men's Health Awareness Talk","description":"Sourced from predicthq.com - Join us for a casual chat with Dr. Frank Odlum about men's health awareness - it'll be informative !","category":"conferences","start":"2024-06-27T22:00:00Z","geo":{"geometry":{"coordinates":[-64.9146653,18.3403102],"type":"Point"},"placekey":"@96y-7hx-cdv","address":{"country_code":"VI","formatted_address":"Alton Adams Sr Drive, VI 00802, United States of America","postcode":"00802","region":"St. Thomas"}},"labels":["conference","health"],"duration":5400,"start_local":"2024-06-27T18:00:00","end":"2024-06-27T23:30:00Z","end_local":"2024-06-27T19:30:00","updated":"2024-06-21T15:40:50Z"},{"title":"VI Aviation Forum","description":"Sourced from predicthq.com - The VI Aviator Group will be introducing a local aviation forum for aviation professionals and enthusiasts to connect and network.","category":"conferences","start":"2024-06-23T21:30:00Z","geo":{"geometry":{"coordinates":[-64.97120509999999,18.3401501],"type":"Point"},"placekey":"@96y-6xx-xdv","address":{"country_code":"VI","formatted_address":"Upper Campus Road, Charlotte Amalie West, VI 00802, United States of America","locality":"Charlotte Amalie West","postcode":"00802","region":"St. Thomas"}},"labels":["conference","outdoor"],"duration":9000,"start_local":"2024-06-23T17:30:00","end":"2024-06-24T00:00:00Z","end_local":"2024-06-23T20:00:00","updated":"2024-06-16T23:08:12Z"},{"title":"Sunset Sounds","description":"Sourced from predicthq.com - Come join us at LOOPS Beach for an epic evening of Sunset Sounds, where you'll vibe to amazing music as the sun dips below the horizon","category":"concerts","start":"2024-06-23T21:00:00Z","geo":{"geometry":{"coordinates":[-64.87867179999999,17.7189709],"type":"Point"},"placekey":"@96z-66d-b6k","address":{"country_code":"VI","formatted_address":"La Grange Road, Frederiksted, VI 00840, United States of America","locality":"Frederiksted","postcode":"00840","region":"St. Croix"}},"labels":["concert","music"],"duration":9000,"start_local":"2024-06-23T17:00:00","end":"2024-06-23T23:30:00Z","end_local":"2024-06-23T19:30:00","updated":"2024-06-20T15:06:27Z"},{"title":"R & B THURSDAYS","description":"Sourced from predicthq.com - Come on out and listen to sweet R & B music from the past to the present. Each and every Thursday night at Nirvana in downtown Christiansted","category":"concerts","start":"2024-06-21T01:00:00Z","geo":{"geometry":{"coordinates":[-64.7047284,17.7468464],"type":"Point"},"placekey":"@96y-jw6-pqf","address":{"country_code":"VI","formatted_address":"Strand Street, Christiansted, VI 00820, United States of America","locality":"Christiansted","postcode":"00820","region":"St. Croix"}},"labels":["concert","music"],"duration":18000,"start_local":"2024-06-20T21:00:00","end":"2024-06-21T06:00:00Z","end_local":"2024-06-21T02:00:00","updated":"2024-06-20T03:39:34Z"},{"title":"Eric Ragno - Keyboards / Rock Keyboard Player and Legends of Classic Rock","description":"Sourced from predicthq.com","category":"concerts","start":"2024-06-20T00:00:00Z","geo":{"geometry":{"coordinates":[-64.9307022,18.3418999],"type":"Point"},"placekey":"@96y-6xp-mrk","address":{"country_code":"VI","formatted_address":"Norre Gade, Charlotte Amalie, VI 00801, United States of America","locality":"Charlotte Amalie","postcode":"00801","region":"St. Thomas"}},"labels":["concert","music"],"duration":0,"start_local":"2024-06-19T20:00:00","end":"2024-06-20T00:00:00Z","end_local":"2024-06-19T20:00:00","updated":"2024-06-11T00:53:58Z"},{"title":"How The Top 1% Of Leaders Manage Their Time Like Clockwork Using T5 System","description":"Sourced from predicthq.com - You will learn essential skills that will increase your productivity so you have more margin in your life and business.","category":"conferences","start":"2024-06-19T23:00:00Z","geo":{"geometry":{"coordinates":[-64.9307007,18.3419004],"type":"Point"},"placekey":"@96y-6xp-mrk","address":{"country_code":"VI","formatted_address":"Norre Gade, Charlotte Amalie, VI 00801, United States of America","locality":"Charlotte Amalie","postcode":"00801","region":"St. Thomas"}},"labels":["business","conference"],"duration":3600,"start_local":"2024-06-19T19:00:00","end":"2024-06-20T00:00:00Z","end_local":"2024-06-19T20:00:00","updated":"2024-06-13T00:43:13Z"},{"title":"Sunset Sounds","description":"Sourced from predicthq.com - Come join us at LOOPS Beach for an epic evening of Sunset Sounds, where you'll vibe to amazing music as the sun dips below the horizon","category":"concerts","start":"2024-06-16T21:00:00Z","geo":{"geometry":{"coordinates":[-64.87867179999999,17.7189709],"type":"Point"},"placekey":"@96z-66d-b6k","address":{"country_code":"VI","formatted_address":"La Grange Road, Frederiksted, VI 00840, United States of America","locality":"Frederiksted","postcode":"00840","region":"St. Croix"}},"labels":["concert","music"],"duration":9000,"start_local":"2024-06-16T17:00:00","end":"2024-06-16T23:30:00Z","end_local":"2024-06-16T19:30:00","updated":"2024-06-13T00:47:08Z"},{"title":"R & B THURSDAYS","description":"Sourced from predicthq.com - Come on out and listen to sweet R & B music from the past to the present. Each and every Thursday night at Nirvana in downtown Christiansted","category":"concerts","start":"2024-06-14T01:00:00Z","geo":{"geometry":{"coordinates":[-64.7047284,17.7468464],"type":"Point"},"placekey":"@96y-jw6-pqf","address":{"country_code":"VI","formatted_address":"Strand Street, Christiansted, VI 00820, United States of America","locality":"Christiansted","postcode":"00820","region":"St. Croix"}},"labels":["concert","music"],"duration":18000,"start_local":"2024-06-13T21:00:00","end":"2024-06-14T06:00:00Z","end_local":"2024-06-14T02:00:00","updated":"2024-06-13T00:49:35Z"},{"title":"How The Top 1% Of Leaders Manage Their Time Like Clockwork Using T5 System","description":"Sourced from predicthq.com - You will learn essential skills that will increase your productivity so you have more margin in your life and business.","category":"conferences","start":"2024-06-11T22:00:00Z","geo":{"geometry":{"coordinates":[-64.9307007,18.3419004],"type":"Point"},"placekey":"@96y-6xp-mrk","address":{"country_code":"VI","formatted_address":"Norre Gade, Charlotte Amalie, VI 00801, United States of America","locality":"Charlotte Amalie","postcode":"00801","region":"St. Thomas"}},"labels":["business","conference"],"duration":3600,"start_local":"2024-06-11T18:00:00","end":"2024-06-11T23:00:00Z","end_local":"2024-06-11T19:00:00","updated":"2024-06-06T04:31:43Z"},{"title":"Sunset Sounds","description":"Sourced from predicthq.com - Come join us at LOOPS Beach for an epic evening of Sunset Sounds, where you'll vibe to amazing music as the sun dips below the horizon","category":"concerts","start":"2024-06-09T21:00:00Z","geo":{"geometry":{"coordinates":[-64.87867179999999,17.7189709],"type":"Point"},"placekey":"@96z-66d-b6k","address":{"country_code":"VI","formatted_address":"La Grange Road, Frederiksted, VI 00840, United States of America","locality":"Frederiksted","postcode":"00840","region":"St. Croix"}},"labels":["concert","music"],"duration":9000,"start_local":"2024-06-09T17:00:00","end":"2024-06-09T23:30:00Z","end_local":"2024-06-09T19:30:00","updated":"2024-06-06T06:41:51Z"},{"title":"R & B THURSDAYS","description":"Sourced from predicthq.com - Come on out and listen to sweet R & B music from the past to the present. Each and every Thursday night at Nirvana in downtown Christiansted","category":"concerts","start":"2024-06-07T01:00:00Z","geo":{"geometry":{"coordinates":[-64.7047284,17.7468464],"type":"Point"},"placekey":"@96y-jw6-pqf","address":{"country_code":"VI","formatted_address":"Strand Street, Christiansted, VI 00820, United States of America","locality":"Christiansted","postcode":"00820","region":"St. Croix"}},"labels":["concert","music"],"duration":18000,"start_local":"2024-06-06T21:00:00","end":"2024-06-07T06:00:00Z","end_local":"2024-06-07T02:00:00","updated":"2024-06-06T04:15:22Z"},{"title":"Eric Ragno - Keyboards / Rock Keyboard Player and Legends of Classic Rock","description":"Sourced from predicthq.com","category":"concerts","start":"2024-06-06T00:00:00Z","geo":{"geometry":{"coordinates":[-64.9307022,18.3418999],"type":"Point"},"placekey":"@96y-6xp-mrk","address":{"country_code":"VI","formatted_address":"Norre Gade, Charlotte Amalie, VI 00801, United States of America","locality":"Charlotte Amalie","postcode":"00801","region":"St. Thomas"}},"labels":["concert","music"],"duration":0,"start_local":"2024-06-05T20:00:00","end":"2024-06-06T00:00:00Z","end_local":"2024-06-05T20:00:00","updated":"2024-06-11T21:17:49Z"},{"title":"How The Top 1% Of Leaders Manage Their Time Like Clockwork Using T5 System","description":"Sourced from predicthq.com - You will learn essential skills that will increase your productivity so you have more margin in your life and business.","category":"conferences","start":"2024-06-03T00:00:00Z","geo":{"geometry":{"coordinates":[-64.9307007,18.3419004],"type":"Point"},"placekey":"@96y-6xp-mrk","address":{"country_code":"VI","formatted_address":"Norre Gade, Charlotte Amalie, VI 00801, United States of America","locality":"Charlotte Amalie","postcode":"00801","region":"St. Thomas"}},"labels":["business","conference"],"duration":3600,"start_local":"2024-06-02T20:00:00","end":"2024-06-03T01:00:00Z","end_local":"2024-06-02T21:00:00","updated":"2024-05-23T03:34:28Z"},{"title":"Sunset Sounds","description":"Sourced from predicthq.com - Come join us at LOOPS Beach for an epic evening of Sunset Sounds, where you'll vibe to amazing music as the sun dips below the horizon","category":"concerts","start":"2024-06-02T21:00:00Z","geo":{"geometry":{"coordinates":[-64.87867179999999,17.7189709],"type":"Point"},"placekey":"@96z-66d-b6k","address":{"country_code":"VI","formatted_address":"La Grange Road, Frederiksted, VI 00840, United States of America","locality":"Frederiksted","postcode":"00840","region":"St. Croix"}},"labels":["concert","music"],"duration":9000,"start_local":"2024-06-02T17:00:00","end":"2024-06-02T23:30:00Z","end_local":"2024-06-02T19:30:00","updated":"2024-05-30T05:17:20Z"},{"title":"Students of the Caribbean Dance School 2024 Performance","description":"Sourced from predicthq.com - Caribbean Dance School 47th Anniversary Performance!","category":"performing-arts","start":"2024-05-31T23:30:00Z","geo":{"geometry":{"coordinates":[-64.7508008,17.7299088],"type":"Point"},"placekey":"@96z-6cj-kpv","address":{"country_code":"VI","formatted_address":"Pepper Tree Road, Christiansted, VI 00820, United States of America","locality":"Christiansted","postcode":"00820","region":"St. Croix"}},"labels":["concert","music","performing-arts"],"duration":0,"start_local":"2024-05-31T19:30:00","end":"2024-05-31T23:30:00Z","end_local":"2024-05-31T19:30:00","updated":"2024-06-14T23:32:57Z"},{"title":"R & B THURSDAYS","description":"Sourced from predicthq.com - Come on out and listen to sweet R & B music from the past to the present. Each and every Thursday night at Nirvana in downtown Christiansted","category":"concerts","start":"2024-05-31T01:00:00Z","geo":{"geometry":{"coordinates":[-64.7047284,17.7468464],"type":"Point"},"placekey":"@96y-jw6-pqf","address":{"country_code":"VI","formatted_address":"Strand Street, Christiansted, VI 00820, United States of America","locality":"Christiansted","postcode":"00820","region":"St. Croix"}},"labels":["concert","music"],"duration":18000,"start_local":"2024-05-30T21:00:00","end":"2024-05-31T06:00:00Z","end_local":"2024-05-31T02:00:00","updated":"2024-05-30T04:13:58Z"},{"title":"Eki Shola","description":"Sourced from predicthq.com","category":"concerts","start":"2024-05-29T23:30:00Z","geo":{"geometry":{"coordinates":[-64.70439,17.74484],"type":"Point"},"placekey":"@96y-jw6-rp9","address":{"country_code":"VI","formatted_address":"2110 Company Street, St. Croix, VI, United States of America","locality":"St. Croix"}},"labels":["concert","music"],"duration":0,"start_local":"2024-05-29T19:30:00","end":"2024-05-29T23:30:00Z","end_local":"2024-05-29T19:30:00","updated":"2024-06-12T23:33:05Z"},{"title":"Sunset Sounds","description":"Sourced from predicthq.com - Come join us at LOOPS Beach for an epic evening of Sunset Sounds, where you'll vibe to amazing music as the sun dips below the horizon","category":"concerts","start":"2024-05-26T21:00:00Z","geo":{"geometry":{"coordinates":[-64.87867179999999,17.7189709],"type":"Point"},"placekey":"@96z-66d-b6k","address":{"country_code":"VI","formatted_address":"La Grange Road, Frederiksted, VI 00840, United States of America","locality":"Frederiksted","postcode":"00840","region":"St. Croix"}},"labels":["concert","music"],"duration":9000,"start_local":"2024-05-26T17:00:00","end":"2024-05-26T23:30:00Z","end_local":"2024-05-26T19:30:00","updated":"2024-05-23T03:33:25Z"},{"title":"A Night In The Courtyard with DERI & Friends","description":"Sourced from predicthq.com - Experience a night of soul-stirring music performed by DERI & Friends live in the courtyard at The Hill Social Club VI.","category":"concerts","start":"2024-05-26T00:00:00Z","geo":{"geometry":{"coordinates":[-64.7031977,17.7466397],"type":"Point"},"placekey":"@96y-jw6-psq","address":{"country_code":"VI","formatted_address":"Christiansted, VI 00820, United States of America","locality":"Christiansted","postcode":"00820","region":"St. Croix"}},"labels":["concert","music"],"duration":7200,"start_local":"2024-05-25T20:00:00","end":"2024-05-26T02:00:00Z","end_local":"2024-05-25T22:00:00","updated":"2024-05-23T03:41:05Z"},{"title":"Youth Fusion Fest","description":"Sourced from predicthq.com - Youth Fusion Fest is all about bringing together young people for a day of music, art, and fun - it's gonna be lit!","category":"festivals","start":"2024-05-25T16:00:00Z","geo":{"geometry":{"coordinates":[-64.7519585,17.7295904],"type":"Point"},"placekey":"@96z-6cj-k9f","address":{"country_code":"VI","formatted_address":"Kingshill, VI 00820, United States of America","locality":"Kingshill","postcode":"00820","region":"St. Croix"}},"labels":["community","festival"],"duration":14400,"start_local":"2024-05-25T12:00:00","end":"2024-05-25T20:00:00Z","end_local":"2024-05-25T16:00:00","updated":"2024-06-12T04:09:07Z"},{"title":"SRMC Dinner w/a Doctor -Vision Health: Common Eye Problems and Prevention","description":"Sourced from predicthq.com - Celebrate National Healthy Vision Month-   Join us for an enlightening discussion on healthy vision with Dr. Byron Biscoe - Ophthalmologist!","category":"conferences","start":"2024-05-24T22:00:00Z","geo":{"geometry":{"coordinates":[-64.9146653,18.3403102],"type":"Point"},"placekey":"@96y-7hx-cdv","address":{"country_code":"VI","formatted_address":"Alton Adams Sr Drive, Charlotte Amalie, VI 00802, United States of America","locality":"Charlotte Amalie","postcode":"00802","region":"St. Thomas"}},"labels":["conference","health"],"duration":5400,"start_local":"2024-05-24T18:00:00","end":"2024-05-24T23:30:00Z","end_local":"2024-05-24T19:30:00","updated":"2024-05-23T03:33:06Z"},{"title":"R & B THURSDAYS","description":"Sourced from predicthq.com - Come on out and listen to sweet R & B music from the past to the present. Each and every Thursday night at Nirvana in downtown Christiansted","category":"concerts","start":"2024-05-24T01:00:00Z","geo":{"geometry":{"coordinates":[-64.7047284,17.7468464],"type":"Point"},"placekey":"@96y-jw6-pqf","address":{"country_code":"VI","formatted_address":"Strand Street, Christiansted, VI 00820, United States of America","locality":"Christiansted","postcode":"00820","region":"St. Croix"}},"labels":["concert","music"],"duration":18000,"start_local":"2024-05-23T21:00:00","end":"2024-05-24T06:00:00Z","end_local":"2024-05-24T02:00:00","updated":"2024-05-23T04:56:16Z"},{"title":"Sunset Sounds","description":"Sourced from predicthq.com - Come join us at LOOPS Beach for an epic evening of Sunset Sounds, where you'll vibe to amazing music as the sun dips below the horizon","category":"concerts","start":"2024-05-19T21:00:00Z","geo":{"geometry":{"coordinates":[-64.87867179999999,17.7189709],"type":"Point"},"placekey":"@96z-66d-b6k","address":{"country_code":"VI","formatted_address":"La Grange Road, Frederiksted, VI 00840, United States of America","locality":"Frederiksted","postcode":"00840","region":"St. Croix"}},"labels":["concert","music"],"duration":9000,"start_local":"2024-05-19T17:00:00","end":"2024-05-19T23:30:00Z","end_local":"2024-05-19T19:30:00","updated":"2024-06-03T20:24:45Z"},{"title":"STXEEMP","description":"Sourced from predicthq.com - Join us for the Marine Park's second annual Kite Festival! (FREE COMMUNITY EVENT)","category":"festivals","start":"2024-05-18T14:00:00Z","geo":{"geometry":{"coordinates":[-64.6678264,17.7276771],"type":"Point"},"placekey":"@96y-jvt-kpv","address":{"country_code":"VI","formatted_address":"Petronella Road, Christiansted, VI 00820, United States of America","locality":"Christiansted","postcode":"00820","region":"St. Croix"}},"labels":["community","festival"],"duration":19800,"start_local":"2024-05-18T10:00:00","end":"2024-05-18T19:30:00Z","end_local":"2024-05-18T15:30:00","updated":"2024-06-05T03:20:03Z"},{"title":"Six Dance Lessons in Six Weeks","description":"Sourced from predicthq.com - Join us for a fun and interactive dance course where you'll learn six different dance styles in just six weeks!","category":"performing-arts","start":"2024-05-18T00:00:00Z","geo":{"geometry":{"coordinates":[-64.7224442,17.7446256],"type":"Point"},"placekey":"@96y-jw6-9fz","address":{"country_code":"VI","formatted_address":"VI 00820, United States of America","postcode":"00820","region":"St. Croix"}},"labels":["concert","music","performing-arts"],"duration":786600,"start_local":"2024-05-17T20:00:00","end":"2024-05-27T02:30:00Z","end_local":"2024-05-26T22:30:00","updated":"2024-06-01T00:14:22Z"},{"title":"Environmental/Energy Project Business Model Hub - Metro","description":"Sourced from predicthq.com - Empower your organization with federal aid strategies, sustainability plans, and impactful community contributions in this hands-on workshop","category":"conferences","start":"2024-05-16T12:00:00Z","geo":{"geometry":{"coordinates":[-64.9372397,18.3399169],"type":"Point"},"placekey":"@96y-6xp-z2k","address":{"country_code":"VI","formatted_address":"Charlotte Amalie, VI 00804, United States of America","postcode":"00804","locality":"Charlotte Amalie","region":"St. Thomas"}},"labels":["conference","science","technology"],"duration":205200,"start_local":"2024-05-16T08:00:00","end":"2024-05-18T21:00:00Z","end_local":"2024-05-18T17:00:00","updated":"2024-06-05T02:32:58Z"},{"title":"How The Top 1% Of Leaders Manage Their Time Like Clockwork Using T5 System","description":"Sourced from predicthq.com - You will learn essential skills that will increase your productivity so you have more margin in your life and business.","category":"conferences","start":"2024-05-15T23:00:00Z","geo":{"geometry":{"coordinates":[-64.9307007,18.3419004],"type":"Point"},"placekey":"@96y-6xp-mrk","address":{"country_code":"VI","formatted_address":"Norre Gade, Charlotte Amalie, VI 00801, United States of America","locality":"Charlotte Amalie","postcode":"00801","region":"St. Thomas"}},"labels":["business","conference"],"duration":3600,"start_local":"2024-05-15T19:00:00","end":"2024-05-16T00:00:00Z","end_local":"2024-05-15T20:00:00","updated":"2024-06-05T13:18:09Z"},{"title":"How The Top 1% Of Leaders Manage Their Time Like Clockwork Using T5 System","description":"Sourced from predicthq.com - You will learn essential skills that will increase your productivity so you have more margin in your life and business.","category":"conferences","start":"2024-05-14T22:00:00Z","geo":{"geometry":{"coordinates":[-64.9307007,18.3419004],"type":"Point"},"placekey":"@96y-6xp-mrk","address":{"country_code":"VI","formatted_address":"Norre Gade, Charlotte Amalie, VI 00801, United States of America","locality":"Charlotte Amalie","postcode":"00801","region":"St. Thomas"}},"labels":["business","conference"],"duration":3600,"start_local":"2024-05-14T18:00:00","end":"2024-05-14T23:00:00Z","end_local":"2024-05-14T19:00:00","updated":"2024-06-05T14:44:30Z"},{"title":"Sunset Sounds","description":"Sourced from predicthq.com - Come join us at LOOPS Beach for an epic evening of Sunset Sounds, where you'll vibe to amazing music as the sun dips below the horizon","category":"concerts","start":"2024-05-12T21:00:00Z","geo":{"geometry":{"coordinates":[-64.87867179999999,17.7189709],"type":"Point"},"placekey":"@96z-66d-b6k","address":{"country_code":"VI","formatted_address":"La Grange Road, Frederiksted, VI 00840, United States of America","locality":"Frederiksted","postcode":"00840","region":"St. Croix"}},"labels":["concert","music"],"duration":9000,"start_local":"2024-05-12T17:00:00","end":"2024-05-12T23:30:00Z","end_local":"2024-05-12T19:30:00","updated":"2024-05-26T21:02:18Z"},{"title":"Metamorphosis","description":"Sourced from predicthq.com - Experience rejuvenation at 'Metamorphosis' Annual Wellness Retreat! Relax, renew, reset amidst faith-inspired transformation. Join us!","category":"performing-arts","start":"2024-05-10T16:00:00Z","geo":{"geometry":{"coordinates":[-64.8469685,18.3208119],"type":"Point"},"placekey":"@96y-72p-73q","address":{"country_code":"VI","formatted_address":"Bay Road, VI 00802, United States of America","postcode":"00802","region":"St. Thomas"}},"labels":["concert","music","performing-arts"],"duration":36000,"start_local":"2024-05-10T12:00:00","end":"2024-05-11T02:00:00Z","end_local":"2024-05-10T22:00:00","updated":"2024-06-12T04:59:44Z"},{"title":"Virgin Islands Boating Expo (VIBE)","description":"Sourced from predicthq.com - VIBE, the \"destination\" boat show! Board & tour yachts for sale / charter, all-day live music, cultural performances & get  two free drinks!","category":"expos","start":"2024-05-09T21:00:00Z","geo":{"geometry":{"coordinates":[-64.9202167,18.3365576],"type":"Point"},"placekey":"@96y-7hx-rhq","address":{"country_code":"VI","formatted_address":"BCBG Old Location STT, Top Priority Security Conference Room BVI, St Thomas, VI, United States of America","locality":"St Thomas"}},"labels":["expo","outdoor"],"duration":259200,"start_local":"2024-05-09T17:00:00","end":"2024-05-12T21:00:00Z","end_local":"2024-05-12T17:00:00","updated":"2024-06-05T17:35:19Z"},{"title":"How The Top 1% Of Leaders Manage Their Time Like Clockwork Using T5 System","description":"Sourced from predicthq.com - You will learn essential skills that will increase your productivity so you have more margin in your life and business.","category":"conferences","start":"2024-05-06T00:00:00Z","geo":{"geometry":{"coordinates":[-64.9307007,18.3419004],"type":"Point"},"placekey":"@96y-6xp-mrk","address":{"country_code":"VI","formatted_address":"Norre Gade, Charlotte Amalie, VI 00801, United States of America","locality":"Charlotte Amalie","postcode":"00801","region":"St. Thomas"}},"labels":["business","conference"],"duration":3600,"start_local":"2024-05-05T20:00:00","end":"2024-05-06T01:00:00Z","end_local":"2024-05-05T21:00:00","updated":"2024-06-05T13:55:16Z"},{"title":"Utopia: The Unity Festival","description":"Sourced from predicthq.com - Dive into the magic of Utopia: The Unity Festival 2024, set in St. Thomas USVI on May 5th.","category":"festivals","start":"2024-05-05T23:00:00Z","geo":{"geometry":{"coordinates":[-64.95281489999999,18.3343826],"type":"Point"},"placekey":"@96y-6xm-x89","address":{"country_code":"VI","formatted_address":"Crown Bay Marina, Charlotte Amalie West, VI 00802, United States of America","locality":"Charlotte Amalie West","postcode":"00802","region":"St. Thomas"}},"labels":["concert","music"],"duration":28800,"start_local":"2024-05-05T19:00:00","end":"2024-05-06T07:00:00Z","end_local":"2024-05-06T03:00:00","updated":"2024-06-05T02:39:37Z"},{"title":"The Music Man","description":"Sourced from predicthq.com - The Music Man - One of the  all-time great musicals of Hollywood's golden age, produced and performed by the 30 GHCDS Drama students!","category":"performing-arts","start":"2024-05-05T23:00:00Z","geo":{"geometry":{"coordinates":[-64.766255,17.752589],"type":"Point"},"placekey":"@96z-6c6-2x5","address":{"country_code":"VI","formatted_address":"VI 00820, United States of America","postcode":"00820","region":"St. Croix"}},"labels":["concert","music","performing-arts"],"duration":9000,"start_local":"2024-05-05T19:00:00","end":"2024-05-06T01:30:00Z","end_local":"2024-05-05T21:30:00","updated":"2024-06-05T05:00:21Z"},{"title":"Sunset Sounds","description":"Sourced from predicthq.com - Come join us at LOOPS Beach for an epic evening of Sunset Sounds, where you'll vibe to amazing music as the sun dips below the horizon","category":"concerts","start":"2024-05-05T21:00:00Z","geo":{"geometry":{"coordinates":[-64.87867179999999,17.7189709],"type":"Point"},"placekey":"@96z-66d-b6k","address":{"country_code":"VI","formatted_address":"La Grange Road, Frederiksted, VI 00840, United States of America","locality":"Frederiksted","postcode":"00840","region":"St. Croix"}},"labels":["concert","music"],"duration":9000,"start_local":"2024-05-05T17:00:00","end":"2024-05-05T23:30:00Z","end_local":"2024-05-05T19:30:00","updated":"2024-06-05T07:30:54Z"},{"title":"Unity Festival (St. Thomas USVI)","description":"Sourced from predicthq.com","category":"festivals","start":"2024-05-05T04:00:00Z","geo":{"geometry":{"coordinates":[-64.95281,18.33438],"type":"Point"},"placekey":"@96y-6xm-x89","address":{"country_code":"VI","formatted_address":"8168 Crown Bay Marina, Charlotte Amalie West, St Thomas 00802, USVI","postcode":"00802","locality":"Charlotte Amalie West","region":"St. Thomas"}},"labels":["festival","music"],"duration":86399,"start_local":"2024-05-05T00:00:00","end":"2024-05-06T03:59:59Z","end_local":"2024-05-05T23:59:59","updated":"2024-06-05T03:25:20Z"},{"title":"Dancehall Dynasty","description":"Sourced from predicthq.com - This festival isn't just a music event - it's a celebration of the vibrant dancehall culture.","category":"concerts","start":"2024-05-03T18:00:00Z","geo":{"geometry":{"coordinates":[-64.95157660000001,18.334457],"type":"Point"},"placekey":"@96y-6xm-xnq","address":{"country_code":"VI","formatted_address":"Charlotte Amalie West, VI 00802, United States of America","locality":"Charlotte Amalie West","postcode":"00802","region":"St. Thomas"}},"labels":["concert","music"],"duration":23400,"start_local":"2024-05-03T14:00:00","end":"2024-05-04T00:30:00Z","end_local":"2024-05-03T20:30:00","updated":"2024-06-05T10:28:53Z"},{"title":"THE REBIRTH OF CARNIVAL RACES","description":"Sourced from predicthq.com - THE REBIRTH OF CARNIVAL RACES  - Friday, May 3rd, 2024, at 1:00 PM at the Clinton E. Phipps Racetrack.","category":"community","start":"2024-05-03T17:00:00Z","geo":{"geometry":{"coordinates":[-64.8784227,18.3178394],"type":"Point"},"placekey":"@96y-72q-y9z","address":{"country_code":"VI","formatted_address":"Estate Bovoni, VI 00802, United States of America","locality":"Estate Bovoni","postcode":"00802","region":"St. Thomas"}},"labels":["community","sport"],"duration":18000,"start_local":"2024-05-03T13:00:00","end":"2024-05-03T22:00:00Z","end_local":"2024-05-03T18:00:00","updated":"2024-06-05T16:35:36Z"},{"title":"STAR MARTIN & FRIENDS","description":"Sourced from predicthq.com - Performances by Star Martin, Sisa, Th3rd, Mic Love, Moneá, Rudy Live and more.","category":"performing-arts","start":"2024-04-30T23:00:00Z","geo":{"geometry":{"coordinates":[-64.9241667,18.3310441],"type":"Point"},"placekey":"@96y-73p-wzf","address":{"country_code":"VI","formatted_address":"VI 00802, United States of America","postcode":"00802","region":"St. Thomas"}},"labels":["concert","music","performing-arts"],"duration":10800,"start_local":"2024-04-30T19:00:00","end":"2024-05-01T02:00:00Z","end_local":"2024-04-30T22:00:00","updated":"2024-06-05T07:33:12Z"},{"title":"Sunset Sounds","description":"Sourced from predicthq.com - Come join us at LOOPS Beach for an epic evening of Sunset Sounds, where you'll vibe to amazing music as the sun dips below the horizon","category":"concerts","start":"2024-04-28T21:00:00Z","geo":{"geometry":{"coordinates":[-64.87867179999999,17.7189709],"type":"Point"},"placekey":"@96z-66d-b6k","address":{"country_code":"VI","formatted_address":"La Grange Road, Frederiksted, VI 00840, United States of America","locality":"Frederiksted","postcode":"00840","region":"St. Croix"}},"labels":["concert","music"],"duration":9000,"start_local":"2024-04-28T17:00:00","end":"2024-04-28T23:30:00Z","end_local":"2024-04-28T19:30:00","updated":"2024-06-05T06:48:00Z"},{"title":"The Music Man","description":"Sourced from predicthq.com - The Music Man - One of the  all-time great musicals of Hollywood's golden age, produced and performed by the 30 GHCDS Drama students!","category":"performing-arts","start":"2024-04-27T00:00:00Z","geo":{"geometry":{"coordinates":[-64.766255,17.752589],"type":"Point"},"placekey":"@96z-6c6-2x5","address":{"country_code":"VI","formatted_address":"VI 00820, United States of America","postcode":"00820","region":"St. Croix"}},"labels":["concert","music","performing-arts"],"duration":9000,"start_local":"2024-04-26T20:00:00","end":"2024-04-27T02:30:00Z","end_local":"2024-04-26T22:30:00","updated":"2024-06-05T06:26:44Z"},{"title":"A Song for Coretta - A One-Act Play by Pearl Cleage","description":"Sourced from predicthq.com - Join us as we bring to life \"A Song for Coretta\" by Pearl Cleage, a captivating play honoring the late Coretta Scott King.","category":"performing-arts","start":"2024-04-27T00:00:00Z","geo":{"geometry":{"coordinates":[-64.7224442,17.7446256],"type":"Point"},"placekey":"@96y-jw6-9fz","address":{"country_code":"VI","formatted_address":"VI 00820, United States of America","postcode":"00820","region":"St. Croix"}},"labels":["concert","music","performing-arts"],"duration":178200,"start_local":"2024-04-26T20:00:00","end":"2024-04-29T01:30:00Z","end_local":"2024-04-28T21:30:00","updated":"2024-06-05T19:41:54Z"},{"title":"DANCEHALL IN THE FORT","description":"Sourced from predicthq.com - On Friday, April 26, 2024 Performing live for the very first time on St.Thomas, \"450”.","category":"concerts","start":"2024-04-27T00:00:00Z","geo":{"geometry":{"coordinates":[-64.92972222,18.34083333],"type":"Point"},"placekey":"@96y-6xp-mc5","address":{"country_code":"VI","formatted_address":"83RC+84 Charlotte Amalie, St. Thomas, USVI","postcode":"00802","locality":"Charlotte Amalie","region":"St. Thomas"}},"labels":["concert","music"],"duration":0,"start_local":"2024-04-26T20:00:00","end":"2024-04-27T00:00:00Z","end_local":"2024-04-26T20:00:00","updated":"2024-06-12T09:23:14Z"},{"title":"Going Up On A Tuesday: Extra","description":"Sourced from predicthq.com - Afro Caribbean aerobics, HIIT , and mobility training","category":"concerts","start":"2024-04-23T21:45:00Z","geo":{"geometry":{"coordinates":[-64.9440553,18.3370375],"type":"Point"},"placekey":"@96y-6xm-k75","address":{"country_code":"VI","formatted_address":"Charlotte Amalie, VI 00802, United States of America","locality":"Charlotte Amalie","postcode":"00802","region":"St. Thomas"}},"labels":["concert","music"],"duration":3600,"start_local":"2024-04-23T17:45:00","end":"2024-04-23T22:45:00Z","end_local":"2024-04-23T18:45:00","updated":"2024-06-05T07:06:35Z"},{"title":"Sunset Sounds","description":"Sourced from predicthq.com - Come join us at LOOPS Beach for an epic evening of Sunset Sounds, where you'll vibe to amazing music as the sun dips below the horizon","category":"concerts","start":"2024-04-21T21:00:00Z","geo":{"geometry":{"coordinates":[-64.87867179999999,17.7189709],"type":"Point"},"placekey":"@96z-66d-b6k","address":{"country_code":"VI","formatted_address":"La Grange Road, Frederiksted, VI 00840, United States of America","locality":"Frederiksted","postcode":"00840","region":"St. Croix"}},"labels":["concert","music"],"duration":9000,"start_local":"2024-04-21T17:00:00","end":"2024-04-21T23:30:00Z","end_local":"2024-04-21T19:30:00","updated":"2024-06-05T01:03:59Z"},{"title":"St. John Trail Race","description":"Sourced from predicthq.com","category":"sports","start":"2024-04-21T04:00:00Z","geo":{"geometry":{"coordinates":[-64.7280952,18.3368114],"type":"Point"},"placekey":"@96y-czd-yqf","address":{"country_code":"VI","formatted_address":"VI 00830, United States of America","postcode":"00830","region":"St. John"}},"labels":["marathon","outdoor-sports","running","sport"],"duration":86399,"start_local":"2024-04-21T00:00:00","end":"2024-04-22T03:59:59Z","end_local":"2024-04-21T23:59:59","updated":"2024-06-05T10:23:58Z"},{"title":"The Music Man","description":"Sourced from predicthq.com - The Music Man - One of the  all-time great musicals of Hollywood's golden age, produced and performed by 30 GHCDS Drama students!","category":"performing-arts","start":"2024-04-20T00:00:00Z","geo":{"geometry":{"coordinates":[-64.766255,17.752589],"type":"Point"},"placekey":"@96z-6c6-2x5","address":{"country_code":"VI","formatted_address":"VI 00820, United States of America","postcode":"00820","region":"St. Croix"}},"labels":["concert","music","performing-arts"],"duration":9000,"start_local":"2024-04-19T20:00:00","end":"2024-04-20T02:30:00Z","end_local":"2024-04-19T22:30:00","updated":"2024-06-05T13:58:24Z"},{"title":"24th Annual Taste of St. Croix (EVE of the 25TH)","description":"Sourced from predicthq.com - Food, Wines, Spirits, The Spectrum Band, Daddy Babzy, Unlimited Sounds...and the best DRESSED PEOPLE in the World....and much, much more!!!","category":"festivals","start":"2024-04-18T22:00:00Z","geo":{"geometry":{"coordinates":[-64.6063842,17.7417793],"type":"Point"},"placekey":"@96y-k3c-cyv","address":{"country_code":"VI","formatted_address":"Christiansted, VI 00820, United States of America","locality":"Christiansted","postcode":"00820","region":"St. Croix"}},"labels":["festival","food"],"duration":12600,"start_local":"2024-04-18T18:00:00","end":"2024-04-19T01:30:00Z","end_local":"2024-04-18T21:30:00","updated":"2024-06-05T13:55:39Z"},{"title":"How The Top 1% Of Leaders Manage Their Time Like Clockwork Using T5 System","description":"Sourced from predicthq.com - You will learn essential skills that will increase your productivity so you have more margin in your life and business.","category":"conferences","start":"2024-04-17T23:00:00Z","geo":{"geometry":{"coordinates":[-64.9307007,18.3419004],"type":"Point"},"placekey":"@96y-6xp-mrk","address":{"country_code":"VI","formatted_address":"Norre Gade, Charlotte Amalie, VI 00801, United States of America","locality":"Charlotte Amalie","postcode":"00801","region":"St. Thomas"}},"labels":["business","conference"],"duration":3600,"start_local":"2024-04-17T19:00:00","end":"2024-04-18T00:00:00Z","end_local":"2024-04-17T20:00:00","updated":"2024-06-05T01:48:54Z"},{"title":"Going Up On A Tuesday: Extra","description":"Sourced from predicthq.com - Afro Caribbean aerobics, HIIT , and mobility training","category":"concerts","start":"2024-04-16T21:45:00Z","geo":{"geometry":{"coordinates":[-64.9440553,18.3370375],"type":"Point"},"placekey":"@96y-6xm-k75","address":{"country_code":"VI","formatted_address":"Charlotte Amalie, VI 00802, United States of America","locality":"Charlotte Amalie","postcode":"00802","region":"St. Thomas"}},"labels":["concert","music"],"duration":3600,"start_local":"2024-04-16T17:45:00","end":"2024-04-16T22:45:00Z","end_local":"2024-04-16T18:45:00","updated":"2024-06-05T07:33:09Z"},{"title":"Sunset Sounds","description":"Sourced from predicthq.com - Come join us at LOOPS Beach for an epic evening of Sunset Sounds, where you'll vibe to amazing music as the sun dips below the horizon","category":"concerts","start":"2024-04-14T21:00:00Z","geo":{"geometry":{"coordinates":[-64.87867179999999,17.7189709],"type":"Point"},"placekey":"@96z-66d-b6k","address":{"country_code":"VI","formatted_address":"La Grange Road, Frederiksted, VI 00840, United States of America","locality":"Frederiksted","postcode":"00840","region":"St. Croix"}},"labels":["concert","music"],"duration":9000,"start_local":"2024-04-14T17:00:00","end":"2024-04-14T23:30:00Z","end_local":"2024-04-14T19:30:00","updated":"2024-06-05T18:02:45Z"},{"title":"2024 USVI Literary Festival and Book Fair","description":"Sourced from predicthq.com - The Caribbean Writer collaborates with Virgin Islands Literary Festival & Book Fair for the 2024 hybrid literary event","category":"festivals","start":"2024-04-12T13:00:00Z","geo":{"geometry":{"coordinates":[-64.7977374,17.7181359],"type":"Point"},"placekey":"@96z-6bz-249","address":{"country_code":"VI","formatted_address":"VI 00820, United States of America","postcode":"00820","region":"St. Croix"}},"labels":["community","festival"],"duration":212400,"start_local":"2024-04-12T09:00:00","end":"2024-04-15T00:00:00Z","end_local":"2024-04-14T20:00:00","updated":"2024-06-05T09:55:58Z"},{"title":"Eric Ragno - Keyboards / Rock Keyboard Player and Legends of Classic Rock","description":"Sourced from predicthq.com","category":"concerts","start":"2024-04-10T00:00:00Z","geo":{"geometry":{"coordinates":[-64.9307022,18.3418999],"type":"Point"},"placekey":"@96y-6xp-mrk","address":{"country_code":"VI","formatted_address":"Norre Gade, Charlotte Amalie, VI 00801, United States of America","locality":"Charlotte Amalie","postcode":"00801","region":"St. Thomas"}},"labels":["concert","music"],"duration":0,"start_local":"2024-04-09T20:00:00","end":"2024-04-10T00:00:00Z","end_local":"2024-04-09T20:00:00","updated":"2024-06-12T01:42:52Z"},{"title":"How The Top 1% Of Leaders Manage Their Time Like Clockwork Using T5 System","description":"Sourced from predicthq.com - You will learn essential skills that will increase your productivity so you have more margin in your life and business.","category":"conferences","start":"2024-04-08T00:00:00Z","geo":{"geometry":{"coordinates":[-64.9307007,18.3419004],"type":"Point"},"placekey":"@96y-6xp-mrk","address":{"country_code":"VI","formatted_address":"Norre Gade, Charlotte Amalie, VI 00801, United States of America","locality":"Charlotte Amalie","postcode":"00801","region":"St. Thomas"}},"labels":["business","conference"],"duration":3600,"start_local":"2024-04-07T20:00:00","end":"2024-04-08T01:00:00Z","end_local":"2024-04-07T21:00:00","updated":"2024-06-04T23:14:02Z"},{"title":"Sunset Sounds","description":"Sourced from predicthq.com - Come join us at LOOPS Beach for an epic evening of Sunset Sounds, where you'll vibe to amazing music as the sun dips below the horizon","category":"concerts","start":"2024-04-07T21:00:00Z","geo":{"geometry":{"coordinates":[-64.87867179999999,17.7189709],"type":"Point"},"placekey":"@96z-66d-b6k","address":{"country_code":"VI","formatted_address":"La Grange Road, Frederiksted, VI 00840, United States of America","locality":"Frederiksted","postcode":"00840","region":"St. Croix"}},"labels":["concert","music"],"duration":9000,"start_local":"2024-04-07T17:00:00","end":"2024-04-07T23:30:00Z","end_local":"2024-04-07T19:30:00","updated":"2024-06-05T02:39:48Z"}]