[{"title":"Samoa Warrior Race Triathlon","description":"Sourced from predicthq.com","category":"sports","start":"2024-07-26T11:00:00Z","geo":{"geometry":{"coordinates":[-171.7513551,-13.8506958],"type":"Point"},"placekey":"@j7g-zbm-3kf","address":{"country_code":"WS","formatted_address":"Apia, Tuamasaga, Samoa","locality":"Apia","region":"Tuamasaga"}},"labels":["bicycle","outdoor-sports","running","sport","triathlon"],"duration":86399,"start_local":"2024-07-27T00:00:00","end":"2024-07-27T10:59:59Z","end_local":"2024-07-27T23:59:59","updated":"2024-06-04T03:13:47Z"},{"title":"Rugby Union Internationals - Friendlies 2 - Samoa vs Spain","description":"Sourced from predicthq.com","category":"sports","start":"2024-07-13T03:00:00Z","geo":{"geometry":{"coordinates":[-171.7506713,-13.835579],"type":"Point"},"placekey":"@j7g-zbc-sdv","address":{"country_code":"WS","formatted_address":"Apia, Samoa","locality":"Apia","region":"Tuamasaga"}},"labels":["rugby","sport"],"duration":0,"start_local":"2024-07-13T16:00:00","end":"2024-07-13T03:00:00Z","end_local":"2024-07-13T16:00:00","updated":"2024-06-14T10:25:02Z"},{"title":"Samoa International Marathon - Samoa","description":"Sourced from predicthq.com","category":"sports","start":"2024-07-12T16:00:00Z","geo":{"geometry":{"coordinates":[-172.104629,-13.759029],"type":"Point"},"placekey":"@j7h-2kg-w49","address":{"country_code":"WS","formatted_address":"Salua, Upolu, Samoa","locality":"Salua","region":"Upolu"}},"labels":["marathon","outdoor-sports","running","sport"],"duration":0,"start_local":"2024-07-13T05:00:00","end":"2024-07-12T16:00:00Z","end_local":"2024-07-13T05:00:00","updated":"2024-06-04T01:40:51Z"},{"title":"Rugby Union Internationals - Friendlies 1 - Samoa vs Italy","description":"Sourced from predicthq.com","category":"sports","start":"2024-07-05T04:00:00Z","geo":{"geometry":{"coordinates":[-171.7506713,-13.835579],"type":"Point"},"placekey":"@j7g-zbc-sdv","address":{"country_code":"WS","formatted_address":"Apia, Samoa","locality":"Apia","region":"Tuamasaga"}},"labels":["rugby","sport"],"duration":0,"start_local":"2024-07-05T17:00:00","end":"2024-07-05T04:00:00Z","end_local":"2024-07-05T17:00:00","updated":"2024-06-14T10:24:36Z"}]