[{"title":"Mr LST","description":"Sourced from predicthq.com","category":"concerts","start":"2024-10-03T12:00:00Z","geo":{"geometry":{"coordinates":[28.272625,-15.3694878],"type":"Point"},"placekey":"@hvj-ymt-mkz","address":{"country_code":"ZM","formatted_address":"Lusaka, Lusaka Province, Zambia","locality":"Lusaka","region":"Lusaka Province"}},"labels":["concert","music"],"duration":0,"start_local":"2024-10-03T14:00:00","end":"2024-10-03T12:00:00Z","end_local":"2024-10-03T14:00:00","updated":"2024-06-23T01:57:52Z"},{"title":"Zambia International Agriculture Financing And Investment Summit","description":"Sourced from predicthq.com","category":"conferences","start":"2024-10-01T07:00:00Z","geo":{"geometry":{"coordinates":[28.313606,-15.392834],"type":"Point"},"placekey":"@hvj-ymy-xbk","address":{"country_code":"ZM","formatted_address":"8025 Great E Rd, Lusaka, Zambia","locality":"Lusaka","region":"Lusaka Province"}},"labels":["conference"],"duration":205200,"start_local":"2024-10-01T09:00:00","end":"2024-10-03T16:00:00Z","end_local":"2024-10-03T18:00:00","updated":"2024-05-31T23:06:40Z"},{"title":"SAQAN Conference","description":"Sourced from predicthq.com","category":"conferences","start":"2024-09-25T07:00:00Z","geo":{"geometry":{"coordinates":[25.846816,-17.891388],"type":"Point"},"placekey":"@hyf-vj6-5vf","address":{"country_code":"ZM","formatted_address":"Confluence of the Maramba River and, Mosi - Oa - Tunya Road, Livingstone 10101, Zambia","postcode":"10101","locality":"Livingstone","region":"Southern Province"}},"labels":["conference"],"duration":205200,"start_local":"2024-09-25T09:00:00","end":"2024-09-27T16:00:00Z","end_local":"2024-09-27T18:00:00","updated":"2024-07-03T23:02:41Z"},{"title":"AFRES Annual Conference","description":"Sourced from predicthq.com","category":"conferences","start":"2024-09-10T07:00:00Z","geo":{"geometry":{"coordinates":[25.846816,-17.891388],"type":"Point"},"placekey":"@hyf-vj6-5vf","address":{"country_code":"ZM","formatted_address":"Confluence of the Maramba River and, Mosi - Oa - Tunya Road, Livingstone 10101, Zambia","postcode":"10101","locality":"Livingstone","region":"Southern Province"}},"labels":["conference"],"duration":291600,"start_local":"2024-09-10T09:00:00","end":"2024-09-13T16:00:00Z","end_local":"2024-09-13T18:00:00","updated":"2024-05-31T23:29:53Z"},{"title":"African Real Estate Society Annual Conference","description":"Sourced from predicthq.com","category":"conferences","start":"2024-09-10T07:00:00Z","geo":{"geometry":{"coordinates":[25.846816,-17.891388],"type":"Point"},"placekey":"@hyf-vj6-5vf","address":{"country_code":"ZM","formatted_address":"Confluence of the Maramba River and, Mosi - Oa - Tunya Road, Livingstone 10101, Zambia","postcode":"10101","locality":"Livingstone","region":"Southern Province"}},"labels":["conference"],"duration":291600,"start_local":"2024-09-10T09:00:00","end":"2024-09-13T16:00:00Z","end_local":"2024-09-13T18:00:00","updated":"2024-05-31T23:17:32Z"},{"title":"Matero Half Marathon","description":"Sourced from predicthq.com","category":"sports","start":"2024-08-24T03:30:00Z","geo":{"geometry":{"coordinates":[28.4342247,-15.269278],"type":"Point"},"placekey":"@hvf-qxc-7t9","address":{"country_code":"ZM","formatted_address":"Bonanza Boulevard, Lusaka Province, Zambia","region":"Lusaka Province"}},"labels":["marathon","outdoor-sports","running","sport"],"duration":0,"start_local":"2024-08-24T05:30:00","end":"2024-08-24T03:30:00Z","end_local":"2024-08-24T05:30:00","updated":"2024-06-03T19:41:39Z"},{"title":"3rd AADISAO International Disability Conference","description":"Sourced from predicthq.com - Get ready for the 3rd AADISAO International Disability Conference on the theme: Decent Work and Inclusive Economic Growth for PWDs in Africa","category":"conferences","start":"2024-08-19T06:00:00Z","geo":{"geometry":{"coordinates":[28.3084131,-15.4185611],"type":"Point"},"placekey":"@hvj-ymx-389","address":{"country_code":"ZM","formatted_address":"Lusaka, Lusaka Province, Zambia","locality":"Lusaka","region":"Lusaka Province"}},"labels":["conference","fundraiser"],"duration":203400,"start_local":"2024-08-19T08:00:00","end":"2024-08-21T14:30:00Z","end_local":"2024-08-21T16:30:00","updated":"2024-06-03T23:45:48Z"},{"title":"ACSZ","description":"Sourced from predicthq.com - Agricultural and Commercial Show","category":"expos","start":"2024-07-30T22:00:00Z","geo":{"geometry":{"coordinates":[28.3089301,-15.3985023],"type":"Point"},"placekey":"@hvj-ymz-r8v","address":{"country_code":"ZM","formatted_address":"Great East Road, 10101 Lusaka, Zambia","locality":"Lusaka","postcode":"10101","region":"Lusaka Province"}},"labels":["expo"],"duration":518399,"start_local":"2024-07-31T00:00:00","end":"2024-08-05T21:59:59Z","end_local":"2024-08-05T23:59:59","updated":"2024-07-06T00:19:32Z"},{"title":"International Conference on Development and Investment In Infrastructure - Strategies for Africa","description":"Sourced from predicthq.com","category":"conferences","start":"2024-07-23T22:00:00Z","geo":{"geometry":{"coordinates":[25.865088,-17.92421],"type":"Point"},"placekey":"@hyf-vkq-b6k","address":{"country_code":"ZM","formatted_address":"Mosi-oa-Tunya Road\nLivingstone 20100\nZambia","locality":"Livingstone"}},"labels":["conference"],"duration":259199,"start_local":"2024-07-24T00:00:00","end":"2024-07-26T21:59:59Z","end_local":"2024-07-26T23:59:59","updated":"2024-05-27T02:56:24Z"},{"title":"UN Tourism Regional Conference on Brand Africa","description":"Sourced from predicthq.com","category":"conferences","start":"2024-07-22T07:00:00Z","geo":{"geometry":{"coordinates":[25.865088,-17.92421],"type":"Point"},"placekey":"@hyf-vkq-b6k","address":{"country_code":"ZM","formatted_address":"Mosi-oa-Tunya Road\nLivingstone 20100\nZambia","locality":"Livingstone"}},"labels":["conference"],"duration":205200,"start_local":"2024-07-22T09:00:00","end":"2024-07-24T16:00:00Z","end_local":"2024-07-24T18:00:00","updated":"2024-05-31T22:52:59Z"},{"title":"Tangila Trail Series","description":"Sourced from predicthq.com","category":"sports","start":"2024-07-19T22:00:00Z","geo":{"geometry":{"coordinates":[29.3889082,-13.6211552],"type":"Point"},"placekey":"@hv5-5tn-vs5","address":{"country_code":"ZM","formatted_address":"Mkushi, Central Province, Zambia","locality":"Mkushi","region":"Central Province"}},"labels":["outdoor-sports","running","sport"],"duration":86399,"start_local":"2024-07-20T00:00:00","end":"2024-07-20T21:59:59Z","end_local":"2024-07-20T23:59:59","updated":"2024-06-10T03:13:41Z"},{"title":"Victoria Falls Marathon","description":"Sourced from predicthq.com","category":"sports","start":"2024-07-06T22:00:00Z","geo":{"geometry":{"coordinates":[25.856667,-17.924444],"type":"Point"},"placekey":"@hyf-vkk-vcq","address":{"country_code":"ZM","formatted_address":"Livingstone, Southern Province, Zambia","locality":"Livingstone","region":"Southern Province"}},"labels":["marathon","outdoor-sports","running","sport"],"duration":86399,"start_local":"2024-07-07T00:00:00","end":"2024-07-07T21:59:59Z","end_local":"2024-07-07T23:59:59","updated":"2024-06-29T22:10:04Z"},{"title":"Zambia International Trade Fair","description":"Sourced from predicthq.com","category":"expos","start":"2024-06-25T22:00:00Z","geo":{"geometry":{"coordinates":[28.657998,-13.02306],"type":"Point"},"placekey":"@hv3-yb7-nkf","address":{"country_code":"ZM","formatted_address":"Ndola, Copperbelt Province, Zambia","locality":"Ndola","region":"Copperbelt Province"}},"labels":["expo"],"duration":604799,"start_local":"2024-06-26T00:00:00","end":"2024-07-02T21:59:59Z","end_local":"2024-07-02T23:59:59","updated":"2024-06-04T06:17:08Z"},{"title":"Super League - Nkwazi vs Green Eagles","description":"Sourced from predicthq.com","category":"sports","start":"2024-06-01T13:00:00Z","geo":{"geometry":{"coordinates":[28.297,-15.412643],"type":"Point"},"placekey":"@hvj-ymv-v9f","address":{"country_code":"ZM","formatted_address":"21 Nsunzu Rd, Lusaka, Zambia","locality":"Lusaka","region":"Lusaka Province"}},"labels":["soccer","sport"],"duration":0,"start_local":"2024-06-01T15:00:00","end":"2024-06-01T13:00:00Z","end_local":"2024-06-01T15:00:00","updated":"2024-06-12T11:10:21Z"},{"title":"Super League - Trident vs Green Buffaloes","description":"Sourced from predicthq.com","category":"sports","start":"2024-06-01T13:00:00Z","geo":{"geometry":{"coordinates":[26.41552795337293,-12.195394973434992],"type":"Point"},"placekey":"@hv6-cjw-4sq","address":{"country_code":"ZM","formatted_address":"RC38+V63, Solwezi, Zambia","locality":"Solwezi","region":"Northwestern Province"}},"labels":["soccer","sport"],"duration":0,"start_local":"2024-06-01T15:00:00","end":"2024-06-01T13:00:00Z","end_local":"2024-06-01T15:00:00","updated":"2024-06-12T16:15:50Z"},{"title":"Super League - Prison Leopards vs Konkola Blades","description":"Sourced from predicthq.com","category":"sports","start":"2024-06-01T13:00:00Z","geo":{"geometry":{"coordinates":[28.421847336418182,-14.451332728703006],"type":"Point"},"placekey":"@hv5-bv6-pvz","address":{"country_code":"ZM","formatted_address":"GCXC+GP9, Kabwe, Zambia","locality":"Kabwe","region":"Central Province"}},"labels":["soccer","sport"],"duration":0,"start_local":"2024-06-01T15:00:00","end":"2024-06-01T13:00:00Z","end_local":"2024-06-01T15:00:00","updated":"2024-06-12T07:45:00Z"},{"title":"Super League - Maestro United Zambia vs Kabwe Warriors","description":"Sourced from predicthq.com","category":"sports","start":"2024-06-01T13:00:00Z","geo":{"geometry":{"coordinates":[27.7659893,-15.8418885],"type":"Point"},"placekey":"@hvj-whd-8gk","address":{"country_code":"ZM","formatted_address":"5Q58+69X, Mazabuka, Zambia","locality":"Mazabuka","region":"Southern Province"}},"labels":["soccer","sport"],"duration":0,"start_local":"2024-06-01T15:00:00","end":"2024-06-01T13:00:00Z","end_local":"2024-06-01T15:00:00","updated":"2024-06-11T22:06:23Z"},{"title":"Super League - Nkana vs Zanaco","description":"Sourced from predicthq.com","category":"sports","start":"2024-06-01T13:00:00Z","geo":{"geometry":{"coordinates":[28.2113602,-12.8470135],"type":"Point"},"placekey":"@hv4-93r-85f","address":{"country_code":"ZM","formatted_address":"5636+5GX, Kitwe, Zambia","locality":"Kitwe","region":"Copperbelt Province"}},"labels":["soccer","sport"],"duration":0,"start_local":"2024-06-01T15:00:00","end":"2024-06-01T13:00:00Z","end_local":"2024-06-01T15:00:00","updated":"2024-06-12T03:51:44Z"},{"title":"Super League - Mufulira Wanderers vs ZESCO United","description":"Sourced from predicthq.com","category":"sports","start":"2024-06-01T13:00:00Z","geo":{"geometry":{"coordinates":[28.2340227,-12.542953],"type":"Point"},"placekey":"@hv4-y3z-snq","address":{"country_code":"ZM","formatted_address":"Mufulira, Zambia","locality":"Mufulira","region":"Copperbelt Province"}},"labels":["soccer","sport"],"duration":0,"start_local":"2024-06-01T15:00:00","end":"2024-06-01T13:00:00Z","end_local":"2024-06-01T15:00:00","updated":"2024-06-12T07:37:57Z"},{"title":"Super League - NAPSA Stars vs Power Dynamos","description":"Sourced from predicthq.com","category":"sports","start":"2024-06-01T13:00:00Z","geo":{"geometry":{"coordinates":[28.34749192,-15.44593471],"type":"Point"},"placekey":"@hvf-v9s-66k","address":{"country_code":"ZM","formatted_address":"H83W+HXQ, 20213 Buluwe Rd, Lusaka, Zambia","locality":"Lusaka","region":"Lusaka Province"}},"labels":["soccer","sport"],"duration":0,"start_local":"2024-06-01T15:00:00","end":"2024-06-01T13:00:00Z","end_local":"2024-06-01T15:00:00","updated":"2024-06-11T21:25:46Z"},{"title":"Super League - Forest Rangers vs Kansanshi Dynamos","description":"Sourced from predicthq.com","category":"sports","start":"2024-06-01T13:00:00Z","geo":{"geometry":{"coordinates":[28.633487820625305,-13.00146866819993],"type":"Point"},"placekey":"@hv3-yb3-26k","address":{"country_code":"ZM","formatted_address":"XJXM+G26, Ndola, Zambia","locality":"Ndola","region":"Copperbelt Province"}},"labels":["soccer","sport"],"duration":0,"start_local":"2024-06-01T15:00:00","end":"2024-06-01T13:00:00Z","end_local":"2024-06-01T15:00:00","updated":"2024-06-12T19:23:38Z"},{"title":"Super League - Mutondo Stars vs Red Arrows","description":"Sourced from predicthq.com","category":"sports","start":"2024-06-01T13:00:00Z","geo":{"geometry":{"coordinates":[28.6112875,-12.9750427],"type":"Point"},"placekey":"@hv3-ybf-xbk","address":{"country_code":"ZM","formatted_address":"2JF6+WH4, T3, Ndola, Zambia","locality":"Ndola","region":"Copperbelt Province"}},"labels":["soccer","sport"],"duration":0,"start_local":"2024-06-01T15:00:00","end":"2024-06-01T13:00:00Z","end_local":"2024-06-01T15:00:00","updated":"2024-06-12T06:17:51Z"},{"title":"CAMINEX","description":"Sourced from predicthq.com","category":"conferences","start":"2024-05-28T07:00:00Z","geo":{"geometry":{"coordinates":[28.217574,-12.823195],"type":"Point"},"placekey":"@hv4-9cw-sdv","address":{"country_code":"ZM","formatted_address":"Kalungwishi Street, Kitwe, Zambia","locality":"Kitwe","region":"Copperbelt Province"}},"labels":["conference"],"duration":205200,"start_local":"2024-05-28T09:00:00","end":"2024-05-30T16:00:00Z","end_local":"2024-05-30T18:00:00","updated":"2024-05-28T17:01:59Z"},{"title":"Super League - Green Buffaloes vs Forest Rangers","description":"Sourced from predicthq.com","category":"sports","start":"2024-05-26T13:00:00Z","geo":{"geometry":{"coordinates":[28.297,-15.412643],"type":"Point"},"placekey":"@hvj-ymv-v9f","address":{"country_code":"ZM","formatted_address":"21 Nsunzu Rd, Lusaka, Zambia","locality":"Lusaka","region":"Lusaka Province"}},"labels":["soccer","sport"],"duration":0,"start_local":"2024-05-26T15:00:00","end":"2024-05-26T13:00:00Z","end_local":"2024-05-26T15:00:00","updated":"2024-06-11T21:50:32Z"},{"title":"Super League - Kabwe Warriors vs Nkana","description":"Sourced from predicthq.com","category":"sports","start":"2024-05-25T13:00:00Z","geo":{"geometry":{"coordinates":[28.442428708076477,-14.449719453590022],"type":"Point"},"placekey":"@hv5-btx-tsq","address":{"country_code":"ZM","formatted_address":"HC2V+522, Kabwe, Zambia","locality":"Kabwe","region":"Central Province"}},"labels":["soccer","sport"],"duration":0,"start_local":"2024-05-25T15:00:00","end":"2024-05-25T13:00:00Z","end_local":"2024-05-25T15:00:00","updated":"2024-06-12T08:08:08Z"},{"title":"Super League - ZESCO United vs Trident","description":"Sourced from predicthq.com","category":"sports","start":"2024-05-25T13:00:00Z","geo":{"geometry":{"coordinates":[28.6112875,-12.9750427],"type":"Point"},"placekey":"@hv3-ybf-xbk","address":{"country_code":"ZM","formatted_address":"2JF6+WH4, T3, Ndola, Zambia","locality":"Ndola","region":"Copperbelt Province"}},"labels":["soccer","sport"],"duration":0,"start_local":"2024-05-25T15:00:00","end":"2024-05-25T13:00:00Z","end_local":"2024-05-25T15:00:00","updated":"2024-06-12T02:06:49Z"},{"title":"Super League - Kansanshi Dynamos vs Maestro United Zambia","description":"Sourced from predicthq.com","category":"sports","start":"2024-05-25T13:00:00Z","geo":{"geometry":{"coordinates":[26.41552795337293,-12.195394973434992],"type":"Point"},"placekey":"@hv6-cjw-4sq","address":{"country_code":"ZM","formatted_address":"RC38+V63, Solwezi, Zambia","locality":"Solwezi","region":"Northwestern Province"}},"labels":["soccer","sport"],"duration":0,"start_local":"2024-05-25T15:00:00","end":"2024-05-25T13:00:00Z","end_local":"2024-05-25T15:00:00","updated":"2024-06-12T08:42:21Z"},{"title":"Super League - Nkwazi vs Prison Leopards","description":"Sourced from predicthq.com","category":"sports","start":"2024-05-25T13:00:00Z","geo":{"geometry":{"coordinates":[28.297,-15.412643],"type":"Point"},"placekey":"@hvj-ymv-v9f","address":{"country_code":"ZM","formatted_address":"21 Nsunzu Rd, Lusaka, Zambia","locality":"Lusaka","region":"Lusaka Province"}},"labels":["soccer","sport"],"duration":0,"start_local":"2024-05-25T15:00:00","end":"2024-05-25T13:00:00Z","end_local":"2024-05-25T15:00:00","updated":"2024-06-12T00:43:50Z"},{"title":"Super League - Power Dynamos vs Mufulira Wanderers","description":"Sourced from predicthq.com","category":"sports","start":"2024-05-25T13:00:00Z","geo":{"geometry":{"coordinates":[28.2318297,-12.8439816],"type":"Point"},"placekey":"@hv4-93p-yd9","address":{"country_code":"ZM","formatted_address":"564J+CP4, Kitwe, Zambia","locality":"Kitwe","region":"Copperbelt Province"}},"labels":["soccer","sport"],"duration":0,"start_local":"2024-05-25T15:00:00","end":"2024-05-25T13:00:00Z","end_local":"2024-05-25T15:00:00","updated":"2024-06-12T15:11:35Z"},{"title":"Super League - Zanaco vs Mutondo Stars","description":"Sourced from predicthq.com","category":"sports","start":"2024-05-25T13:00:00Z","geo":{"geometry":{"coordinates":[28.267146348953247,-15.381074076080543],"type":"Point"},"placekey":"@hvj-ymr-2tv","address":{"country_code":"ZM","formatted_address":"J798+JR8, Lusaka, Zambia","locality":"Lusaka","region":"Lusaka Province"}},"labels":["soccer","sport"],"duration":0,"start_local":"2024-05-25T15:00:00","end":"2024-05-25T13:00:00Z","end_local":"2024-05-25T15:00:00","updated":"2024-06-12T00:56:57Z"},{"title":"Super League - Green Eagles vs Red Arrows","description":"Sourced from predicthq.com","category":"sports","start":"2024-05-25T13:00:00Z","geo":{"geometry":{"coordinates":[26.987991749,-16.813984248],"type":"Point"},"placekey":"@hvj-bzt-8n5","address":{"country_code":"ZM","formatted_address":"5XPQ+C5H, Choma, Zambia","locality":"Choma","region":"Southern Province"}},"labels":["soccer","sport"],"duration":0,"start_local":"2024-05-25T15:00:00","end":"2024-05-25T13:00:00Z","end_local":"2024-05-25T15:00:00","updated":"2024-06-12T08:20:36Z"},{"title":"Super League - Konkola Blades vs NAPSA Stars","description":"Sourced from predicthq.com","category":"sports","start":"2024-05-25T13:00:00Z","geo":{"geometry":{"coordinates":[27.8242493,-12.3607533],"type":"Point"},"placekey":"@hv8-35g-4gk","address":{"country_code":"ZM","formatted_address":"JRQF+MMX, Chililabombwe, Zambia","locality":"Chililabombwe","region":"Copperbelt Province"}},"labels":["soccer","sport"],"duration":0,"start_local":"2024-05-25T15:00:00","end":"2024-05-25T13:00:00Z","end_local":"2024-05-25T15:00:00","updated":"2024-06-12T12:35:53Z"},{"title":"H3d Symposium","description":"Sourced from predicthq.com","category":"conferences","start":"2024-05-21T07:00:00Z","geo":{"geometry":{"coordinates":[25.846816,-17.891388],"type":"Point"},"placekey":"@hyf-vj6-5vf","address":{"country_code":"ZM","formatted_address":"Confluence of the Maramba River and, Mosi - Oa - Tunya Road, Livingstone 10101, Zambia","postcode":"10101","locality":"Livingstone","region":"Southern Province"}},"labels":["conference"],"duration":291600,"start_local":"2024-05-21T09:00:00","end":"2024-05-24T16:00:00Z","end_local":"2024-05-24T18:00:00","updated":"2024-05-31T22:54:13Z"},{"title":"Zambia International Mining Investment Conference Lusaka 2024","description":"Sourced from predicthq.com - Join us for what is fast becoming  Africa's best mining investment destination in Lusaka on the 21st -22nd May 2024   it's going to be epic!","category":"conferences","start":"2024-05-21T05:30:00Z","geo":{"geometry":{"coordinates":[28.2773267,-15.4154677],"type":"Point"},"placekey":"@hvj-ymy-54v","address":{"country_code":"ZM","formatted_address":"Lusaka, Lusaka Province, Zambia","locality":"Lusaka","region":"Lusaka Province"}},"labels":["business","conference"],"duration":122400,"start_local":"2024-05-21T07:30:00","end":"2024-05-22T15:30:00Z","end_local":"2024-05-22T17:30:00","updated":"2024-06-05T17:31:19Z"},{"title":"Super League - Maestro United Zambia vs Green Buffaloes","description":"Sourced from predicthq.com","category":"sports","start":"2024-05-19T13:00:00Z","geo":{"geometry":{"coordinates":[27.7659893,-15.8418885],"type":"Point"},"placekey":"@hvj-whd-8gk","address":{"country_code":"ZM","formatted_address":"5Q58+69X, Mazabuka, Zambia","locality":"Mazabuka","region":"Southern Province"}},"labels":["soccer","sport"],"duration":0,"start_local":"2024-05-19T15:00:00","end":"2024-05-19T13:00:00Z","end_local":"2024-05-19T15:00:00","updated":"2024-06-12T07:16:10Z"},{"title":"Super League - Nkana vs Kansanshi Dynamos","description":"Sourced from predicthq.com","category":"sports","start":"2024-05-19T13:00:00Z","geo":{"geometry":{"coordinates":[28.2113602,-12.8470135],"type":"Point"},"placekey":"@hv4-93r-85f","address":{"country_code":"ZM","formatted_address":"5636+5GX, Kitwe, Zambia","locality":"Kitwe","region":"Copperbelt Province"}},"labels":["soccer","sport"],"duration":0,"start_local":"2024-05-19T15:00:00","end":"2024-05-19T13:00:00Z","end_local":"2024-05-19T15:00:00","updated":"2024-06-12T12:56:51Z"},{"title":"Super League - Forest Rangers vs ZESCO United","description":"Sourced from predicthq.com","category":"sports","start":"2024-05-18T13:00:00Z","geo":{"geometry":{"coordinates":[28.633487820625305,-13.00146866819993],"type":"Point"},"placekey":"@hv3-yb3-26k","address":{"country_code":"ZM","formatted_address":"XJXM+G26, Ndola, Zambia","locality":"Ndola","region":"Copperbelt Province"}},"labels":["soccer","sport"],"duration":0,"start_local":"2024-05-18T15:00:00","end":"2024-05-18T13:00:00Z","end_local":"2024-05-18T15:00:00","updated":"2024-06-12T05:07:12Z"},{"title":"Super League - Prison Leopards vs Green Eagles","description":"Sourced from predicthq.com","category":"sports","start":"2024-05-18T13:00:00Z","geo":{"geometry":{"coordinates":[28.421847336418182,-14.451332728703006],"type":"Point"},"placekey":"@hv5-bv6-pvz","address":{"country_code":"ZM","formatted_address":"GCXC+GP9, Kabwe, Zambia","locality":"Kabwe","region":"Central Province"}},"labels":["soccer","sport"],"duration":0,"start_local":"2024-05-18T15:00:00","end":"2024-05-18T13:00:00Z","end_local":"2024-05-18T15:00:00","updated":"2024-06-12T07:37:39Z"},{"title":"Super League - Mufulira Wanderers vs Konkola Blades","description":"Sourced from predicthq.com","category":"sports","start":"2024-05-18T13:00:00Z","geo":{"geometry":{"coordinates":[28.2340227,-12.542953],"type":"Point"},"placekey":"@hv4-y3z-snq","address":{"country_code":"ZM","formatted_address":"Mufulira, Zambia","locality":"Mufulira","region":"Copperbelt Province"}},"labels":["soccer","sport"],"duration":0,"start_local":"2024-05-18T15:00:00","end":"2024-05-18T13:00:00Z","end_local":"2024-05-18T15:00:00","updated":"2024-06-12T17:01:08Z"},{"title":"Super League - Red Arrows vs Zanaco","description":"Sourced from predicthq.com","category":"sports","start":"2024-05-18T13:00:00Z","geo":{"geometry":{"coordinates":[28.3757783,-15.3719212],"type":"Point"},"placekey":"@hvf-vhn-5mk","address":{"country_code":"ZM","formatted_address":"J9HG+68J, Lusaka, Zambia","locality":"Lusaka","region":"Lusaka Province"}},"labels":["soccer","sport"],"duration":0,"start_local":"2024-05-18T15:00:00","end":"2024-05-18T13:00:00Z","end_local":"2024-05-18T15:00:00","updated":"2024-06-12T05:06:48Z"},{"title":"Super League - Trident vs Power Dynamos","description":"Sourced from predicthq.com","category":"sports","start":"2024-05-18T13:00:00Z","geo":{"geometry":{"coordinates":[26.41552795337293,-12.195394973434992],"type":"Point"},"placekey":"@hv6-cjw-4sq","address":{"country_code":"ZM","formatted_address":"RC38+V63, Solwezi, Zambia","locality":"Solwezi","region":"Northwestern Province"}},"labels":["soccer","sport"],"duration":0,"start_local":"2024-05-18T15:00:00","end":"2024-05-18T13:00:00Z","end_local":"2024-05-18T15:00:00","updated":"2024-06-12T00:38:25Z"},{"title":"Super League - Mutondo Stars vs Kabwe Warriors","description":"Sourced from predicthq.com","category":"sports","start":"2024-05-18T13:00:00Z","geo":{"geometry":{"coordinates":[28.2318297,-12.8439816],"type":"Point"},"placekey":"@hv4-93p-yd9","address":{"country_code":"ZM","formatted_address":"564J+CP4, Kitwe, Zambia","locality":"Kitwe","region":"Copperbelt Province"}},"labels":["soccer","sport"],"duration":0,"start_local":"2024-05-18T15:00:00","end":"2024-05-18T13:00:00Z","end_local":"2024-05-18T15:00:00","updated":"2024-06-12T06:49:27Z"},{"title":"Super League - NAPSA Stars vs Nkwazi","description":"Sourced from predicthq.com","category":"sports","start":"2024-05-18T11:00:00Z","geo":{"geometry":{"coordinates":[28.3757783,-15.3719212],"type":"Point"},"placekey":"@hvf-vhn-5mk","address":{"country_code":"ZM","formatted_address":"J9HG+68J, Lusaka, Zambia","locality":"Lusaka","region":"Lusaka Province"}},"labels":["soccer","sport"],"duration":0,"start_local":"2024-05-18T13:00:00","end":"2024-05-18T11:00:00Z","end_local":"2024-05-18T13:00:00","updated":"2024-06-12T04:37:52Z"},{"title":"Super League - Green Buffaloes vs Nkana","description":"Sourced from predicthq.com","category":"sports","start":"2024-05-16T13:00:00Z","geo":{"geometry":{"coordinates":[28.297,-15.412643],"type":"Point"},"placekey":"@hvj-ymv-v9f","address":{"country_code":"ZM","formatted_address":"21 Nsunzu Rd, Lusaka, Zambia","locality":"Lusaka","region":"Lusaka Province"}},"labels":["soccer","sport"],"duration":0,"start_local":"2024-05-16T15:00:00","end":"2024-05-16T13:00:00Z","end_local":"2024-05-16T15:00:00","updated":"2024-06-11T22:04:48Z"},{"title":"Super League - ZESCO United vs Maestro United Zambia","description":"Sourced from predicthq.com","category":"sports","start":"2024-05-15T13:00:00Z","geo":{"geometry":{"coordinates":[28.6112875,-12.9750427],"type":"Point"},"placekey":"@hv3-ybf-xbk","address":{"country_code":"ZM","formatted_address":"2JF6+WH4, T3, Ndola, Zambia","locality":"Ndola","region":"Copperbelt Province"}},"labels":["soccer","sport"],"duration":0,"start_local":"2024-05-15T15:00:00","end":"2024-05-15T13:00:00Z","end_local":"2024-05-15T15:00:00","updated":"2024-06-12T04:35:11Z"},{"title":"Super League - Kansanshi Dynamos vs Mutondo Stars","description":"Sourced from predicthq.com","category":"sports","start":"2024-05-15T13:00:00Z","geo":{"geometry":{"coordinates":[26.41552795337293,-12.195394973434992],"type":"Point"},"placekey":"@hv6-cjw-4sq","address":{"country_code":"ZM","formatted_address":"RC38+V63, Solwezi, Zambia","locality":"Solwezi","region":"Northwestern Province"}},"labels":["soccer","sport"],"duration":0,"start_local":"2024-05-15T15:00:00","end":"2024-05-15T13:00:00Z","end_local":"2024-05-15T15:00:00","updated":"2024-06-11T22:37:23Z"},{"title":"Super League - Green Eagles vs Zanaco","description":"Sourced from predicthq.com","category":"sports","start":"2024-05-15T13:00:00Z","geo":{"geometry":{"coordinates":[26.987991749,-16.813984248],"type":"Point"},"placekey":"@hvj-bzt-8n5","address":{"country_code":"ZM","formatted_address":"5XPQ+C5H, Choma, Zambia","locality":"Choma","region":"Southern Province"}},"labels":["soccer","sport"],"duration":0,"start_local":"2024-05-15T15:00:00","end":"2024-05-15T13:00:00Z","end_local":"2024-05-15T15:00:00","updated":"2024-06-12T08:51:34Z"},{"title":"Super League - Power Dynamos vs Forest Rangers","description":"Sourced from predicthq.com","category":"sports","start":"2024-05-15T13:00:00Z","geo":{"geometry":{"coordinates":[28.2318297,-12.8439816],"type":"Point"},"placekey":"@hv4-93p-yd9","address":{"country_code":"ZM","formatted_address":"564J+CP4, Kitwe, Zambia","locality":"Kitwe","region":"Copperbelt Province"}},"labels":["soccer","sport"],"duration":0,"start_local":"2024-05-15T15:00:00","end":"2024-05-15T13:00:00Z","end_local":"2024-05-15T15:00:00","updated":"2024-06-12T07:59:45Z"},{"title":"Super League - Konkola Blades vs Trident","description":"Sourced from predicthq.com","category":"sports","start":"2024-05-15T13:00:00Z","geo":{"geometry":{"coordinates":[27.8242493,-12.3607533],"type":"Point"},"placekey":"@hv8-35g-4gk","address":{"country_code":"ZM","formatted_address":"JRQF+MMX, Chililabombwe, Zambia","locality":"Chililabombwe","region":"Copperbelt Province"}},"labels":["soccer","sport"],"duration":0,"start_local":"2024-05-15T15:00:00","end":"2024-05-15T13:00:00Z","end_local":"2024-05-15T15:00:00","updated":"2024-06-12T06:27:32Z"},{"title":"Super League - Kabwe Warriors vs Red Arrows","description":"Sourced from predicthq.com","category":"sports","start":"2024-05-15T13:00:00Z","geo":{"geometry":{"coordinates":[28.442428708076477,-14.449719453590022],"type":"Point"},"placekey":"@hv5-btx-tsq","address":{"country_code":"ZM","formatted_address":"HC2V+522, Kabwe, Zambia","locality":"Kabwe","region":"Central Province"}},"labels":["soccer","sport"],"duration":0,"start_local":"2024-05-15T15:00:00","end":"2024-05-15T13:00:00Z","end_local":"2024-05-15T15:00:00","updated":"2024-06-12T02:00:31Z"},{"title":"Super League - Nkwazi vs Mufulira Wanderers","description":"Sourced from predicthq.com","category":"sports","start":"2024-05-15T13:00:00Z","geo":{"geometry":{"coordinates":[28.297,-15.412643],"type":"Point"},"placekey":"@hvj-ymv-v9f","address":{"country_code":"ZM","formatted_address":"21 Nsunzu Rd, Lusaka, Zambia","locality":"Lusaka","region":"Lusaka Province"}},"labels":["soccer","sport"],"duration":0,"start_local":"2024-05-15T15:00:00","end":"2024-05-15T13:00:00Z","end_local":"2024-05-15T15:00:00","updated":"2024-06-12T07:42:01Z"},{"title":"TAG Inaugural Inclusive Insurance Conference","description":"Sourced from predicthq.com","category":"conferences","start":"2024-05-08T07:00:00Z","geo":{"geometry":{"coordinates":[25.846816,-17.891388],"type":"Point"},"placekey":"@hyf-vj6-5vf","address":{"country_code":"ZM","formatted_address":"Confluence of the Maramba River and, Mosi - Oa - Tunya Road, Livingstone 10101, Zambia","postcode":"10101","locality":"Livingstone","region":"Southern Province"}},"labels":["conference"],"duration":205200,"start_local":"2024-05-08T09:00:00","end":"2024-05-10T16:00:00Z","end_local":"2024-05-10T18:00:00","updated":"2024-05-31T22:54:13Z"},{"title":"The Lusaka Business EXPO and Summit","description":"Sourced from predicthq.com","category":"expos","start":"2024-05-07T07:00:00Z","geo":{"geometry":{"coordinates":[28.313606,-15.392834],"type":"Point"},"placekey":"@hvj-ymy-xbk","address":{"country_code":"ZM","formatted_address":"8025 Great E Rd, Lusaka, Zambia","locality":"Lusaka","region":"Lusaka Province"}},"labels":["expo"],"duration":32400,"start_local":"2024-05-07T09:00:00","end":"2024-05-07T16:00:00Z","end_local":"2024-05-07T18:00:00","updated":"2024-05-28T15:28:10Z"},{"title":"El Mukuka","description":"Sourced from predicthq.com","category":"concerts","start":"2024-05-04T16:00:00Z","geo":{"geometry":{"coordinates":[28.34391,-15.41193],"type":"Point"},"placekey":"@hvj-yq7-psq","address":{"country_code":"ZM","formatted_address":"Kudu Road, Lusaka, Zambia","locality":"Lusaka","region":"Lusaka Province"}},"labels":["concert","music"],"duration":0,"start_local":"2024-05-04T18:00:00","end":"2024-05-04T16:00:00Z","end_local":"2024-05-04T18:00:00","updated":"2024-06-11T21:56:21Z"},{"title":"Super League - Trident vs Nkwazi","description":"Sourced from predicthq.com","category":"sports","start":"2024-05-04T13:00:00Z","geo":{"geometry":{"coordinates":[26.41552795337293,-12.195394973434992],"type":"Point"},"placekey":"@hv6-cjw-4sq","address":{"country_code":"ZM","formatted_address":"RC38+V63, Solwezi, Zambia","locality":"Solwezi","region":"Northwestern Province"}},"labels":["soccer","sport"],"duration":0,"start_local":"2024-05-04T15:00:00","end":"2024-05-04T13:00:00Z","end_local":"2024-05-04T15:00:00","updated":"2024-06-12T01:29:42Z"},{"title":"Mega Women’s Half Marathon","description":"Sourced from predicthq.com","category":"sports","start":"2024-05-04T04:00:00Z","geo":{"geometry":{"coordinates":[28.3185684,-15.3968665],"type":"Point"},"placekey":"@hvj-ymz-m8v","address":{"country_code":"ZM","formatted_address":"Lusaka, Lusaka Province, Zambia","locality":"Lusaka","region":"Lusaka Province"}},"labels":["marathon","outdoor-sports","running","sport"],"duration":0,"start_local":"2024-05-04T06:00:00","end":"2024-05-04T04:00:00Z","end_local":"2024-05-04T06:00:00","updated":"2024-06-05T00:28:09Z"},{"title":"Super League - Mufulira Wanderers vs Prison Leopards","description":"Sourced from predicthq.com","category":"sports","start":"2024-04-28T13:00:00Z","geo":{"geometry":{"coordinates":[28.2340227,-12.542953],"type":"Point"},"placekey":"@hv4-y3z-snq","address":{"country_code":"ZM","formatted_address":"Mufulira, Zambia","locality":"Mufulira","region":"Copperbelt Province"}},"labels":["soccer","sport"],"duration":0,"start_local":"2024-04-28T15:00:00","end":"2024-04-28T13:00:00Z","end_local":"2024-04-28T15:00:00","updated":"2024-06-12T07:42:23Z"},{"title":"Super League - Maestro United Zambia vs Power Dynamos","description":"Sourced from predicthq.com","category":"sports","start":"2024-04-28T13:00:00Z","geo":{"geometry":{"coordinates":[27.7659893,-15.8418885],"type":"Point"},"placekey":"@hvj-whd-8gk","address":{"country_code":"ZM","formatted_address":"5Q58+69X, Mazabuka, Zambia","locality":"Mazabuka","region":"Southern Province"}},"labels":["soccer","sport"],"duration":0,"start_local":"2024-04-28T15:00:00","end":"2024-04-28T13:00:00Z","end_local":"2024-04-28T15:00:00","updated":"2024-06-12T09:37:51Z"},{"title":"Super League - Mutondo Stars vs Green Buffaloes","description":"Sourced from predicthq.com","category":"sports","start":"2024-04-28T13:00:00Z","geo":{"geometry":{"coordinates":[28.2318297,-12.8439816],"type":"Point"},"placekey":"@hv4-93p-yd9","address":{"country_code":"ZM","formatted_address":"564J+CP4, Kitwe, Zambia","locality":"Kitwe","region":"Copperbelt Province"}},"labels":["soccer","sport"],"duration":0,"start_local":"2024-04-28T15:00:00","end":"2024-04-28T13:00:00Z","end_local":"2024-04-28T15:00:00","updated":"2024-06-11T21:23:11Z"},{"title":"Super League - Zanaco vs Kabwe Warriors","description":"Sourced from predicthq.com","category":"sports","start":"2024-04-28T13:00:00Z","geo":{"geometry":{"coordinates":[28.267146348953247,-15.381074076080543],"type":"Point"},"placekey":"@hvj-ymr-2tv","address":{"country_code":"ZM","formatted_address":"J798+JR8, Lusaka, Zambia","locality":"Lusaka","region":"Lusaka Province"}},"labels":["soccer","sport"],"duration":0,"start_local":"2024-04-28T15:00:00","end":"2024-04-28T13:00:00Z","end_local":"2024-04-28T15:00:00","updated":"2024-06-12T02:47:07Z"},{"title":"Super League - Forest Rangers vs Konkola Blades","description":"Sourced from predicthq.com","category":"sports","start":"2024-04-27T13:00:00Z","geo":{"geometry":{"coordinates":[28.633487820625305,-13.00146866819993],"type":"Point"},"placekey":"@hv3-yb3-26k","address":{"country_code":"ZM","formatted_address":"XJXM+G26, Ndola, Zambia","locality":"Ndola","region":"Copperbelt Province"}},"labels":["soccer","sport"],"duration":0,"start_local":"2024-04-27T15:00:00","end":"2024-04-27T13:00:00Z","end_local":"2024-04-27T15:00:00","updated":"2024-06-11T21:49:37Z"},{"title":"Super League - Red Arrows vs Kansanshi Dynamos","description":"Sourced from predicthq.com","category":"sports","start":"2024-04-27T13:00:00Z","geo":{"geometry":{"coordinates":[28.3757783,-15.3719212],"type":"Point"},"placekey":"@hvf-vhn-5mk","address":{"country_code":"ZM","formatted_address":"J9HG+68J, Lusaka, Zambia","locality":"Lusaka","region":"Lusaka Province"}},"labels":["soccer","sport"],"duration":0,"start_local":"2024-04-27T15:00:00","end":"2024-04-27T13:00:00Z","end_local":"2024-04-27T15:00:00","updated":"2024-06-11T23:28:19Z"},{"title":"Super League - Nkana vs ZESCO United","description":"Sourced from predicthq.com","category":"sports","start":"2024-04-27T13:00:00Z","geo":{"geometry":{"coordinates":[28.2113602,-12.8470135],"type":"Point"},"placekey":"@hv4-93r-85f","address":{"country_code":"ZM","formatted_address":"5636+5GX, Kitwe, Zambia","locality":"Kitwe","region":"Copperbelt Province"}},"labels":["soccer","sport"],"duration":0,"start_local":"2024-04-27T15:00:00","end":"2024-04-27T13:00:00Z","end_local":"2024-04-27T15:00:00","updated":"2024-06-12T02:03:22Z"},{"title":"Super League - NAPSA Stars vs Green Eagles","description":"Sourced from predicthq.com","category":"sports","start":"2024-04-27T13:00:00Z","geo":{"geometry":{"coordinates":[28.34749192,-15.44593471],"type":"Point"},"placekey":"@hvf-v9s-66k","address":{"country_code":"ZM","formatted_address":"H83W+HXQ, 20213 Buluwe Rd, Lusaka, Zambia","locality":"Lusaka","region":"Lusaka Province"}},"labels":["soccer","sport"],"duration":0,"start_local":"2024-04-27T15:00:00","end":"2024-04-27T13:00:00Z","end_local":"2024-04-27T15:00:00","updated":"2024-06-12T06:01:30Z"},{"title":"Wicys UNZA Chapter: Launching Your Cybersecurity Career","description":"Sourced from predicthq.com - Join us at the Wicys UNZA Chapter event to kickstart your cybersecurity career with valuable insights, networking opportunities, and practic","category":"conferences","start":"2024-04-27T08:00:00Z","geo":{"geometry":{"coordinates":[28.3284985,-15.392315],"type":"Point"},"placekey":"@hvj-yqd-975","address":{"country_code":"ZM","formatted_address":"Lusaka, Lusaka Province, Zambia","locality":"Lusaka","region":"Lusaka Province"}},"labels":["conference","science","technology"],"duration":7200,"start_local":"2024-04-27T10:00:00","end":"2024-04-27T10:00:00Z","end_local":"2024-04-27T12:00:00","updated":"2024-06-05T08:54:37Z"},{"title":"Super League - Maestro United Zambia vs Nkwazi","description":"Sourced from predicthq.com","category":"sports","start":"2024-04-24T13:00:00Z","geo":{"geometry":{"coordinates":[27.7659893,-15.8418885],"type":"Point"},"placekey":"@hvj-whd-8gk","address":{"country_code":"ZM","formatted_address":"5Q58+69X, Mazabuka, Zambia","locality":"Mazabuka","region":"Southern Province"}},"labels":["soccer","sport"],"duration":0,"start_local":"2024-04-24T15:00:00","end":"2024-04-24T13:00:00Z","end_local":"2024-04-24T15:00:00","updated":"2024-06-12T18:32:52Z"},{"title":"Odoo Roadshow Lusaka","description":"Sourced from predicthq.com - Are you tired of complicated software and using multiple apps to run your business? Let’s simplify everything with Odoo!","category":"conferences","start":"2024-04-22T16:00:00Z","geo":{"geometry":{"coordinates":[28.300638,-15.416872],"type":"Point"},"placekey":"@hvj-ymw-n5z","address":{"country_code":"ZM","formatted_address":"Church Rd, Lusaka 35450, Zambia","postcode":"35450","locality":"Lusaka","region":"Lusaka Province"}},"labels":["business","conference"],"duration":10800,"start_local":"2024-04-22T18:00:00","end":"2024-04-22T19:00:00Z","end_local":"2024-04-22T21:00:00","updated":"2024-06-04T04:07:01Z"},{"title":"International Beauty Products Exhibition","description":"Sourced from predicthq.com","category":"expos","start":"2024-04-22T07:00:00Z","geo":{"geometry":{"coordinates":[28.313606,-15.392834],"type":"Point"},"placekey":"@hvj-ymy-xbk","address":{"country_code":"ZM","formatted_address":"8025 Great E Rd, Lusaka, Zambia","locality":"Lusaka","region":"Lusaka Province"}},"labels":["expo"],"duration":378000,"start_local":"2024-04-22T09:00:00","end":"2024-04-26T16:00:00Z","end_local":"2024-04-26T18:00:00","updated":"2024-06-04T22:44:10Z"},{"title":"Super League - Green Buffaloes vs Red Arrows","description":"Sourced from predicthq.com","category":"sports","start":"2024-04-21T13:00:00Z","geo":{"geometry":{"coordinates":[28.297,-15.412643],"type":"Point"},"placekey":"@hvj-ymv-v9f","address":{"country_code":"ZM","formatted_address":"21 Nsunzu Rd, Lusaka, Zambia","locality":"Lusaka","region":"Lusaka Province"}},"labels":["soccer","sport"],"duration":0,"start_local":"2024-04-21T15:00:00","end":"2024-04-21T13:00:00Z","end_local":"2024-04-21T15:00:00","updated":"2024-06-12T02:53:27Z"},{"title":"Super League - Green Eagles vs Kabwe Warriors","description":"Sourced from predicthq.com","category":"sports","start":"2024-04-21T13:00:00Z","geo":{"geometry":{"coordinates":[26.987991749,-16.813984248],"type":"Point"},"placekey":"@hvj-bzt-8n5","address":{"country_code":"ZM","formatted_address":"5XPQ+C5H, Choma, Zambia","locality":"Choma","region":"Southern Province"}},"labels":["soccer","sport"],"duration":0,"start_local":"2024-04-21T15:00:00","end":"2024-04-21T13:00:00Z","end_local":"2024-04-21T15:00:00","updated":"2024-06-12T11:18:02Z"},{"title":"Super League - NAPSA Stars vs Mufulira Wanderers","description":"Sourced from predicthq.com","category":"sports","start":"2024-04-21T13:00:00Z","geo":{"geometry":{"coordinates":[28.34749192,-15.44593471],"type":"Point"},"placekey":"@hvf-v9s-66k","address":{"country_code":"ZM","formatted_address":"H83W+HXQ, 20213 Buluwe Rd, Lusaka, Zambia","locality":"Lusaka","region":"Lusaka Province"}},"labels":["soccer","sport"],"duration":0,"start_local":"2024-04-21T15:00:00","end":"2024-04-21T13:00:00Z","end_local":"2024-04-21T15:00:00","updated":"2024-06-12T02:47:01Z"},{"title":"Super League - Kansanshi Dynamos vs Zanaco","description":"Sourced from predicthq.com","category":"sports","start":"2024-04-21T13:00:00Z","geo":{"geometry":{"coordinates":[26.41552795337293,-12.195394973434992],"type":"Point"},"placekey":"@hv6-cjw-4sq","address":{"country_code":"ZM","formatted_address":"RC38+V63, Solwezi, Zambia","locality":"Solwezi","region":"Northwestern Province"}},"labels":["soccer","sport"],"duration":0,"start_local":"2024-04-21T15:00:00","end":"2024-04-21T13:00:00Z","end_local":"2024-04-21T15:00:00","updated":"2024-06-12T09:13:58Z"},{"title":"Super League - ZESCO United vs Mutondo Stars","description":"Sourced from predicthq.com","category":"sports","start":"2024-04-21T13:00:00Z","geo":{"geometry":{"coordinates":[28.6112875,-12.9750427],"type":"Point"},"placekey":"@hv3-ybf-xbk","address":{"country_code":"ZM","formatted_address":"2JF6+WH4, T3, Ndola, Zambia","locality":"Ndola","region":"Copperbelt Province"}},"labels":["soccer","sport"],"duration":0,"start_local":"2024-04-21T15:00:00","end":"2024-04-21T13:00:00Z","end_local":"2024-04-21T15:00:00","updated":"2024-06-12T04:39:31Z"},{"title":"Super League - Konkola Blades vs Maestro United Zambia","description":"Sourced from predicthq.com","category":"sports","start":"2024-04-21T13:00:00Z","geo":{"geometry":{"coordinates":[27.8242493,-12.3607533],"type":"Point"},"placekey":"@hv8-35g-4gk","address":{"country_code":"ZM","formatted_address":"JRQF+MMX, Chililabombwe, Zambia","locality":"Chililabombwe","region":"Copperbelt Province"}},"labels":["soccer","sport"],"duration":0,"start_local":"2024-04-21T15:00:00","end":"2024-04-21T13:00:00Z","end_local":"2024-04-21T15:00:00","updated":"2024-06-12T09:29:27Z"},{"title":"Super League - Prison Leopards vs Trident","description":"Sourced from predicthq.com","category":"sports","start":"2024-04-21T13:00:00Z","geo":{"geometry":{"coordinates":[28.421847336418182,-14.451332728703006],"type":"Point"},"placekey":"@hv5-bv6-pvz","address":{"country_code":"ZM","formatted_address":"GCXC+GP9, Kabwe, Zambia","locality":"Kabwe","region":"Central Province"}},"labels":["soccer","sport"],"duration":0,"start_local":"2024-04-21T15:00:00","end":"2024-04-21T13:00:00Z","end_local":"2024-04-21T15:00:00","updated":"2024-06-11T23:58:05Z"},{"title":"Super League - Power Dynamos vs Nkana","description":"Sourced from predicthq.com","category":"sports","start":"2024-04-20T13:00:00Z","geo":{"geometry":{"coordinates":[28.6112875,-12.9750427],"type":"Point"},"placekey":"@hv3-ybf-xbk","address":{"country_code":"ZM","formatted_address":"2JF6+WH4, T3, Ndola, Zambia","locality":"Ndola","region":"Copperbelt Province"}},"labels":["soccer","sport"],"duration":0,"start_local":"2024-04-20T15:00:00","end":"2024-04-20T13:00:00Z","end_local":"2024-04-20T15:00:00","updated":"2024-06-12T15:41:08Z"},{"title":"Super League - Nkwazi vs Forest Rangers","description":"Sourced from predicthq.com","category":"sports","start":"2024-04-20T13:00:00Z","geo":{"geometry":{"coordinates":[28.297,-15.412643],"type":"Point"},"placekey":"@hvj-ymv-v9f","address":{"country_code":"ZM","formatted_address":"21 Nsunzu Rd, Lusaka, Zambia","locality":"Lusaka","region":"Lusaka Province"}},"labels":["soccer","sport"],"duration":0,"start_local":"2024-04-20T15:00:00","end":"2024-04-20T13:00:00Z","end_local":"2024-04-20T15:00:00","updated":"2024-06-12T05:41:28Z"},{"title":"Super League - Red Arrows vs ZESCO United","description":"Sourced from predicthq.com","category":"sports","start":"2024-04-18T13:00:00Z","geo":{"geometry":{"coordinates":[28.3757783,-15.3719212],"type":"Point"},"placekey":"@hvf-vhn-5mk","address":{"country_code":"ZM","formatted_address":"J9HG+68J, Lusaka, Zambia","locality":"Lusaka","region":"Lusaka Province"}},"labels":["soccer","sport"],"duration":0,"start_local":"2024-04-18T15:00:00","end":"2024-04-18T13:00:00Z","end_local":"2024-04-18T15:00:00","updated":"2024-06-12T06:03:11Z"},{"title":"Super League - Mufulira Wanderers vs Green Eagles","description":"Sourced from predicthq.com","category":"sports","start":"2024-04-18T13:00:00Z","geo":{"geometry":{"coordinates":[28.2340227,-12.542953],"type":"Point"},"placekey":"@hv4-y3z-snq","address":{"country_code":"ZM","formatted_address":"Mufulira, Zambia","locality":"Mufulira","region":"Copperbelt Province"}},"labels":["soccer","sport"],"duration":0,"start_local":"2024-04-18T15:00:00","end":"2024-04-18T13:00:00Z","end_local":"2024-04-18T15:00:00","updated":"2024-06-12T08:21:39Z"},{"title":"AgriTech Expo Zambia","description":"Sourced from predicthq.com","category":"expos","start":"2024-04-18T07:00:00Z","geo":{"geometry":{"coordinates":[28.101926,-14.965864],"type":"Point"},"placekey":"@hvj-t3n-z2k","address":{"country_code":"ZM","formatted_address":"Central Province, Zambia","region":"Central Province"}},"labels":["expo"],"duration":205200,"start_local":"2024-04-18T09:00:00","end":"2024-04-20T16:00:00Z","end_local":"2024-04-20T18:00:00","updated":"2024-05-27T07:21:44Z"},{"title":"Super League - Trident vs NAPSA Stars","description":"Sourced from predicthq.com","category":"sports","start":"2024-04-17T13:00:00Z","geo":{"geometry":{"coordinates":[26.41552795337293,-12.195394973434992],"type":"Point"},"placekey":"@hv6-cjw-4sq","address":{"country_code":"ZM","formatted_address":"RC38+V63, Solwezi, Zambia","locality":"Solwezi","region":"Northwestern Province"}},"labels":["soccer","sport"],"duration":0,"start_local":"2024-04-17T15:00:00","end":"2024-04-17T13:00:00Z","end_local":"2024-04-17T15:00:00","updated":"2024-06-12T12:26:35Z"},{"title":"Super League - Forest Rangers vs Prison Leopards","description":"Sourced from predicthq.com","category":"sports","start":"2024-04-17T13:00:00Z","geo":{"geometry":{"coordinates":[28.633487820625305,-13.00146866819993],"type":"Point"},"placekey":"@hv3-yb3-26k","address":{"country_code":"ZM","formatted_address":"XJXM+G26, Ndola, Zambia","locality":"Ndola","region":"Copperbelt Province"}},"labels":["soccer","sport"],"duration":0,"start_local":"2024-04-17T15:00:00","end":"2024-04-17T13:00:00Z","end_local":"2024-04-17T15:00:00","updated":"2024-06-11T23:26:45Z"},{"title":"Super League - Mutondo Stars vs Power Dynamos","description":"Sourced from predicthq.com","category":"sports","start":"2024-04-17T13:00:00Z","geo":{"geometry":{"coordinates":[28.2318297,-12.8439816],"type":"Point"},"placekey":"@hv4-93p-yd9","address":{"country_code":"ZM","formatted_address":"564J+CP4, Kitwe, Zambia","locality":"Kitwe","region":"Copperbelt Province"}},"labels":["soccer","sport"],"duration":0,"start_local":"2024-04-17T15:00:00","end":"2024-04-17T13:00:00Z","end_local":"2024-04-17T15:00:00","updated":"2024-06-12T14:25:39Z"},{"title":"Super League - Zanaco vs Green Buffaloes","description":"Sourced from predicthq.com","category":"sports","start":"2024-04-17T13:00:00Z","geo":{"geometry":{"coordinates":[28.267146348953247,-15.381074076080543],"type":"Point"},"placekey":"@hvj-ymr-2tv","address":{"country_code":"ZM","formatted_address":"J798+JR8, Lusaka, Zambia","locality":"Lusaka","region":"Lusaka Province"}},"labels":["soccer","sport"],"duration":0,"start_local":"2024-04-17T15:00:00","end":"2024-04-17T13:00:00Z","end_local":"2024-04-17T15:00:00","updated":"2024-06-12T03:47:54Z"},{"title":"Super League - Kabwe Warriors vs Kansanshi Dynamos","description":"Sourced from predicthq.com","category":"sports","start":"2024-04-17T13:00:00Z","geo":{"geometry":{"coordinates":[28.442428708076477,-14.449719453590022],"type":"Point"},"placekey":"@hv5-btx-tsq","address":{"country_code":"ZM","formatted_address":"HC2V+522, Kabwe, Zambia","locality":"Kabwe","region":"Central Province"}},"labels":["soccer","sport"],"duration":0,"start_local":"2024-04-17T15:00:00","end":"2024-04-17T13:00:00Z","end_local":"2024-04-17T15:00:00","updated":"2024-06-12T08:43:31Z"},{"title":"Super League - Prison Leopards vs Maestro United Zambia","description":"Sourced from predicthq.com","category":"sports","start":"2024-04-07T13:00:00Z","geo":{"geometry":{"coordinates":[28.421847336418182,-14.451332728703006],"type":"Point"},"placekey":"@hv5-bv6-pvz","address":{"country_code":"ZM","formatted_address":"GCXC+GP9, Kabwe, Zambia","locality":"Kabwe","region":"Central Province"}},"labels":["soccer","sport"],"duration":0,"start_local":"2024-04-07T15:00:00","end":"2024-04-07T13:00:00Z","end_local":"2024-04-07T15:00:00","updated":"2024-06-12T06:19:15Z"},{"title":"Super League - Green Buffaloes vs Kabwe Warriors","description":"Sourced from predicthq.com","category":"sports","start":"2024-04-07T13:00:00Z","geo":{"geometry":{"coordinates":[28.297,-15.412643],"type":"Point"},"placekey":"@hvj-ymv-v9f","address":{"country_code":"ZM","formatted_address":"21 Nsunzu Rd, Lusaka, Zambia","locality":"Lusaka","region":"Lusaka Province"}},"labels":["soccer","sport"],"duration":0,"start_local":"2024-04-07T15:00:00","end":"2024-04-07T13:00:00Z","end_local":"2024-04-07T15:00:00","updated":"2024-06-12T04:05:45Z"},{"title":"Super League - NAPSA Stars vs Forest Rangers","description":"Sourced from predicthq.com","category":"sports","start":"2024-04-07T13:00:00Z","geo":{"geometry":{"coordinates":[28.34749192,-15.44593471],"type":"Point"},"placekey":"@hvf-v9s-66k","address":{"country_code":"ZM","formatted_address":"H83W+HXQ, 20213 Buluwe Rd, Lusaka, Zambia","locality":"Lusaka","region":"Lusaka Province"}},"labels":["soccer","sport"],"duration":0,"start_local":"2024-04-07T15:00:00","end":"2024-04-07T13:00:00Z","end_local":"2024-04-07T15:00:00","updated":"2024-06-12T08:09:59Z"},{"title":"Super League - ZESCO United vs Zanaco","description":"Sourced from predicthq.com","category":"sports","start":"2024-04-07T13:00:00Z","geo":{"geometry":{"coordinates":[28.6112875,-12.9750427],"type":"Point"},"placekey":"@hv3-ybf-xbk","address":{"country_code":"ZM","formatted_address":"2JF6+WH4, T3, Ndola, Zambia","locality":"Ndola","region":"Copperbelt Province"}},"labels":["soccer","sport"],"duration":0,"start_local":"2024-04-07T15:00:00","end":"2024-04-07T13:00:00Z","end_local":"2024-04-07T15:00:00","updated":"2024-06-12T02:26:00Z"},{"title":"Super League - Green Eagles vs Kansanshi Dynamos","description":"Sourced from predicthq.com","category":"sports","start":"2024-04-07T13:00:00Z","geo":{"geometry":{"coordinates":[26.987991749,-16.813984248],"type":"Point"},"placekey":"@hvj-bzt-8n5","address":{"country_code":"ZM","formatted_address":"5XPQ+C5H, Choma, Zambia","locality":"Choma","region":"Southern Province"}},"labels":["soccer","sport"],"duration":0,"start_local":"2024-04-07T15:00:00","end":"2024-04-07T13:00:00Z","end_local":"2024-04-07T15:00:00","updated":"2024-06-12T02:58:18Z"},{"title":"Super League - Mufulira Wanderers vs Trident","description":"Sourced from predicthq.com","category":"sports","start":"2024-04-07T13:00:00Z","geo":{"geometry":{"coordinates":[28.2340227,-12.542953],"type":"Point"},"placekey":"@hv4-y3z-snq","address":{"country_code":"ZM","formatted_address":"Mufulira, Zambia","locality":"Mufulira","region":"Copperbelt Province"}},"labels":["soccer","sport"],"duration":0,"start_local":"2024-04-07T15:00:00","end":"2024-04-07T13:00:00Z","end_local":"2024-04-07T15:00:00","updated":"2024-06-12T19:45:37Z"}]