[{"title":"Voyager travel expo","description":"Sourced from predicthq.com - Join us at Voyager Travel Expo to explore exciting destinations, discover new adventures, and plan your next epic journey!","category":"expos","start":"2024-09-26T08:00:00Z","geo":{"geometry":{"coordinates":[25.85153249999999,-18.0961317],"type":"Point"},"placekey":"@hyf-t7x-xbk","address":{"country_code":"ZW","formatted_address":"A8, Victoria Falls, Zimbabwe","locality":"Victoria Falls","region":"Matabeleland North Province"}},"labels":["expo","outdoor"],"duration":108000,"start_local":"2024-09-26T10:00:00","end":"2024-09-27T14:00:00Z","end_local":"2024-09-27T16:00:00","updated":"2024-06-04T12:05:54Z"},{"title":"International Conference on Health Care Reform, Health Economics And Health Policy","description":"Sourced from predicthq.com","category":"conferences","start":"2024-09-18T07:00:00Z","geo":{"geometry":{"coordinates":[28.608676,-20.160807],"type":"Point"},"placekey":"@hxr-w9g-yqf","address":{"country_code":"ZW","formatted_address":"Minerton Dr, Bulawayo, Zimbabwe","locality":"Bulawayo","region":"Bulawayo Province"}},"labels":["conference"],"duration":205200,"start_local":"2024-09-18T09:00:00","end":"2024-09-20T16:00:00Z","end_local":"2024-09-20T18:00:00","updated":"2024-06-30T04:27:57Z"},{"title":"HortiFlor Zimbabwe","description":"Sourced from predicthq.com","category":"expos","start":"2024-09-17T07:00:00Z","geo":{"geometry":{"coordinates":[31.034854,-17.830787],"type":"Point"},"placekey":"@hxw-d4r-xqz","address":{"country_code":"ZW","formatted_address":"The Rainbow Towers Hotel, 1 Pennefather Avenue, Harare, Zimbabwe","locality":"Harare","region":"Harare Province"}},"labels":["expo"],"duration":205200,"start_local":"2024-09-17T09:00:00","end":"2024-09-19T16:00:00Z","end_local":"2024-09-19T18:00:00","updated":"2024-06-04T11:55:07Z"},{"title":"FLAIR Ladies (Zimbabwe) Conference 2024","description":"Sourced from predicthq.com - FLAIR Ladies (Zimbabwe) Conference is a 2-day, red-carpet womenâ€™s event hosted by Prophetess Beverly Angel","category":"conferences","start":"2024-08-30T16:00:00Z","geo":{"geometry":{"coordinates":[31.06737559999999,-17.8400373],"type":"Point"},"placekey":"@hxw-brp-47q","address":{"country_code":"ZW","formatted_address":"Harare, Harare Province, Zimbabwe","locality":"Harare","region":"Harare Province"}},"labels":["conference"],"duration":0,"start_local":"2024-08-30T18:00:00","end":"2024-08-30T16:00:00Z","end_local":"2024-08-30T18:00:00","updated":"2024-06-06T05:01:03Z"},{"title":"ZimReal Property Investment Forum","description":"Sourced from predicthq.com","category":"conferences","start":"2024-08-28T07:00:00Z","geo":{"geometry":{"coordinates":[31.017956,-17.800436],"type":"Point"},"placekey":"@hxw-d4m-kfz","address":{"country_code":"ZW","formatted_address":"Quendon Road, Harare, Zimbabwe","locality":"Harare","region":"Harare Province"}},"labels":["conference"],"duration":32400,"start_local":"2024-08-28T09:00:00","end":"2024-08-28T16:00:00Z","end_local":"2024-08-28T18:00:00","updated":"2024-06-04T12:50:17Z"},{"title":"COECSA Annual Congress","description":"Sourced from predicthq.com","category":"conferences","start":"2024-08-21T07:00:00Z","geo":{"geometry":{"coordinates":[25.830665,-17.908637],"type":"Point"},"placekey":"@hyf-vmb-p7q","address":{"country_code":"ZW","formatted_address":"328 Park Way, Victoria Falls, Zimbabwe","locality":"Victoria Falls","region":"Matabeleland North Province"}},"labels":["conference"],"duration":205200,"start_local":"2024-08-21T09:00:00","end":"2024-08-23T16:00:00Z","end_local":"2024-08-23T18:00:00","updated":"2024-06-02T00:56:09Z"},{"title":"International Conference On Medical, Biological And Pharmaceutical Sciences","description":"Sourced from predicthq.com","category":"conferences","start":"2024-08-16T07:00:00Z","geo":{"geometry":{"coordinates":[28.608676,-20.160807],"type":"Point"},"placekey":"@hxr-w9g-yqf","address":{"country_code":"ZW","formatted_address":"Minerton Dr, Bulawayo, Zimbabwe","locality":"Bulawayo","region":"Bulawayo Province"}},"labels":["conference"],"duration":118800,"start_local":"2024-08-16T09:00:00","end":"2024-08-17T16:00:00Z","end_local":"2024-08-17T18:00:00","updated":"2024-06-04T14:01:38Z"},{"title":"Odoo Roadshow Harare","description":"Sourced from predicthq.com - Discover Odoo with our experts and partners in Harare !","category":"conferences","start":"2024-08-14T16:00:00Z","geo":{"geometry":{"coordinates":[31.03608700000001,-17.8314804],"type":"Point"},"placekey":"@hxw-d4s-mzf","address":{"country_code":"ZW","formatted_address":"Samora Machel Avenue, Harare, Zimbabwe","locality":"Harare","region":"Harare Province"}},"labels":["business","conference"],"duration":10800,"start_local":"2024-08-14T18:00:00","end":"2024-08-14T19:00:00Z","end_local":"2024-08-14T21:00:00","updated":"2024-06-27T02:41:01Z"},{"title":"Zimbabwe Property Expo","description":"Sourced from predicthq.com","category":"expos","start":"2024-08-08T22:00:00Z","geo":{"geometry":{"coordinates":[31.075566,-17.78289],"type":"Point"},"placekey":"@hxw-ddh-ghq","address":{"country_code":"ZW","formatted_address":"Swan Dr, Harare, Zimbabwe","locality":"Harare","region":"Harare Province"}},"labels":["expo"],"duration":172799,"start_local":"2024-08-09T00:00:00","end":"2024-08-10T21:59:59Z","end_local":"2024-08-10T23:59:59","updated":"2024-06-01T06:48:25Z"},{"title":"Organisation of Eastern and Southern Africa Insurers Annual Conference and AGM","description":"Sourced from predicthq.com","category":"conferences","start":"2024-08-04T07:00:00Z","geo":{"geometry":{"coordinates":[25.830665,-17.908637],"type":"Point"},"placekey":"@hyf-vmb-p7q","address":{"country_code":"ZW","formatted_address":"328 Park Way, Victoria Falls, Zimbabwe","locality":"Victoria Falls","region":"Matabeleland North Province"}},"labels":["conference"],"duration":291600,"start_local":"2024-08-04T09:00:00","end":"2024-08-07T16:00:00Z","end_local":"2024-08-07T18:00:00","updated":"2024-06-14T14:03:31Z"},{"title":"OESAI Annual Conference","description":"Sourced from predicthq.com","category":"conferences","start":"2024-08-04T07:00:00Z","geo":{"geometry":{"coordinates":[25.830665,-17.908637],"type":"Point"},"placekey":"@hyf-vmb-p7q","address":{"country_code":"ZW","formatted_address":"328 Park Way, Victoria Falls, Zimbabwe","locality":"Victoria Falls","region":"Matabeleland North Province"}},"labels":["conference"],"duration":291600,"start_local":"2024-08-04T09:00:00","end":"2024-08-07T16:00:00Z","end_local":"2024-08-07T18:00:00","updated":"2024-06-14T14:02:01Z"},{"title":"The African Philanthropy Conference","description":"Sourced from predicthq.com","category":"conferences","start":"2024-07-29T07:00:00Z","geo":{"geometry":{"coordinates":[25.830665,-17.908637],"type":"Point"},"placekey":"@hyf-vmb-p7q","address":{"country_code":"ZW","formatted_address":"328 Park Way, Victoria Falls, Zimbabwe","locality":"Victoria Falls","region":"Matabeleland North Province"}},"labels":["conference"],"duration":378000,"start_local":"2024-07-29T09:00:00","end":"2024-08-02T16:00:00Z","end_local":"2024-08-02T18:00:00","updated":"2024-05-28T08:18:36Z"},{"title":"Trends In Risk Management to Unlock Competitive Advantage From ERM","description":"Sourced from predicthq.com - Join us for our inaugural event to enhance your risk management expertise and learn the latest ERM practices tailored to Zimbabwe.","category":"conferences","start":"2024-07-26T08:00:00Z","geo":{"geometry":{"coordinates":[31.0220452,-17.8294935],"type":"Point"},"placekey":"@hxw-d4t-8vz","address":{"country_code":"ZW","formatted_address":"A5, Harare, Zimbabwe","locality":"Harare","region":"Harare Province"}},"labels":["business","conference"],"duration":9000,"start_local":"2024-07-26T10:00:00","end":"2024-07-26T10:30:00Z","end_local":"2024-07-26T12:30:00","updated":"2024-06-27T01:17:44Z"},{"title":"Society for Neuro-Oncology Sub-Saharan Africa Annual Conference","description":"Sourced from predicthq.com","category":"conferences","start":"2024-07-25T07:00:00Z","geo":{"geometry":{"coordinates":[31.100762,-17.832787],"type":"Point"},"placekey":"@hxw-brn-2kz","address":{"country_code":"ZW","formatted_address":"A5, Harare, Zimbabwe","locality":"Harare","region":"Harare Province"}},"labels":["conference"],"duration":205200,"start_local":"2024-07-25T09:00:00","end":"2024-07-27T16:00:00Z","end_local":"2024-07-27T18:00:00","updated":"2024-06-16T02:09:18Z"},{"title":"Dj Money Geek","description":"Sourced from predicthq.com","category":"concerts","start":"2024-07-22T18:00:00Z","geo":{"geometry":{"coordinates":[31.0447216,-17.8177776],"type":"Point"},"placekey":"@hxw-d4s-7qz","address":{"country_code":"ZW","formatted_address":"Harare, Harare Province, Zimbabwe","locality":"Harare","region":"Harare Province"}},"labels":["concert","music"],"duration":0,"start_local":"2024-07-22T20:00:00","end":"2024-07-22T18:00:00Z","end_local":"2024-07-22T20:00:00","updated":"2024-06-11T04:56:32Z"},{"title":"Mining, Engineering & Transport Expo","description":"Sourced from predicthq.com","category":"expos","start":"2024-07-16T22:00:00Z","geo":{"geometry":{"coordinates":[28.5885072,-20.167961],"type":"Point"},"placekey":"@hxr-w8h-3yv","address":{"country_code":"ZW","formatted_address":"P.O., Hillside Rd, Bulawayo, Zimbabwe","locality":"Bulawayo","region":"Bulawayo Province"}},"labels":["expo"],"duration":259199,"start_local":"2024-07-17T00:00:00","end":"2024-07-19T21:59:59Z","end_local":"2024-07-19T23:59:59","updated":"2024-06-02T21:45:45Z"},{"title":"Zimbabwe vs India","description":"Sourced from predicthq.com","category":"sports","start":"2024-07-14T11:00:00Z","geo":{"geometry":{"coordinates":[31.0508853,-17.8140511],"type":"Point"},"placekey":"@hxw-d4w-jqf","address":{"country_code":"ZW","formatted_address":"3 Lanark Rd, Harare, Zimbabwe","locality":"Harare","region":"Harare Province"}},"labels":["cricket","sport"],"duration":0,"start_local":"2024-07-14T13:00:00","end":"2024-07-14T11:00:00Z","end_local":"2024-07-14T13:00:00","updated":"2024-06-04T05:00:47Z"},{"title":"Zimbabwe vs India","description":"Sourced from predicthq.com","category":"sports","start":"2024-07-13T11:00:00Z","geo":{"geometry":{"coordinates":[31.0508853,-17.8140511],"type":"Point"},"placekey":"@hxw-d4w-jqf","address":{"country_code":"ZW","formatted_address":"3 Lanark Rd, Harare, Zimbabwe","locality":"Harare","region":"Harare Province"}},"labels":["cricket","sport"],"duration":0,"start_local":"2024-07-13T13:00:00","end":"2024-07-13T11:00:00Z","end_local":"2024-07-13T13:00:00","updated":"2024-06-04T00:58:37Z"},{"title":"Zimbabwe vs India","description":"Sourced from predicthq.com","category":"sports","start":"2024-07-10T16:00:00Z","geo":{"geometry":{"coordinates":[31.0508853,-17.8140511],"type":"Point"},"placekey":"@hxw-d4w-jqf","address":{"country_code":"ZW","formatted_address":"3 Lanark Rd, Harare, Zimbabwe","locality":"Harare","region":"Harare Province"}},"labels":["cricket","sport"],"duration":0,"start_local":"2024-07-10T18:00:00","end":"2024-07-10T16:00:00Z","end_local":"2024-07-10T18:00:00","updated":"2024-06-04T08:16:26Z"},{"title":"India tour of Zimbabwe - Zimbabwe vs India","description":"Sourced from predicthq.com","category":"sports","start":"2024-07-10T11:00:00Z","geo":{"geometry":{"coordinates":[31.0508853,-17.8140511],"type":"Point"},"placekey":"@hxw-d4w-jqf","address":{"country_code":"ZW","formatted_address":"3 Lanark Rd, Harare, Zimbabwe","locality":"Harare","region":"Harare Province"}},"labels":["cricket","sport"],"duration":0,"start_local":"2024-07-10T13:00:00","end":"2024-07-10T11:00:00Z","end_local":"2024-07-10T13:00:00","updated":"2024-06-04T00:39:48Z"},{"title":"Zimbabwe vs India","description":"Sourced from predicthq.com","category":"sports","start":"2024-07-07T11:00:00Z","geo":{"geometry":{"coordinates":[31.0508853,-17.8140511],"type":"Point"},"placekey":"@hxw-d4w-jqf","address":{"country_code":"ZW","formatted_address":"3 Lanark Rd, Harare, Zimbabwe","locality":"Harare","region":"Harare Province"}},"labels":["cricket","sport"],"duration":0,"start_local":"2024-07-07T13:00:00","end":"2024-07-07T11:00:00Z","end_local":"2024-07-07T13:00:00","updated":"2024-06-04T02:23:36Z"},{"title":"Zimbabwe vs India","description":"Sourced from predicthq.com","category":"sports","start":"2024-07-06T11:00:00Z","geo":{"geometry":{"coordinates":[31.0508853,-17.8140511],"type":"Point"},"placekey":"@hxw-d4w-jqf","address":{"country_code":"ZW","formatted_address":"3 Lanark Rd, Harare, Zimbabwe","locality":"Harare","region":"Harare Province"}},"labels":["cricket","sport"],"duration":0,"start_local":"2024-07-06T13:00:00","end":"2024-07-06T11:00:00Z","end_local":"2024-07-06T13:00:00","updated":"2024-06-04T01:54:49Z"},{"title":"Reekworth Schools Open day","description":"Sourced from predicthq.com - Come check out Reekworth Schools Open day - a fun-filled event where you can explore our campus and learn all about what we have to offer!","category":"expos","start":"2024-07-06T07:00:00Z","geo":{"geometry":{"coordinates":[31.1227976,-17.6966631],"type":"Point"},"placekey":"@hxw-df8-kxq","address":{"country_code":"ZW","formatted_address":"Rubidge Close, Harare, Zimbabwe","locality":"Harare","region":"Harare Province"}},"labels":["expo"],"duration":21600,"start_local":"2024-07-06T09:00:00","end":"2024-07-06T13:00:00Z","end_local":"2024-07-06T15:00:00","updated":"2024-06-06T02:13:55Z"},{"title":"Premier Soccer League - Chicken Inn vs Herentals","description":"Sourced from predicthq.com","category":"sports","start":"2024-06-30T13:00:00Z","geo":{"geometry":{"coordinates":[28.5064676,-20.1045146],"type":"Point"},"placekey":"@hys-3k2-mc5","address":{"country_code":"ZW","formatted_address":"Bulawayo, Zimbabwe","locality":"Bulawayo","region":"Bulawayo Province"}},"labels":["soccer","sport"],"duration":0,"start_local":"2024-06-30T15:00:00","end":"2024-06-30T13:00:00Z","end_local":"2024-06-30T15:00:00","updated":"2024-06-11T01:47:55Z"},{"title":"Premier Soccer League - Dynamos vs Green Fuel","description":"Sourced from predicthq.com","category":"sports","start":"2024-06-30T13:00:00Z","geo":{"geometry":{"coordinates":[31.0374519,-17.8538422],"type":"Point"},"placekey":"@hxw-d6g-2x5","address":{"country_code":"ZW","formatted_address":"42WP+FX8, Harare, Zimbabwe","locality":"Harare","region":"Harare Province"}},"labels":["soccer","sport"],"duration":0,"start_local":"2024-06-30T15:00:00","end":"2024-06-30T13:00:00Z","end_local":"2024-06-30T15:00:00","updated":"2024-06-11T05:06:36Z"},{"title":"Premier Soccer League - Hwange vs Bikita Minerals","description":"Sourced from predicthq.com","category":"sports","start":"2024-06-30T13:00:00Z","geo":{"geometry":{"coordinates":[26.497972011566162,-18.355625291762642],"type":"Point"},"placekey":"@hyf-pys-he9","address":{"country_code":"ZW","formatted_address":"JFVX+M5H, Stadium Rd, Hwange, Zimbabwe","locality":"Hwange","region":"Matabeleland North Province"}},"labels":["soccer","sport"],"duration":0,"start_local":"2024-06-30T15:00:00","end":"2024-06-30T13:00:00Z","end_local":"2024-06-30T15:00:00","updated":"2024-06-11T02:35:44Z"},{"title":"Premier Soccer League - TelOne vs Platinum","description":"Sourced from predicthq.com","category":"sports","start":"2024-06-30T13:00:00Z","geo":{"geometry":{"coordinates":[29.792277252,-19.468768052],"type":"Point"},"placekey":"@hxq-gst-dgk","address":{"country_code":"ZW","formatted_address":"GQJR+FW Gweru, Zimbabwe","locality":"Gweru","region":"Midlands Province"}},"labels":["soccer","sport"],"duration":0,"start_local":"2024-06-30T15:00:00","end":"2024-06-30T13:00:00Z","end_local":"2024-06-30T15:00:00","updated":"2024-06-11T04:27:11Z"},{"title":"Premier Soccer League - Chegutu Pirates vs Arenel Movers","description":"Sourced from predicthq.com","category":"sports","start":"2024-06-30T13:00:00Z","geo":{"geometry":{"coordinates":[30.2790304017227,-18.68045443250578],"type":"Point"},"placekey":"@hxr-6qc-7dv","address":{"country_code":"ZW","formatted_address":"Tangwena Road, Ngezi, Zimbabwe","locality":"Ngezi"}},"labels":["soccer","sport"],"duration":0,"start_local":"2024-06-30T15:00:00","end":"2024-06-30T13:00:00Z","end_local":"2024-06-30T15:00:00","updated":"2024-06-11T07:45:46Z"},{"title":"Premier Soccer League - Ngezi Platinum vs CAPS United","description":"Sourced from predicthq.com","category":"sports","start":"2024-06-29T13:00:00Z","geo":{"geometry":{"coordinates":[30.2790304017227,-18.68045443250578],"type":"Point"},"placekey":"@hxr-6qc-7dv","address":{"country_code":"ZW","formatted_address":"Tangwena Road, Ngezi, Zimbabwe","locality":"Ngezi"}},"labels":["soccer","sport"],"duration":0,"start_local":"2024-06-29T15:00:00","end":"2024-06-29T13:00:00Z","end_local":"2024-06-29T15:00:00","updated":"2024-06-11T06:09:21Z"},{"title":"Premier Soccer League - Bulawayo Chiefs vs Manica Diamonds","description":"Sourced from predicthq.com","category":"sports","start":"2024-06-29T13:00:00Z","geo":{"geometry":{"coordinates":[28.5064676,-20.1045146],"type":"Point"},"placekey":"@hys-3k2-mc5","address":{"country_code":"ZW","formatted_address":"Bulawayo, Zimbabwe","locality":"Bulawayo","region":"Bulawayo Province"}},"labels":["soccer","sport"],"duration":0,"start_local":"2024-06-29T15:00:00","end":"2024-06-29T13:00:00Z","end_local":"2024-06-29T15:00:00","updated":"2024-06-11T06:19:36Z"},{"title":"Premier Soccer League - Yadah vs Highlanders","description":"Sourced from predicthq.com","category":"sports","start":"2024-06-29T13:00:00Z","geo":{"geometry":{"coordinates":[31.040299077,-17.881076102],"type":"Point"},"placekey":"@hxw-d69-6x5","address":{"country_code":"ZW","formatted_address":"429R+H2M, Waterfalls Ave, Harare, Zimbabwe","locality":"Harare","region":"Harare Province"}},"labels":["soccer","sport"],"duration":0,"start_local":"2024-06-29T15:00:00","end":"2024-06-29T13:00:00Z","end_local":"2024-06-29T15:00:00","updated":"2024-06-25T16:56:15Z"},{"title":"Premier Soccer League - Simba Bhora vs Kariba","description":"Sourced from predicthq.com","category":"sports","start":"2024-06-29T13:00:00Z","geo":{"geometry":{"coordinates":[31.575156622,-17.297005706],"type":"Point"},"placekey":"@hxw-9cy-pgk","address":{"country_code":"ZW","formatted_address":"PH3G+535, Shamva, Zimbabwe","locality":"Shamva","region":"Mashonaland Central Province"}},"labels":["soccer","sport"],"duration":0,"start_local":"2024-06-29T15:00:00","end":"2024-06-29T13:00:00Z","end_local":"2024-06-29T15:00:00","updated":"2024-06-11T10:31:53Z"},{"title":"Premier Soccer League - CAPS United vs Chegutu Pirates","description":"Sourced from predicthq.com","category":"sports","start":"2024-06-23T13:00:00Z","geo":{"geometry":{"coordinates":[31.0374519,-17.8538422],"type":"Point"},"placekey":"@hxw-d6g-2x5","address":{"country_code":"ZW","formatted_address":"42WP+FX8, Harare, Zimbabwe","locality":"Harare","region":"Harare Province"}},"labels":["soccer","sport"],"duration":0,"start_local":"2024-06-23T15:00:00","end":"2024-06-23T13:00:00Z","end_local":"2024-06-23T15:00:00","updated":"2024-06-11T02:23:46Z"},{"title":"Premier Soccer League - Highlanders vs Hwange","description":"Sourced from predicthq.com","category":"sports","start":"2024-06-23T13:00:00Z","geo":{"geometry":{"coordinates":[28.5697673,-20.1308185],"type":"Point"},"placekey":"@hys-3jm-p35","address":{"country_code":"ZW","formatted_address":"VH99+MWC, Bulawayo, Zimbabwe","locality":"Bulawayo","region":"Bulawayo Province"}},"labels":["soccer","sport"],"duration":0,"start_local":"2024-06-23T15:00:00","end":"2024-06-23T13:00:00Z","end_local":"2024-06-23T15:00:00","updated":"2024-06-11T09:05:13Z"},{"title":"Premier Soccer League - Green Fuel vs Yadah","description":"Sourced from predicthq.com","category":"sports","start":"2024-06-23T13:00:00Z","geo":{"geometry":{"coordinates":[32.232679544,-20.874855722],"type":"Point"},"placekey":"@hxp-r3b-cqz","address":{"country_code":"ZW","formatted_address":"46GM+32Q, Chisumbanje, Zimbabwe","locality":"Chisumbanje","region":"Manicaland Province"}},"labels":["soccer","sport"],"duration":0,"start_local":"2024-06-23T15:00:00","end":"2024-06-23T13:00:00Z","end_local":"2024-06-23T15:00:00","updated":"2024-06-11T04:15:35Z"},{"title":"Premier Soccer League - Manica Diamonds vs Dynamos","description":"Sourced from predicthq.com","category":"sports","start":"2024-06-23T13:00:00Z","geo":{"geometry":{"coordinates":[32.6409915,-18.9967656],"type":"Point"},"placekey":"@hxx-7p4-vs5","address":{"country_code":"ZW","formatted_address":"2J3R+79 Mutare, Zimbabwe","locality":"Mutare","region":"Manicaland Province"}},"labels":["soccer","sport"],"duration":0,"start_local":"2024-06-23T15:00:00","end":"2024-06-23T13:00:00Z","end_local":"2024-06-23T15:00:00","updated":"2024-06-11T01:06:52Z"},{"title":"Premier Soccer League - Arenel Movers vs TelOne","description":"Sourced from predicthq.com","category":"sports","start":"2024-06-22T13:00:00Z","geo":{"geometry":{"coordinates":[28.5064676,-20.1045146],"type":"Point"},"placekey":"@hys-3k2-mc5","address":{"country_code":"ZW","formatted_address":"Bulawayo, Zimbabwe","locality":"Bulawayo","region":"Bulawayo Province"}},"labels":["soccer","sport"],"duration":0,"start_local":"2024-06-22T15:00:00","end":"2024-06-22T13:00:00Z","end_local":"2024-06-22T15:00:00","updated":"2024-06-11T09:13:08Z"},{"title":"Premier Soccer League - Herentals vs Ngezi Platinum","description":"Sourced from predicthq.com","category":"sports","start":"2024-06-22T13:00:00Z","geo":{"geometry":{"coordinates":[31.0374519,-17.8538422],"type":"Point"},"placekey":"@hxw-d6g-2x5","address":{"country_code":"ZW","formatted_address":"42WP+FX8, Harare, Zimbabwe","locality":"Harare","region":"Harare Province"}},"labels":["soccer","sport"],"duration":0,"start_local":"2024-06-22T15:00:00","end":"2024-06-22T13:00:00Z","end_local":"2024-06-22T15:00:00","updated":"2024-06-11T07:24:10Z"},{"title":"Premier Soccer League - Kariba vs Bulawayo Chiefs","description":"Sourced from predicthq.com","category":"sports","start":"2024-06-22T13:00:00Z","geo":{"geometry":{"coordinates":[28.8503953,-16.5143006],"type":"Point"},"placekey":"@hvf-c9p-rhq","address":{"country_code":"ZW","formatted_address":"Kariba, Zimbabwe","locality":"Kariba","region":"Mashonaland West Province"}},"labels":["soccer","sport"],"duration":0,"start_local":"2024-06-22T15:00:00","end":"2024-06-22T13:00:00Z","end_local":"2024-06-22T15:00:00","updated":"2024-06-11T04:14:05Z"},{"title":"Premier Soccer League - Platinum vs Simba Bhora","description":"Sourced from predicthq.com","category":"sports","start":"2024-06-22T13:00:00Z","geo":{"geometry":{"coordinates":[30.06961226463318,-20.317670017738394],"type":"Point"},"placekey":"@hxr-md3-2hq","address":{"country_code":"ZW","formatted_address":"M3V4+HQW, Zvishavane, Zimbabwe","locality":"Zvishavane","region":"Midlands Province"}},"labels":["soccer","sport"],"duration":0,"start_local":"2024-06-22T15:00:00","end":"2024-06-22T13:00:00Z","end_local":"2024-06-22T15:00:00","updated":"2024-06-11T04:36:27Z"},{"title":"Premier Soccer League - Bikita Minerals vs Chicken Inn","description":"Sourced from predicthq.com","category":"sports","start":"2024-06-22T13:00:00Z","geo":{"geometry":{"coordinates":[32.6409915,-18.9967656],"type":"Point"},"placekey":"@hxx-7p4-vs5","address":{"country_code":"ZW","formatted_address":"2J3R+79 Mutare, Zimbabwe","locality":"Mutare","region":"Manicaland Province"}},"labels":["soccer","sport"],"duration":0,"start_local":"2024-06-22T15:00:00","end":"2024-06-22T13:00:00Z","end_local":"2024-06-22T15:00:00","updated":"2024-06-11T02:09:22Z"},{"title":"FUTURE OF PLATINUM: SECURING A SUSTAINABLE FUTURE FOR OUR MINERAL RESOURCES","description":"Sourced from predicthq.com - Join us to discuss how we can ensure a sustainable future for platinum mining and its impact on our mineral resources!","category":"conferences","start":"2024-06-21T07:00:00Z","geo":{"geometry":{"coordinates":[31.0586556,-17.7815026],"type":"Point"},"placekey":"@hxw-dd9-yjv","address":{"country_code":"ZW","formatted_address":"Mount Pleasant Drive, Harare, Zimbabwe","locality":"Harare","region":"Harare Province"}},"labels":["conference","science","technology"],"duration":25200,"start_local":"2024-06-21T09:00:00","end":"2024-06-21T14:00:00Z","end_local":"2024-06-21T16:00:00","updated":"2024-06-11T05:30:08Z"},{"title":"Premier Soccer League - TelOne vs CAPS United","description":"Sourced from predicthq.com","category":"sports","start":"2024-06-16T13:00:00Z","geo":{"geometry":{"coordinates":[29.792277252,-19.468768052],"type":"Point"},"placekey":"@hxq-gst-dgk","address":{"country_code":"ZW","formatted_address":"GQJR+FW Gweru, Zimbabwe","locality":"Gweru","region":"Midlands Province"}},"labels":["soccer","sport"],"duration":0,"start_local":"2024-06-16T15:00:00","end":"2024-06-16T13:00:00Z","end_local":"2024-06-16T15:00:00","updated":"2024-06-11T04:08:32Z"},{"title":"Premier Soccer League - Dynamos vs Kariba","description":"Sourced from predicthq.com","category":"sports","start":"2024-06-16T13:00:00Z","geo":{"geometry":{"coordinates":[31.0374519,-17.8538422],"type":"Point"},"placekey":"@hxw-d6g-2x5","address":{"country_code":"ZW","formatted_address":"42WP+FX8, Harare, Zimbabwe","locality":"Harare","region":"Harare Province"}},"labels":["soccer","sport"],"duration":0,"start_local":"2024-06-16T15:00:00","end":"2024-06-16T13:00:00Z","end_local":"2024-06-16T15:00:00","updated":"2024-06-11T00:13:29Z"},{"title":"Premier Soccer League - Chegutu Pirates vs Herentals","description":"Sourced from predicthq.com","category":"sports","start":"2024-06-16T13:00:00Z","geo":{"geometry":{"coordinates":[30.2790304017227,-18.68045443250578],"type":"Point"},"placekey":"@hxr-6qc-7dv","address":{"country_code":"ZW","formatted_address":"Tangwena Road, Ngezi, Zimbabwe","locality":"Ngezi"}},"labels":["soccer","sport"],"duration":0,"start_local":"2024-06-16T15:00:00","end":"2024-06-16T13:00:00Z","end_local":"2024-06-16T15:00:00","updated":"2024-06-11T02:18:03Z"},{"title":"Premier Soccer League - Highlanders vs Bikita Minerals","description":"Sourced from predicthq.com","category":"sports","start":"2024-06-16T13:00:00Z","geo":{"geometry":{"coordinates":[28.5697673,-20.1308185],"type":"Point"},"placekey":"@hys-3jm-p35","address":{"country_code":"ZW","formatted_address":"VH99+MWC, Bulawayo, Zimbabwe","locality":"Bulawayo","region":"Bulawayo Province"}},"labels":["soccer","sport"],"duration":0,"start_local":"2024-06-16T15:00:00","end":"2024-06-16T13:00:00Z","end_local":"2024-06-16T15:00:00","updated":"2024-06-11T01:23:44Z"},{"title":"Premier Soccer League - Hwange vs Green Fuel","description":"Sourced from predicthq.com","category":"sports","start":"2024-06-16T13:00:00Z","geo":{"geometry":{"coordinates":[26.497972011566162,-18.355625291762642],"type":"Point"},"placekey":"@hyf-pys-he9","address":{"country_code":"ZW","formatted_address":"JFVX+M5H, Stadium Rd, Hwange, Zimbabwe","locality":"Hwange","region":"Matabeleland North Province"}},"labels":["soccer","sport"],"duration":0,"start_local":"2024-06-16T15:00:00","end":"2024-06-16T13:00:00Z","end_local":"2024-06-16T15:00:00","updated":"2024-06-11T04:28:48Z"},{"title":"Premier Soccer League - Ngezi Platinum vs Chicken Inn","description":"Sourced from predicthq.com","category":"sports","start":"2024-06-15T13:00:00Z","geo":{"geometry":{"coordinates":[30.2790304017227,-18.68045443250578],"type":"Point"},"placekey":"@hxr-6qc-7dv","address":{"country_code":"ZW","formatted_address":"Tangwena Road, Ngezi, Zimbabwe","locality":"Ngezi"}},"labels":["soccer","sport"],"duration":0,"start_local":"2024-06-15T15:00:00","end":"2024-06-15T13:00:00Z","end_local":"2024-06-15T15:00:00","updated":"2024-06-11T10:37:33Z"},{"title":"Premier Soccer League - Simba Bhora vs Arenel Movers","description":"Sourced from predicthq.com","category":"sports","start":"2024-06-15T13:00:00Z","geo":{"geometry":{"coordinates":[31.575156622,-17.297005706],"type":"Point"},"placekey":"@hxw-9cy-pgk","address":{"country_code":"ZW","formatted_address":"PH3G+535, Shamva, Zimbabwe","locality":"Shamva","region":"Mashonaland Central Province"}},"labels":["soccer","sport"],"duration":0,"start_local":"2024-06-15T15:00:00","end":"2024-06-15T13:00:00Z","end_local":"2024-06-15T15:00:00","updated":"2024-06-11T06:31:02Z"},{"title":"Premier Soccer League - Bulawayo Chiefs vs Platinum","description":"Sourced from predicthq.com","category":"sports","start":"2024-06-15T13:00:00Z","geo":{"geometry":{"coordinates":[28.5064676,-20.1045146],"type":"Point"},"placekey":"@hys-3k2-mc5","address":{"country_code":"ZW","formatted_address":"Bulawayo, Zimbabwe","locality":"Bulawayo","region":"Bulawayo Province"}},"labels":["soccer","sport"],"duration":0,"start_local":"2024-06-15T15:00:00","end":"2024-06-15T13:00:00Z","end_local":"2024-06-15T15:00:00","updated":"2024-06-11T03:06:39Z"},{"title":"Premier Soccer League - Yadah vs Manica Diamonds","description":"Sourced from predicthq.com","category":"sports","start":"2024-06-15T13:00:00Z","geo":{"geometry":{"coordinates":[31.040299077,-17.881076102],"type":"Point"},"placekey":"@hxw-d69-6x5","address":{"country_code":"ZW","formatted_address":"429R+H2M, Waterfalls Ave, Harare, Zimbabwe","locality":"Harare","region":"Harare Province"}},"labels":["soccer","sport"],"duration":0,"start_local":"2024-06-15T15:00:00","end":"2024-06-15T13:00:00Z","end_local":"2024-06-15T15:00:00","updated":"2024-06-11T04:04:13Z"},{"title":"U.S.-Africa Trade & Investment Global Summit, Zimbabwe","description":"Sourced from predicthq.com - Join us for the ultimate gathering of business leaders, innovators, and policymakers from the United States and Africa, as we explore unprec","category":"conferences","start":"2024-06-12T22:00:00Z","geo":{"geometry":{"coordinates":[31.03608700000001,-17.8314804],"type":"Point"},"placekey":"@hxw-d4s-mzf","address":{"country_code":"ZW","formatted_address":"Samora Machel Avenue, Harare, Zimbabwe","locality":"Harare","region":"Harare Province"}},"labels":["business","conference"],"duration":129600,"start_local":"2024-06-13T00:00:00","end":"2024-06-14T10:00:00Z","end_local":"2024-06-14T12:00:00","updated":"2024-06-03T23:58:06Z"},{"title":"Winter Mist","description":"Sourced from predicthq.com - Get ready to immerse yourself in a winter wonderland at Winter Mist - an enchanting paint and sip event filled with  cozy vibes!","category":"festivals","start":"2024-06-08T01:30:00Z","geo":{"geometry":{"coordinates":[31.09899050000001,-17.8080292],"type":"Point"},"placekey":"@hxw-brp-zs5","address":{"country_code":"ZW","formatted_address":"Harare, Harare Province, Zimbabwe","locality":"Harare","region":"Harare Province"}},"labels":["festival"],"duration":7200,"start_local":"2024-06-08T03:30:00","end":"2024-06-08T03:30:00Z","end_local":"2024-06-08T05:30:00","updated":"2024-05-30T02:59:59Z"},{"title":"Emerging Ideas Pitch Night: Critical Conversations","description":"Sourced from predicthq.com - Get ready for a night of fresh perspectives, lively discussions, and bold pitches at our Emerging Ideas Pitch Night: Critical Conversations!","category":"conferences","start":"2024-06-07T15:30:00Z","geo":{"geometry":{"coordinates":[28.5822728,-20.1634987],"type":"Point"},"placekey":"@hxr-w8h-8n5","address":{"country_code":"ZW","formatted_address":"Fife Street, Bulawayo, Zimbabwe","locality":"Bulawayo","region":"Bulawayo Province"}},"labels":["business","conference"],"duration":7200,"start_local":"2024-06-07T17:30:00","end":"2024-06-07T17:30:00Z","end_local":"2024-06-07T19:30:00","updated":"2024-06-06T01:25:35Z"},{"title":"Premier Soccer League - Herentals vs Bikita Minerals","description":"Sourced from predicthq.com","category":"sports","start":"2024-06-01T13:00:00Z","geo":{"geometry":{"coordinates":[31.0374519,-17.8538422],"type":"Point"},"placekey":"@hxw-d6g-2x5","address":{"country_code":"ZW","formatted_address":"42WP+FX8, Harare, Zimbabwe","locality":"Harare","region":"Harare Province"}},"labels":["soccer","sport"],"duration":0,"start_local":"2024-06-01T15:00:00","end":"2024-06-01T13:00:00Z","end_local":"2024-06-01T15:00:00","updated":"2024-06-12T14:18:51Z"},{"title":"BLUES & SOUL","description":"Sourced from predicthq.com - Get ready to groove to some soulful tunes and feel the blues at our event \"BLUES & SOUL\"! There will be painting and good music.","category":"concerts","start":"2024-05-31T03:00:00Z","geo":{"geometry":{"coordinates":[31.0893415,-17.7596554],"type":"Point"},"placekey":"@hxw-ddc-nh5","address":{"country_code":"ZW","formatted_address":"Virginia Lane, Harare, Zimbabwe","locality":"Harare","region":"Harare Province"}},"labels":["concert","music"],"duration":7200,"start_local":"2024-05-31T05:00:00","end":"2024-05-31T05:00:00Z","end_local":"2024-05-31T07:00:00","updated":"2024-06-14T04:21:56Z"},{"title":"Premier Soccer League - Arenel Movers vs Bulawayo Chiefs","description":"Sourced from predicthq.com","category":"sports","start":"2024-05-26T13:00:00Z","geo":{"geometry":{"coordinates":[28.5064676,-20.1045146],"type":"Point"},"placekey":"@hys-3k2-mc5","address":{"country_code":"ZW","formatted_address":"Bulawayo, Zimbabwe","locality":"Bulawayo","region":"Bulawayo Province"}},"labels":["soccer","sport"],"duration":0,"start_local":"2024-05-26T15:00:00","end":"2024-05-26T13:00:00Z","end_local":"2024-05-26T15:00:00","updated":"2024-06-12T09:42:47Z"},{"title":"Premier Soccer League - Manica Diamonds vs Hwange","description":"Sourced from predicthq.com","category":"sports","start":"2024-05-26T13:00:00Z","geo":{"geometry":{"coordinates":[32.6409915,-18.9967656],"type":"Point"},"placekey":"@hxx-7p4-vs5","address":{"country_code":"ZW","formatted_address":"2J3R+79 Mutare, Zimbabwe","locality":"Mutare","region":"Manicaland Province"}},"labels":["soccer","sport"],"duration":0,"start_local":"2024-05-26T15:00:00","end":"2024-05-26T13:00:00Z","end_local":"2024-05-26T15:00:00","updated":"2024-06-12T06:11:20Z"},{"title":"Premier Soccer League - CAPS United vs Simba Bhora","description":"Sourced from predicthq.com","category":"sports","start":"2024-05-26T13:00:00Z","geo":{"geometry":{"coordinates":[31.0374519,-17.8538422],"type":"Point"},"placekey":"@hxw-d6g-2x5","address":{"country_code":"ZW","formatted_address":"42WP+FX8, Harare, Zimbabwe","locality":"Harare","region":"Harare Province"}},"labels":["soccer","sport"],"duration":0,"start_local":"2024-05-26T15:00:00","end":"2024-05-26T13:00:00Z","end_local":"2024-05-26T15:00:00","updated":"2024-06-11T23:04:16Z"},{"title":"Premier Soccer League - Platinum vs Dynamos","description":"Sourced from predicthq.com","category":"sports","start":"2024-05-26T13:00:00Z","geo":{"geometry":{"coordinates":[30.06961226463318,-20.317670017738394],"type":"Point"},"placekey":"@hxr-md3-2hq","address":{"country_code":"ZW","formatted_address":"M3V4+HQW, Zvishavane, Zimbabwe","locality":"Zvishavane","region":"Midlands Province"}},"labels":["soccer","sport"],"duration":0,"start_local":"2024-05-26T15:00:00","end":"2024-05-26T13:00:00Z","end_local":"2024-05-26T15:00:00","updated":"2024-06-12T00:17:18Z"},{"title":"Premier Soccer League - Green Fuel vs Highlanders","description":"Sourced from predicthq.com","category":"sports","start":"2024-05-26T13:00:00Z","geo":{"geometry":{"coordinates":[32.232679544,-20.874855722],"type":"Point"},"placekey":"@hxp-r3b-cqz","address":{"country_code":"ZW","formatted_address":"46GM+32Q, Chisumbanje, Zimbabwe","locality":"Chisumbanje","region":"Manicaland Province"}},"labels":["soccer","sport"],"duration":0,"start_local":"2024-05-26T15:00:00","end":"2024-05-26T13:00:00Z","end_local":"2024-05-26T15:00:00","updated":"2024-06-12T16:35:51Z"},{"title":"Premier Soccer League - Chicken Inn vs Chegutu Pirates","description":"Sourced from predicthq.com","category":"sports","start":"2024-05-25T13:00:00Z","geo":{"geometry":{"coordinates":[28.5064676,-20.1045146],"type":"Point"},"placekey":"@hys-3k2-mc5","address":{"country_code":"ZW","formatted_address":"Bulawayo, Zimbabwe","locality":"Bulawayo","region":"Bulawayo Province"}},"labels":["soccer","sport"],"duration":0,"start_local":"2024-05-25T15:00:00","end":"2024-05-25T13:00:00Z","end_local":"2024-05-25T15:00:00","updated":"2024-06-12T10:33:51Z"},{"title":"Premier Soccer League - Herentals vs TelOne","description":"Sourced from predicthq.com","category":"sports","start":"2024-05-25T13:00:00Z","geo":{"geometry":{"coordinates":[31.0374519,-17.8538422],"type":"Point"},"placekey":"@hxw-d6g-2x5","address":{"country_code":"ZW","formatted_address":"42WP+FX8, Harare, Zimbabwe","locality":"Harare","region":"Harare Province"}},"labels":["soccer","sport"],"duration":0,"start_local":"2024-05-25T15:00:00","end":"2024-05-25T13:00:00Z","end_local":"2024-05-25T15:00:00","updated":"2024-06-12T11:55:11Z"},{"title":"Premier Soccer League - Kariba vs Yadah","description":"Sourced from predicthq.com","category":"sports","start":"2024-05-25T13:00:00Z","geo":{"geometry":{"coordinates":[28.8503953,-16.5143006],"type":"Point"},"placekey":"@hvf-c9p-rhq","address":{"country_code":"ZW","formatted_address":"Kariba, Zimbabwe","locality":"Kariba","region":"Mashonaland West Province"}},"labels":["soccer","sport"],"duration":0,"start_local":"2024-05-25T15:00:00","end":"2024-05-25T13:00:00Z","end_local":"2024-05-25T15:00:00","updated":"2024-06-12T04:44:22Z"},{"title":"Premier Soccer League - Bikita Minerals vs Ngezi Platinum","description":"Sourced from predicthq.com","category":"sports","start":"2024-05-25T13:00:00Z","geo":{"geometry":{"coordinates":[32.6409915,-18.9967656],"type":"Point"},"placekey":"@hxx-7p4-vs5","address":{"country_code":"ZW","formatted_address":"2J3R+79 Mutare, Zimbabwe","locality":"Mutare","region":"Manicaland Province"}},"labels":["soccer","sport"],"duration":0,"start_local":"2024-05-25T15:00:00","end":"2024-05-25T13:00:00Z","end_local":"2024-05-25T15:00:00","updated":"2024-06-12T13:59:24Z"},{"title":"Royal Forex Empire Forex Master Class","description":"Sourced from predicthq.com - Royal Forex Empire presents Free Forex Master class , come and learn how to trade to be a professional and a profitable forex trader","category":"conferences","start":"2024-05-25T08:00:11Z","geo":{"geometry":{"coordinates":[31.048445,-17.8311025],"type":"Point"},"placekey":"@hxw-d4r-rzf","address":{"country_code":"ZW","formatted_address":"Jason Moyo Avenue, Harare, Zimbabwe","locality":"Harare","region":"Harare Province"}},"labels":["conference"],"duration":21621,"start_local":"2024-05-25T10:00:11","end":"2024-05-25T14:00:32Z","end_local":"2024-05-25T16:00:32","updated":"2024-06-12T07:10:37Z"},{"title":"Premier Soccer League - Highlanders vs Manica Diamonds","description":"Sourced from predicthq.com","category":"sports","start":"2024-05-23T13:00:00Z","geo":{"geometry":{"coordinates":[28.5697673,-20.1308185],"type":"Point"},"placekey":"@hys-3jm-p35","address":{"country_code":"ZW","formatted_address":"VH99+MWC, Bulawayo, Zimbabwe","locality":"Bulawayo","region":"Bulawayo Province"}},"labels":["soccer","sport"],"duration":0,"start_local":"2024-05-23T15:00:00","end":"2024-05-23T13:00:00Z","end_local":"2024-05-23T15:00:00","updated":"2024-06-12T12:23:59Z"},{"title":"Premier Soccer League - Dynamos vs Arenel Movers","description":"Sourced from predicthq.com","category":"sports","start":"2024-05-23T13:00:00Z","geo":{"geometry":{"coordinates":[31.0374519,-17.8538422],"type":"Point"},"placekey":"@hxw-d6g-2x5","address":{"country_code":"ZW","formatted_address":"42WP+FX8, Harare, Zimbabwe","locality":"Harare","region":"Harare Province"}},"labels":["soccer","sport"],"duration":0,"start_local":"2024-05-23T15:00:00","end":"2024-05-23T13:00:00Z","end_local":"2024-05-23T15:00:00","updated":"2024-06-12T04:13:54Z"},{"title":"Premier Soccer League - Simba Bhora vs Herentals","description":"Sourced from predicthq.com","category":"sports","start":"2024-05-22T13:00:00Z","geo":{"geometry":{"coordinates":[31.575156622,-17.297005706],"type":"Point"},"placekey":"@hxw-9cy-pgk","address":{"country_code":"ZW","formatted_address":"PH3G+535, Shamva, Zimbabwe","locality":"Shamva","region":"Mashonaland Central Province"}},"labels":["soccer","sport"],"duration":0,"start_local":"2024-05-22T15:00:00","end":"2024-05-22T13:00:00Z","end_local":"2024-05-22T15:00:00","updated":"2024-06-12T18:53:23Z"},{"title":"Premier Soccer League - Chegutu Pirates vs Ngezi Platinum","description":"Sourced from predicthq.com","category":"sports","start":"2024-05-22T13:00:00Z","geo":{"geometry":{"coordinates":[30.2790304017227,-18.68045443250578],"type":"Point"},"placekey":"@hxr-6qc-7dv","address":{"country_code":"ZW","formatted_address":"Tangwena Road, Ngezi, Zimbabwe","locality":"Ngezi"}},"labels":["soccer","sport"],"duration":0,"start_local":"2024-05-22T15:00:00","end":"2024-05-22T13:00:00Z","end_local":"2024-05-22T15:00:00","updated":"2024-06-12T05:46:56Z"},{"title":"Premier Soccer League - Green Fuel vs Bikita Minerals","description":"Sourced from predicthq.com","category":"sports","start":"2024-05-22T13:00:00Z","geo":{"geometry":{"coordinates":[32.232679544,-20.874855722],"type":"Point"},"placekey":"@hxp-r3b-cqz","address":{"country_code":"ZW","formatted_address":"46GM+32Q, Chisumbanje, Zimbabwe","locality":"Chisumbanje","region":"Manicaland Province"}},"labels":["soccer","sport"],"duration":0,"start_local":"2024-05-22T15:00:00","end":"2024-05-22T13:00:00Z","end_local":"2024-05-22T15:00:00","updated":"2024-06-12T02:37:55Z"},{"title":"Premier Soccer League - Yadah vs Platinum","description":"Sourced from predicthq.com","category":"sports","start":"2024-05-22T13:00:00Z","geo":{"geometry":{"coordinates":[31.040299077,-17.881076102],"type":"Point"},"placekey":"@hxw-d69-6x5","address":{"country_code":"ZW","formatted_address":"429R+H2M, Waterfalls Ave, Harare, Zimbabwe","locality":"Harare","region":"Harare Province"}},"labels":["soccer","sport"],"duration":0,"start_local":"2024-05-22T15:00:00","end":"2024-05-22T13:00:00Z","end_local":"2024-05-22T15:00:00","updated":"2024-06-11T21:55:25Z"},{"title":"Premier Soccer League - Bulawayo Chiefs vs CAPS United","description":"Sourced from predicthq.com","category":"sports","start":"2024-05-22T13:00:00Z","geo":{"geometry":{"coordinates":[28.5064676,-20.1045146],"type":"Point"},"placekey":"@hys-3k2-mc5","address":{"country_code":"ZW","formatted_address":"Bulawayo, Zimbabwe","locality":"Bulawayo","region":"Bulawayo Province"}},"labels":["soccer","sport"],"duration":0,"start_local":"2024-05-22T15:00:00","end":"2024-05-22T13:00:00Z","end_local":"2024-05-22T15:00:00","updated":"2024-06-11T22:54:24Z"},{"title":"Premier Soccer League - TelOne vs Chicken Inn","description":"Sourced from predicthq.com","category":"sports","start":"2024-05-22T13:00:00Z","geo":{"geometry":{"coordinates":[29.792277252,-19.468768052],"type":"Point"},"placekey":"@hxq-gst-dgk","address":{"country_code":"ZW","formatted_address":"GQJR+FW Gweru, Zimbabwe","locality":"Gweru","region":"Midlands Province"}},"labels":["soccer","sport"],"duration":0,"start_local":"2024-05-22T15:00:00","end":"2024-05-22T13:00:00Z","end_local":"2024-05-22T15:00:00","updated":"2024-06-12T11:24:06Z"},{"title":"Premier Soccer League - Hwange vs Kariba","description":"Sourced from predicthq.com","category":"sports","start":"2024-05-22T13:00:00Z","geo":{"geometry":{"coordinates":[26.497972011566162,-18.355625291762642],"type":"Point"},"placekey":"@hyf-pys-he9","address":{"country_code":"ZW","formatted_address":"JFVX+M5H, Stadium Rd, Hwange, Zimbabwe","locality":"Hwange","region":"Matabeleland North Province"}},"labels":["soccer","sport"],"duration":0,"start_local":"2024-05-22T15:00:00","end":"2024-05-22T13:00:00Z","end_local":"2024-05-22T15:00:00","updated":"2024-06-12T17:24:05Z"},{"title":"Premier Soccer League - Manica Diamonds vs Green Fuel","description":"Sourced from predicthq.com","category":"sports","start":"2024-05-19T13:00:00Z","geo":{"geometry":{"coordinates":[32.6409915,-18.9967656],"type":"Point"},"placekey":"@hxx-7p4-vs5","address":{"country_code":"ZW","formatted_address":"2J3R+79 Mutare, Zimbabwe","locality":"Mutare","region":"Manicaland Province"}},"labels":["soccer","sport"],"duration":0,"start_local":"2024-05-19T15:00:00","end":"2024-05-19T13:00:00Z","end_local":"2024-05-19T15:00:00","updated":"2024-06-12T03:18:56Z"},{"title":"Premier Soccer League - Chicken Inn vs Simba Bhora","description":"Sourced from predicthq.com","category":"sports","start":"2024-05-19T13:00:00Z","geo":{"geometry":{"coordinates":[28.5064676,-20.1045146],"type":"Point"},"placekey":"@hys-3k2-mc5","address":{"country_code":"ZW","formatted_address":"Bulawayo, Zimbabwe","locality":"Bulawayo","region":"Bulawayo Province"}},"labels":["soccer","sport"],"duration":0,"start_local":"2024-05-19T15:00:00","end":"2024-05-19T13:00:00Z","end_local":"2024-05-19T15:00:00","updated":"2024-06-12T06:23:54Z"},{"title":"Premier Soccer League - CAPS United vs Dynamos","description":"Sourced from predicthq.com","category":"sports","start":"2024-05-19T13:00:00Z","geo":{"geometry":{"coordinates":[31.0374519,-17.8538422],"type":"Point"},"placekey":"@hxw-d6g-2x5","address":{"country_code":"ZW","formatted_address":"42WP+FX8, Harare, Zimbabwe","locality":"Harare","region":"Harare Province"}},"labels":["soccer","sport"],"duration":0,"start_local":"2024-05-19T15:00:00","end":"2024-05-19T13:00:00Z","end_local":"2024-05-19T15:00:00","updated":"2024-06-12T10:32:06Z"},{"title":"Premier Soccer League - Kariba vs Highlanders","description":"Sourced from predicthq.com","category":"sports","start":"2024-05-18T13:00:00Z","geo":{"geometry":{"coordinates":[28.8503953,-16.5143006],"type":"Point"},"placekey":"@hvf-c9p-rhq","address":{"country_code":"ZW","formatted_address":"Kariba, Zimbabwe","locality":"Kariba","region":"Mashonaland West Province"}},"labels":["soccer","sport"],"duration":0,"start_local":"2024-05-18T15:00:00","end":"2024-05-18T13:00:00Z","end_local":"2024-05-18T15:00:00","updated":"2024-06-12T02:23:39Z"},{"title":"Premier Soccer League - Platinum vs Hwange","description":"Sourced from predicthq.com","category":"sports","start":"2024-05-18T13:00:00Z","geo":{"geometry":{"coordinates":[30.06961226463318,-20.317670017738394],"type":"Point"},"placekey":"@hxr-md3-2hq","address":{"country_code":"ZW","formatted_address":"M3V4+HQW, Zvishavane, Zimbabwe","locality":"Zvishavane","region":"Midlands Province"}},"labels":["soccer","sport"],"duration":0,"start_local":"2024-05-18T15:00:00","end":"2024-05-18T13:00:00Z","end_local":"2024-05-18T15:00:00","updated":"2024-06-12T12:22:37Z"},{"title":"Premier Soccer League - Bikita Minerals vs Chegutu Pirates","description":"Sourced from predicthq.com","category":"sports","start":"2024-05-18T13:00:00Z","geo":{"geometry":{"coordinates":[32.6409915,-18.9967656],"type":"Point"},"placekey":"@hxx-7p4-vs5","address":{"country_code":"ZW","formatted_address":"2J3R+79 Mutare, Zimbabwe","locality":"Mutare","region":"Manicaland Province"}},"labels":["soccer","sport"],"duration":0,"start_local":"2024-05-18T15:00:00","end":"2024-05-18T13:00:00Z","end_local":"2024-05-18T15:00:00","updated":"2024-06-12T05:41:21Z"},{"title":"Premier Soccer League - Ngezi Platinum vs TelOne","description":"Sourced from predicthq.com","category":"sports","start":"2024-05-18T13:00:00Z","geo":{"geometry":{"coordinates":[30.2790304017227,-18.68045443250578],"type":"Point"},"placekey":"@hxr-6qc-7dv","address":{"country_code":"ZW","formatted_address":"Tangwena Road, Ngezi, Zimbabwe","locality":"Ngezi"}},"labels":["soccer","sport"],"duration":0,"start_local":"2024-05-18T15:00:00","end":"2024-05-18T13:00:00Z","end_local":"2024-05-18T15:00:00","updated":"2024-06-12T03:07:46Z"},{"title":"Premier Soccer League - Herentals vs Bulawayo Chiefs","description":"Sourced from predicthq.com","category":"sports","start":"2024-05-18T13:00:00Z","geo":{"geometry":{"coordinates":[31.0374519,-17.8538422],"type":"Point"},"placekey":"@hxw-d6g-2x5","address":{"country_code":"ZW","formatted_address":"42WP+FX8, Harare, Zimbabwe","locality":"Harare","region":"Harare Province"}},"labels":["soccer","sport"],"duration":0,"start_local":"2024-05-18T15:00:00","end":"2024-05-18T13:00:00Z","end_local":"2024-05-18T15:00:00","updated":"2024-06-12T15:20:01Z"},{"title":"Premier Soccer League - Arenel Movers vs Yadah","description":"Sourced from predicthq.com","category":"sports","start":"2024-05-18T13:00:00Z","geo":{"geometry":{"coordinates":[28.5064676,-20.1045146],"type":"Point"},"placekey":"@hys-3k2-mc5","address":{"country_code":"ZW","formatted_address":"Bulawayo, Zimbabwe","locality":"Bulawayo","region":"Bulawayo Province"}},"labels":["soccer","sport"],"duration":0,"start_local":"2024-05-18T15:00:00","end":"2024-05-18T13:00:00Z","end_local":"2024-05-18T15:00:00","updated":"2024-06-12T10:51:34Z"},{"title":"Bitcoin Africa Day","description":"Sourced from predicthq.com - Bitcoin Reach is celebrating the recent halving Event and Africa day","category":"conferences","start":"2024-05-18T10:00:00Z","geo":{"geometry":{"coordinates":[28.5870929,-20.1760149],"type":"Point"},"placekey":"@hxr-w8h-5fz","address":{"country_code":"ZW","formatted_address":"Bulawayo, Bulawayo Province, Zimbabwe","locality":"Bulawayo","region":"Bulawayo Province"}},"labels":["conference","science","technology"],"duration":14400,"start_local":"2024-05-18T12:00:00","end":"2024-05-18T14:00:00Z","end_local":"2024-05-18T16:00:00","updated":"2024-06-05T02:49:41Z"},{"title":"Premier Soccer League - Hwange vs Arenel Movers","description":"Sourced from predicthq.com","category":"sports","start":"2024-05-12T13:00:00Z","geo":{"geometry":{"coordinates":[26.497972011566162,-18.355625291762642],"type":"Point"},"placekey":"@hyf-pys-he9","address":{"country_code":"ZW","formatted_address":"JFVX+M5H, Stadium Rd, Hwange, Zimbabwe","locality":"Hwange","region":"Matabeleland North Province"}},"labels":["soccer","sport"],"duration":0,"start_local":"2024-05-12T15:00:00","end":"2024-05-12T13:00:00Z","end_local":"2024-05-12T15:00:00","updated":"2024-06-12T03:29:37Z"},{"title":"Premier Soccer League - Highlanders vs Platinum","description":"Sourced from predicthq.com","category":"sports","start":"2024-05-12T13:00:00Z","geo":{"geometry":{"coordinates":[28.5697673,-20.1308185],"type":"Point"},"placekey":"@hys-3jm-p35","address":{"country_code":"ZW","formatted_address":"VH99+MWC, Bulawayo, Zimbabwe","locality":"Bulawayo","region":"Bulawayo Province"}},"labels":["soccer","sport"],"duration":0,"start_local":"2024-05-12T15:00:00","end":"2024-05-12T13:00:00Z","end_local":"2024-05-12T15:00:00","updated":"2024-06-12T03:16:47Z"},{"title":"Premier Soccer League - TelOne vs Chegutu Pirates","description":"Sourced from predicthq.com","category":"sports","start":"2024-05-12T13:00:00Z","geo":{"geometry":{"coordinates":[29.792277252,-19.468768052],"type":"Point"},"placekey":"@hxq-gst-dgk","address":{"country_code":"ZW","formatted_address":"GQJR+FW Gweru, Zimbabwe","locality":"Gweru","region":"Midlands Province"}},"labels":["soccer","sport"],"duration":0,"start_local":"2024-05-12T15:00:00","end":"2024-05-12T13:00:00Z","end_local":"2024-05-12T15:00:00","updated":"2024-06-12T06:32:32Z"},{"title":"Premier Soccer League - Manica Diamonds vs Bikita Minerals","description":"Sourced from predicthq.com","category":"sports","start":"2024-05-12T13:00:00Z","geo":{"geometry":{"coordinates":[32.6409915,-18.9967656],"type":"Point"},"placekey":"@hxx-7p4-vs5","address":{"country_code":"ZW","formatted_address":"2J3R+79 Mutare, Zimbabwe","locality":"Mutare","region":"Manicaland Province"}},"labels":["soccer","sport"],"duration":0,"start_local":"2024-05-12T15:00:00","end":"2024-05-12T13:00:00Z","end_local":"2024-05-12T15:00:00","updated":"2024-06-12T14:25:21Z"},{"title":"Premier Soccer League - Dynamos vs Herentals","description":"Sourced from predicthq.com","category":"sports","start":"2024-05-12T13:00:00Z","geo":{"geometry":{"coordinates":[31.0374519,-17.8538422],"type":"Point"},"placekey":"@hxw-d6g-2x5","address":{"country_code":"ZW","formatted_address":"42WP+FX8, Harare, Zimbabwe","locality":"Harare","region":"Harare Province"}},"labels":["soccer","sport"],"duration":0,"start_local":"2024-05-12T15:00:00","end":"2024-05-12T13:00:00Z","end_local":"2024-05-12T15:00:00","updated":"2024-06-12T08:38:48Z"},{"title":"Premier Soccer League - Yadah vs CAPS United","description":"Sourced from predicthq.com","category":"sports","start":"2024-05-11T13:00:00Z","geo":{"geometry":{"coordinates":[31.0374519,-17.8538422],"type":"Point"},"placekey":"@hxw-d6g-2x5","address":{"country_code":"ZW","formatted_address":"42WP+FX8, Harare, Zimbabwe","locality":"Harare","region":"Harare Province"}},"labels":["soccer","sport"],"duration":0,"start_local":"2024-05-11T15:00:00","end":"2024-05-11T13:00:00Z","end_local":"2024-05-11T15:00:00","updated":"2024-06-12T08:27:27Z"},{"title":"Premier Soccer League - Green Fuel vs Kariba","description":"Sourced from predicthq.com","category":"sports","start":"2024-05-11T13:00:00Z","geo":{"geometry":{"coordinates":[32.232679544,-20.874855722],"type":"Point"},"placekey":"@hxp-r3b-cqz","address":{"country_code":"ZW","formatted_address":"46GM+32Q, Chisumbanje, Zimbabwe","locality":"Chisumbanje","region":"Manicaland Province"}},"labels":["soccer","sport"],"duration":0,"start_local":"2024-05-11T15:00:00","end":"2024-05-11T13:00:00Z","end_local":"2024-05-11T15:00:00","updated":"2024-06-12T02:17:21Z"},{"title":"Premier Soccer League - Simba Bhora vs Ngezi Platinum","description":"Sourced from predicthq.com","category":"sports","start":"2024-05-11T13:00:00Z","geo":{"geometry":{"coordinates":[31.575156622,-17.297005706],"type":"Point"},"placekey":"@hxw-9cy-pgk","address":{"country_code":"ZW","formatted_address":"PH3G+535, Shamva, Zimbabwe","locality":"Shamva","region":"Mashonaland Central Province"}},"labels":["soccer","sport"],"duration":0,"start_local":"2024-05-11T15:00:00","end":"2024-05-11T13:00:00Z","end_local":"2024-05-11T15:00:00","updated":"2024-06-12T20:08:12Z"},{"title":"Premier Soccer League - Bulawayo Chiefs vs Chicken Inn","description":"Sourced from predicthq.com","category":"sports","start":"2024-05-11T13:00:00Z","geo":{"geometry":{"coordinates":[28.5064676,-20.1045146],"type":"Point"},"placekey":"@hys-3k2-mc5","address":{"country_code":"ZW","formatted_address":"Bulawayo, Zimbabwe","locality":"Bulawayo","region":"Bulawayo Province"}},"labels":["soccer","sport"],"duration":0,"start_local":"2024-05-11T15:00:00","end":"2024-05-11T13:00:00Z","end_local":"2024-05-11T15:00:00","updated":"2024-06-12T01:35:34Z"},{"title":"Now Educated Career Fair:  Awareness Unlocks Abundance","description":"Sourced from predicthq.com - Come join us at the Now Educated Career Fair to learn how awareness can unlock abundance in your career journey!","category":"expos","start":"2024-05-10T06:30:00Z","geo":{"geometry":{"coordinates":[28.6540324,-20.203259],"type":"Point"},"placekey":"@hxr-w88-h5z","address":{"country_code":"ZW","formatted_address":"Bulawayo, Bulawayo Province, Zimbabwe","locality":"Bulawayo","region":"Bulawayo Province"}},"labels":["career","education","expo"],"duration":28800,"start_local":"2024-05-10T08:30:00","end":"2024-05-10T14:30:00Z","end_local":"2024-05-10T16:30:00","updated":"2024-06-05T02:54:47Z"},{"title":"Premier Soccer League - CAPS United vs Hwange","description":"Sourced from predicthq.com","category":"sports","start":"2024-05-05T13:00:00Z","geo":{"geometry":{"coordinates":[31.0374519,-17.8538422],"type":"Point"},"placekey":"@hxw-d6g-2x5","address":{"country_code":"ZW","formatted_address":"42WP+FX8, Harare, Zimbabwe","locality":"Harare","region":"Harare Province"}},"labels":["soccer","sport"],"duration":0,"start_local":"2024-05-05T15:00:00","end":"2024-05-05T13:00:00Z","end_local":"2024-05-05T15:00:00","updated":"2024-06-12T02:15:58Z"},{"title":"Premier Soccer League - Arenel Movers vs Highlanders","description":"Sourced from predicthq.com","category":"sports","start":"2024-05-05T13:00:00Z","geo":{"geometry":{"coordinates":[28.5697673,-20.1308185],"type":"Point"},"placekey":"@hys-3jm-p35","address":{"country_code":"ZW","formatted_address":"VH99+MWC, Bulawayo, Zimbabwe","locality":"Bulawayo","region":"Bulawayo Province"}},"labels":["soccer","sport"],"duration":0,"start_local":"2024-05-05T15:00:00","end":"2024-05-05T13:00:00Z","end_local":"2024-05-05T15:00:00","updated":"2024-06-12T05:47:08Z"},{"title":"Premier Soccer League - Chegutu Pirates vs Simba Bhora","description":"Sourced from predicthq.com","category":"sports","start":"2024-05-05T13:00:00Z","geo":{"geometry":{"coordinates":[30.2790304017227,-18.68045443250578],"type":"Point"},"placekey":"@hxr-6qc-7dv","address":{"country_code":"ZW","formatted_address":"Tangwena Road, Ngezi, Zimbabwe","locality":"Ngezi"}},"labels":["soccer","sport"],"duration":0,"start_local":"2024-05-05T15:00:00","end":"2024-05-05T13:00:00Z","end_local":"2024-05-05T15:00:00","updated":"2024-06-12T10:00:39Z"},{"title":"Premier Soccer League - Platinum vs Green Fuel","description":"Sourced from predicthq.com","category":"sports","start":"2024-05-04T13:00:00Z","geo":{"geometry":{"coordinates":[30.06961226463318,-20.317670017738394],"type":"Point"},"placekey":"@hxr-md3-2hq","address":{"country_code":"ZW","formatted_address":"M3V4+HQW, Zvishavane, Zimbabwe","locality":"Zvishavane","region":"Midlands Province"}},"labels":["soccer","sport"],"duration":0,"start_local":"2024-05-04T15:00:00","end":"2024-05-04T13:00:00Z","end_local":"2024-05-04T15:00:00","updated":"2024-06-12T06:36:43Z"},{"title":"Premier Soccer League - Chicken Inn vs Dynamos","description":"Sourced from predicthq.com","category":"sports","start":"2024-05-04T13:00:00Z","geo":{"geometry":{"coordinates":[28.5697673,-20.1308185],"type":"Point"},"placekey":"@hys-3jm-p35","address":{"country_code":"ZW","formatted_address":"VH99+MWC, Bulawayo, Zimbabwe","locality":"Bulawayo","region":"Bulawayo Province"}},"labels":["soccer","sport"],"duration":0,"start_local":"2024-05-04T15:00:00","end":"2024-05-04T13:00:00Z","end_local":"2024-05-04T15:00:00","updated":"2024-06-12T11:54:38Z"},{"title":"Premier Soccer League - Ngezi Platinum vs Bulawayo Chiefs","description":"Sourced from predicthq.com","category":"sports","start":"2024-05-04T13:00:00Z","geo":{"geometry":{"coordinates":[30.2790304017227,-18.68045443250578],"type":"Point"},"placekey":"@hxr-6qc-7dv","address":{"country_code":"ZW","formatted_address":"Tangwena Road, Ngezi, Zimbabwe","locality":"Ngezi"}},"labels":["soccer","sport"],"duration":0,"start_local":"2024-05-04T15:00:00","end":"2024-05-04T13:00:00Z","end_local":"2024-05-04T15:00:00","updated":"2024-06-12T11:15:52Z"},{"title":"Premier Soccer League - Kariba vs Manica Diamonds","description":"Sourced from predicthq.com","category":"sports","start":"2024-05-04T13:00:00Z","geo":{"geometry":{"coordinates":[28.8503953,-16.5143006],"type":"Point"},"placekey":"@hvf-c9p-rhq","address":{"country_code":"ZW","formatted_address":"Kariba, Zimbabwe","locality":"Kariba","region":"Mashonaland West Province"}},"labels":["soccer","sport"],"duration":0,"start_local":"2024-05-04T15:00:00","end":"2024-05-04T13:00:00Z","end_local":"2024-05-04T15:00:00","updated":"2024-06-11T23:13:27Z"},{"title":"Premier Soccer League - Herentals vs Yadah","description":"Sourced from predicthq.com","category":"sports","start":"2024-05-04T13:00:00Z","geo":{"geometry":{"coordinates":[31.0374519,-17.8538422],"type":"Point"},"placekey":"@hxw-d6g-2x5","address":{"country_code":"ZW","formatted_address":"42WP+FX8, Harare, Zimbabwe","locality":"Harare","region":"Harare Province"}},"labels":["soccer","sport"],"duration":0,"start_local":"2024-05-04T15:00:00","end":"2024-05-04T13:00:00Z","end_local":"2024-05-04T15:00:00","updated":"2024-06-11T23:25:43Z"},{"title":"Premier Soccer League - Bikita Minerals vs TelOne","description":"Sourced from predicthq.com","category":"sports","start":"2024-05-04T13:00:00Z","geo":{"geometry":{"coordinates":[32.6409915,-18.9967656],"type":"Point"},"placekey":"@hxx-7p4-vs5","address":{"country_code":"ZW","formatted_address":"2J3R+79 Mutare, Zimbabwe","locality":"Mutare","region":"Manicaland Province"}},"labels":["soccer","sport"],"duration":0,"start_local":"2024-05-04T15:00:00","end":"2024-05-04T13:00:00Z","end_local":"2024-05-04T15:00:00","updated":"2024-06-12T07:41:53Z"},{"title":"Premier Soccer League - Highlanders vs CAPS United","description":"Sourced from predicthq.com","category":"sports","start":"2024-04-28T13:00:00Z","geo":{"geometry":{"coordinates":[28.5697673,-20.1308185],"type":"Point"},"placekey":"@hys-3jm-p35","address":{"country_code":"ZW","formatted_address":"VH99+MWC, Bulawayo, Zimbabwe","locality":"Bulawayo","region":"Bulawayo Province"}},"labels":["soccer","sport"],"duration":0,"start_local":"2024-04-28T15:00:00","end":"2024-04-28T13:00:00Z","end_local":"2024-04-28T15:00:00","updated":"2024-06-11T21:47:30Z"},{"title":"Premier Soccer League - Bulawayo Chiefs vs Chegutu Pirates","description":"Sourced from predicthq.com","category":"sports","start":"2024-04-28T13:00:00Z","geo":{"geometry":{"coordinates":[28.5064676,-20.1045146],"type":"Point"},"placekey":"@hys-3k2-mc5","address":{"country_code":"ZW","formatted_address":"Bulawayo, Zimbabwe","locality":"Bulawayo","region":"Bulawayo Province"}},"labels":["soccer","sport"],"duration":0,"start_local":"2024-04-28T15:00:00","end":"2024-04-28T13:00:00Z","end_local":"2024-04-28T15:00:00","updated":"2024-06-12T14:05:46Z"},{"title":"Premier Soccer League - Green Fuel vs Arenel Movers","description":"Sourced from predicthq.com","category":"sports","start":"2024-04-28T13:00:00Z","geo":{"geometry":{"coordinates":[32.232679544,-20.874855722],"type":"Point"},"placekey":"@hxp-r3b-cqz","address":{"country_code":"ZW","formatted_address":"46GM+32Q, Chisumbanje, Zimbabwe","locality":"Chisumbanje","region":"Manicaland Province"}},"labels":["soccer","sport"],"duration":0,"start_local":"2024-04-28T15:00:00","end":"2024-04-28T13:00:00Z","end_local":"2024-04-28T15:00:00","updated":"2024-06-12T07:42:57Z"},{"title":"Premier Soccer League - Manica Diamonds vs Platinum","description":"Sourced from predicthq.com","category":"sports","start":"2024-04-28T13:00:00Z","geo":{"geometry":{"coordinates":[32.6409915,-18.9967656],"type":"Point"},"placekey":"@hxx-7p4-vs5","address":{"country_code":"ZW","formatted_address":"2J3R+79 Mutare, Zimbabwe","locality":"Mutare","region":"Manicaland Province"}},"labels":["soccer","sport"],"duration":0,"start_local":"2024-04-28T15:00:00","end":"2024-04-28T13:00:00Z","end_local":"2024-04-28T15:00:00","updated":"2024-06-11T21:49:20Z"},{"title":"Premier Soccer League - Hwange vs Herentals","description":"Sourced from predicthq.com","category":"sports","start":"2024-04-28T13:00:00Z","geo":{"geometry":{"coordinates":[26.497972011566162,-18.355625291762642],"type":"Point"},"placekey":"@hyf-pys-he9","address":{"country_code":"ZW","formatted_address":"JFVX+M5H, Stadium Rd, Hwange, Zimbabwe","locality":"Hwange","region":"Matabeleland North Province"}},"labels":["soccer","sport"],"duration":0,"start_local":"2024-04-28T15:00:00","end":"2024-04-28T13:00:00Z","end_local":"2024-04-28T15:00:00","updated":"2024-06-12T07:35:49Z"},{"title":"Premier Soccer League - Dynamos vs Ngezi Platinum","description":"Sourced from predicthq.com","category":"sports","start":"2024-04-28T13:00:00Z","geo":{"geometry":{"coordinates":[31.0374519,-17.8538422],"type":"Point"},"placekey":"@hxw-d6g-2x5","address":{"country_code":"ZW","formatted_address":"42WP+FX8, Harare, Zimbabwe","locality":"Harare","region":"Harare Province"}},"labels":["soccer","sport"],"duration":0,"start_local":"2024-04-28T15:00:00","end":"2024-04-28T13:00:00Z","end_local":"2024-04-28T15:00:00","updated":"2024-06-11T21:40:19Z"},{"title":"Premier Soccer League - Kariba vs Bikita Minerals","description":"Sourced from predicthq.com","category":"sports","start":"2024-04-27T13:00:00Z","geo":{"geometry":{"coordinates":[28.8503953,-16.5143006],"type":"Point"},"placekey":"@hvf-c9p-rhq","address":{"country_code":"ZW","formatted_address":"Kariba, Zimbabwe","locality":"Kariba","region":"Mashonaland West Province"}},"labels":["soccer","sport"],"duration":0,"start_local":"2024-04-27T15:00:00","end":"2024-04-27T13:00:00Z","end_local":"2024-04-27T15:00:00","updated":"2024-06-12T16:45:42Z"},{"title":"Premier Soccer League - Simba Bhora vs TelOne","description":"Sourced from predicthq.com","category":"sports","start":"2024-04-27T13:00:00Z","geo":{"geometry":{"coordinates":[31.575156622,-17.297005706],"type":"Point"},"placekey":"@hxw-9cy-pgk","address":{"country_code":"ZW","formatted_address":"PH3G+535, Shamva, Zimbabwe","locality":"Shamva","region":"Mashonaland Central Province"}},"labels":["soccer","sport"],"duration":0,"start_local":"2024-04-27T15:00:00","end":"2024-04-27T13:00:00Z","end_local":"2024-04-27T15:00:00","updated":"2024-06-11T21:36:26Z"},{"title":"Premier Soccer League - Yadah vs Chicken Inn","description":"Sourced from predicthq.com","category":"sports","start":"2024-04-27T13:00:00Z","geo":{"geometry":{"coordinates":[31.040299077,-17.881076102],"type":"Point"},"placekey":"@hxw-d69-6x5","address":{"country_code":"ZW","formatted_address":"429R+H2M, Waterfalls Ave, Harare, Zimbabwe","locality":"Harare","region":"Harare Province"}},"labels":["soccer","sport"],"duration":0,"start_local":"2024-04-27T15:00:00","end":"2024-04-27T13:00:00Z","end_local":"2024-04-27T15:00:00","updated":"2024-06-12T03:39:39Z"},{"title":"Premier Soccer League - CAPS United vs Green Fuel","description":"Sourced from predicthq.com","category":"sports","start":"2024-04-25T13:00:00Z","geo":{"geometry":{"coordinates":[31.0374519,-17.8538422],"type":"Point"},"placekey":"@hxw-d6g-2x5","address":{"country_code":"ZW","formatted_address":"42WP+FX8, Harare, Zimbabwe","locality":"Harare","region":"Harare Province"}},"labels":["soccer","sport"],"duration":0,"start_local":"2024-04-25T15:00:00","end":"2024-04-25T13:00:00Z","end_local":"2024-04-25T15:00:00","updated":"2024-06-12T12:57:31Z"},{"title":"Premier Soccer League - Chegutu Pirates vs Dynamos","description":"Sourced from predicthq.com","category":"sports","start":"2024-04-25T13:00:00Z","geo":{"geometry":{"coordinates":[30.2790304017227,-18.68045443250578],"type":"Point"},"placekey":"@hxr-6qc-7dv","address":{"country_code":"ZW","formatted_address":"Tangwena Road, Ngezi, Zimbabwe","locality":"Ngezi"}},"labels":["soccer","sport"],"duration":0,"start_local":"2024-04-25T15:00:00","end":"2024-04-25T13:00:00Z","end_local":"2024-04-25T15:00:00","updated":"2024-06-12T05:14:21Z"},{"title":"Premier Soccer League - Arenel Movers vs Manica Diamonds","description":"Sourced from predicthq.com","category":"sports","start":"2024-04-25T13:00:00Z","geo":{"geometry":{"coordinates":[28.5064676,-20.1045146],"type":"Point"},"placekey":"@hys-3k2-mc5","address":{"country_code":"ZW","formatted_address":"Bulawayo, Zimbabwe","locality":"Bulawayo","region":"Bulawayo Province"}},"labels":["soccer","sport"],"duration":0,"start_local":"2024-04-25T15:00:00","end":"2024-04-25T13:00:00Z","end_local":"2024-04-25T15:00:00","updated":"2024-06-11T21:56:20Z"},{"title":"Premier Soccer League - Chicken Inn vs Hwange","description":"Sourced from predicthq.com","category":"sports","start":"2024-04-24T13:00:00Z","geo":{"geometry":{"coordinates":[28.5064676,-20.1045146],"type":"Point"},"placekey":"@hys-3k2-mc5","address":{"country_code":"ZW","formatted_address":"Bulawayo, Zimbabwe","locality":"Bulawayo","region":"Bulawayo Province"}},"labels":["soccer","sport"],"duration":0,"start_local":"2024-04-24T15:00:00","end":"2024-04-24T13:00:00Z","end_local":"2024-04-24T15:00:00","updated":"2024-06-12T05:50:06Z"},{"title":"Premier Soccer League - Ngezi Platinum vs Yadah","description":"Sourced from predicthq.com","category":"sports","start":"2024-04-24T13:00:00Z","geo":{"geometry":{"coordinates":[30.2790304017227,-18.68045443250578],"type":"Point"},"placekey":"@hxr-6qc-7dv","address":{"country_code":"ZW","formatted_address":"Tangwena Road, Ngezi, Zimbabwe","locality":"Ngezi"}},"labels":["soccer","sport"],"duration":0,"start_local":"2024-04-24T15:00:00","end":"2024-04-24T13:00:00Z","end_local":"2024-04-24T15:00:00","updated":"2024-06-12T08:57:29Z"},{"title":"Premier Soccer League - TelOne vs Bulawayo Chiefs","description":"Sourced from predicthq.com","category":"sports","start":"2024-04-24T13:00:00Z","geo":{"geometry":{"coordinates":[29.792277252,-19.468768052],"type":"Point"},"placekey":"@hxq-gst-dgk","address":{"country_code":"ZW","formatted_address":"GQJR+FW Gweru, Zimbabwe","locality":"Gweru","region":"Midlands Province"}},"labels":["soccer","sport"],"duration":0,"start_local":"2024-04-24T15:00:00","end":"2024-04-24T13:00:00Z","end_local":"2024-04-24T15:00:00","updated":"2024-06-12T03:33:40Z"},{"title":"Premier Soccer League - Herentals vs Highlanders","description":"Sourced from predicthq.com","category":"sports","start":"2024-04-24T13:00:00Z","geo":{"geometry":{"coordinates":[31.0374519,-17.8538422],"type":"Point"},"placekey":"@hxw-d6g-2x5","address":{"country_code":"ZW","formatted_address":"42WP+FX8, Harare, Zimbabwe","locality":"Harare","region":"Harare Province"}},"labels":["soccer","sport"],"duration":0,"start_local":"2024-04-24T15:00:00","end":"2024-04-24T13:00:00Z","end_local":"2024-04-24T15:00:00","updated":"2024-06-12T06:45:55Z"},{"title":"Premier Soccer League - Bikita Minerals vs Simba Bhora","description":"Sourced from predicthq.com","category":"sports","start":"2024-04-24T13:00:00Z","geo":{"geometry":{"coordinates":[32.6409915,-18.9967656],"type":"Point"},"placekey":"@hxx-7p4-vs5","address":{"country_code":"ZW","formatted_address":"2J3R+79 Mutare, Zimbabwe","locality":"Mutare","region":"Manicaland Province"}},"labels":["soccer","sport"],"duration":0,"start_local":"2024-04-24T15:00:00","end":"2024-04-24T13:00:00Z","end_local":"2024-04-24T15:00:00","updated":"2024-06-11T23:50:52Z"},{"title":"Premier Soccer League - Platinum vs Kariba","description":"Sourced from predicthq.com","category":"sports","start":"2024-04-24T13:00:00Z","geo":{"geometry":{"coordinates":[30.06961226463318,-20.317670017738394],"type":"Point"},"placekey":"@hxr-md3-2hq","address":{"country_code":"ZW","formatted_address":"M3V4+HQW, Zvishavane, Zimbabwe","locality":"Zvishavane","region":"Midlands Province"}},"labels":["soccer","sport"],"duration":0,"start_local":"2024-04-24T15:00:00","end":"2024-04-24T13:00:00Z","end_local":"2024-04-24T15:00:00","updated":"2024-06-12T02:58:24Z"},{"title":"ZITF","description":"Sourced from predicthq.com - Zimbabwe International Trade Fair - Multisectorial International Exhibition","category":"expos","start":"2024-04-22T22:00:00Z","geo":{"geometry":{"coordinates":[28.5885072,-20.167961],"type":"Point"},"placekey":"@hxr-w8h-3yv","address":{"country_code":"ZW","formatted_address":"Hillside Road, Bulawayo, Zimbabwe","locality":"Bulawayo","region":"Bulawayo Province"}},"labels":["expo","product"],"duration":259199,"start_local":"2024-04-23T00:00:00","end":"2024-04-25T21:59:59Z","end_local":"2024-04-25T23:59:59","updated":"2024-06-12T00:15:18Z"},{"title":"CILT Africa Forum","description":"Sourced from predicthq.com","category":"conferences","start":"2024-04-22T07:00:00Z","geo":{"geometry":{"coordinates":[25.830665,-17.908637],"type":"Point"},"placekey":"@hyf-vmb-p7q","address":{"country_code":"ZW","formatted_address":"328 Park Way, Victoria Falls, Zimbabwe","locality":"Victoria Falls","region":"Matabeleland North Province"}},"labels":["conference"],"duration":205200,"start_local":"2024-04-22T09:00:00","end":"2024-04-24T16:00:00Z","end_local":"2024-04-24T18:00:00","updated":"2024-06-04T22:42:45Z"},{"title":"Premier Soccer League - Bulawayo Chiefs vs Simba Bhora","description":"Sourced from predicthq.com","category":"sports","start":"2024-04-21T13:00:00Z","geo":{"geometry":{"coordinates":[28.5064676,-20.1045146],"type":"Point"},"placekey":"@hys-3k2-mc5","address":{"country_code":"ZW","formatted_address":"Bulawayo, Zimbabwe","locality":"Bulawayo","region":"Bulawayo Province"}},"labels":["soccer","sport"],"duration":0,"start_local":"2024-04-21T15:00:00","end":"2024-04-21T13:00:00Z","end_local":"2024-04-21T15:00:00","updated":"2024-06-12T03:06:09Z"},{"title":"Premier Soccer League - Dynamos vs TelOne","description":"Sourced from predicthq.com","category":"sports","start":"2024-04-21T13:00:00Z","geo":{"geometry":{"coordinates":[31.0374519,-17.8538422],"type":"Point"},"placekey":"@hxw-d6g-2x5","address":{"country_code":"ZW","formatted_address":"42WP+FX8, Harare, Zimbabwe","locality":"Harare","region":"Harare Province"}},"labels":["soccer","sport"],"duration":0,"start_local":"2024-04-21T15:00:00","end":"2024-04-21T13:00:00Z","end_local":"2024-04-21T15:00:00","updated":"2024-06-12T04:27:20Z"},{"title":"Premier Soccer League - Hwange vs Ngezi Platinum","description":"Sourced from predicthq.com","category":"sports","start":"2024-04-21T13:00:00Z","geo":{"geometry":{"coordinates":[26.497972011566162,-18.355625291762642],"type":"Point"},"placekey":"@hyf-pys-he9","address":{"country_code":"ZW","formatted_address":"JFVX+M5H, Stadium Rd, Hwange, Zimbabwe","locality":"Hwange","region":"Matabeleland North Province"}},"labels":["soccer","sport"],"duration":0,"start_local":"2024-04-21T15:00:00","end":"2024-04-21T13:00:00Z","end_local":"2024-04-21T15:00:00","updated":"2024-06-12T03:52:42Z"},{"title":"Premier Soccer League - Highlanders vs Chicken Inn","description":"Sourced from predicthq.com","category":"sports","start":"2024-04-21T13:00:00Z","geo":{"geometry":{"coordinates":[28.5697673,-20.1308185],"type":"Point"},"placekey":"@hys-3jm-p35","address":{"country_code":"ZW","formatted_address":"VH99+MWC, Bulawayo, Zimbabwe","locality":"Bulawayo","region":"Bulawayo Province"}},"labels":["soccer","sport"],"duration":0,"start_local":"2024-04-21T15:00:00","end":"2024-04-21T13:00:00Z","end_local":"2024-04-21T15:00:00","updated":"2024-06-12T09:30:36Z"},{"title":"Premier Soccer League - Manica Diamonds vs CAPS United","description":"Sourced from predicthq.com","category":"sports","start":"2024-04-21T13:00:00Z","geo":{"geometry":{"coordinates":[32.6409915,-18.9967656],"type":"Point"},"placekey":"@hxx-7p4-vs5","address":{"country_code":"ZW","formatted_address":"2J3R+79 Mutare, Zimbabwe","locality":"Mutare","region":"Manicaland Province"}},"labels":["soccer","sport"],"duration":0,"start_local":"2024-04-21T15:00:00","end":"2024-04-21T13:00:00Z","end_local":"2024-04-21T15:00:00","updated":"2024-06-12T05:25:37Z"},{"title":"Premier Soccer League - Kariba vs Arenel Movers","description":"Sourced from predicthq.com","category":"sports","start":"2024-04-20T13:00:00Z","geo":{"geometry":{"coordinates":[28.8503953,-16.5143006],"type":"Point"},"placekey":"@hvf-c9p-rhq","address":{"country_code":"ZW","formatted_address":"Kariba, Zimbabwe","locality":"Kariba","region":"Mashonaland West Province"}},"labels":["soccer","sport"],"duration":0,"start_local":"2024-04-20T15:00:00","end":"2024-04-20T13:00:00Z","end_local":"2024-04-20T15:00:00","updated":"2024-06-12T06:48:44Z"},{"title":"Premier Soccer League - Platinum vs Bikita Minerals","description":"Sourced from predicthq.com","category":"sports","start":"2024-04-20T13:00:00Z","geo":{"geometry":{"coordinates":[30.06961226463318,-20.317670017738394],"type":"Point"},"placekey":"@hxr-md3-2hq","address":{"country_code":"ZW","formatted_address":"M3V4+HQW, Zvishavane, Zimbabwe","locality":"Zvishavane","region":"Midlands Province"}},"labels":["soccer","sport"],"duration":0,"start_local":"2024-04-20T15:00:00","end":"2024-04-20T13:00:00Z","end_local":"2024-04-20T15:00:00","updated":"2024-06-12T00:04:31Z"},{"title":"Premier Soccer League - Green Fuel vs Herentals","description":"Sourced from predicthq.com","category":"sports","start":"2024-04-20T13:00:00Z","geo":{"geometry":{"coordinates":[32.232679544,-20.874855722],"type":"Point"},"placekey":"@hxp-r3b-cqz","address":{"country_code":"ZW","formatted_address":"46GM+32Q, Chisumbanje, Zimbabwe","locality":"Chisumbanje","region":"Manicaland Province"}},"labels":["soccer","sport"],"duration":0,"start_local":"2024-04-20T15:00:00","end":"2024-04-20T13:00:00Z","end_local":"2024-04-20T15:00:00","updated":"2024-06-12T06:30:32Z"},{"title":"Premier Soccer League - Yadah vs Chegutu Pirates","description":"Sourced from predicthq.com","category":"sports","start":"2024-04-20T13:00:00Z","geo":{"geometry":{"coordinates":[31.040299077,-17.881076102],"type":"Point"},"placekey":"@hxw-d69-6x5","address":{"country_code":"ZW","formatted_address":"429R+H2M, Waterfalls Ave, Harare, Zimbabwe","locality":"Harare","region":"Harare Province"}},"labels":["soccer","sport"],"duration":0,"start_local":"2024-04-20T15:00:00","end":"2024-04-20T13:00:00Z","end_local":"2024-04-20T15:00:00","updated":"2024-06-12T08:22:44Z"},{"title":"MINDRESET Workshop 2024","description":"Sourced from predicthq.com","category":"community","start":"2024-04-20T11:00:00Z","geo":{"geometry":{"coordinates":[28.62648,-20.13251],"type":"Point"},"placekey":"@hxr-w97-sh5","address":{"country_code":"ZW","formatted_address":"Bulawayo, Bulawayo Province, Zimbabwe","locality":"Bulawayo","region":"Bulawayo Province"}},"labels":["community","workshop"],"duration":10800,"start_local":"2024-04-20T13:00:00","end":"2024-04-20T14:00:00Z","end_local":"2024-04-20T16:00:00","updated":"2024-06-05T21:40:05Z"},{"title":"YWAM Zimbabwe 50th Celebration","description":"Sourced from predicthq.com - Celebrating 50 Years of God's Faithfulness","category":"conferences","start":"2024-04-15T16:00:00Z","geo":{"geometry":{"coordinates":[29.154857,-19.015438],"type":"Point"},"placekey":"@hxq-t76-xqz","address":{"country_code":"ZW","formatted_address":"Leopard, Midlands Province, Zimbabwe","locality":"Leopard","region":"Midlands Province"}},"labels":["conference","religion"],"duration":271800,"start_local":"2024-04-15T18:00:00","end":"2024-04-18T19:30:00Z","end_local":"2024-04-18T21:30:00","updated":"2024-06-05T04:39:17Z"},{"title":"Yoga Safari Retreat","description":"Sourced from predicthq.com","category":"community","start":"2024-04-14T15:00:00Z","geo":{"geometry":{"coordinates":[25.85006,-17.92582],"type":"Point"},"placekey":"@hyf-vkk-j9z","address":{"country_code":"ZW","formatted_address":"A8, Matabeleland North Province, Zimbabwe","region":"Matabeleland North Province"}},"labels":["community","health"],"duration":500400,"start_local":"2024-04-14T17:00:00","end":"2024-04-20T10:00:00Z","end_local":"2024-04-20T12:00:00","updated":"2024-06-05T00:25:05Z"},{"title":"Premier Soccer League - Chegutu Pirates vs Hwange","description":"Sourced from predicthq.com","category":"sports","start":"2024-04-14T13:00:00Z","geo":{"geometry":{"coordinates":[30.2790304017227,-18.68045443250578],"type":"Point"},"placekey":"@hxr-6qc-7dv","address":{"country_code":"ZW","formatted_address":"Tangwena Road, Ngezi, Zimbabwe","locality":"Ngezi"}},"labels":["soccer","sport"],"duration":0,"start_local":"2024-04-14T15:00:00","end":"2024-04-14T13:00:00Z","end_local":"2024-04-14T15:00:00","updated":"2024-06-12T16:34:32Z"},{"title":"Premier Soccer League - TelOne vs Yadah","description":"Sourced from predicthq.com","category":"sports","start":"2024-04-14T13:00:00Z","geo":{"geometry":{"coordinates":[29.792277252,-19.468768052],"type":"Point"},"placekey":"@hxq-gst-dgk","address":{"country_code":"ZW","formatted_address":"GQJR+FW Gweru, Zimbabwe","locality":"Gweru","region":"Midlands Province"}},"labels":["soccer","sport"],"duration":0,"start_local":"2024-04-14T15:00:00","end":"2024-04-14T13:00:00Z","end_local":"2024-04-14T15:00:00","updated":"2024-06-12T01:35:39Z"},{"title":"Premier Soccer League - Simba Bhora vs Dynamos","description":"Sourced from predicthq.com","category":"sports","start":"2024-04-14T13:00:00Z","geo":{"geometry":{"coordinates":[31.575156622,-17.297005706],"type":"Point"},"placekey":"@hxw-9cy-pgk","address":{"country_code":"ZW","formatted_address":"PH3G+535, Shamva, Zimbabwe","locality":"Shamva","region":"Mashonaland Central Province"}},"labels":["soccer","sport"],"duration":0,"start_local":"2024-04-14T15:00:00","end":"2024-04-14T13:00:00Z","end_local":"2024-04-14T15:00:00","updated":"2024-06-12T02:41:03Z"},{"title":"Premier Soccer League - Arenel Movers vs Platinum","description":"Sourced from predicthq.com","category":"sports","start":"2024-04-14T13:00:00Z","geo":{"geometry":{"coordinates":[28.5064676,-20.1045146],"type":"Point"},"placekey":"@hys-3k2-mc5","address":{"country_code":"ZW","formatted_address":"Bulawayo, Zimbabwe","locality":"Bulawayo","region":"Bulawayo Province"}},"labels":["soccer","sport"],"duration":0,"start_local":"2024-04-14T15:00:00","end":"2024-04-14T13:00:00Z","end_local":"2024-04-14T15:00:00","updated":"2024-06-12T04:24:14Z"},{"title":"Premier Soccer League - CAPS United vs Kariba","description":"Sourced from predicthq.com","category":"sports","start":"2024-04-14T13:00:00Z","geo":{"geometry":{"coordinates":[31.0374519,-17.8538422],"type":"Point"},"placekey":"@hxw-d6g-2x5","address":{"country_code":"ZW","formatted_address":"42WP+FX8, Harare, Zimbabwe","locality":"Harare","region":"Harare Province"}},"labels":["soccer","sport"],"duration":0,"start_local":"2024-04-14T15:00:00","end":"2024-04-14T13:00:00Z","end_local":"2024-04-14T15:00:00","updated":"2024-06-12T07:01:38Z"},{"title":"Premier Soccer League - Ngezi Platinum vs Highlanders","description":"Sourced from predicthq.com","category":"sports","start":"2024-04-13T13:00:00Z","geo":{"geometry":{"coordinates":[30.2790304017227,-18.68045443250578],"type":"Point"},"placekey":"@hxr-6qc-7dv","address":{"country_code":"ZW","formatted_address":"Tangwena Road, Ngezi, Zimbabwe","locality":"Ngezi"}},"labels":["soccer","sport"],"duration":0,"start_local":"2024-04-13T15:00:00","end":"2024-04-13T13:00:00Z","end_local":"2024-04-13T15:00:00","updated":"2024-06-12T07:49:45Z"},{"title":"Premier Soccer League - Bikita Minerals vs Bulawayo Chiefs","description":"Sourced from predicthq.com","category":"sports","start":"2024-04-13T13:00:00Z","geo":{"geometry":{"coordinates":[32.6409915,-18.9967656],"type":"Point"},"placekey":"@hxx-7p4-vs5","address":{"country_code":"ZW","formatted_address":"2J3R+79 Mutare, Zimbabwe","locality":"Mutare","region":"Manicaland Province"}},"labels":["soccer","sport"],"duration":0,"start_local":"2024-04-13T15:00:00","end":"2024-04-13T13:00:00Z","end_local":"2024-04-13T15:00:00","updated":"2024-06-12T08:04:56Z"},{"title":"Premier Soccer League - Chicken Inn vs Green Fuel","description":"Sourced from predicthq.com","category":"sports","start":"2024-04-13T13:00:00Z","geo":{"geometry":{"coordinates":[28.5064676,-20.1045146],"type":"Point"},"placekey":"@hys-3k2-mc5","address":{"country_code":"ZW","formatted_address":"Bulawayo, Zimbabwe","locality":"Bulawayo","region":"Bulawayo Province"}},"labels":["soccer","sport"],"duration":0,"start_local":"2024-04-13T15:00:00","end":"2024-04-13T13:00:00Z","end_local":"2024-04-13T15:00:00","updated":"2024-06-12T10:27:42Z"},{"title":"Premier Soccer League - Herentals vs Manica Diamonds","description":"Sourced from predicthq.com","category":"sports","start":"2024-04-13T13:00:00Z","geo":{"geometry":{"coordinates":[31.0374519,-17.8538422],"type":"Point"},"placekey":"@hxw-d6g-2x5","address":{"country_code":"ZW","formatted_address":"42WP+FX8, Harare, Zimbabwe","locality":"Harare","region":"Harare Province"}},"labels":["soccer","sport"],"duration":0,"start_local":"2024-04-13T15:00:00","end":"2024-04-13T13:00:00Z","end_local":"2024-04-13T15:00:00","updated":"2024-06-12T01:18:19Z"},{"title":"Bitcoin Reaches Monetary Right on a Bitcoin Standard","description":"Sourced from predicthq.com - Come join us as we explore the potential impact of Bitcoin reaching its rightful place as the standard for global monetary transactions!","category":"conferences","start":"2024-04-13T10:00:00Z","geo":{"geometry":{"coordinates":[28.5870929,-20.1760149],"type":"Point"},"placekey":"@hxr-w8h-5fz","address":{"country_code":"ZW","formatted_address":"Bulawayo, Bulawayo Province, Zimbabwe","locality":"Bulawayo","region":"Bulawayo Province"}},"labels":["conference","science","technology"],"duration":14400,"start_local":"2024-04-13T12:00:00","end":"2024-04-13T14:00:00Z","end_local":"2024-04-13T16:00:00","updated":"2024-06-05T14:43:22Z"},{"title":"Premier Soccer League - Manica Diamonds vs Chicken Inn","description":"Sourced from predicthq.com","category":"sports","start":"2024-04-07T13:00:00Z","geo":{"geometry":{"coordinates":[32.6409915,-18.9967656],"type":"Point"},"placekey":"@hxx-7p4-vs5","address":{"country_code":"ZW","formatted_address":"2J3R+79 Mutare, Zimbabwe","locality":"Mutare","region":"Manicaland Province"}},"labels":["soccer","sport"],"duration":0,"start_local":"2024-04-07T15:00:00","end":"2024-04-07T13:00:00Z","end_local":"2024-04-07T15:00:00","updated":"2024-06-12T11:28:22Z"},{"title":"Premier Soccer League - Hwange vs TelOne","description":"Sourced from predicthq.com","category":"sports","start":"2024-04-07T13:00:00Z","geo":{"geometry":{"coordinates":[26.497972011566162,-18.355625291762642],"type":"Point"},"placekey":"@hyf-pys-he9","address":{"country_code":"ZW","formatted_address":"JFVX+M5H, Stadium Rd, Hwange, Zimbabwe","locality":"Hwange","region":"Matabeleland North Province"}},"labels":["soccer","sport"],"duration":0,"start_local":"2024-04-07T15:00:00","end":"2024-04-07T13:00:00Z","end_local":"2024-04-07T15:00:00","updated":"2024-06-11T23:23:38Z"},{"title":"Premier Soccer League - Highlanders vs Chegutu Pirates","description":"Sourced from predicthq.com","category":"sports","start":"2024-04-07T13:00:00Z","geo":{"geometry":{"coordinates":[28.5697673,-20.1308185],"type":"Point"},"placekey":"@hys-3jm-p35","address":{"country_code":"ZW","formatted_address":"VH99+MWC, Bulawayo, Zimbabwe","locality":"Bulawayo","region":"Bulawayo Province"}},"labels":["soccer","sport"],"duration":0,"start_local":"2024-04-07T15:00:00","end":"2024-04-07T13:00:00Z","end_local":"2024-04-07T15:00:00","updated":"2024-06-12T08:54:36Z"},{"title":"Premier Soccer League - Dynamos vs Bulawayo Chiefs","description":"Sourced from predicthq.com","category":"sports","start":"2024-04-07T13:00:00Z","geo":{"geometry":{"coordinates":[31.0374519,-17.8538422],"type":"Point"},"placekey":"@hxw-d6g-2x5","address":{"country_code":"ZW","formatted_address":"42WP+FX8, Harare, Zimbabwe","locality":"Harare","region":"Harare Province"}},"labels":["soccer","sport"],"duration":0,"start_local":"2024-04-07T15:00:00","end":"2024-04-07T13:00:00Z","end_local":"2024-04-07T15:00:00","updated":"2024-06-11T22:11:42Z"},{"title":"PPC Matopos 33 Miler","description":"Sourced from predicthq.com","category":"sports","start":"2024-04-06T22:00:00Z","geo":{"geometry":{"coordinates":[28.5125,-20.5572222],"type":"Point"},"placekey":"@hys-76q-jd9","address":{"country_code":"ZW","formatted_address":"Matopos, Matabeleland South Province, Zimbabwe","locality":"Matopos","region":"Matabeleland South Province"}},"labels":["marathon","sport"],"duration":86399,"start_local":"2024-04-07T00:00:00","end":"2024-04-07T21:59:59Z","end_local":"2024-04-07T23:59:59","updated":"2024-06-05T00:58:26Z"}]